{"status":true,"message":"","result":[{"server_id":9,"name":"Uncletopia | Atlanta | 1 | All Maps","name_short":"atl-1","host":"atl-1.us.uncletopia.com","port":27015,"enabled":true,"region":"us-east","cc":"us","latitude":33.753746,"longitude":-84.38633,"reserved":0,"last_update":"0001-01-01T00:00:00Z","name_a2s":"Uncletopia | Atlanta | 1 | All Maps","protocol":17,"map":"pl_badwater","folder":"tf","game":"Team Fortress","app_id":440,"player_count":24,"max_players":24,"Bots":0,"server_type":"Dedicated","server_os":"Linux","password":true,"vac":true,"version":"7961495","steam_id":85568392924469982,"keywords":["nocrits","nodmgspread","payload","uncletopia"],"game_id":440,"stv_port":27016,"stv_name":"Uncletopia | Atlanta | 1 | All Maps | STV","players":[{"user_id":384,"name":"Dr. Feelgood (Ph.D, MD)","steam_id":76561198040611061,"connected_time":175000000000,"state":"active","ping":72},{"user_id":369,"name":"Jin Gulilo","steam_id":76561198065151242,"connected_time":888000000000,"state":"active","ping":77},{"user_id":355,"name":"lu","steam_id":76561198080731872,"connected_time":1497000000000,"state":"active","ping":73},{"user_id":385,"name":"you dont know me","steam_id":76561198119166872,"connected_time":51000000000,"state":"active","ping":151},{"user_id":372,"name":"lurid","steam_id":76561199134999203,"connected_time":577000000000,"state":"active","ping":61},{"user_id":373,"name":"Stoopnagle","steam_id":76561198011942560,"connected_time":543000000000,"state":"active","ping":113},{"user_id":370,"name":"Wengatang","steam_id":76561198021747059,"connected_time":828000000000,"state":"active","ping":60},{"user_id":383,"name":"Renota","steam_id":76561198058224488,"connected_time":193000000000,"state":"active","ping":84},{"user_id":358,"name":"blizzard","steam_id":76561198066056920,"connected_time":1418000000000,"state":"active","ping":101},{"user_id":374,"name":"Dreszerg","steam_id":76561198838757422,"connected_time":522000000000,"state":"active","ping":82},{"user_id":375,"name":"Magma","steam_id":76561198108261173,"connected_time":500000000000,"state":"active","ping":75},{"user_id":346,"name":"Mr.Newt_","steam_id":76561198042906063,"connected_time":2506000000000,"state":"active","ping":70},{"user_id":343,"name":"An Engineer","steam_id":76561198110381643,"connected_time":2596000000000,"state":"active","ping":54},{"user_id":379,"name":"sheep","steam_id":76561198994761483,"connected_time":397000000000,"state":"active","ping":116},{"user_id":309,"name":"andyiscolorless","steam_id":76561199239870921,"connected_time":5862000000000,"state":"active","ping":142},{"user_id":382,"name":"Chucklenuts (F2P) | trade.tf","steam_id":76561199180340440,"connected_time":254000000000,"state":"active","ping":104},{"user_id":377,"name":"BigButteryCrepes","steam_id":76561199153649549,"connected_time":472000000000,"state":"active","ping":106},{"user_id":322,"name":"Onyx","steam_id":76561198275349640,"connected_time":4470000000000,"state":"active","ping":80},{"user_id":317,"name":"I'm a Capricorn I was born goat","steam_id":76561198092135570,"connected_time":5063000000000,"state":"active","ping":62},{"user_id":365,"name":"Cap then creep","steam_id":76561198099699785,"connected_time":1173000000000,"state":"active","ping":74},{"user_id":367,"name":"Toxic Medic Main (he/they)","steam_id":76561198009314845,"connected_time":1061000000000,"state":"active","ping":117},{"user_id":378,"name":"George","steam_id":76561199376462977,"connected_time":471000000000,"state":"active","ping":86},{"user_id":353,"name":"Blade Racer","steam_id":76561198155896703,"connected_time":2124000000000,"state":"active","ping":69},{"user_id":368,"name":"SPYCHECK ME","steam_id":76561198980994364,"connected_time":976000000000,"state":"active","ping":86}]},{"server_id":104,"name":"Uncletopia | Atlanta | 2 | All Maps","name_short":"atl-2","host":"atl-1.us.uncletopia.com","port":27025,"enabled":true,"region":"us-east","cc":"us","latitude":33.753746,"longitude":-84.38633,"reserved":0,"last_update":"0001-01-01T00:00:00Z","name_a2s":"Uncletopia | Atlanta | 2 | All Maps","protocol":17,"map":"cp_5gorge","folder":"tf","game":"Team Fortress","app_id":440,"player_count":24,"max_players":24,"Bots":0,"server_type":"Dedicated","server_os":"Linux","password":true,"vac":true,"version":"7961495","steam_id":85568392924469983,"keywords":["cp","nocrits","nodmgspread","uncletopia"],"game_id":440,"stv_port":27026,"stv_name":"Uncletopia | Atlanta | 2 | All Maps | STV","players":[{"user_id":627,"name":"Lost Aracnid","steam_id":76561199012943912,"connected_time":1075000000000,"state":"active","ping":84},{"user_id":631,"name":"Socks!","steam_id":76561198188021354,"connected_time":675000000000,"state":"active","ping":69},{"user_id":636,"name":"Kana","steam_id":76561198283953466,"connected_time":197000000000,"state":"active","ping":70},{"user_id":577,"name":"batman","steam_id":76561198872723148,"connected_time":2801000000000,"state":"active","ping":61},{"user_id":615,"name":"el vengador de la tienda","steam_id":76561199081928341,"connected_time":1539000000000,"state":"active","ping":82},{"user_id":584,"name":"vastrobotmax","steam_id":76561198417110724,"connected_time":2547000000000,"state":"active","ping":92},{"user_id":594,"name":"Propaniac Gaming â˜‘","steam_id":76561198133963270,"connected_time":2325000000000,"state":"active","ping":45},{"user_id":583,"name":"john egbert","steam_id":76561198366204757,"connected_time":2574000000000,"state":"active","ping":41},{"user_id":634,"name":"Miko","steam_id":76561198077243021,"connected_time":545000000000,"state":"active","ping":70},{"user_id":630,"name":"Snivy64","steam_id":76561198423445376,"connected_time":765000000000,"state":"active","ping":90},{"user_id":618,"name":"cactus eater","steam_id":76561199107499844,"connected_time":1341000000000,"state":"active","ping":117},{"user_id":632,"name":"Monkey Mode","steam_id":76561197961267543,"connected_time":657000000000,"state":"active","ping":51},{"user_id":608,"name":"denzell05","steam_id":76561198086987061,"connected_time":1667000000000,"state":"active","ping":97},{"user_id":629,"name":"Chris","steam_id":76561199050473983,"connected_time":924000000000,"state":"active","ping":65},{"user_id":635,"name":"Recarsonated","steam_id":76561198171454785,"connected_time":460000000000,"state":"active","ping":81},{"user_id":597,"name":"TI-83 Plus","steam_id":76561198316134443,"connected_time":2288000000000,"state":"active","ping":49},{"user_id":603,"name":"Gary Budussy","steam_id":76561197969793969,"connected_time":2150000000000,"state":"active","ping":72},{"user_id":596,"name":"bakkhertz","steam_id":76561198046745579,"connected_time":2307000000000,"state":"active","ping":103},{"user_id":628,"name":"YunKoãƒ„","steam_id":76561199107366261,"connected_time":986000000000,"state":"active","ping":84},{"user_id":553,"name":"Lennu","steam_id":76561198060730154,"connected_time":4737000000000,"state":"active","ping":62},{"user_id":614,"name":"Mannamannaa","steam_id":76561198024438635,"connected_time":1539000000000,"state":"active","ping":56},{"user_id":626,"name":"Arthur Drexel","steam_id":76561198003904750,"connected_time":1120000000000,"state":"active","ping":82},{"user_id":600,"name":"ZombieSlayer77","steam_id":76561199023974356,"connected_time":2232000000000,"state":"active","ping":78},{"user_id":638,"name":"Cyanwarrior","steam_id":76561199160532701,"connected_time":2000000000,"state":"spawning","ping":59}]},{"server_id":400,"name":"Uncletopia | Atlanta | 3 | Stopwatch","name_short":"atl-3","host":"atl-1.us.uncletopia.com","port":27035,"enabled":true,"region":"us-east","cc":"us","latitude":33.753746,"longitude":-84.38633,"reserved":0,"last_update":"0001-01-01T00:00:00Z","name_a2s":"Uncletopia | Atlanta | 3 | Stopwatch","protocol":17,"map":"workshop/koth_bagel_rc6.ugc2514036946","folder":"tf","game":"Team Fortress","app_id":440,"player_count":5,"max_players":24,"Bots":0,"server_type":"Dedicated","server_os":"Linux","password":true,"vac":true,"version":"7961495","steam_id":85568392924515187,"keywords":["cp","nocrits","nodmgspread","uncletopia"],"game_id":440,"stv_port":27036,"stv_name":"Uncletopia | Atlanta | 3 | Stopwatch | STV","players":[{"user_id":139,"name":"BradB.","steam_id":76561199163905036,"connected_time":1811000000000,"state":"active","ping":67},{"user_id":140,"name":"Trouser Snivy","steam_id":76561198073788829,"connected_time":1741000000000,"state":"active","ping":138},{"user_id":141,"name":"IlikeChowMien","steam_id":76561199466131782,"connected_time":813000000000,"state":"active","ping":98},{"user_id":143,"name":"Tezemi","steam_id":76561198027539558,"connected_time":158000000000,"state":"active","ping":57},{"user_id":144,"name":"Jolly","steam_id":76561198104802817,"connected_time":101000000000,"state":"active","ping":92}]},{"server_id":401,"name":"Uncletopia | Atlanta | 4 | Community","name_short":"atl-4","host":"atl-1.us.uncletopia.com","port":27045,"enabled":true,"region":"us-east","cc":"us","latitude":33.753746,"longitude":-84.38633,"reserved":0,"last_update":"0001-01-01T00:00:00Z","name_a2s":"Uncletopia | Atlanta | 4 | Community","protocol":17,"map":"workshop/koth_jamram_rc1a.ugc2964065613","folder":"tf","game":"Team Fortress","app_id":440,"player_count":0,"max_players":24,"Bots":0,"server_type":"Dedicated","server_os":"Linux","password":true,"vac":true,"version":"7961495","steam_id":85568392924515188,"keywords":["cp","nocrits","nodmgspread","uncletopia"],"game_id":440,"stv_port":27046,"stv_name":"Uncletopia | Atlanta | 4 | Community | STV","players":null},{"server_id":2,"name":"Uncletopia | Chicago | 1 | All Maps","name_short":"chi-1","host":"chi-1.us.uncletopia.com","port":27015,"enabled":true,"region":"us-central","cc":"us","latitude":41.881832,"longitude":-87.62318,"reserved":0,"last_update":"0001-01-01T00:00:00Z","name_a2s":"Uncletopia | Chicago | 1 | All Maps","protocol":17,"map":"pl_pier","folder":"tf","game":"Team Fortress","app_id":440,"player_count":24,"max_players":24,"Bots":0,"server_type":"Dedicated","server_os":"Linux","password":true,"vac":true,"version":"7961495","steam_id":85568392924469984,"keywords":["nocrits","nodmgspread","payload","uncletopia"],"game_id":440,"stv_port":27016,"stv_name":"Uncletopia | Chicago | 1 | All Maps | STV","players":[{"user_id":417,"name":"daffodil (sick)","steam_id":76561198049480053,"connected_time":1057000000000,"state":"active","ping":60},{"user_id":439,"name":"Godmode","steam_id":76561198076240365,"connected_time":98000000000,"state":"active","ping":60},{"user_id":347,"name":"Lia_Rein","steam_id":76561198151569597,"connected_time":5522000000000,"state":"active","ping":148},{"user_id":412,"name":"Frontier Psychiatrist","steam_id":76561198038689088,"connected_time":1850000000000,"state":"active","ping":81},{"user_id":436,"name":"Leonidas","steam_id":76561198398004258,"connected_time":203000000000,"state":"active","ping":68},{"user_id":404,"name":"Johnny Lawrence #JohnnyMaxxing","steam_id":76561199367141671,"connected_time":2115000000000,"state":"active","ping":72},{"user_id":437,"name":"MillerWhite","steam_id":76561198076060357,"connected_time":115000000000,"state":"active","ping":76},{"user_id":354,"name":"Cellus","steam_id":76561198067204847,"connected_time":4906000000000,"state":"active","ping":60},{"user_id":421,"name":"Beta Fish","steam_id":76561198073504861,"connected_time":1040000000000,"state":"active","ping":66},{"user_id":428,"name":"Not_Douglas","steam_id":76561199024184136,"connected_time":926000000000,"state":"active","ping":55},{"user_id":395,"name":"chok","steam_id":76561198242016100,"connected_time":2491000000000,"state":"active","ping":92},{"user_id":432,"name":"Pep Seeman","steam_id":76561198038393007,"connected_time":647000000000,"state":"active","ping":79},{"user_id":438,"name":"Chaos","steam_id":76561199068325065,"connected_time":112000000000,"state":"active","ping":83},{"user_id":414,"name":"booger","steam_id":76561198333832807,"connected_time":1818000000000,"state":"active","ping":112},{"user_id":419,"name":"âœª Whales","steam_id":76561198064458078,"connected_time":1044000000000,"state":"active","ping":61},{"user_id":430,"name":"Cake","steam_id":76561198318604761,"connected_time":874000000000,"state":"active","ping":86},{"user_id":431,"name":"gumber","steam_id":76561198353396915,"connected_time":870000000000,"state":"active","ping":77},{"user_id":435,"name":"t.tv/ibbKitty  âˆ‘:3","steam_id":76561198110858518,"connected_time":328000000000,"state":"active","ping":59},{"user_id":397,"name":"tlar","steam_id":76561198060117460,"connected_time":2410000000000,"state":"active","ping":44},{"user_id":434,"name":"gothpapa","steam_id":76561198452122510,"connected_time":416000000000,"state":"active","ping":52},{"user_id":366,"name":"Bear","steam_id":76561198062949510,"connected_time":3522000000000,"state":"active","ping":60},{"user_id":440,"name":"Varennce","steam_id":76561198048157299,"connected_time":74000000000,"state":"active","ping":117},{"user_id":441,"name":"BootlegMario","steam_id":76561198041504280,"connected_time":73000000000,"state":"active","ping":58},{"user_id":423,"name":"qscope","steam_id":76561199075528394,"connected_time":1038000000000,"state":"active","ping":85}]},{"server_id":106,"name":"Uncletopia | Chicago | 2 | All Maps","name_short":"chi-2","host":"chi-1.us.uncletopia.com","port":27025,"enabled":true,"region":"us-central","cc":"us","latitude":41.881832,"longitude":-87.62318,"reserved":0,"last_update":"0001-01-01T00:00:00Z","name_a2s":"Uncletopia | Chicago | 2 | All Maps","protocol":17,"map":"cp_sunshine","folder":"tf","game":"Team Fortress","app_id":440,"player_count":18,"max_players":24,"Bots":0,"server_type":"Dedicated","server_os":"Linux","password":true,"vac":true,"version":"7961495","steam_id":85568392924469985,"keywords":["cp","nocrits","nodmgspread","uncletopia"],"game_id":440,"stv_port":27026,"stv_name":"Uncletopia | Chicago | 2 | All Maps | STV","players":[{"user_id":228,"name":"Tank Chili","steam_id":76561198161183031,"connected_time":103000000000,"state":"active","ping":76},{"user_id":223,"name":"SEGNO","steam_id":76561198102780113,"connected_time":147000000000,"state":"active","ping":60},{"user_id":224,"name":"Yackaboi","steam_id":76561199444911765,"connected_time":146000000000,"state":"active","ping":89},{"user_id":225,"name":"nathan285364","steam_id":76561199194292887,"connected_time":130000000000,"state":"active","ping":80},{"user_id":209,"name":"Darattz91","steam_id":76561198080819128,"connected_time":1597000000000,"state":"active","ping":78},{"user_id":180,"name":"swift","steam_id":76561198190461447,"connected_time":3407000000000,"state":"active","ping":46},{"user_id":233,"name":"homsar","steam_id":76561199031742838,"connected_time":57000000000,"state":"spawning","ping":53},{"user_id":229,"name":"kimshwim","steam_id":76561198287933134,"connected_time":97000000000,"state":"active","ping":79},{"user_id":227,"name":"Cigtar","steam_id":76561198079842818,"connected_time":118000000000,"state":"active","ping":79},{"user_id":210,"name":"maS","steam_id":76561198033846407,"connected_time":1379000000000,"state":"active","ping":47},{"user_id":234,"name":"willow","steam_id":76561198049481773,"connected_time":23000000000,"state":"spawning","ping":45},{"user_id":230,"name":"Just washed","steam_id":76561199030160932,"connected_time":84000000000,"state":"active","ping":75},{"user_id":231,"name":"sweglord227","steam_id":76561198415510262,"connected_time":82000000000,"state":"active","ping":51},{"user_id":232,"name":"add syrup","steam_id":76561198224614084,"connected_time":77000000000,"state":"active","ping":64},{"user_id":218,"name":"Unable to Aim","steam_id":76561198268826049,"connected_time":664000000000,"state":"active","ping":52},{"user_id":120,"name":"the.land.of.avalon","steam_id":76561198245431668,"connected_time":7635000000000,"state":"active","ping":64},{"user_id":183,"name":"Yosh","steam_id":76561198027078899,"connected_time":3292000000000,"state":"active","ping":75},{"user_id":216,"name":"hunrah","steam_id":76561198185509070,"connected_time":747000000000,"state":"active","ping":57}]},{"server_id":402,"name":"Uncletopia | Chicago | 3 | All Maps","name_short":"chi-3","host":"chi-1.us.uncletopia.com","port":27035,"enabled":true,"region":"us-central","cc":"us","latitude":41.881832,"longitude":-87.62318,"reserved":0,"last_update":"0001-01-01T00:00:00Z","name_a2s":"Uncletopia | Chicago | 3 | All Maps","protocol":17,"map":"pl_snowycoast","folder":"tf","game":"Team Fortress","app_id":440,"player_count":24,"max_players":24,"Bots":0,"server_type":"Dedicated","server_os":"Linux","password":true,"vac":true,"version":"7961495","steam_id":85568392924515191,"keywords":["nocrits","nodmgspread","payload","uncletopia"],"game_id":440,"stv_port":27036,"stv_name":"Uncletopia | Chicago | 3 | All Maps | STV","players":[{"user_id":486,"name":"conner","steam_id":76561198052911241,"connected_time":3351000000000,"state":"active","ping":74},{"user_id":481,"name":"Nicholas","steam_id":76561198206306996,"connected_time":4409000000000,"state":"active","ping":60},{"user_id":528,"name":"Willow.","steam_id":76561198229691912,"connected_time":150000000000,"state":"active","ping":68},{"user_id":514,"name":"Rat Cycle","steam_id":76561198113364714,"connected_time":908000000000,"state":"active","ping":59},{"user_id":522,"name":"ZirHeisenberg","steam_id":76561198356927429,"connected_time":477000000000,"state":"active","ping":98},{"user_id":515,"name":"SiNNa","steam_id":76561198213435803,"connected_time":899000000000,"state":"active","ping":57},{"user_id":520,"name":"The Caretaker","steam_id":76561198125241411,"connected_time":670000000000,"state":"active","ping":114},{"user_id":516,"name":"Millerâ„¢","steam_id":76561198085090516,"connected_time":898000000000,"state":"active","ping":78},{"user_id":525,"name":"Vynthex","steam_id":76561198990762666,"connected_time":293000000000,"state":"active","ping":75},{"user_id":512,"name":"pinglefingle","steam_id":76561198216580197,"connected_time":1080000000000,"state":"active","ping":75},{"user_id":523,"name":"SubZeroDestruction","steam_id":76561198145082209,"connected_time":330000000000,"state":"active","ping":68},{"user_id":379,"name":"GorbTheImmortal","steam_id":76561198125936721,"connected_time":9015000000000,"state":"active","ping":86},{"user_id":493,"name":"Zer0","steam_id":76561199174562614,"connected_time":2438000000000,"state":"active","ping":58},{"user_id":508,"name":"[CC] snh","steam_id":76561199489391928,"connected_time":1481000000000,"state":"active","ping":59},{"user_id":476,"name":"giant shoe","steam_id":76561198329590943,"connected_time":4460000000000,"state":"active","ping":91},{"user_id":477,"name":"Nega Goku","steam_id":76561198841559088,"connected_time":4458000000000,"state":"active","ping":65},{"user_id":478,"name":"Câ‚„Hâ‚ˆClâ‚‚SGamez","steam_id":76561198250471340,"connected_time":4453000000000,"state":"active","ping":55},{"user_id":504,"name":"BurgerPizza","steam_id":76561198151256410,"connected_time":1753000000000,"state":"active","ping":138},{"user_id":506,"name":"ahab","steam_id":76561198211780469,"connected_time":1684000000000,"state":"active","ping":35},{"user_id":511,"name":"Prince Flip","steam_id":76561198023462157,"connected_time":1101000000000,"state":"active","ping":143},{"user_id":467,"name":"Ramblin_Man2-3","steam_id":76561198986586238,"connected_time":5153000000000,"state":"active","ping":95},{"user_id":491,"name":"Fentanyl Perc","steam_id":76561198370631337,"connected_time":2459000000000,"state":"active","ping":142},{"user_id":526,"name":"mos","steam_id":76561197995777973,"connected_time":269000000000,"state":"active","ping":64},{"user_id":529,"name":"Chatty!","steam_id":76561199153405603,"connected_time":118000000000,"state":"active","ping":60}]},{"server_id":403,"name":"Uncletopia | Chicago | 4 | All Maps","name_short":"chi-4","host":"chi-1.us.uncletopia.com","port":27045,"enabled":true,"region":"us-central","cc":"us","latitude":41.881832,"longitude":-87.62318,"reserved":0,"last_update":"0001-01-01T00:00:00Z","name_a2s":"Uncletopia | Chicago | 4 | All Maps","protocol":17,"map":"koth_viaduct","folder":"tf","game":"Team Fortress","app_id":440,"player_count":0,"max_players":24,"Bots":0,"server_type":"Dedicated","server_os":"Linux","password":true,"vac":true,"version":"7961495","steam_id":85568392924515193,"keywords":["cp","nocrits","nodmgspread","uncletopia"],"game_id":440,"stv_port":27046,"stv_name":"Uncletopia | Chicago | 4 | All Maps | STV","players":null},{"server_id":36,"name":"Uncletopia | Chicago | 5 | All Maps","name_short":"chi-5","host":"chi-2.us.uncletopia.com","port":27015,"enabled":true,"region":"us-central","cc":"us","latitude":41.881832,"longitude":-87.62318,"reserved":0,"last_update":"0001-01-01T00:00:00Z","name_a2s":"Uncletopia | Chicago | 5 | All Maps","protocol":17,"map":"pl_thundermountain","folder":"tf","game":"Team Fortress","app_id":440,"player_count":24,"max_players":24,"Bots":0,"server_type":"Dedicated","server_os":"Linux","password":true,"vac":true,"version":"7961495","steam_id":85568392924866362,"keywords":["nocrits","nodmgspread","payload","uncletopia"],"game_id":440,"stv_port":27016,"stv_name":"Uncletopia | Chicago | 5 | All Maps | STV","players":[{"user_id":53,"name":"Mythic","steam_id":76561198028616665,"connected_time":507000000000,"state":"active","ping":75},{"user_id":14,"name":"GOLDIE","steam_id":76561199375258674,"connected_time":2160000000000,"state":"active","ping":88},{"user_id":51,"name":"Derpkinglol456","steam_id":76561199124719679,"connected_time":605000000000,"state":"active","ping":74},{"user_id":17,"name":"OldRavensFan","steam_id":76561198043919562,"connected_time":2049000000000,"state":"active","ping":68},{"user_id":63,"name":"Scut","steam_id":76561198973734291,"connected_time":75000000000,"state":"active","ping":94},{"user_id":52,"name":"Brothir","steam_id":76561198202989120,"connected_time":585000000000,"state":"active","ping":82},{"user_id":20,"name":"Op banana","steam_id":76561198303231451,"connected_time":1931000000000,"state":"active","ping":68},{"user_id":60,"name":"King Kai","steam_id":76561198826275551,"connected_time":173000000000,"state":"active","ping":61},{"user_id":23,"name":"really hot pocket","steam_id":76561198239297686,"connected_time":1826000000000,"state":"active","ping":66},{"user_id":64,"name":"j011yt","steam_id":76561198272948471,"connected_time":51000000000,"state":"spawning","ping":60},{"user_id":35,"name":"Kylex","steam_id":76561198131504296,"connected_time":1503000000000,"state":"active","ping":66},{"user_id":54,"name":"Fancy Clown Sultan","steam_id":76561198447852406,"connected_time":499000000000,"state":"active","ping":61},{"user_id":65,"name":"bluedino1025","steam_id":76561198271910607,"connected_time":39000000000,"state":"spawning","ping":84},{"user_id":55,"name":"[BBC] manfart2021","steam_id":76561198252511840,"connected_time":462000000000,"state":"active","ping":59},{"user_id":37,"name":"gerge","steam_id":76561198092238353,"connected_time":1457000000000,"state":"active","ping":66},{"user_id":56,"name":"FranckyFox2468","steam_id":76561198037679126,"connected_time":391000000000,"state":"active","ping":69},{"user_id":50,"name":"30day","steam_id":76561198219163831,"connected_time":861000000000,"state":"active","ping":46},{"user_id":57,"name":"Farseer Ulwithy","steam_id":76561197965179245,"connected_time":367000000000,"state":"active","ping":121},{"user_id":66,"name":"i need u","steam_id":76561198030625151,"connected_time":27000000000,"state":"spawning","ping":77},{"user_id":39,"name":"Yakub","steam_id":76561198068856323,"connected_time":1432000000000,"state":"active","ping":69},{"user_id":61,"name":"snorg","steam_id":76561199103766971,"connected_time":148000000000,"state":"active","ping":67},{"user_id":59,"name":"Disco Fever","steam_id":76561198069532215,"connected_time":319000000000,"state":"active","ping":80},{"user_id":62,"name":"ToyBox","steam_id":76561199074735423,"connected_time":119000000000,"state":"active","ping":79},{"user_id":45,"name":"mimis","steam_id":76561198090056764,"connected_time":1336000000000,"state":"active","ping":47}]},{"server_id":37,"name":"Uncletopia | Chicago | 6 | All Maps","name_short":"chi-6","host":"chi-2.us.uncletopia.com","port":27025,"enabled":true,"region":"us-central","cc":"us","latitude":41.881832,"longitude":-87.62318,"reserved":0,"last_update":"0001-01-01T00:00:00Z","name_a2s":"Uncletopia | Chicago | 6 | All Maps","protocol":17,"map":"cp_steel","folder":"tf","game":"Team Fortress","app_id":440,"player_count":23,"max_players":24,"Bots":0,"server_type":"Dedicated","server_os":"Linux","password":true,"vac":true,"version":"7961495","steam_id":85568392924866363,"keywords":["cp","nocrits","nodmgspread","uncletopia"],"game_id":440,"stv_port":27026,"stv_name":"Uncletopia | Chicago | 6 | All Maps | STV","players":[{"user_id":242,"name":"Jeugh","steam_id":76561198073498865,"connected_time":1039000000000,"state":"active","ping":81},{"user_id":254,"name":"artgrenadier","steam_id":76561198063305359,"connected_time":190000000000,"state":"active","ping":72},{"user_id":235,"name":"Shaby_Frost","steam_id":76561198401334563,"connected_time":1553000000000,"state":"active","ping":61},{"user_id":197,"name":"MMAD","steam_id":76561198026446420,"connected_time":3645000000000,"state":"active","ping":76},{"user_id":217,"name":"beebo babbo","steam_id":76561198097175164,"connected_time":2683000000000,"state":"active","ping":80},{"user_id":241,"name":"aphex twin dealer","steam_id":76561199389283507,"connected_time":1120000000000,"state":"active","ping":64},{"user_id":202,"name":"Bright Noa","steam_id":76561198099494670,"connected_time":3178000000000,"state":"active","ping":90},{"user_id":238,"name":"Candy Sparkles","steam_id":76561198126871264,"connected_time":1448000000000,"state":"active","ping":75},{"user_id":136,"name":"ndvr (femboy (REAL))","steam_id":76561199379200102,"connected_time":6412000000000,"state":"active","ping":60},{"user_id":250,"name":"sevanial","steam_id":76561198071532126,"connected_time":424000000000,"state":"active","ping":65},{"user_id":243,"name":"OFF","steam_id":76561198191971493,"connected_time":971000000000,"state":"active","ping":62},{"user_id":240,"name":"AADDAAMM","steam_id":76561198068584852,"connected_time":1279000000000,"state":"active","ping":78},{"user_id":232,"name":"Revolv3r","steam_id":76561199104799292,"connected_time":1665000000000,"state":"active","ping":97},{"user_id":170,"name":"Dreyma","steam_id":76561198227372596,"connected_time":5287000000000,"state":"active","ping":117},{"user_id":158,"name":"Griffin","steam_id":76561198159339442,"connected_time":5494000000000,"state":"active","ping":64},{"user_id":236,"name":"Dr Spaceman","steam_id":76561197969755657,"connected_time":1545000000000,"state":"active","ping":47},{"user_id":253,"name":"ChimpBimpin'","steam_id":76561198192287903,"connected_time":268000000000,"state":"active","ping":59},{"user_id":237,"name":"pest","steam_id":76561198052571208,"connected_time":1545000000000,"state":"active","ping":74},{"user_id":147,"name":"corntent","steam_id":76561198824847948,"connected_time":5770000000000,"state":"active","ping":58},{"user_id":251,"name":"coda","steam_id":76561198092052685,"connected_time":389000000000,"state":"active","ping":61},{"user_id":248,"name":"ghosti","steam_id":76561198284538714,"connected_time":464000000000,"state":"active","ping":62},{"user_id":221,"name":"Provocator","steam_id":76561197961830410,"connected_time":2598000000000,"state":"active","ping":74},{"user_id":255,"name":"Silverkeys","steam_id":76561197986012496,"connected_time":167000000000,"state":"active","ping":72}]},{"server_id":38,"name":"Uncletopia | Chicago | 7 | Stopwatch","name_short":"chi-7","host":"chi-2.us.uncletopia.com","port":27035,"enabled":true,"region":"us-central","cc":"us","latitude":41.881832,"longitude":-87.62318,"reserved":0,"last_update":"0001-01-01T00:00:00Z","name_a2s":"Uncletopia | Chicago | 7 | Stopwatch","protocol":17,"map":"workshop/koth_ashville_final.ugc2130459942","folder":"tf","game":"Team Fortress","app_id":440,"player_count":0,"max_players":24,"Bots":0,"server_type":"Dedicated","server_os":"Linux","password":true,"vac":true,"version":"7961495","steam_id":85568392924866364,"keywords":["cp","nocrits","nodmgspread","uncletopia"],"game_id":440,"stv_port":27036,"stv_name":"Uncletopia | Chicago | 7 | Stopwatch | STV","players":null},{"server_id":39,"name":"Uncletopia | Chicago | 8 | Community","name_short":"chi-8","host":"chi-2.us.uncletopia.com","port":27045,"enabled":true,"region":"us-central","cc":"us","latitude":41.881832,"longitude":-87.62318,"reserved":0,"last_update":"0001-01-01T00:00:00Z","name_a2s":"Uncletopia | Chicago | 8 | Community","protocol":17,"map":"workshop/koth_ashville_final.ugc2130459942","folder":"tf","game":"Team Fortress","app_id":440,"player_count":0,"max_players":24,"Bots":0,"server_type":"Dedicated","server_os":"Linux","password":true,"vac":true,"version":"7961495","steam_id":85568392924866365,"keywords":["cp","nocrits","nodmgspread","uncletopia"],"game_id":440,"stv_port":27046,"stv_name":"Uncletopia | Chicago | 8 | Community | STV","players":null},{"server_id":8,"name":"Uncletopia | Dallas | 1 | All Maps","name_short":"dal-1","host":"dal-1.us.uncletopia.com","port":27015,"enabled":true,"region":"us-central","cc":"us","latitude":32.779167,"longitude":-96.80889,"reserved":0,"last_update":"0001-01-01T00:00:00Z","name_a2s":"Uncletopia | Dallas | 1 | All Maps","protocol":17,"map":"pl_swiftwater_final1","folder":"tf","game":"Team Fortress","app_id":440,"player_count":24,"max_players":24,"Bots":0,"server_type":"Dedicated","server_os":"Linux","password":true,"vac":true,"version":"7961495","steam_id":85568392924469986,"keywords":["nocrits","nodmgspread","payload","uncletopia"],"game_id":440,"stv_port":27016,"stv_name":"Uncletopia | Dallas | 1 | All Maps | STV","players":[{"user_id":696,"name":"big ol' buford","steam_id":76561198290675957,"connected_time":2893000000000,"state":"active","ping":42},{"user_id":737,"name":"goshawksaretheonlyrealbirds","steam_id":76561198041087236,"connected_time":675000000000,"state":"active","ping":102},{"user_id":633,"name":"Wilhelmktx (medic bf)","steam_id":76561198158102295,"connected_time":5624000000000,"state":"active","ping":86},{"user_id":693,"name":"Falleax","steam_id":76561198021154908,"connected_time":2939000000000,"state":"active","ping":49},{"user_id":596,"name":"Rex (soldier bf)","steam_id":76561198138365053,"connected_time":7190000000000,"state":"active","ping":135},{"user_id":735,"name":"goobiestgoober","steam_id":76561199487899460,"connected_time":1042000000000,"state":"active","ping":191},{"user_id":721,"name":"Drake from State Farm","steam_id":76561199069029812,"connected_time":1729000000000,"state":"active","ping":108},{"user_id":734,"name":"Comrade","steam_id":76561199056721863,"connected_time":1248000000000,"state":"active","ping":74},{"user_id":738,"name":"minecraft","steam_id":76561198104345201,"connected_time":177000000000,"state":"active","ping":84},{"user_id":729,"name":"tunaa","steam_id":76561198362763159,"connected_time":1521000000000,"state":"active","ping":91},{"user_id":703,"name":"NovaGenetics","steam_id":76561198048539287,"connected_time":2687000000000,"state":"active","ping":91},{"user_id":712,"name":"Joan The Kisaragi Cat","steam_id":76561199370650064,"connected_time":1906000000000,"state":"active","ping":65},{"user_id":736,"name":"tiny","steam_id":76561198010743348,"connected_time":725000000000,"state":"active","ping":48},{"user_id":732,"name":"Void","steam_id":76561199147336845,"connected_time":1331000000000,"state":"active","ping":101},{"user_id":739,"name":"sk","steam_id":76561198133360797,"connected_time":83000000000,"state":"active","ping":85},{"user_id":705,"name":"Big Yoshi","steam_id":76561199160576376,"connected_time":2645000000000,"state":"active","ping":102},{"user_id":714,"name":"Ford F-150","steam_id":76561198425227573,"connected_time":1864000000000,"state":"active","ping":88},{"user_id":717,"name":"Captain Underbelly","steam_id":76561198811270935,"connected_time":1844000000000,"state":"active","ping":92},{"user_id":728,"name":"(TWoN Adric)","steam_id":76561197999304024,"connected_time":1528000000000,"state":"active","ping":47},{"user_id":733,"name":"Octy","steam_id":76561199002569948,"connected_time":1302000000000,"state":"active","ping":91},{"user_id":726,"name":"Dottie [She/They]","steam_id":76561198282046179,"connected_time":1587000000000,"state":"active","ping":63},{"user_id":727,"name":"mkl","steam_id":76561197986401685,"connected_time":1576000000000,"state":"active","ping":59},{"user_id":671,"name":"HumbDoe","steam_id":76561198065556553,"connected_time":3514000000000,"state":"active","ping":99},{"user_id":724,"name":"th,e skunj ðŸŽ€","steam_id":76561198325980914,"connected_time":1708000000000,"state":"active","ping":53}]},{"server_id":108,"name":"Uncletopia | Dallas | 2 | All Maps","name_short":"dal-2","host":"dal-1.us.uncletopia.com","port":27025,"enabled":true,"region":"us-central","cc":"us","latitude":32.779167,"longitude":-96.80889,"reserved":0,"last_update":"0001-01-01T00:00:00Z","name_a2s":"Uncletopia | Dallas | 2 | All Maps","protocol":17,"map":"koth_lakeside_final","folder":"tf","game":"Team Fortress","app_id":440,"player_count":24,"max_players":24,"Bots":0,"server_type":"Dedicated","server_os":"Linux","password":true,"vac":true,"version":"7961495","steam_id":85568392924469988,"keywords":["cp","nocrits","nodmgspread","uncletopia"],"game_id":440,"stv_port":27026,"stv_name":"Uncletopia | Dallas | 2 | All Maps | STV","players":[{"user_id":346,"name":"navi","steam_id":76561198398831092,"connected_time":2643000000000,"state":"active","ping":84},{"user_id":379,"name":"71 Folding Chairs","steam_id":76561198080700483,"connected_time":795000000000,"state":"active","ping":45},{"user_id":389,"name":"Wonder Pest","steam_id":76561198062763756,"connected_time":339000000000,"state":"active","ping":75},{"user_id":360,"name":"Coup de Grass","steam_id":76561198011643226,"connected_time":2115000000000,"state":"active","ping":84},{"user_id":367,"name":"TGD","steam_id":76561198197582594,"connected_time":1670000000000,"state":"active","ping":55},{"user_id":390,"name":"schmuck","steam_id":76561198143789773,"connected_time":329000000000,"state":"active","ping":56},{"user_id":353,"name":"Eden","steam_id":76561198081284664,"connected_time":2423000000000,"state":"active","ping":76},{"user_id":395,"name":"Useless Twisting","steam_id":76561199054971009,"connected_time":93000000000,"state":"active","ping":53},{"user_id":355,"name":"GUH","steam_id":76561199013202758,"connected_time":2359000000000,"state":"active","ping":73},{"user_id":391,"name":"TheColdChiliPepper","steam_id":76561199027155811,"connected_time":185000000000,"state":"active","ping":90},{"user_id":362,"name":"Giselle","steam_id":76561198162593640,"connected_time":2045000000000,"state":"active","ping":99},{"user_id":332,"name":"pan","steam_id":76561198093968095,"connected_time":4324000000000,"state":"active","ping":86},{"user_id":333,"name":"Butteryback","steam_id":76561198049642485,"connected_time":4276000000000,"state":"active","ping":61},{"user_id":382,"name":"Game Broke No Fix","steam_id":76561198028271650,"connected_time":746000000000,"state":"active","ping":111},{"user_id":392,"name":"Summord","steam_id":76561198814453392,"connected_time":152000000000,"state":"active","ping":72},{"user_id":393,"name":"tickdiny","steam_id":76561199090545447,"connected_time":147000000000,"state":"active","ping":65},{"user_id":384,"name":"Venom_Yankee","steam_id":76561198078146145,"connected_time":701000000000,"state":"active","ping":46},{"user_id":387,"name":"Jandrix","steam_id":76561198065511083,"connected_time":540000000000,"state":"active","ping":53},{"user_id":366,"name":"tsz","steam_id":76561199246231090,"connected_time":1710000000000,"state":"active","ping":71},{"user_id":385,"name":"Fireheart888","steam_id":76561198044555953,"connected_time":673000000000,"state":"active","ping":110},{"user_id":386,"name":"oncadus","steam_id":76561198888985052,"connected_time":659000000000,"state":"active","ping":102},{"user_id":331,"name":"beats (16:38)","steam_id":76561199245717718,"connected_time":4853000000000,"state":"active","ping":75},{"user_id":394,"name":"unfrigginbelievable","steam_id":76561198835673715,"connected_time":135000000000,"state":"active","ping":73},{"user_id":334,"name":"DrPepperTacos","steam_id":76561198055977369,"connected_time":4033000000000,"state":"active","ping":70}]},{"server_id":404,"name":"Uncletopia | Dallas | 3 | All Maps","name_short":"dal-3","host":"dal-1.us.uncletopia.com","port":27035,"enabled":true,"region":"us-central","cc":"us","latitude":32.779167,"longitude":-96.80889,"reserved":0,"last_update":"0001-01-01T00:00:00Z","name_a2s":"Uncletopia | Dallas | 3 | All Maps","protocol":17,"map":"koth_viaduct","folder":"tf","game":"Team Fortress","app_id":440,"player_count":0,"max_players":24,"Bots":0,"server_type":"Dedicated","server_os":"Linux","password":true,"vac":true,"version":"7961495","steam_id":85568392924515219,"keywords":["cp","nocrits","nodmgspread","uncletopia"],"game_id":440,"stv_port":27036,"stv_name":"Uncletopia | Dallas | 3 | All Maps | STV","players":null},{"server_id":405,"name":"Uncletopia | Dallas | 4 | Community","name_short":"dal-4","host":"dal-1.us.uncletopia.com","port":27045,"enabled":true,"region":"us-central","cc":"us","latitude":32.779167,"longitude":-96.80889,"reserved":0,"last_update":"0001-01-01T00:00:00Z","name_a2s":"Uncletopia | Dallas | 4 | Community","protocol":17,"map":"workshop/koth_product_final.ugc454272353","folder":"tf","game":"Team Fortress","app_id":440,"player_count":3,"max_players":24,"Bots":0,"server_type":"Dedicated","server_os":"Linux","password":true,"vac":true,"version":"7961495","steam_id":85568392924515220,"keywords":["cp","nocrits","nodmgspread","uncletopia"],"game_id":440,"stv_port":27046,"stv_name":"Uncletopia | Dallas | 4 | Community | STV","players":[{"user_id":6,"name":"toolem","steam_id":76561198075312872,"connected_time":654000000000,"state":"active","ping":56},{"user_id":7,"name":"MapleSyrup","steam_id":76561199222442855,"connected_time":590000000000,"state":"active","ping":152},{"user_id":8,"name":"moonlord706","steam_id":76561199075108166,"connected_time":553000000000,"state":"active","ping":47}]},{"server_id":5,"name":"Uncletopia | Frankfurt | 1 | All Maps","name_short":"frk-1","host":"frk-1.de.uncletopia.com","port":27015,"enabled":true,"region":"eu","cc":"de","latitude":50.110924,"longitude":8.682127,"reserved":0,"last_update":"0001-01-01T00:00:00Z","name_a2s":"Uncletopia | Frankfurt | 1 | All Maps","protocol":17,"map":"koth_viaduct","folder":"tf","game":"Team Fortress","app_id":440,"player_count":0,"max_players":24,"Bots":0,"server_type":"Dedicated","server_os":"Linux","password":true,"vac":true,"version":"7961495","steam_id":85568392924469989,"keywords":["cp","nocrits","nodmgspread","uncletopia"],"game_id":440,"stv_port":27016,"stv_name":"Uncletopia | Frankfurt | 1 | All Maps | STV","players":null},{"server_id":110,"name":"Uncletopia | Frankfurt | 2 | All Maps","name_short":"frk-2","host":"frk-1.de.uncletopia.com","port":27025,"enabled":true,"region":"eu","cc":"de","latitude":50.110924,"longitude":8.682127,"reserved":0,"last_update":"0001-01-01T00:00:00Z","name_a2s":"Uncletopia | Frankfurt | 2 | All Maps","protocol":17,"map":"koth_cascade","folder":"tf","game":"Team Fortress","app_id":440,"player_count":0,"max_players":24,"Bots":0,"server_type":"Dedicated","server_os":"Linux","password":true,"vac":true,"version":"7961495","steam_id":85568392924469990,"keywords":["cp","nocrits","nodmgspread","uncletopia"],"game_id":440,"stv_port":27026,"stv_name":"Uncletopia | Frankfurt | 2 | All Maps | STV","players":null},{"server_id":308,"name":"Uncletopia | Frankfurt | 3 | All Maps","name_short":"frk-3","host":"frk-1.de.uncletopia.com","port":27035,"enabled":true,"region":"eu","cc":"de","latitude":50.110924,"longitude":8.682127,"reserved":0,"last_update":"0001-01-01T00:00:00Z","name_a2s":"Uncletopia | Frankfurt | 3 | All Maps","protocol":17,"map":"pl_thundermountain","folder":"tf","game":"Team Fortress","app_id":440,"player_count":0,"max_players":24,"Bots":0,"server_type":"Dedicated","server_os":"Linux","password":true,"vac":true,"version":"7961495","steam_id":85568392924504274,"keywords":["nocrits","nodmgspread","payload","uncletopia"],"game_id":440,"stv_port":27036,"stv_name":"Uncletopia | Frankfurt | 3 | All Maps | STV","players":null},{"server_id":309,"name":"Uncletopia | Frankfurt | 4 | All Maps","name_short":"frk-4","host":"frk-1.de.uncletopia.com","port":27045,"enabled":true,"region":"eu","cc":"de","latitude":50.110924,"longitude":8.682127,"reserved":0,"last_update":"0001-01-01T00:00:00Z","name_a2s":"Uncletopia | Frankfurt | 4 | All Maps","protocol":17,"map":"cp_mountainlab","folder":"tf","game":"Team Fortress","app_id":440,"player_count":0,"max_players":24,"Bots":0,"server_type":"Dedicated","server_os":"Linux","password":true,"vac":true,"version":"7961495","steam_id":85568392924504275,"keywords":["cp","nocrits","nodmgspread","uncletopia"],"game_id":440,"stv_port":27046,"stv_name":"Uncletopia | Frankfurt | 4 | All Maps | STV","players":null},{"server_id":310,"name":"Uncletopia | Frankfurt | 5 | All Maps","name_short":"frk-5","host":"frk-1.de.uncletopia.com","port":27055,"enabled":true,"region":"eu","cc":"de","latitude":50.110924,"longitude":8.682127,"reserved":0,"last_update":"0001-01-01T00:00:00Z","name_a2s":"Uncletopia | Frankfurt | 5 | All Maps","protocol":17,"map":"koth_cascade","folder":"tf","game":"Team Fortress","app_id":440,"player_count":5,"max_players":24,"Bots":0,"server_type":"Dedicated","server_os":"Linux","password":true,"vac":true,"version":"7961495","steam_id":85568392924504277,"keywords":["cp","nocrits","nodmgspread","uncletopia"],"game_id":440,"stv_port":27056,"stv_name":"Uncletopia | Frankfurt | 5 | All Maps | STV","players":[{"user_id":552,"name":"Goldermor","steam_id":76561198334406934,"connected_time":1855000000000,"state":"active","ping":117},{"user_id":553,"name":"LionfishO7","steam_id":76561199158148205,"connected_time":1584000000000,"state":"active","ping":141},{"user_id":554,"name":"Jotun","steam_id":76561199015161498,"connected_time":821000000000,"state":"active","ping":91},{"user_id":555,"name":"captured duck","steam_id":76561198283264289,"connected_time":793000000000,"state":"active","ping":169},{"user_id":556,"name":"ja","steam_id":76561199228540618,"connected_time":324000000000,"state":"active","ping":57}]},{"server_id":311,"name":"Uncletopia | Frankfurt | 6 | All Maps","name_short":"frk-6","host":"frk-1.de.uncletopia.com","port":27065,"enabled":true,"region":"eu","cc":"de","latitude":50.110924,"longitude":8.682127,"reserved":0,"last_update":"0001-01-01T00:00:00Z","name_a2s":"Uncletopia | Frankfurt | 6 | All Maps","protocol":17,"map":"koth_cascade","folder":"tf","game":"Team Fortress","app_id":440,"player_count":0,"max_players":24,"Bots":0,"server_type":"Dedicated","server_os":"Linux","password":true,"vac":true,"version":"7961495","steam_id":85568392924504278,"keywords":["cp","nocrits","nodmgspread","uncletopia"],"game_id":440,"stv_port":27066,"stv_name":"Uncletopia | Frankfurt | 6 | All Maps | STV","players":null},{"server_id":23,"name":"Uncletopia | Frankfurt | 7 | Stopwatch","name_short":"frk-7","host":"frk-1.de.uncletopia.com","port":27075,"enabled":true,"region":"eu","cc":"de","latitude":50.110924,"longitude":8.682127,"reserved":0,"last_update":"0001-01-01T00:00:00Z","name_a2s":"Uncletopia | Frankfurt | 7 | Stopwatch","protocol":17,"map":"workshop/pl_badwater_pro_v12.ugc2142942074","folder":"tf","game":"Team Fortress","app_id":440,"player_count":0,"max_players":24,"Bots":0,"server_type":"Dedicated","server_os":"Linux","password":true,"vac":true,"version":"7961495","steam_id":85568392924742827,"keywords":["nocrits","nodmgspread","payload","uncletopia"],"game_id":440,"stv_port":27076,"stv_name":"Uncletopia | Frankfurt | 7 | Stopwatch | STV","players":null},{"server_id":24,"name":"Uncletopia | Frankfurt | 8 | Community","name_short":"frk-8","host":"frk-1.de.uncletopia.com","port":27085,"enabled":true,"region":"eu","cc":"de","latitude":50.110924,"longitude":8.682127,"reserved":0,"last_update":"0001-01-01T00:00:00Z","name_a2s":"Uncletopia | Frankfurt | 8 | Community","protocol":17,"map":"workshop/cp_croissant_final.ugc458840209","folder":"tf","game":"Team Fortress","app_id":440,"player_count":0,"max_players":24,"Bots":0,"server_type":"Dedicated","server_os":"Linux","password":true,"vac":true,"version":"7961495","steam_id":85568392924742828,"keywords":["cp","nocrits","nodmgspread","uncletopia"],"game_id":440,"stv_port":27086,"stv_name":"Uncletopia | Frankfurt | 8 | Community | STV","players":null},{"server_id":202,"name":"Uncletopia | Hong Kong | 1 | All Maps","name_short":"hgk-1","host":"hgk-1.hk.uncletopia.com","port":27015,"enabled":true,"region":"asia","cc":"hk","latitude":22.302711,"longitude":114.177216,"reserved":0,"last_update":"0001-01-01T00:00:00Z","name_a2s":"Uncletopia | Hong Kong | 1 | All Maps","protocol":17,"map":"cp_metalworks","folder":"tf","game":"Team Fortress","app_id":440,"player_count":0,"max_players":24,"Bots":0,"server_type":"Dedicated","server_os":"Linux","password":true,"vac":true,"version":"7961495","steam_id":85568392924494504,"keywords":["cp","nocrits","nodmgspread","uncletopia"],"game_id":440,"stv_port":27016,"stv_name":"Uncletopia | Hong Kong | 1 | All Maps | STV","players":null},{"server_id":1,"name":"Uncletopia | Los Angeles | 1 | All Maps","name_short":"lax-1","host":"lax-1.us.uncletopia.com","port":27015,"enabled":true,"region":"us-west","cc":"us","latitude":33.94279,"longitude":-118.41004,"reserved":0,"last_update":"0001-01-01T00:00:00Z","name_a2s":"Uncletopia | Los Angeles | 1 | All Maps","protocol":17,"map":"koth_lakeside_final","folder":"tf","game":"Team Fortress","app_id":440,"player_count":24,"max_players":24,"Bots":0,"server_type":"Dedicated","server_os":"Linux","password":true,"vac":true,"version":"7961495","steam_id":85568392924469991,"keywords":["cp","nocrits","nodmgspread","uncletopia"],"game_id":440,"stv_port":27016,"stv_name":"Uncletopia | Los Angeles | 1 | All Maps | STV","players":[{"user_id":283,"name":"Barack Obama Gaming","steam_id":76561198129242016,"connected_time":106000000000,"state":"active","ping":74},{"user_id":206,"name":"the pizza","steam_id":76561198221331476,"connected_time":5565000000000,"state":"active","ping":49},{"user_id":273,"name":"usedhalfcart","steam_id":76561198072621852,"connected_time":606000000000,"state":"active","ping":80},{"user_id":278,"name":"Space Magic","steam_id":76561199006292310,"connected_time":214000000000,"state":"active","ping":57},{"user_id":284,"name":"Scribbles","steam_id":76561198178326018,"connected_time":38000000000,"state":"active","ping":74},{"user_id":233,"name":"Mocha Josie","steam_id":76561198066452726,"connected_time":3459000000000,"state":"active","ping":69},{"user_id":234,"name":"Chad the Sex Haver","steam_id":76561198058236528,"connected_time":3452000000000,"state":"active","ping":56},{"user_id":274,"name":"McDonald","steam_id":76561199028533497,"connected_time":603000000000,"state":"active","ping":47},{"user_id":276,"name":"EAT SPIT!","steam_id":76561198096836451,"connected_time":380000000000,"state":"active","ping":48},{"user_id":205,"name":"Mirce","steam_id":76561198100889621,"connected_time":5646000000000,"state":"active","ping":95},{"user_id":259,"name":"drank baby","steam_id":76561199483723843,"connected_time":1041000000000,"state":"active","ping":60},{"user_id":275,"name":"erm what the scallop???","steam_id":76561198338610196,"connected_time":545000000000,"state":"active","ping":61},{"user_id":279,"name":"BPplays","steam_id":76561198254680007,"connected_time":211000000000,"state":"active","ping":60},{"user_id":280,"name":"Mr.Rogers","steam_id":76561198043878683,"connected_time":205000000000,"state":"active","ping":65},{"user_id":281,"name":"buhn","steam_id":76561198106117196,"connected_time":151000000000,"state":"active","ping":47},{"user_id":221,"name":"ronald_stackerusa55","steam_id":76561198150406851,"connected_time":4380000000000,"state":"active","ping":54},{"user_id":188,"name":"Viewie","steam_id":76561198280108853,"connected_time":7096000000000,"state":"active","ping":107},{"user_id":223,"name":"walting white","steam_id":76561198072156623,"connected_time":4307000000000,"state":"active","ping":94},{"user_id":267,"name":"celestia ludenberg","steam_id":76561199196437823,"connected_time":759000000000,"state":"active","ping":73},{"user_id":214,"name":"Dusk","steam_id":76561198088681558,"connected_time":4848000000000,"state":"active","ping":73},{"user_id":243,"name":"noceof","steam_id":76561198043656816,"connected_time":2936000000000,"state":"active","ping":173},{"user_id":225,"name":"Futanari of the Amazon Enjoyer","steam_id":76561198074294849,"connected_time":4224000000000,"state":"active","ping":72},{"user_id":255,"name":"Pork Belly","steam_id":76561198053003142,"connected_time":1310000000000,"state":"active","ping":60},{"user_id":270,"name":"rodrigotaylor4657@msn.com","steam_id":76561199122281764,"connected_time":703000000000,"state":"active","ping":86}]},{"server_id":112,"name":"Uncletopia | Los Angeles | 2 | All Maps","name_short":"lax-2","host":"lax-1.us.uncletopia.com","port":27025,"enabled":true,"region":"us-west","cc":"us","latitude":33.94279,"longitude":-118.41004,"reserved":0,"last_update":"0001-01-01T00:00:00Z","name_a2s":"Uncletopia | Los Angeles | 2 | All Maps","protocol":17,"map":"koth_lazarus","folder":"tf","game":"Team Fortress","app_id":440,"player_count":0,"max_players":24,"Bots":0,"server_type":"Dedicated","server_os":"Linux","password":true,"vac":true,"version":"7961495","steam_id":85568392924469992,"keywords":["cp","nocrits","nodmgspread","uncletopia"],"game_id":440,"stv_port":27026,"stv_name":"Uncletopia | Los Angeles | 2 | All Maps | STV","players":null},{"server_id":324,"name":"Uncletopia | Los Angeles | 3 | All Maps","name_short":"lax-3","host":"lax-1.us.uncletopia.com","port":27035,"enabled":true,"region":"us-west","cc":"us","latitude":33.94279,"longitude":-118.41004,"reserved":0,"last_update":"0001-01-01T00:00:00Z","name_a2s":"Uncletopia | Los Angeles | 3 | All Maps","protocol":17,"map":"pl_badwater","folder":"tf","game":"Team Fortress","app_id":440,"player_count":2,"max_players":24,"Bots":0,"server_type":"Dedicated","server_os":"Linux","password":true,"vac":true,"version":"7961495","steam_id":85568392924510198,"keywords":["nocrits","nodmgspread","payload","uncletopia"],"game_id":440,"stv_port":27036,"stv_name":"Uncletopia | Los Angeles | 3 | All Maps | STV","players":[{"user_id":8,"name":"Bonniefan712","steam_id":76561199289809788,"connected_time":441000000000,"state":"active","ping":39},{"user_id":9,"name":"Gaming.","steam_id":76561199182957769,"connected_time":427000000000,"state":"active","ping":96}]},{"server_id":25,"name":"Uncletopia | Los Angeles | 4 | Stopwatch","name_short":"lax-4","host":"lax-1.us.uncletopia.com","port":27045,"enabled":true,"region":"us-west","cc":"us","latitude":33.94279,"longitude":-118.41004,"reserved":0,"last_update":"0001-01-01T00:00:00Z","name_a2s":"Uncletopia | Los Angeles | 4 | Stopwatch","protocol":17,"map":"pl_upward","folder":"tf","game":"Team Fortress","app_id":440,"player_count":0,"max_players":24,"Bots":0,"server_type":"Dedicated","server_os":"Linux","password":true,"vac":true,"version":"7961495","steam_id":85568392924510199,"keywords":["nocrits","nodmgspread","payload","uncletopia"],"game_id":440,"stv_port":27046,"stv_name":"Uncletopia | Los Angeles | 4 | Stopwatch | STV","players":null},{"server_id":11,"name":"Uncletopia | London | 1 | All Maps","name_short":"lon-1","host":"lon-1.uk.uncletopia.com","port":27015,"enabled":true,"region":"eu","cc":"gb","latitude":51.509865,"longitude":-0.118092,"reserved":0,"last_update":"0001-01-01T00:00:00Z","name_a2s":"Uncletopia | London | 1 | All Maps","protocol":17,"map":"cp_dustbowl","folder":"tf","game":"Team Fortress","app_id":440,"player_count":24,"max_players":24,"Bots":0,"server_type":"Dedicated","server_os":"Linux","password":true,"vac":true,"version":"7961495","steam_id":85568392924367362,"keywords":["cp","nocrits","nodmgspread","uncletopia"],"game_id":440,"stv_port":27016,"stv_name":"Uncletopia | London | 1 | All Maps | STV","players":[{"user_id":716,"name":"Vince","steam_id":76561199103000131,"connected_time":271000000000,"state":"active","ping":44},{"user_id":657,"name":"Speed-Dial","steam_id":76561198012428315,"connected_time":2644000000000,"state":"active","ping":49},{"user_id":698,"name":"SlonkyDonky","steam_id":76561198425787528,"connected_time":1005000000000,"state":"active","ping":51},{"user_id":713,"name":"Ehbigdug","steam_id":76561198288568654,"connected_time":327000000000,"state":"active","ping":62},{"user_id":712,"name":"Lyncurion","steam_id":76561199260022725,"connected_time":349000000000,"state":"active","ping":82},{"user_id":699,"name":"Arigato Gozaimasu!","steam_id":76561198052342856,"connected_time":952000000000,"state":"active","ping":74},{"user_id":682,"name":"HazelForest","steam_id":76561198171827033,"connected_time":1766000000000,"state":"active","ping":51},{"user_id":671,"name":"Scr0b Ê•áµ”á´¥áµ”Ê”","steam_id":76561198100855323,"connected_time":1958000000000,"state":"active","ping":73},{"user_id":700,"name":"Thats one spicy meat'a'ball","steam_id":76561199230265354,"connected_time":889000000000,"state":"active","ping":143},{"user_id":701,"name":"polibo","steam_id":76561199065978850,"connected_time":882000000000,"state":"active","ping":130},{"user_id":703,"name":"Leo the bread.","steam_id":76561198987139624,"connected_time":867000000000,"state":"active","ping":63},{"user_id":690,"name":"anabolic steroids","steam_id":76561199470147761,"connected_time":1370000000000,"state":"active","ping":124},{"user_id":714,"name":"Bing","steam_id":76561198069892805,"connected_time":316000000000,"state":"active","ping":90},{"user_id":680,"name":"Gillusion","steam_id":76561198138818087,"connected_time":1836000000000,"state":"active","ping":45},{"user_id":706,"name":"A Monkey?","steam_id":76561198047600058,"connected_time":775000000000,"state":"active","ping":61},{"user_id":674,"name":"Papyrusthepuzzlemaster","steam_id":76561199114900350,"connected_time":1930000000000,"state":"active","ping":119},{"user_id":693,"name":"GamingCarp","steam_id":76561198285235511,"connected_time":1288000000000,"state":"active","ping":48},{"user_id":707,"name":"Ratman","steam_id":76561198121888714,"connected_time":633000000000,"state":"active","ping":54},{"user_id":708,"name":"Personano","steam_id":76561198994355577,"connected_time":630000000000,"state":"active","ping":47},{"user_id":709,"name":"The Gambler","steam_id":76561198149779201,"connected_time":558000000000,"state":"active","ping":50},{"user_id":715,"name":"Yakubian Ape","steam_id":76561198035119964,"connected_time":306000000000,"state":"active","ping":45},{"user_id":685,"name":"Plop_","steam_id":76561198112567921,"connected_time":1713000000000,"state":"active","ping":39},{"user_id":686,"name":"Royal","steam_id":76561198157621024,"connected_time":1706000000000,"state":"active","ping":36},{"user_id":687,"name":"googoo gaga","steam_id":76561198014578785,"connected_time":1704000000000,"state":"active","ping":49}]},{"server_id":114,"name":"Uncletopia | London | 2 | All Maps","name_short":"lon-2","host":"lon-1.uk.uncletopia.com","port":27025,"enabled":true,"region":"eu","cc":"gb","latitude":51.509865,"longitude":-0.118092,"reserved":0,"last_update":"0001-01-01T00:00:00Z","name_a2s":"Uncletopia | London | 2 | All Maps","protocol":17,"map":"pl_frontier_final","folder":"tf","game":"Team Fortress","app_id":440,"player_count":24,"max_players":24,"Bots":0,"server_type":"Dedicated","server_os":"Linux","password":true,"vac":true,"version":"7961495","steam_id":85568392924470941,"keywords":["nocrits","nodmgspread","payload","uncletopia"],"game_id":440,"stv_port":27026,"stv_name":"Uncletopia | London | 2 | All Maps | STV","players":[{"user_id":706,"name":"Nyoom","steam_id":76561198054585002,"connected_time":1131000000000,"state":"active","ping":53},{"user_id":680,"name":"gypsy slayer 3000","steam_id":76561198331480295,"connected_time":2730000000000,"state":"active","ping":54},{"user_id":541,"name":"Your honor Freebird was playing","steam_id":76561198017513012,"connected_time":12215000000000,"state":"active","ping":60},{"user_id":708,"name":"DioneWolf","steam_id":76561198139506126,"connected_time":950000000000,"state":"active","ping":47},{"user_id":671,"name":"à¹–Û£ÛœDonny","steam_id":76561199061016340,"connected_time":3151000000000,"state":"active","ping":43},{"user_id":691,"name":"Zerfesh","steam_id":76561198117534358,"connected_time":2145000000000,"state":"active","ping":105},{"user_id":702,"name":"my fault og","steam_id":76561198256811438,"connected_time":1414000000000,"state":"active","ping":88},{"user_id":711,"name":"Sholunan","steam_id":76561198062435739,"connected_time":472000000000,"state":"active","ping":61},{"user_id":676,"name":"[HOL] Solringen","steam_id":76561198003584681,"connected_time":3011000000000,"state":"active","ping":75},{"user_id":705,"name":"snauusey","steam_id":76561199134329212,"connected_time":1217000000000,"state":"active","ping":55},{"user_id":681,"name":"Psycho Foxy","steam_id":76561198142758544,"connected_time":2727000000000,"state":"active","ping":49},{"user_id":712,"name":"hector","steam_id":76561198049639319,"connected_time":467000000000,"state":"active","ping":70},{"user_id":650,"name":"é›»å­ãƒžãƒãƒ¼ã§æ±ºæ¸ˆã€€ï½ž\ufffd","steam_id":76561198118412910,"connected_time":3986000000000,"state":"active","ping":49},{"user_id":663,"name":"aSourLemonade","steam_id":76561198872382968,"connected_time":3480000000000,"state":"active","ping":68},{"user_id":704,"name":"curious femboy","steam_id":76561199199388221,"connected_time":1344000000000,"state":"active","ping":58},{"user_id":714,"name":"Phillipo","steam_id":76561198105215143,"connected_time":6000000000,"state":"spawning","ping":46},{"user_id":700,"name":"PATRICE STAR","steam_id":76561198197891710,"connected_time":1470000000000,"state":"active","ping":45},{"user_id":713,"name":"mud","steam_id":76561198141497461,"connected_time":462000000000,"state":"active","ping":77},{"user_id":695,"name":"Pats (Gifted items Collector)","steam_id":76561198418538887,"connected_time":1999000000000,"state":"active","ping":98},{"user_id":682,"name":"Hnreeee","steam_id":76561198332936466,"connected_time":2709000000000,"state":"active","ping":36},{"user_id":693,"name":"Frazzle","steam_id":76561198262577951,"connected_time":2065000000000,"state":"active","ping":61},{"user_id":710,"name":"elijah","steam_id":76561198093936708,"connected_time":927000000000,"state":"active","ping":46},{"user_id":707,"name":"Glitch","steam_id":76561198081895538,"connected_time":1113000000000,"state":"active","ping":50},{"user_id":666,"name":"joachym","steam_id":76561198428579761,"connected_time":3382000000000,"state":"active","ping":68}]},{"server_id":320,"name":"Uncletopia | London | 3 | All Maps","name_short":"lon-3","host":"lon-1.uk.uncletopia.com","port":27035,"enabled":true,"region":"eu","cc":"gb","latitude":51.509865,"longitude":-0.118092,"reserved":0,"last_update":"0001-01-01T00:00:00Z","name_a2s":"Uncletopia | London | 3 | All Maps","protocol":17,"map":"pl_barnblitz","folder":"tf","game":"Team Fortress","app_id":440,"player_count":0,"max_players":24,"Bots":0,"server_type":"Dedicated","server_os":"Linux","password":true,"vac":true,"version":"7961495","steam_id":85568392924510192,"keywords":["nocrits","nodmgspread","payload","uncletopia"],"game_id":440,"stv_port":27036,"stv_name":"Uncletopia | London | 3 | All Maps | STV","players":null},{"server_id":321,"name":"Uncletopia | London | 4 | All Maps","name_short":"lon-4","host":"lon-1.uk.uncletopia.com","port":27045,"enabled":true,"region":"eu","cc":"gb","latitude":51.509865,"longitude":-0.118092,"reserved":0,"last_update":"0001-01-01T00:00:00Z","name_a2s":"Uncletopia | London | 4 | All Maps","protocol":17,"map":"pl_badwater","folder":"tf","game":"Team Fortress","app_id":440,"player_count":24,"max_players":24,"Bots":0,"server_type":"Dedicated","server_os":"Linux","password":true,"vac":true,"version":"7961495","steam_id":85568392924510193,"keywords":["nocrits","nodmgspread","payload","uncletopia"],"game_id":440,"stv_port":27046,"stv_name":"Uncletopia | London | 4 | All Maps | STV","players":[{"user_id":447,"name":"Mr.B","steam_id":76561198399729189,"connected_time":1518000000000,"state":"active","ping":93},{"user_id":433,"name":"tone'","steam_id":76561198055552635,"connected_time":2318000000000,"state":"active","ping":60},{"user_id":421,"name":"Laru","steam_id":76561197998838438,"connected_time":3512000000000,"state":"active","ping":77},{"user_id":457,"name":"Flank","steam_id":76561198098731156,"connected_time":154000000000,"state":"active","ping":69},{"user_id":451,"name":"WE JUST WANNA PARTY","steam_id":76561198026037217,"connected_time":773000000000,"state":"active","ping":75},{"user_id":459,"name":"FEEDon","steam_id":76561198249832770,"connected_time":94000000000,"state":"active","ping":41},{"user_id":440,"name":"Mr.Shpee","steam_id":76561198158701474,"connected_time":1891000000000,"state":"active","ping":89},{"user_id":455,"name":"Edsuedi","steam_id":76561198074722832,"connected_time":308000000000,"state":"active","ping":61},{"user_id":448,"name":"KittyKate â¤","steam_id":76561198116340817,"connected_time":1401000000000,"state":"active","ping":60},{"user_id":442,"name":"Four Legged Elsa â¤","steam_id":76561198101502273,"connected_time":1703000000000,"state":"active","ping":45},{"user_id":434,"name":"Kenny","steam_id":76561198994898206,"connected_time":2200000000000,"state":"active","ping":76},{"user_id":454,"name":"IceWaltz","steam_id":76561198146498522,"connected_time":342000000000,"state":"active","ping":38},{"user_id":407,"name":"Borat","steam_id":76561198122226417,"connected_time":4500000000000,"state":"active","ping":36},{"user_id":450,"name":"Coac","steam_id":76561198085265740,"connected_time":1035000000000,"state":"active","ping":75},{"user_id":428,"name":"Gorgeous George","steam_id":76561198144256544,"connected_time":2761000000000,"state":"active","ping":47},{"user_id":453,"name":"333res","steam_id":76561198148106704,"connected_time":355000000000,"state":"active","ping":88},{"user_id":456,"name":"That Brown Nerd","steam_id":76561198196685086,"connected_time":307000000000,"state":"active","ping":59},{"user_id":410,"name":"free back real estate","steam_id":76561197999437155,"connected_time":4475000000000,"state":"active","ping":48},{"user_id":458,"name":"Flashback","steam_id":76561197973978552,"connected_time":118000000000,"state":"active","ping":63},{"user_id":411,"name":"medick","steam_id":76561199380849468,"connected_time":4474000000000,"state":"active","ping":62},{"user_id":449,"name":"Wee bit espresso","steam_id":76561198067204908,"connected_time":1363000000000,"state":"active","ping":61},{"user_id":444,"name":"Benedictus XVI","steam_id":76561199233979726,"connected_time":1664000000000,"state":"active","ping":87},{"user_id":420,"name":"cinny","steam_id":76561198832112629,"connected_time":3991000000000,"state":"active","ping":89},{"user_id":446,"name":"tapeworms?","steam_id":76561198069649097,"connected_time":1538000000000,"state":"active","ping":48}]},{"server_id":21,"name":"Uncletopia | London | 5 | All Maps","name_short":"lon-5","host":"lon-1.uk.uncletopia.com","port":27055,"enabled":true,"region":"eu","cc":"gb","latitude":51.509865,"longitude":-0.118092,"reserved":0,"last_update":"0001-01-01T00:00:00Z","name_a2s":"Uncletopia | London | 5 | All Maps","protocol":17,"map":"koth_suijin","folder":"tf","game":"Team Fortress","app_id":440,"player_count":0,"max_players":24,"Bots":0,"server_type":"Dedicated","server_os":"Linux","password":true,"vac":true,"version":"7961495","steam_id":85568392924742829,"keywords":["cp","nocrits","nodmgspread","uncletopia"],"game_id":440,"stv_port":27056,"stv_name":"Uncletopia | London | 5 | All Maps | STV","players":null},{"server_id":22,"name":"Uncletopia | London | 6 | All Maps","name_short":"lon-6","host":"lon-1.uk.uncletopia.com","port":27065,"enabled":true,"region":"eu","cc":"gb","latitude":51.509865,"longitude":-0.118092,"reserved":0,"last_update":"0001-01-01T00:00:00Z","name_a2s":"Uncletopia | London | 6 | All Maps","protocol":17,"map":"cp_process_final","folder":"tf","game":"Team Fortress","app_id":440,"player_count":3,"max_players":24,"Bots":0,"server_type":"Dedicated","server_os":"Linux","password":true,"vac":true,"version":"7961495","steam_id":85568392924742830,"keywords":["cp","nocrits","nodmgspread","uncletopia"],"game_id":440,"stv_port":27066,"stv_name":"Uncletopia | London | 6 | All Maps | STV","players":[{"user_id":159,"name":"Lag","steam_id":76561198159360376,"connected_time":81000000000,"state":"active","ping":44},{"user_id":157,"name":"in the jaw","steam_id":76561199069047495,"connected_time":510000000000,"state":"active","ping":177},{"user_id":158,"name":"In The Shins","steam_id":76561198374660301,"connected_time":486000000000,"state":"active","ping":188}]},{"server_id":40,"name":"Uncletopia | London | 7 | Stopwatch","name_short":"lon-7","host":"lon-1.uk.uncletopia.com","port":27075,"enabled":true,"region":"eu","cc":"gb","latitude":51.509865,"longitude":-0.118092,"reserved":0,"last_update":"0001-01-01T00:00:00Z","name_a2s":"Uncletopia | London | 7 | Stopwatch","protocol":17,"map":"pl_swiftwater_final1","folder":"tf","game":"Team Fortress","app_id":440,"player_count":0,"max_players":24,"Bots":0,"server_type":"Dedicated","server_os":"Linux","password":true,"vac":true,"version":"7961495","steam_id":85568392924964314,"keywords":["nocrits","nodmgspread","payload","uncletopia"],"game_id":440,"stv_port":27076,"stv_name":"Uncletopia | London | 7 | Stopwatch | STV","players":null},{"server_id":41,"name":"Uncletopia | London | 8 | Community","name_short":"lon-8","host":"lon-1.uk.uncletopia.com","port":27085,"enabled":true,"region":"eu","cc":"gb","latitude":51.509865,"longitude":-0.118092,"reserved":0,"last_update":"0001-01-01T00:00:00Z","name_a2s":"Uncletopia | London | 8 | Community","protocol":17,"map":"workshop/koth_bagel_rc6.ugc2514036946","folder":"tf","game":"Team Fortress","app_id":440,"player_count":0,"max_players":24,"Bots":0,"server_type":"Dedicated","server_os":"Linux","password":true,"vac":true,"version":"7961495","steam_id":85568392924964315,"keywords":["cp","nocrits","nodmgspread","uncletopia"],"game_id":440,"stv_port":27086,"stv_name":"Uncletopia | London | 8 | Community | STV","players":null},{"server_id":300,"name":"Uncletopia | MontrÃ©al | 1 | One Thousand Uncles","name_short":"mtl-1","host":"mtl-1.ca.uncletopia.com","port":27015,"enabled":true,"region":"us-east","cc":"ca","latitude":45.50889,"longitude":-73.56167,"reserved":0,"last_update":"0001-01-01T00:00:00Z","name_a2s":"Uncletopia | MontrÃ©al | 1 | One Thousand Uncles","protocol":17,"map":"pl_thundermountain","folder":"tf","game":"Team Fortress","app_id":440,"player_count":32,"max_players":32,"Bots":20,"server_type":"Dedicated","server_os":"Linux","password":true,"vac":true,"version":"7961495","steam_id":85568392924500087,"keywords":["alltalk","bots","danepve","increased_maxplayers","norespawntime","payload","uncletopia"],"game_id":440,"stv_port":0,"stv_name":"","players":[{"user_id":204,"name":"CCTV CAMERA","steam_id":76561198079973828,"connected_time":4300000000000,"state":"active","ping":101},{"user_id":235,"name":"Beltalowda","steam_id":76561198106396044,"connected_time":1113000000000,"state":"active","ping":56},{"user_id":132,"name":"Miss Steelheart","steam_id":76561198132562365,"connected_time":9557000000000,"state":"active","ping":131},{"user_id":230,"name":"little guy","steam_id":76561198203568284,"connected_time":2007000000000,"state":"active","ping":66},{"user_id":159,"name":"yougotsauled","steam_id":76561198880754695,"connected_time":5552000000000,"state":"active","ping":79},{"user_id":236,"name":"Zadamouse #SaveTF2","steam_id":76561198243810876,"connected_time":689000000000,"state":"active","ping":72},{"user_id":231,"name":"ctrl fart del","steam_id":76561198355133131,"connected_time":1995000000000,"state":"active","ping":76},{"user_id":232,"name":"smubby","steam_id":76561198128665562,"connected_time":1975000000000,"state":"active","ping":65},{"user_id":233,"name":"Guffeh","steam_id":76561198838219585,"connected_time":1963000000000,"state":"active","ping":121},{"user_id":209,"name":"Liminality","steam_id":76561198002601402,"connected_time":3050000000000,"state":"active","ping":129},{"user_id":182,"name":"DeepDive","steam_id":76561198140542184,"connected_time":4736000000000,"state":"active","ping":62},{"user_id":234,"name":"screwy people","steam_id":76561198877712985,"connected_time":1938000000000,"state":"active","ping":78}]},{"server_id":301,"name":"Uncletopia | MontrÃ©al | 2 | One Thousand Uncles","name_short":"mtl-2","host":"mtl-1.ca.uncletopia.com","port":27025,"enabled":true,"region":"us-east","cc":"ca","latitude":45.50889,"longitude":-73.56167,"reserved":0,"last_update":"0001-01-01T00:00:00Z","name_a2s":"Uncletopia | MontrÃ©al | 2 | One Thousand Uncles","protocol":17,"map":"pl_goldrush","folder":"tf","game":"Team Fortress","app_id":440,"player_count":0,"max_players":32,"Bots":0,"server_type":"Dedicated","server_os":"Linux","password":true,"vac":true,"version":"7961495","steam_id":85568392924500088,"keywords":["alltalk","danepve","increased_maxplayers","norespawntime","payload","uncletopia"],"game_id":440,"stv_port":0,"stv_name":"","players":null},{"server_id":302,"name":"Uncletopia | MontrÃ©al | 3 | One Thousand Uncles","name_short":"mtl-3","host":"mtl-1.ca.uncletopia.com","port":27035,"enabled":true,"region":"us-east","cc":"ca","latitude":45.50889,"longitude":-73.56167,"reserved":0,"last_update":"0001-01-01T00:00:00Z","name_a2s":"Uncletopia | MontrÃ©al | 3 | One Thousand Uncles","protocol":17,"map":"pl_upward","folder":"tf","game":"Team Fortress","app_id":440,"player_count":21,"max_players":32,"Bots":20,"server_type":"Dedicated","server_os":"Linux","password":true,"vac":true,"version":"7961495","steam_id":85568392924500089,"keywords":["alltalk","bots","danepve","increased_maxplayers","norespawntime","payload","uncletopia"],"game_id":440,"stv_port":0,"stv_name":"","players":[{"user_id":95,"name":"Bendybeast","steam_id":76561199145079895,"connected_time":578000000000,"state":"active","ping":70}]},{"server_id":13,"name":"Uncletopia | New York City | 1 | All Maps","name_short":"nyc-1","host":"nyc-1.us.uncletopia.com","port":27015,"enabled":true,"region":"us-east","cc":"us","latitude":40.73061,"longitude":-73.93524,"reserved":0,"last_update":"0001-01-01T00:00:00Z","name_a2s":"Uncletopia | New York City | 1 | All Maps","protocol":17,"map":"cp_5gorge","folder":"tf","game":"Team Fortress","app_id":440,"player_count":24,"max_players":24,"Bots":0,"server_type":"Dedicated","server_os":"Linux","password":true,"vac":true,"version":"7961495","steam_id":85568392924469993,"keywords":["cp","nocrits","nodmgspread","uncletopia"],"game_id":440,"stv_port":27016,"stv_name":"Uncletopia | New York City | 1 | All Maps | STV","players":[{"user_id":47,"name":"sus bread_stain","steam_id":76561199230268075,"connected_time":6131000000000,"state":"active","ping":82},{"user_id":142,"name":"TheJacques4","steam_id":76561199508006213,"connected_time":176000000000,"state":"active","ping":45},{"user_id":91,"name":"Raizen","steam_id":76561199092445367,"connected_time":3545000000000,"state":"active","ping":58},{"user_id":116,"name":"Two-Teste Tommy","steam_id":76561198064308936,"connected_time":1962000000000,"state":"active","ping":57},{"user_id":112,"name":"Kritzburgh","steam_id":76561198149466938,"connected_time":2273000000000,"state":"active","ping":56},{"user_id":122,"name":"Oh No! It's Twister!","steam_id":76561198016791916,"connected_time":1502000000000,"state":"active","ping":102},{"user_id":140,"name":"Robin","steam_id":76561198183812009,"connected_time":258000000000,"state":"active","ping":45},{"user_id":129,"name":"Jason","steam_id":76561198107058140,"connected_time":866000000000,"state":"active","ping":58},{"user_id":141,"name":"Paulktw1","steam_id":76561198362380245,"connected_time":210000000000,"state":"active","ping":160},{"user_id":139,"name":"[DataRefracted]","steam_id":76561199262579270,"connected_time":313000000000,"state":"active","ping":62},{"user_id":98,"name":"Government Plates","steam_id":76561198140866252,"connected_time":2896000000000,"state":"active","ping":68},{"user_id":126,"name":"saurhead","steam_id":76561198132937722,"connected_time":957000000000,"state":"active","ping":44},{"user_id":124,"name":"Bobbn","steam_id":76561198876124683,"connected_time":1263000000000,"state":"active","ping":88},{"user_id":111,"name":"CDBeans","steam_id":76561198046990367,"connected_time":2366000000000,"state":"active","ping":75},{"user_id":101,"name":"dabsol","steam_id":76561198272096751,"connected_time":2855000000000,"state":"active","ping":36},{"user_id":134,"name":"Madame Meow Meow","steam_id":76561198111399111,"connected_time":695000000000,"state":"active","ping":72},{"user_id":136,"name":"Sicko Mode (Chris Pratt Cover)","steam_id":76561198315786174,"connected_time":611000000000,"state":"active","ping":62},{"user_id":108,"name":"Chicken Joe","steam_id":76561198077799885,"connected_time":2498000000000,"state":"active","ping":60},{"user_id":117,"name":"ChumBkt | Mare Milker","steam_id":76561198069334882,"connected_time":1800000000000,"state":"active","ping":45},{"user_id":109,"name":"pinkissocool {f2p}","steam_id":76561198989599828,"connected_time":2484000000000,"state":"active","ping":44},{"user_id":114,"name":"Acheo","steam_id":76561198068228498,"connected_time":2138000000000,"state":"active","ping":47},{"user_id":107,"name":"Top Frog","steam_id":76561198072793446,"connected_time":2753000000000,"state":"active","ping":63},{"user_id":113,"name":"Silvercat75","steam_id":76561198141050240,"connected_time":2159000000000,"state":"active","ping":52},{"user_id":137,"name":"Tokyo_Timeshift_","steam_id":76561198048677523,"connected_time":607000000000,"state":"active","ping":62}]},{"server_id":14,"name":"Uncletopia | New York City | 2 | All Maps","name_short":"nyc-2","host":"nyc-1.us.uncletopia.com","port":27025,"enabled":true,"region":"us-east","cc":"us","latitude":40.73061,"longitude":-73.93524,"reserved":0,"last_update":"0001-01-01T00:00:00Z","name_a2s":"Uncletopia | New York City | 2 | All Maps","protocol":17,"map":"koth_cascade","folder":"tf","game":"Team Fortress","app_id":440,"player_count":0,"max_players":24,"Bots":0,"server_type":"Dedicated","server_os":"Linux","password":true,"vac":true,"version":"7961495","steam_id":85568392924469994,"keywords":["cp","nocrits","nodmgspread","uncletopia"],"game_id":440,"stv_port":27026,"stv_name":"Uncletopia | New York City | 2 | All Maps | STV","players":null},{"server_id":15,"name":"Uncletopia | New York City | 3 | Stopwatch","name_short":"nyc-3","host":"nyc-1.us.uncletopia.com","port":27035,"enabled":true,"region":"us-east","cc":"us","latitude":40.73061,"longitude":-73.93524,"reserved":0,"last_update":"0001-01-01T00:00:00Z","name_a2s":"Uncletopia | New York City | 3 | Stopwatch","protocol":17,"map":"workshop/cp_reckoner_rc6.ugc674719999","folder":"tf","game":"Team Fortress","app_id":440,"player_count":0,"max_players":24,"Bots":0,"server_type":"Dedicated","server_os":"Linux","password":true,"vac":true,"version":"7961495","steam_id":85568392924742820,"keywords":["cp","nocrits","nodmgspread","uncletopia"],"game_id":440,"stv_port":27036,"stv_name":"Uncletopia | New York City | 3 | Stopwatch | STV","players":null},{"server_id":16,"name":"Uncletopia | New York City | 4 | Community","name_short":"nyc-4","host":"nyc-1.us.uncletopia.com","port":27045,"enabled":true,"region":"us-east","cc":"us","latitude":40.73061,"longitude":-73.93524,"reserved":0,"last_update":"0001-01-01T00:00:00Z","name_a2s":"Uncletopia | New York City | 4 | Community","protocol":17,"map":"workshop/cp_overgrown_rc8.ugc503939302","folder":"tf","game":"Team Fortress","app_id":440,"player_count":0,"max_players":24,"Bots":0,"server_type":"Dedicated","server_os":"Linux","password":true,"vac":true,"version":"7961495","steam_id":85568392924742821,"keywords":["cp","nocrits","nodmgspread","uncletopia"],"game_id":440,"stv_port":27046,"stv_name":"Uncletopia | New York City | 4 | Community | STV","players":null},{"server_id":142,"name":"Uncletopia | SÃ£o Paulo | 1 | All Maps","name_short":"sao-1","host":"sao-1.br.uncletopia.com","port":27015,"enabled":true,"region":"sa","cc":"br","latitude":-23.533773,"longitude":-46.62529,"reserved":0,"last_update":"0001-01-01T00:00:00Z","name_a2s":"Uncletopia | SÃ£o Paulo | 1 | All Maps","protocol":17,"map":"cp_snakewater_final1","folder":"tf","game":"Team Fortress","app_id":440,"player_count":0,"max_players":24,"Bots":0,"server_type":"Dedicated","server_os":"Linux","password":true,"vac":true,"version":"7961495","steam_id":85568392924469996,"keywords":["cp","nocrits","nodmgspread","uncletopia"],"game_id":440,"stv_port":27016,"stv_name":"Uncletopia | SÃ£o Paulo | 1 | All Maps | STV","players":null},{"server_id":143,"name":"Uncletopia | SÃ£o Paulo | 2 | Community","name_short":"sao-2","host":"sao-2.br.uncletopia.com","port":27015,"enabled":true,"region":"sa","cc":"br","latitude":-23.533773,"longitude":-46.62529,"reserved":0,"last_update":"0001-01-01T00:00:00Z","name_a2s":"Uncletopia | SÃ£o Paulo | 2 | Community","protocol":17,"map":"workshop/koth_slaughter_rc1.ugc1712845210","folder":"tf","game":"Team Fortress","app_id":440,"player_count":0,"max_players":24,"Bots":0,"server_type":"Dedicated","server_os":"Linux","password":true,"vac":true,"version":"7961495","steam_id":85568392924485349,"keywords":["cp","nocrits","nodmgspread","uncletopia"],"game_id":440,"stv_port":27016,"stv_name":"Uncletopia | SÃ£o Paulo | 2 | Community | STV","players":null},{"server_id":7,"name":"Uncletopia | Seattle | 1 | All Maps","name_short":"sea-1","host":"sea-1.us.uncletopia.com","port":27015,"enabled":true,"region":"us-west","cc":"us","latitude":47.608013,"longitude":-122.33517,"reserved":0,"last_update":"0001-01-01T00:00:00Z","name_a2s":"Uncletopia | Seattle | 1 | All Maps","protocol":17,"map":"pl_snowycoast","folder":"tf","game":"Team Fortress","app_id":440,"player_count":24,"max_players":24,"Bots":0,"server_type":"Dedicated","server_os":"Linux","password":true,"vac":true,"version":"7961495","steam_id":85568392924469997,"keywords":["nocrits","nodmgspread","payload","uncletopia"],"game_id":440,"stv_port":27016,"stv_name":"Uncletopia | Seattle | 1 | All Maps | STV","players":[{"user_id":294,"name":"lukamine","steam_id":76561198166827208,"connected_time":3053000000000,"state":"active","ping":44},{"user_id":290,"name":"dodecadron","steam_id":76561198027397222,"connected_time":3310000000000,"state":"active","ping":66},{"user_id":321,"name":"NEÐ¯O","steam_id":76561197965450216,"connected_time":233000000000,"state":"active","ping":60},{"user_id":322,"name":"AlbinoRhino â˜®","steam_id":76561198005894818,"connected_time":222000000000,"state":"active","ping":75},{"user_id":221,"name":"Octopus","steam_id":76561198114639980,"connected_time":10345000000000,"state":"active","ping":64},{"user_id":313,"name":"Mario","steam_id":76561198099304627,"connected_time":1235000000000,"state":"active","ping":47},{"user_id":318,"name":"SO RETRO","steam_id":76561198846344452,"connected_time":287000000000,"state":"active","ping":75},{"user_id":295,"name":"Kawaiiestboi","steam_id":76561198182178703,"connected_time":2956000000000,"state":"active","ping":53},{"user_id":317,"name":"Scrux","steam_id":76561198129763115,"connected_time":300000000000,"state":"active","ping":67},{"user_id":310,"name":"lynks disease no sound","steam_id":76561198043465434,"connected_time":1523000000000,"state":"active","ping":71},{"user_id":299,"name":"Genderneutron","steam_id":76561199022773775,"connected_time":2836000000000,"state":"active","ping":124},{"user_id":319,"name":"soda","steam_id":76561198105924953,"connected_time":285000000000,"state":"active","ping":64},{"user_id":312,"name":"SibilantSerpent","steam_id":76561198154488754,"connected_time":1499000000000,"state":"active","ping":55},{"user_id":323,"name":"Keamy","steam_id":76561199471434875,"connected_time":207000000000,"state":"active","ping":41},{"user_id":304,"name":"Ethanol Buttchugger","steam_id":76561199127590316,"connected_time":2641000000000,"state":"active","ping":86},{"user_id":308,"name":"MrYadaization","steam_id":76561198050770818,"connected_time":1662000000000,"state":"active","ping":65},{"user_id":314,"name":"Dextersbrain","steam_id":76561198011831579,"connected_time":992000000000,"state":"active","ping":74},{"user_id":324,"name":"Crake","steam_id":76561198001959071,"connected_time":201000000000,"state":"active","ping":56},{"user_id":260,"name":"paypur -rng","steam_id":76561198214370515,"connected_time":6608000000000,"state":"active","ping":75},{"user_id":265,"name":"DaddyGalaxy","steam_id":76561198139697796,"connected_time":6503000000000,"state":"active","ping":57},{"user_id":254,"name":"Banana Man","steam_id":76561199012105803,"connected_time":7056000000000,"state":"active","ping":57},{"user_id":315,"name":"Milk","steam_id":76561198796215640,"connected_time":321000000000,"state":"active","ping":47},{"user_id":293,"name":"ed","steam_id":76561198080475712,"connected_time":3150000000000,"state":"active","ping":68},{"user_id":311,"name":"The Horselords and Animal Gods","steam_id":76561197975094050,"connected_time":1523000000000,"state":"active","ping":87}]},{"server_id":119,"name":"Uncletopia | Seattle | 2 | All Maps","name_short":"sea-2","host":"sea-1.us.uncletopia.com","port":27025,"enabled":true,"region":"us-west","cc":"us","latitude":47.608013,"longitude":-122.33517,"reserved":0,"last_update":"0001-01-01T00:00:00Z","name_a2s":"Uncletopia | Seattle | 2 | All Maps","protocol":17,"map":"pl_upward","folder":"tf","game":"Team Fortress","app_id":440,"player_count":24,"max_players":24,"Bots":0,"server_type":"Dedicated","server_os":"Linux","password":true,"vac":true,"version":"7961495","steam_id":85568392924469998,"keywords":["nocrits","nodmgspread","payload","uncletopia"],"game_id":440,"stv_port":27026,"stv_name":"Uncletopia | Seattle | 2 | All Maps | STV","players":[{"user_id":13,"name":"devn | trade.tf","steam_id":76561199202420894,"connected_time":2698000000000,"state":"active","ping":43},{"user_id":9,"name":"Villchip","steam_id":76561198198599982,"connected_time":3539000000000,"state":"active","ping":47},{"user_id":25,"name":"greenpeace","steam_id":76561197983221708,"connected_time":1493000000000,"state":"active","ping":70},{"user_id":15,"name":"ThePirateKenway","steam_id":76561198115156181,"connected_time":2295000000000,"state":"active","ping":90},{"user_id":51,"name":"Komada337","steam_id":76561198153971124,"connected_time":286000000000,"state":"active","ping":120},{"user_id":52,"name":"fart or shart.","steam_id":76561198164877813,"connected_time":271000000000,"state":"active","ping":54},{"user_id":53,"name":"DeadLemm","steam_id":76561198107380040,"connected_time":242000000000,"state":"active","ping":56},{"user_id":22,"name":"furiOus","steam_id":76561198450073779,"connected_time":1645000000000,"state":"active","ping":45},{"user_id":35,"name":"Mr.Frundles","steam_id":76561198134559026,"connected_time":1117000000000,"state":"active","ping":54},{"user_id":26,"name":"MomoTheCookie","steam_id":76561198124371395,"connected_time":1481000000000,"state":"active","ping":125},{"user_id":36,"name":"potato_games","steam_id":76561199120708182,"connected_time":1087000000000,"state":"active","ping":99},{"user_id":54,"name":"Smuck","steam_id":76561198342427583,"connected_time":184000000000,"state":"active","ping":65},{"user_id":30,"name":"angelkitty","steam_id":76561199057051807,"connected_time":1320000000000,"state":"active","ping":95},{"user_id":32,"name":"fully vacced, fully autistic","steam_id":76561198968058652,"connected_time":1278000000000,"state":"active","ping":48},{"user_id":57,"name":"Juan Solo","steam_id":76561198018688536,"connected_time":41000000000,"state":"active","ping":126},{"user_id":38,"name":"gnome one likes me","steam_id":76561198273471095,"connected_time":1081000000000,"state":"active","ping":47},{"user_id":55,"name":"Born2Krill","steam_id":76561198427100244,"connected_time":169000000000,"state":"active","ping":77},{"user_id":40,"name":"Linguine","steam_id":76561199000775842,"connected_time":1043000000000,"state":"active","ping":49},{"user_id":50,"name":"you just got dyked on","steam_id":76561198018977723,"connected_time":341000000000,"state":"active","ping":59},{"user_id":47,"name":"Rotarius","steam_id":76561198109893506,"connected_time":881000000000,"state":"active","ping":105},{"user_id":43,"name":"Inworth","steam_id":76561197999777003,"connected_time":1021000000000,"state":"active","ping":109},{"user_id":49,"name":"*BaTaX*","steam_id":76561198185681331,"connected_time":567000000000,"state":"active","ping":184},{"user_id":56,"name":"but dat backflip doe","steam_id":76561198125947844,"connected_time":118000000000,"state":"active","ping":63},{"user_id":46,"name":"Enderkill777","steam_id":76561198876915153,"connected_time":986000000000,"state":"active","ping":77}]},{"server_id":406,"name":"Uncletopia | Seattle | 3 | Stopwatch","name_short":"sea-3","host":"sea-1.us.uncletopia.com","port":27035,"enabled":true,"region":"us-west","cc":"us","latitude":47.608013,"longitude":-122.33517,"reserved":0,"last_update":"0001-01-01T00:00:00Z","name_a2s":"Uncletopia | Seattle | 3 | Stopwatch","protocol":17,"map":"cp_gullywash_final1","folder":"tf","game":"Team Fortress","app_id":440,"player_count":0,"max_players":24,"Bots":0,"server_type":"Dedicated","server_os":"Linux","password":true,"vac":true,"version":"7961495","steam_id":85568392924515217,"keywords":["cp","nocrits","nodmgspread","uncletopia"],"game_id":440,"stv_port":27036,"stv_name":"Uncletopia | Seattle | 3 | Stopwatch | STV","players":null},{"server_id":17,"name":"Uncletopia | San Francisco | 1 | All Maps","name_short":"sfo-1","host":"sfo-1.us.uncletopia.com","port":27015,"enabled":true,"region":"us-west","cc":"us","latitude":37.77397,"longitude":-122.4313,"reserved":0,"last_update":"0001-01-01T00:00:00Z","name_a2s":"Uncletopia | San Francisco | 1 | All Maps","protocol":17,"map":"cp_gullywash_final1","folder":"tf","game":"Team Fortress","app_id":440,"player_count":0,"max_players":24,"Bots":0,"server_type":"Dedicated","server_os":"Linux","password":true,"vac":true,"version":"7961495","steam_id":85568392924469999,"keywords":["cp","nocrits","nodmgspread","uncletopia"],"game_id":440,"stv_port":27016,"stv_name":"Uncletopia | San Francisco | 1 | All Maps | STV","players":null},{"server_id":18,"name":"Uncletopia | San Francisco | 2 | All Maps","name_short":"sfo-2","host":"sfo-1.us.uncletopia.com","port":27025,"enabled":true,"region":"us-west","cc":"us","latitude":37.77397,"longitude":-122.4313,"reserved":0,"last_update":"0001-01-01T00:00:00Z","name_a2s":"Uncletopia | San Francisco | 2 | All Maps","protocol":17,"map":"cp_dustbowl","folder":"tf","game":"Team Fortress","app_id":440,"player_count":0,"max_players":24,"Bots":0,"server_type":"Dedicated","server_os":"Linux","password":true,"vac":true,"version":"7961495","steam_id":85568392924470000,"keywords":["cp","nocrits","nodmgspread","uncletopia"],"game_id":440,"stv_port":27026,"stv_name":"Uncletopia | San Francisco | 2 | All Maps | STV","players":null},{"server_id":19,"name":"Uncletopia | San Francisco | 3 | Stopwatch","name_short":"sfo-3","host":"sfo-1.us.uncletopia.com","port":27035,"enabled":true,"region":"us-west","cc":"us","latitude":37.77397,"longitude":-122.4313,"reserved":0,"last_update":"0001-01-01T00:00:00Z","name_a2s":"Uncletopia | San Francisco | 3 | Stopwatch","protocol":17,"map":"workshop/koth_bagel_rc6.ugc2514036946","folder":"tf","game":"Team Fortress","app_id":440,"player_count":0,"max_players":24,"Bots":0,"server_type":"Dedicated","server_os":"Linux","password":true,"vac":true,"version":"7961495","steam_id":85568392924742824,"keywords":["cp","nocrits","nodmgspread","uncletopia"],"game_id":440,"stv_port":27036,"stv_name":"Uncletopia | San Francisco | 3 | Stopwatch | STV","players":null},{"server_id":20,"name":"Uncletopia | San Francisco | 4 | Community","name_short":"sfo-4","host":"sfo-1.us.uncletopia.com","port":27045,"enabled":true,"region":"us-west","cc":"us","latitude":37.77397,"longitude":-122.4313,"reserved":0,"last_update":"0001-01-01T00:00:00Z","name_a2s":"Uncletopia | San Francisco | 4 | Community","protocol":17,"map":"workshop/cp_hazyfort_rc6.ugc1365963729","folder":"tf","game":"Team Fortress","app_id":440,"player_count":0,"max_players":24,"Bots":0,"server_type":"Dedicated","server_os":"Linux","password":true,"vac":true,"version":"7961495","steam_id":85568392924742826,"keywords":["cp","nocrits","nodmgspread","uncletopia"],"game_id":440,"stv_port":27046,"stv_name":"Uncletopia | San Francisco | 4 | Community | STV","players":null},{"server_id":141,"name":"Uncletopia | Sydney | 1 | All Maps","name_short":"syd-1","host":"syd-1.au.uncletopia.com","port":27015,"enabled":true,"region":"au","cc":"au","latitude":-33.865143,"longitude":151.2099,"reserved":0,"last_update":"0001-01-01T00:00:00Z","name_a2s":"Uncletopia | Sydney | 1 | All Maps","protocol":17,"map":"koth_cascade","folder":"tf","game":"Team Fortress","app_id":440,"player_count":0,"max_players":24,"Bots":0,"server_type":"Dedicated","server_os":"Linux","password":true,"vac":true,"version":"7961495","steam_id":85568392924470001,"keywords":["cp","nocrits","nodmgspread","uncletopia"],"game_id":440,"stv_port":27016,"stv_name":"Uncletopia | Sydney | 1 | All Maps | STV","players":null},{"server_id":123,"name":"Uncletopia | Sydney | 2 | All Maps","name_short":"syd-2","host":"syd-1.au.uncletopia.com","port":27025,"enabled":true,"region":"au","cc":"au","latitude":-33.865143,"longitude":151.2099,"reserved":0,"last_update":"0001-01-01T00:00:00Z","name_a2s":"Uncletopia | Sydney | 2 | All Maps","protocol":17,"map":"cp_mercenarypark","folder":"tf","game":"Team Fortress","app_id":440,"player_count":0,"max_players":24,"Bots":0,"server_type":"Dedicated","server_os":"Linux","password":true,"vac":true,"version":"7961495","steam_id":85568392924470002,"keywords":["cp","nocrits","nodmgspread","uncletopia"],"game_id":440,"stv_port":27026,"stv_name":"Uncletopia | Sydney | 2 | All Maps | STV","players":null},{"server_id":395,"name":"Uncletopia | Sydney | 3 | All Maps","name_short":"syd-3","host":"syd-1.au.uncletopia.com","port":27035,"enabled":true,"region":"au","cc":"au","latitude":-33.865143,"longitude":151.2099,"reserved":0,"last_update":"0001-01-01T00:00:00Z","name_a2s":"Uncletopia | Sydney | 3 | All Maps","protocol":17,"map":"koth_brazil","folder":"tf","game":"Team Fortress","app_id":440,"player_count":0,"max_players":24,"Bots":0,"server_type":"Dedicated","server_os":"Linux","password":true,"vac":true,"version":"7961495","steam_id":85568392925194467,"keywords":["cp","nocrits","nodmgspread","uncletopia"],"game_id":440,"stv_port":27036,"stv_name":"Uncletopia | Sydney | 3 | All Maps | STV","players":null},{"server_id":396,"name":"Uncletopia | Sydney | 4 | All Maps","name_short":"syd-4","host":"syd-1.au.uncletopia.com","port":27045,"enabled":true,"region":"au","cc":"au","latitude":-33.865143,"longitude":151.2099,"reserved":0,"last_update":"0001-01-01T00:00:00Z","name_a2s":"Uncletopia | Sydney | 4 | All Maps","protocol":17,"map":"cp_standin_final","folder":"tf","game":"Team Fortress","app_id":440,"player_count":0,"max_players":24,"Bots":0,"server_type":"Dedicated","server_os":"Linux","password":true,"vac":true,"version":"7961495","steam_id":85568392925397958,"keywords":["cp","nocrits","nodmgspread","uncletopia"],"game_id":440,"stv_port":27046,"stv_name":"Uncletopia | Sydney | 4 | All Maps | STV","players":null},{"server_id":58,"name":"Uncletopia | Sydney | 5 | Stopwatch","name_short":"syd-5","host":"syd-1.au.uncletopia.com","port":27055,"enabled":true,"region":"au","cc":"au","latitude":-33.865143,"longitude":151.2099,"reserved":0,"last_update":"0001-01-01T00:00:00Z","name_a2s":"Uncletopia | Sydney | 5 | Stopwatch","protocol":17,"map":"koth_highpass","folder":"tf","game":"Team Fortress","app_id":440,"player_count":0,"max_players":24,"Bots":0,"server_type":"Dedicated","server_os":"Linux","password":true,"vac":true,"version":"7961495","steam_id":85568392925397959,"keywords":["cp","nocrits","nodmgspread","uncletopia"],"game_id":440,"stv_port":27056,"stv_name":"Uncletopia | Sydney | 5 | Stopwatch | STV","players":null},{"server_id":59,"name":"Uncletopia | Sydney | 6 | Community","name_short":"syd-6","host":"syd-1.au.uncletopia.com","port":27065,"enabled":true,"region":"au","cc":"au","latitude":-33.865143,"longitude":151.2099,"reserved":0,"last_update":"0001-01-01T00:00:00Z","name_a2s":"Uncletopia | Sydney | 6 | Community","protocol":17,"map":"workshop/koth_soot_final1.ugc2969540689","folder":"tf","game":"Team Fortress","app_id":440,"player_count":0,"max_players":24,"Bots":0,"server_type":"Dedicated","server_os":"Linux","password":true,"vac":true,"version":"7961495","steam_id":85568392925397960,"keywords":["cp","nocrits","nodmgspread","uncletopia"],"game_id":440,"stv_port":27066,"stv_name":"Uncletopia | Sydney | 6 | Community | STV","players":null},{"server_id":49,"name":"Uncletopia | Warsaw | 1 | One Thousand Uncles","name_short":"waw-1","host":"waw-1.pl.uncletopia.com","port":27015,"enabled":true,"region":"eu","cc":"pl","latitude":52.2297,"longitude":21.017532,"reserved":0,"last_update":"0001-01-01T00:00:00Z","name_a2s":"Uncletopia | Warsaw | 1 | One Thousand Uncles","protocol":17,"map":"cp_dustbowl","folder":"tf","game":"Team Fortress","app_id":440,"player_count":23,"max_players":32,"Bots":20,"server_type":"Dedicated","server_os":"Linux","password":true,"vac":true,"version":"7961495","steam_id":85568392925397850,"keywords":["alltalk","bots","cp","danepve","increased_maxplayers","norespawntime","uncletopia"],"game_id":440,"stv_port":0,"stv_name":"","players":[{"user_id":597,"name":"torn","steam_id":76561198223003236,"connected_time":3177000000000,"state":"active","ping":62},{"user_id":601,"name":"A1on","steam_id":76561198817623152,"connected_time":2105000000000,"state":"active","ping":46},{"user_id":596,"name":"waffle toaster","steam_id":76561198799089628,"connected_time":3399000000000,"state":"active","ping":74}]},{"server_id":50,"name":"Uncletopia | Warsaw | 2 | One Thousand Uncles","name_short":"waw-2","host":"waw-1.pl.uncletopia.com","port":27025,"enabled":true,"region":"eu","cc":"pl","latitude":52.2297,"longitude":21.017532,"reserved":0,"last_update":"0001-01-01T00:00:00Z","name_a2s":"Uncletopia | Warsaw | 2 | One Thousand Uncles","protocol":17,"map":"pl_thundermountain","folder":"tf","game":"Team Fortress","app_id":440,"player_count":0,"max_players":32,"Bots":0,"server_type":"Dedicated","server_os":"Linux","password":true,"vac":true,"version":"7961495","steam_id":85568392925397851,"keywords":["alltalk","danepve","increased_maxplayers","norespawntime","payload","uncletopia"],"game_id":440,"stv_port":0,"stv_name":"","players":null},{"server_id":51,"name":"Uncletopia | Warsaw | 3 | All Maps","name_short":"waw-3","host":"waw-1.pl.uncletopia.com","port":27035,"enabled":true,"region":"eu","cc":"pl","latitude":52.2297,"longitude":21.017532,"reserved":0,"last_update":"0001-01-01T00:00:00Z","name_a2s":"Uncletopia | Warsaw | 3 | All Maps","protocol":17,"map":"pl_barnblitz","folder":"tf","game":"Team Fortress","app_id":440,"player_count":0,"max_players":24,"Bots":0,"server_type":"Dedicated","server_os":"Linux","password":true,"vac":true,"version":"7961495","steam_id":85568392925397852,"keywords":["nocrits","nodmgspread","payload","uncletopia"],"game_id":440,"stv_port":27036,"stv_name":"Uncletopia | Warsaw | 3 | All Maps | STV","players":null},{"server_id":52,"name":"Uncletopia | Warsaw | 4 | All Maps","name_short":"waw-4","host":"waw-1.pl.uncletopia.com","port":27045,"enabled":true,"region":"eu","cc":"pl","latitude":52.2297,"longitude":21.017532,"reserved":0,"last_update":"0001-01-01T00:00:00Z","name_a2s":"Uncletopia | Warsaw | 4 | All Maps","protocol":17,"map":"koth_viaduct","folder":"tf","game":"Team Fortress","app_id":440,"player_count":0,"max_players":24,"Bots":0,"server_type":"Dedicated","server_os":"Linux","password":true,"vac":true,"version":"7961495","steam_id":85568392925397853,"keywords":["cp","nocrits","nodmgspread","uncletopia"],"game_id":440,"stv_port":27046,"stv_name":"Uncletopia | Warsaw | 4 | All Maps | STV","players":null},{"server_id":53,"name":"Uncletopia | Warsaw | 5 | Stopwatch","name_short":"waw-5","host":"waw-1.pl.uncletopia.com","port":27055,"enabled":true,"region":"eu","cc":"pl","latitude":52.2297,"longitude":21.017532,"reserved":0,"last_update":"0001-01-01T00:00:00Z","name_a2s":"Uncletopia | Warsaw | 5 | Stopwatch","protocol":17,"map":"workshop/pl_summercoast_rc8e.ugc1761528829","folder":"tf","game":"Team Fortress","app_id":440,"player_count":0,"max_players":24,"Bots":0,"server_type":"Dedicated","server_os":"Linux","password":true,"vac":true,"version":"7961495","steam_id":85568392925397854,"keywords":["nocrits","nodmgspread","payload","uncletopia"],"game_id":440,"stv_port":27056,"stv_name":"Uncletopia | Warsaw | 5 | Stopwatch | STV","players":null},{"server_id":54,"name":"Uncletopia | Warsaw | 6 | Community","name_short":"waw-6","host":"waw-1.pl.uncletopia.com","port":27065,"enabled":true,"region":"eu","cc":"pl","latitude":52.2297,"longitude":21.017532,"reserved":0,"last_update":"0001-01-01T00:00:00Z","name_a2s":"Uncletopia | Warsaw | 6 | Community","protocol":17,"map":"workshop/cp_fulgur_rc2a.ugc2068252300","folder":"tf","game":"Team Fortress","app_id":440,"player_count":0,"max_players":24,"Bots":0,"server_type":"Dedicated","server_os":"Linux","password":true,"vac":true,"version":"7961495","steam_id":85568392925397856,"keywords":["cp","nocrits","nodmgspread","uncletopia"],"game_id":440,"stv_port":27066,"stv_name":"Uncletopia | Warsaw | 6 | Community | STV","players":null}]}