{"status":true,"message":"","result":[{"server_id":2,"name":"Uncletopia | Chicago | 1 | All Maps","name_short":"chi-1","host":"chi-1.us.uncletopia.com","port":27015,"enabled":true,"region":"us-central","cc":"us","latitude":41.881832,"longitude":-87.62318,"reserved":0,"last_update":"0001-01-01T00:00:00Z","name_a2s":"Uncletopia | Chicago | 1 | All Maps","protocol":17,"map":"cp_dustbowl","folder":"tf","game":"Team Fortress","app_id":440,"player_count":25,"max_players":24,"Bots":0,"server_type":"Dedicated","server_os":"Linux","password":true,"vac":true,"version":"7932396","steam_id":85568392924469984,"keywords":["cp","nocrits","nodmgspread","uncletopia"],"game_id":440,"stv_port":27016,"stv_name":"Uncletopia | Chicago | 1 | All Maps | STV","players":[{"user_id":169,"name":"LerN","steam_id":76561198083463877,"connected_time":1719000000000,"state":"active","ping":56},{"user_id":154,"name":"Celestial Bodies","steam_id":76561198212572955,"connected_time":1860000000000,"state":"active","ping":76},{"user_id":203,"name":"Santamen","steam_id":76561198119478199,"connected_time":1189000000000,"state":"active","ping":55},{"user_id":199,"name":"hoot.","steam_id":76561198066876703,"connected_time":1218000000000,"state":"active","ping":46},{"user_id":123,"name":"berserker_tf2 yt","steam_id":76561198303464488,"connected_time":3937000000000,"state":"active","ping":61},{"user_id":155,"name":"Grilled Jizo","steam_id":76561199250875340,"connected_time":1855000000000,"state":"active","ping":72},{"user_id":157,"name":"skps","steam_id":76561198083276946,"connected_time":1849000000000,"state":"active","ping":64},{"user_id":129,"name":"Alfonso Molestro","steam_id":76561197998677099,"connected_time":2994000000000,"state":"active","ping":76},{"user_id":211,"name":"Hank the Tank","steam_id":76561198424853684,"connected_time":947000000000,"state":"active","ping":82},{"user_id":165,"name":"Piggy","steam_id":76561198000399862,"connected_time":1741000000000,"state":"active","ping":83},{"user_id":136,"name":"Ritzy","steam_id":76561198381955342,"connected_time":2940000000000,"state":"active","ping":139},{"user_id":150,"name":"Oxygen Denier","steam_id":76561197986051713,"connected_time":1897000000000,"state":"active","ping":82},{"user_id":128,"name":"Michaelpc1","steam_id":76561198088365519,"connected_time":3061000000000,"state":"active","ping":74},{"user_id":229,"name":"Ibrahim","steam_id":76561198028320625,"connected_time":590000000000,"state":"active","ping":69},{"user_id":127,"name":"Acro","steam_id":76561198092451804,"connected_time":3128000000000,"state":"active","ping":68},{"user_id":151,"name":"ipadkid","steam_id":76561199239446808,"connected_time":1882000000000,"state":"active","ping":79},{"user_id":188,"name":"Polly Geist","steam_id":76561198271964253,"connected_time":1327000000000,"state":"active","ping":77},{"user_id":202,"name":"bobby wasabi","steam_id":76561198380018244,"connected_time":1194000000000,"state":"active","ping":75},{"user_id":239,"name":"richard clock","steam_id":76561198048455671,"connected_time":475000000000,"state":"active","ping":62},{"user_id":134,"name":"Aeonspassed","steam_id":76561198014016451,"connected_time":2963000000000,"state":"active","ping":59},{"user_id":263,"name":"Im High","steam_id":76561198049954886,"connected_time":2000000000,"state":"spawning","ping":74},{"user_id":176,"name":"Tomcouger","steam_id":76561198022866923,"connected_time":1621000000000,"state":"active","ping":134},{"user_id":210,"name":"Adam (Cursed Confetti Creature)","steam_id":76561198317690197,"connected_time":1003000000000,"state":"active","ping":48},{"user_id":242,"name":"Xbox record that!","steam_id":76561198239286750,"connected_time":348000000000,"state":"active","ping":71},{"user_id":148,"name":"Jirachi","steam_id":76561198341537452,"connected_time":2284000000000,"state":"active","ping":78}]},{"server_id":106,"name":"Uncletopia | Chicago | 2 | All Maps","name_short":"chi-2","host":"chi-1.us.uncletopia.com","port":27025,"enabled":true,"region":"us-central","cc":"us","latitude":41.881832,"longitude":-87.62318,"reserved":0,"last_update":"0001-01-01T00:00:00Z","name_a2s":"Uncletopia | Chicago | 2 | All Maps","protocol":17,"map":"pl_upward","folder":"tf","game":"Team Fortress","app_id":440,"player_count":24,"max_players":24,"Bots":0,"server_type":"Dedicated","server_os":"Linux","password":true,"vac":true,"version":"7932396","steam_id":85568392924469985,"keywords":["nocrits","nodmgspread","payload","uncletopia"],"game_id":440,"stv_port":27026,"stv_name":"Uncletopia | Chicago | 2 | All Maps | STV","players":[{"user_id":498,"name":"triangleman","steam_id":76561198972733542,"connected_time":3427000000000,"state":"active","ping":58},{"user_id":521,"name":"Benson","steam_id":76561198110704686,"connected_time":1944000000000,"state":"active","ping":45},{"user_id":538,"name":"skogg yenseii","steam_id":76561198304265800,"connected_time":1561000000000,"state":"active","ping":77},{"user_id":534,"name":"‚ùåÔ∏èAYCE_ANEMOIA‚ùå","steam_id":76561199035613356,"connected_time":1603000000000,"state":"active","ping":158},{"user_id":557,"name":"valorant lover","steam_id":76561198037826370,"connected_time":176000000000,"state":"active","ping":56},{"user_id":488,"name":"Froggy Chair","steam_id":76561198259695175,"connected_time":4509000000000,"state":"active","ping":55},{"user_id":524,"name":"Mythical Lag","steam_id":76561198347031281,"connected_time":1858000000000,"state":"active","ping":75},{"user_id":526,"name":"Fatass Engineer","steam_id":76561199233572024,"connected_time":1816000000000,"state":"active","ping":47},{"user_id":556,"name":"Yoshi","steam_id":76561198975207722,"connected_time":212000000000,"state":"active","ping":75},{"user_id":552,"name":"MyTeamIsAzz","steam_id":76561198241921220,"connected_time":913000000000,"state":"active","ping":86},{"user_id":527,"name":"Rec","steam_id":76561198022813906,"connected_time":1782000000000,"state":"active","ping":50},{"user_id":544,"name":"slugnuts?","steam_id":76561198142129648,"connected_time":1182000000000,"state":"active","ping":76},{"user_id":536,"name":"Owixan","steam_id":76561198074990070,"connected_time":1580000000000,"state":"active","ping":35},{"user_id":553,"name":"Quibbli","steam_id":76561199214866732,"connected_time":823000000000,"state":"active","ping":71},{"user_id":554,"name":"kite","steam_id":76561198346516392,"connected_time":578000000000,"state":"active","ping":71},{"user_id":548,"name":"Dotshin","steam_id":76561198452926392,"connected_time":1130000000000,"state":"active","ping":98},{"user_id":539,"name":"Obelisk","steam_id":76561198049416866,"connected_time":1557000000000,"state":"active","ping":79},{"user_id":530,"name":"Mindset","steam_id":76561198107074449,"connected_time":1717000000000,"state":"active","ping":50},{"user_id":529,"name":"cornshot","steam_id":76561198043496387,"connected_time":1774000000000,"state":"active","ping":107},{"user_id":532,"name":"The King","steam_id":76561198117344758,"connected_time":1615000000000,"state":"active","ping":84},{"user_id":543,"name":"Squibble","steam_id":76561198124800572,"connected_time":1287000000000,"state":"active","ping":88},{"user_id":555,"name":"Westwood","steam_id":76561199387699252,"connected_time":218000000000,"state":"active","ping":85},{"user_id":523,"name":"PPOGGERS","steam_id":76561198340151534,"connected_time":1938000000000,"state":"active","ping":61}]},{"server_id":402,"name":"Uncletopia | Chicago | 3 | All Maps","name_short":"chi-3","host":"chi-1.us.uncletopia.com","port":27035,"enabled":true,"region":"us-central","cc":"us","latitude":41.881832,"longitude":-87.62318,"reserved":0,"last_update":"0001-01-01T00:00:00Z","name_a2s":"Uncletopia | Chicago | 3 | All Maps","protocol":17,"map":"pl_goldrush","folder":"tf","game":"Team Fortress","app_id":440,"player_count":24,"max_players":24,"Bots":0,"server_type":"Dedicated","server_os":"Linux","password":true,"vac":true,"version":"7932396","steam_id":85568392924515191,"keywords":["nocrits","nodmgspread","payload","uncletopia"],"game_id":440,"stv_port":27036,"stv_name":"Uncletopia | Chicago | 3 | All Maps | STV","players":[{"user_id":22,"name":"Aerobro","steam_id":76561198033530996,"connected_time":2276000000000,"state":"active","ping":92},{"user_id":32,"name":"Guy Baloney","steam_id":76561198064911344,"connected_time":1718000000000,"state":"active","ping":69},{"user_id":33,"name":"eat Pant","steam_id":76561197974965536,"connected_time":1701000000000,"state":"active","ping":60},{"user_id":34,"name":"Hayd3nQ","steam_id":76561198124849736,"connected_time":1662000000000,"state":"active","ping":82},{"user_id":36,"name":"MikeLovesRabbit","steam_id":76561197997742625,"connected_time":1448000000000,"state":"active","ping":69},{"user_id":37,"name":"monkeyman","steam_id":76561199388992941,"connected_time":1275000000000,"state":"active","ping":121},{"user_id":38,"name":"30 fps gaming","steam_id":76561199216756079,"connected_time":1165000000000,"state":"active","ping":74},{"user_id":39,"name":"TheSmolPopato","steam_id":76561199076606348,"connected_time":1164000000000,"state":"active","ping":59},{"user_id":40,"name":"corned beef","steam_id":76561199366782761,"connected_time":1144000000000,"state":"active","ping":135},{"user_id":41,"name":"hum","steam_id":76561198085457599,"connected_time":1048000000000,"state":"active","ping":74},{"user_id":42,"name":"JHLO","steam_id":76561198074359967,"connected_time":976000000000,"state":"active","ping":73},{"user_id":62,"name":"MorsPrima","steam_id":76561199196014252,"connected_time":12000000000,"state":"active","ping":111},{"user_id":44,"name":"üï±„Åô„Åπ„Å¶„ÅåÂòò„Åß„Åô!üï±","steam_id":76561198044338811,"connected_time":924000000000,"state":"active","ping":47},{"user_id":57,"name":"Discourse","steam_id":76561198984286678,"connected_time":651000000000,"state":"active","ping":57},{"user_id":50,"name":"Not so incredible","steam_id":76561199071067695,"connected_time":796000000000,"state":"active","ping":75},{"user_id":60,"name":"MoonWolf","steam_id":76561198095735033,"connected_time":257000000000,"state":"active","ping":78},{"user_id":48,"name":"Gaming123","steam_id":76561198801780168,"connected_time":877000000000,"state":"active","ping":62},{"user_id":51,"name":"YaGirlVann","steam_id":76561199257900151,"connected_time":748000000000,"state":"active","ping":72},{"user_id":52,"name":"TrashBoat","steam_id":76561199089671432,"connected_time":734000000000,"state":"active","ping":110},{"user_id":53,"name":"OrionCurtis5","steam_id":76561198105386748,"connected_time":723000000000,"state":"active","ping":91},{"user_id":54,"name":"Lesser Edgelord","steam_id":76561198800339067,"connected_time":719000000000,"state":"active","ping":134},{"user_id":55,"name":"GRONT","steam_id":76561198040464533,"connected_time":704000000000,"state":"active","ping":76},{"user_id":56,"name":"fo2032473475616534","steam_id":76561198392484218,"connected_time":680000000000,"state":"active","ping":102},{"user_id":61,"name":"917-258-3609","steam_id":76561198174436329,"connected_time":226000000000,"state":"active","ping":70}]},{"server_id":403,"name":"Uncletopia | Chicago | 4 | All Maps","name_short":"chi-4","host":"chi-1.us.uncletopia.com","port":27045,"enabled":true,"region":"us-central","cc":"us","latitude":41.881832,"longitude":-87.62318,"reserved":0,"last_update":"0001-01-01T00:00:00Z","name_a2s":"Uncletopia | Chicago | 4 | All Maps","protocol":17,"map":"cp_sunshine","folder":"tf","game":"Team Fortress","app_id":440,"player_count":23,"max_players":24,"Bots":0,"server_type":"Dedicated","server_os":"Linux","password":true,"vac":true,"version":"7932396","steam_id":85568392924515193,"keywords":["cp","nocrits","nodmgspread","uncletopia"],"game_id":440,"stv_port":27046,"stv_name":"Uncletopia | Chicago | 4 | All Maps | STV","players":[{"user_id":213,"name":"PajamaPants","steam_id":76561198400306643,"connected_time":540000000000,"state":"active","ping":70},{"user_id":195,"name":"Rushee","steam_id":76561198135962525,"connected_time":1537000000000,"state":"active","ping":142},{"user_id":221,"name":"mel0n","steam_id":76561198034817244,"connected_time":404000000000,"state":"active","ping":55},{"user_id":223,"name":"Sandman","steam_id":76561199046497884,"connected_time":370000000000,"state":"active","ping":68},{"user_id":165,"name":"Agnos","steam_id":76561198241498776,"connected_time":3652000000000,"state":"active","ping":59},{"user_id":215,"name":"Nigel","steam_id":76561198115574712,"connected_time":529000000000,"state":"active","ping":51},{"user_id":168,"name":"SuppressedBarrel","steam_id":76561198032336504,"connected_time":3597000000000,"state":"active","ping":60},{"user_id":222,"name":"Grand Piano Tuna","steam_id":76561198135137213,"connected_time":395000000000,"state":"active","ping":49},{"user_id":224,"name":"R√∂ntgen","steam_id":76561197993492325,"connected_time":8000000000,"state":"active","ping":117},{"user_id":206,"name":"5mech","steam_id":76561198979167520,"connected_time":809000000000,"state":"active","ping":59},{"user_id":185,"name":"MaineGameBoy","steam_id":76561198278698726,"connected_time":2851000000000,"state":"active","ping":189},{"user_id":172,"name":"catfish from toontown","steam_id":76561198060070002,"connected_time":3516000000000,"state":"active","ping":74},{"user_id":204,"name":"SanitysEdge","steam_id":76561198130732813,"connected_time":860000000000,"state":"active","ping":95},{"user_id":205,"name":"Jim the Fish","steam_id":76561199135784419,"connected_time":851000000000,"state":"active","ping":78},{"user_id":200,"name":"^5t^6i^5n^6y","steam_id":76561198010743348,"connected_time":1323000000000,"state":"active","ping":60},{"user_id":199,"name":"Voodo133","steam_id":76561198042670351,"connected_time":1475000000000,"state":"active","ping":87},{"user_id":147,"name":"minty","steam_id":76561198096347625,"connected_time":4924000000000,"state":"active","ping":79},{"user_id":176,"name":"Jeff Probst","steam_id":76561199215811448,"connected_time":3409000000000,"state":"active","ping":86},{"user_id":217,"name":"antknee","steam_id":76561198263793809,"connected_time":525000000000,"state":"active","ping":75},{"user_id":158,"name":"Medic Boyfriend","steam_id":76561198104086771,"connected_time":4442000000000,"state":"active","ping":102},{"user_id":166,"name":"Ejaculation Zach","steam_id":76561198203765200,"connected_time":3635000000000,"state":"active","ping":57},{"user_id":191,"name":"pele","steam_id":76561198021224745,"connected_time":1631000000000,"state":"active","ping":49},{"user_id":210,"name":"skooma_consuma","steam_id":76561197974009843,"connected_time":693000000000,"state":"active","ping":75}]},{"server_id":36,"name":"Uncletopia | Chicago | 5 | All Maps","name_short":"chi-5","host":"chi-2.us.uncletopia.com","port":27015,"enabled":true,"region":"us-central","cc":"us","latitude":41.881832,"longitude":-87.62318,"reserved":0,"last_update":"0001-01-01T00:00:00Z","name_a2s":"Uncletopia | Chicago | 5 | All Maps","protocol":17,"map":"pl_borneo","folder":"tf","game":"Team Fortress","app_id":440,"player_count":24,"max_players":24,"Bots":0,"server_type":"Dedicated","server_os":"Linux","password":true,"vac":true,"version":"7932396","steam_id":85568392924866362,"keywords":["nocrits","nodmgspread","payload","uncletopia"],"game_id":440,"stv_port":27016,"stv_name":"Uncletopia | Chicago | 5 | All Maps | STV","players":[{"user_id":549,"name":"LVL 4 Dispenser Gaming","steam_id":76561198044244547,"connected_time":629000000000,"state":"active","ping":75},{"user_id":550,"name":"fef","steam_id":76561198011887071,"connected_time":609000000000,"state":"active","ping":49},{"user_id":551,"name":"Hot Milk + Big Slappies","steam_id":76561197988989149,"connected_time":598000000000,"state":"active","ping":85},{"user_id":534,"name":"novu","steam_id":76561198886997024,"connected_time":1633000000000,"state":"active","ping":85},{"user_id":555,"name":"The mook","steam_id":76561198963551905,"connected_time":149000000000,"state":"active","ping":61},{"user_id":519,"name":"Epifiny","steam_id":76561198027958086,"connected_time":2435000000000,"state":"active","ping":69},{"user_id":536,"name":"GooniOoni","steam_id":76561198102154561,"connected_time":1065000000000,"state":"active","ping":43},{"user_id":511,"name":"Mr. Luggy","steam_id":76561198072723392,"connected_time":3223000000000,"state":"active","ping":88},{"user_id":548,"name":"Ja","steam_id":76561198396340174,"connected_time":729000000000,"state":"active","ping":71},{"user_id":552,"name":":)","steam_id":76561198093921290,"connected_time":573000000000,"state":"active","ping":46},{"user_id":510,"name":"Mephistopheles","steam_id":76561198253731826,"connected_time":3592000000000,"state":"active","ping":74},{"user_id":553,"name":"Banks","steam_id":76561198276505537,"connected_time":461000000000,"state":"active","ping":66},{"user_id":525,"name":"aiden","steam_id":76561198449527009,"connected_time":2157000000000,"state":"active","ping":103},{"user_id":521,"name":"the animals are leaving","steam_id":76561198043873119,"connected_time":2186000000000,"state":"active","ping":73},{"user_id":516,"name":"nilftb","steam_id":76561198161952186,"connected_time":2914000000000,"state":"active","ping":60},{"user_id":526,"name":"Pants","steam_id":76561197966222755,"connected_time":2150000000000,"state":"active","ping":47},{"user_id":547,"name":"wfaawj8f09h308fa","steam_id":76561198165212575,"connected_time":872000000000,"state":"active","ping":75},{"user_id":531,"name":"ansmew","steam_id":76561198075200670,"connected_time":2080000000000,"state":"active","ping":75},{"user_id":503,"name":"yomo","steam_id":76561198063175935,"connected_time":4397000000000,"state":"active","ping":74},{"user_id":514,"name":"nelly modelo","steam_id":76561198044875206,"connected_time":2973000000000,"state":"active","ping":97},{"user_id":515,"name":"Stranger in a Strange Land","steam_id":76561198049843671,"connected_time":2970000000000,"state":"active","ping":67},{"user_id":529,"name":"ly_dee","steam_id":76561198074956732,"connected_time":2130000000000,"state":"active","ping":142},{"user_id":418,"name":"we're so back","steam_id":76561198058485742,"connected_time":9700000000000,"state":"active","ping":67},{"user_id":542,"name":"g00bur","steam_id":76561197993622520,"connected_time":966000000000,"state":"active","ping":69}]},{"server_id":37,"name":"Uncletopia | Chicago | 6 | All Maps","name_short":"chi-6","host":"chi-2.us.uncletopia.com","port":27025,"enabled":true,"region":"us-central","cc":"us","latitude":41.881832,"longitude":-87.62318,"reserved":0,"last_update":"0001-01-01T00:00:00Z","name_a2s":"Uncletopia | Chicago | 6 | All Maps","protocol":17,"map":"cp_altitude","folder":"tf","game":"Team Fortress","app_id":440,"player_count":0,"max_players":24,"Bots":0,"server_type":"Dedicated","server_os":"Linux","password":true,"vac":true,"version":"7932396","steam_id":85568392924866363,"keywords":["cp","nocrits","nodmgspread","uncletopia"],"game_id":440,"stv_port":27026,"stv_name":"Uncletopia | Chicago | 6 | All Maps | STV","players":null},{"server_id":38,"name":"Uncletopia | Chicago | 7 | Stopwatch Beta","name_short":"chi-7","host":"chi-2.us.uncletopia.com","port":27035,"enabled":true,"region":"us-central","cc":"us","latitude":41.881832,"longitude":-87.62318,"reserved":0,"last_update":"0001-01-01T00:00:00Z","name_a2s":"Uncletopia | Chicago | 7 | Stopwatch Beta","protocol":17,"map":"pl_borneo","folder":"tf","game":"Team Fortress","app_id":440,"player_count":0,"max_players":24,"Bots":0,"server_type":"Dedicated","server_os":"Linux","password":true,"vac":true,"version":"7932396","steam_id":85568392924866364,"keywords":["nocrits","nodmgspread","payload","uncletopia"],"game_id":440,"stv_port":27036,"stv_name":"Uncletopia | Chicago | 7 | Stopwatch Beta | STV","players":null},{"server_id":39,"name":"Uncletopia | Chicago | 8 | Community","name_short":"chi-8","host":"chi-2.us.uncletopia.com","port":27045,"enabled":true,"region":"us-central","cc":"us","latitude":41.881832,"longitude":-87.62318,"reserved":0,"last_update":"0001-01-01T00:00:00Z","name_a2s":"Uncletopia | Chicago | 8 | Community","protocol":17,"map":"workshop/pl_badwater_pro_v12.ugc2142942074","folder":"tf","game":"Team Fortress","app_id":440,"player_count":24,"max_players":24,"Bots":0,"server_type":"Dedicated","server_os":"Linux","password":true,"vac":true,"version":"7932396","steam_id":85568392924866365,"keywords":["nocrits","nodmgspread","payload","uncletopia"],"game_id":440,"stv_port":27046,"stv_name":"Uncletopia | Chicago | 8 | Community | STV","players":[{"user_id":63,"name":"Tresthebest360","steam_id":76561198965347175,"connected_time":932000000000,"state":"active","ping":64},{"user_id":44,"name":"Thequirka","steam_id":76561198968058652,"connected_time":2610000000000,"state":"active","ping":95},{"user_id":65,"name":"ultralisk52","steam_id":76561198051666604,"connected_time":606000000000,"state":"active","ping":60},{"user_id":66,"name":"Poberl","steam_id":76561198823051158,"connected_time":602000000000,"state":"active","ping":62},{"user_id":41,"name":"Engineer Gaming","steam_id":76561198840761529,"connected_time":2733000000000,"state":"active","ping":61},{"user_id":67,"name":"all toasters toast toast","steam_id":76561198140846580,"connected_time":525000000000,"state":"active","ping":67},{"user_id":68,"name":"Cagnus Marlsen","steam_id":76561198063341193,"connected_time":504000000000,"state":"active","ping":61},{"user_id":69,"name":"AudaCD","steam_id":76561198202775853,"connected_time":499000000000,"state":"active","ping":68},{"user_id":70,"name":"Willy","steam_id":76561198046508940,"connected_time":481000000000,"state":"active","ping":74},{"user_id":52,"name":"scottbagel","steam_id":76561199144640325,"connected_time":1573000000000,"state":"active","ping":61},{"user_id":58,"name":"OATS | ChromeBroke","steam_id":76561198325403141,"connected_time":1317000000000,"state":"active","ping":65},{"user_id":59,"name":"Hindmost","steam_id":76561199081837220,"connected_time":1187000000000,"state":"active","ping":80},{"user_id":57,"name":"Smol Nezuko","steam_id":76561198122759831,"connected_time":1344000000000,"state":"active","ping":46},{"user_id":71,"name":"BluCoffee","steam_id":76561198214995967,"connected_time":477000000000,"state":"active","ping":71},{"user_id":72,"name":"goblin tf2","steam_id":76561198033073709,"connected_time":471000000000,"state":"active","ping":69},{"user_id":62,"name":"vbatalon888","steam_id":76561199097761803,"connected_time":1088000000000,"state":"active","ping":74},{"user_id":73,"name":"INFINITE","steam_id":76561197971285557,"connected_time":466000000000,"state":"active","ping":71},{"user_id":74,"name":"CORONA‚Ñ¢ and friends","steam_id":76561198342011115,"connected_time":460000000000,"state":"active","ping":64},{"user_id":81,"name":"GOLDIE","steam_id":76561199375258674,"connected_time":304000000000,"state":"active","ping":97},{"user_id":76,"name":"DanthePunman","steam_id":76561198453724913,"connected_time":406000000000,"state":"active","ping":64},{"user_id":82,"name":"Killerkarate","steam_id":76561198067533929,"connected_time":111000000000,"state":"active","ping":54},{"user_id":78,"name":"rawrski","steam_id":76561197972464020,"connected_time":397000000000,"state":"active","ping":76},{"user_id":79,"name":"hoodclips","steam_id":76561198253706796,"connected_time":389000000000,"state":"active","ping":104},{"user_id":80,"name":"Mr_Mustache_Man","steam_id":76561199141073030,"connected_time":376000000000,"state":"active","ping":106}]},{"server_id":8,"name":"Uncletopia | Dallas | 1 | All Maps","name_short":"dal-1","host":"dal-1.us.uncletopia.com","port":27015,"enabled":true,"region":"us-central","cc":"us","latitude":32.779167,"longitude":-96.80889,"reserved":0,"last_update":"0001-01-01T00:00:00Z","name_a2s":"Uncletopia | Dallas | 1 | All Maps","protocol":17,"map":"pl_badwater","folder":"tf","game":"Team Fortress","app_id":440,"player_count":24,"max_players":24,"Bots":0,"server_type":"Dedicated","server_os":"Linux","password":true,"vac":true,"version":"7932396","steam_id":85568392924469986,"keywords":["nocrits","nodmgspread","payload","uncletopia"],"game_id":440,"stv_port":27016,"stv_name":"Uncletopia | Dallas | 1 | All Maps | STV","players":[{"user_id":537,"name":"errant","steam_id":76561197961758410,"connected_time":4422000000000,"state":"active","ping":32},{"user_id":587,"name":"._.","steam_id":76561198064255155,"connected_time":1256000000000,"state":"active","ping":60},{"user_id":589,"name":"6NYR BrassCBC","steam_id":76561198170057597,"connected_time":1127000000000,"state":"active","ping":87},{"user_id":601,"name":"Mehman","steam_id":76561199020244051,"connected_time":705000000000,"state":"active","ping":103},{"user_id":511,"name":"Moonflower ‚ú¶","steam_id":76561198191782483,"connected_time":7756000000000,"state":"active","ping":48},{"user_id":569,"name":"Sup m8","steam_id":76561198081659121,"connected_time":2582000000000,"state":"active","ping":34},{"user_id":590,"name":"rune simpa","steam_id":76561198046174848,"connected_time":1099000000000,"state":"active","ping":55},{"user_id":562,"name":"fleepore (:","steam_id":76561199238295034,"connected_time":2837000000000,"state":"active","ping":77},{"user_id":582,"name":"Acolyte Of Pain","steam_id":76561198143094194,"connected_time":2298000000000,"state":"active","ping":96},{"user_id":585,"name":"a narwhal","steam_id":76561198014527353,"connected_time":1938000000000,"state":"active","ping":88},{"user_id":591,"name":"{ST} Oxythemoron","steam_id":76561198060089965,"connected_time":1097000000000,"state":"active","ping":48},{"user_id":558,"name":"when I dip you dip we dip","steam_id":76561197971260031,"connected_time":3342000000000,"state":"active","ping":51},{"user_id":592,"name":"tonybaloney","steam_id":76561199434233117,"connected_time":1086000000000,"state":"active","ping":54},{"user_id":603,"name":"Stillkill","steam_id":76561198065069057,"connected_time":431000000000,"state":"active","ping":44},{"user_id":602,"name":"JimJee","steam_id":76561199120656064,"connected_time":695000000000,"state":"active","ping":62},{"user_id":594,"name":"charm quark","steam_id":76561198098770777,"connected_time":1084000000000,"state":"active","ping":105},{"user_id":584,"name":"BrightOrangeMango","steam_id":76561198023144607,"connected_time":2084000000000,"state":"active","ping":78},{"user_id":595,"name":"brains","steam_id":76561198197388678,"connected_time":1049000000000,"state":"active","ping":74},{"user_id":599,"name":"Some Stupid Name","steam_id":76561198065575548,"connected_time":734000000000,"state":"active","ping":79},{"user_id":566,"name":"Seshagrantch","steam_id":76561198112033660,"connected_time":2736000000000,"state":"active","ping":63},{"user_id":596,"name":"dweamy","steam_id":76561198119181880,"connected_time":1047000000000,"state":"active","ping":60},{"user_id":604,"name":"moe","steam_id":76561198929586245,"connected_time":390000000000,"state":"active","ping":81},{"user_id":575,"name":":\u003e","steam_id":76561199489391928,"connected_time":2508000000000,"state":"active","ping":75},{"user_id":560,"name":"BumberQuest","steam_id":76561198273025294,"connected_time":3267000000000,"state":"active","ping":64}]},{"server_id":108,"name":"Uncletopia | Dallas | 2 | All Maps","name_short":"dal-2","host":"dal-1.us.uncletopia.com","port":27025,"enabled":true,"region":"us-central","cc":"us","latitude":32.779167,"longitude":-96.80889,"reserved":0,"last_update":"0001-01-01T00:00:00Z","name_a2s":"Uncletopia | Dallas | 2 | All Maps","protocol":17,"map":"cp_mountainlab","folder":"tf","game":"Team Fortress","app_id":440,"player_count":24,"max_players":24,"Bots":0,"server_type":"Dedicated","server_os":"Linux","password":true,"vac":true,"version":"7932396","steam_id":85568392924469988,"keywords":["cp","nocrits","nodmgspread","uncletopia"],"game_id":440,"stv_port":27026,"stv_name":"Uncletopia | Dallas | 2 | All Maps | STV","players":[{"user_id":204,"name":"Accurate Flame Sentry RP","steam_id":76561198412786186,"connected_time":984000000000,"state":"active","ping":59},{"user_id":217,"name":"Eins","steam_id":76561199030343810,"connected_time":501000000000,"state":"active","ping":54},{"user_id":218,"name":"Ellis gaming","steam_id":76561199122336760,"connected_time":492000000000,"state":"active","ping":58},{"user_id":208,"name":"[DEEP] Roz257","steam_id":76561198842844532,"connected_time":693000000000,"state":"active","ping":94},{"user_id":209,"name":"Jo","steam_id":76561198060447015,"connected_time":644000000000,"state":"active","ping":76},{"user_id":171,"name":"Antifa Supersoldier","steam_id":76561198141816516,"connected_time":2675000000000,"state":"active","ping":39},{"user_id":192,"name":"DiscoTraveler","steam_id":76561199240168088,"connected_time":2032000000000,"state":"active","ping":74},{"user_id":173,"name":"vaurien13","steam_id":76561198088553270,"connected_time":2633000000000,"state":"active","ping":69},{"user_id":161,"name":"Buttercup","steam_id":76561198030816577,"connected_time":3134000000000,"state":"active","ping":61},{"user_id":210,"name":"Huntpk","steam_id":76561198340591674,"connected_time":630000000000,"state":"active","ping":65},{"user_id":191,"name":"bluetreefrog","steam_id":76561198057965826,"connected_time":2046000000000,"state":"active","ping":79},{"user_id":211,"name":"Pringles","steam_id":76561198170085170,"connected_time":605000000000,"state":"active","ping":59},{"user_id":213,"name":"smokecloud","steam_id":76561198136296903,"connected_time":561000000000,"state":"active","ping":106},{"user_id":163,"name":"TicTocCat","steam_id":76561198837292975,"connected_time":3061000000000,"state":"active","ping":57},{"user_id":196,"name":"*‚ÄßÀökitsu  ö‚ô•…û","steam_id":76561198091741658,"connected_time":1659000000000,"state":"active","ping":60},{"user_id":186,"name":"DustBowl TF2","steam_id":76561199171572966,"connected_time":2391000000000,"state":"active","ping":76},{"user_id":214,"name":"GoodOldRyah","steam_id":76561199105240006,"connected_time":560000000000,"state":"active","ping":51},{"user_id":162,"name":"Imagine Zetro","steam_id":76561198812842014,"connected_time":3115000000000,"state":"active","ping":68},{"user_id":198,"name":"Unreliable Narrator","steam_id":76561198021303959,"connected_time":1611000000000,"state":"active","ping":67},{"user_id":207,"name":"TheBambiTrain","steam_id":76561198152514929,"connected_time":704000000000,"state":"active","ping":81},{"user_id":201,"name":"CherriKat","steam_id":76561198821297512,"connected_time":1559000000000,"state":"active","ping":76},{"user_id":215,"name":"DoofLord","steam_id":76561198073140033,"connected_time":557000000000,"state":"active","ping":75},{"user_id":216,"name":"Zycron0","steam_id":76561199122983789,"connected_time":518000000000,"state":"active","ping":100},{"user_id":185,"name":"I'mWalkerHere","steam_id":76561199310055450,"connected_time":2436000000000,"state":"active","ping":93}]},{"server_id":5,"name":"Uncletopia | Frankfurt | 1 | All Maps","name_short":"frk-1","host":"frk-1.de.uncletopia.com","port":27015,"enabled":true,"region":"eu","cc":"de","latitude":50.110924,"longitude":8.682127,"reserved":0,"last_update":"0001-01-01T00:00:00Z","name_a2s":"Uncletopia | Frankfurt | 1 | All Maps","protocol":17,"map":"pl_frontier_final","folder":"tf","game":"Team Fortress","app_id":440,"player_count":20,"max_players":24,"Bots":0,"server_type":"Dedicated","server_os":"Linux","password":true,"vac":true,"version":"7932396","steam_id":85568392924469989,"keywords":["nocrits","nodmgspread","payload","uncletopia"],"game_id":440,"stv_port":27016,"stv_name":"Uncletopia | Frankfurt | 1 | All Maps | STV","players":[{"user_id":570,"name":"Raven","steam_id":76561198036076305,"connected_time":301000000000,"state":"active","ping":50},{"user_id":567,"name":"GlitchyFazSFM","steam_id":76561198451902812,"connected_time":461000000000,"state":"active","ping":169},{"user_id":571,"name":"Pawi","steam_id":76561198385448335,"connected_time":245000000000,"state":"active","ping":60},{"user_id":547,"name":"enter","steam_id":76561198048374516,"connected_time":1439000000000,"state":"active","ping":124},{"user_id":566,"name":"Saber 0X1","steam_id":76561198090226093,"connected_time":516000000000,"state":"active","ping":142},{"user_id":568,"name":"obi‚ò≠","steam_id":76561198040154461,"connected_time":451000000000,"state":"active","ping":64},{"user_id":541,"name":"PrimeTarget","steam_id":76561198046409289,"connected_time":1772000000000,"state":"active","ping":60},{"user_id":559,"name":"Sakari","steam_id":76561197997811299,"connected_time":844000000000,"state":"active","ping":54},{"user_id":508,"name":"leminsc8","steam_id":76561198825084995,"connected_time":3865000000000,"state":"active","ping":36},{"user_id":513,"name":"woop","steam_id":76561198985105074,"connected_time":3027000000000,"state":"active","ping":76},{"user_id":494,"name":"Popop","steam_id":76561198004793795,"connected_time":4314000000000,"state":"active","ping":45},{"user_id":572,"name":"CombustionNation","steam_id":76561198138212388,"connected_time":239000000000,"state":"active","ping":55},{"user_id":573,"name":"Dolmio","steam_id":76561198057071489,"connected_time":225000000000,"state":"active","ping":64},{"user_id":574,"name":"MANYYYYY","steam_id":76561198218613716,"connected_time":119000000000,"state":"active","ping":105},{"user_id":575,"name":"Larry Penus","steam_id":76561198207546233,"connected_time":96000000000,"state":"active","ping":46},{"user_id":560,"name":"avalon","steam_id":76561198003212528,"connected_time":842000000000,"state":"active","ping":60},{"user_id":535,"name":"Mr. Mundy","steam_id":76561198132008918,"connected_time":2200000000000,"state":"active","ping":75},{"user_id":543,"name":"Monsteh","steam_id":76561198325898181,"connected_time":1703000000000,"state":"active","ping":70},{"user_id":577,"name":"OceanMan","steam_id":76561198391833371,"connected_time":85000000000,"state":"active","ping":57},{"user_id":540,"name":"DrExplosive","steam_id":76561198063678579,"connected_time":1784000000000,"state":"active","ping":54}]},{"server_id":110,"name":"Uncletopia | Frankfurt | 2 | All Maps","name_short":"frk-2","host":"frk-1.de.uncletopia.com","port":27025,"enabled":true,"region":"eu","cc":"de","latitude":50.110924,"longitude":8.682127,"reserved":0,"last_update":"0001-01-01T00:00:00Z","name_a2s":"Uncletopia | Frankfurt | 2 | All Maps","protocol":17,"map":"pl_frontier_final","folder":"tf","game":"Team Fortress","app_id":440,"player_count":0,"max_players":24,"Bots":0,"server_type":"Dedicated","server_os":"Linux","password":true,"vac":true,"version":"7932396","steam_id":85568392924469990,"keywords":["nocrits","nodmgspread","payload","uncletopia"],"game_id":440,"stv_port":27026,"stv_name":"Uncletopia | Frankfurt | 2 | All Maps | STV","players":null},{"server_id":308,"name":"Uncletopia | Frankfurt | 3 | All Maps","name_short":"frk-3","host":"frk-1.de.uncletopia.com","port":27035,"enabled":true,"region":"eu","cc":"de","latitude":50.110924,"longitude":8.682127,"reserved":0,"last_update":"0001-01-01T00:00:00Z","name_a2s":"Uncletopia | Frankfurt | 3 | All Maps","protocol":17,"map":"pl_frontier_final","folder":"tf","game":"Team Fortress","app_id":440,"player_count":0,"max_players":24,"Bots":0,"server_type":"Dedicated","server_os":"Linux","password":true,"vac":true,"version":"7932396","steam_id":85568392924504274,"keywords":["nocrits","nodmgspread","payload","uncletopia"],"game_id":440,"stv_port":27036,"stv_name":"Uncletopia | Frankfurt | 3 | All Maps | STV","players":null},{"server_id":309,"name":"Uncletopia | Frankfurt | 4 | All Maps","name_short":"frk-4","host":"frk-1.de.uncletopia.com","port":27045,"enabled":true,"region":"eu","cc":"de","latitude":50.110924,"longitude":8.682127,"reserved":0,"last_update":"0001-01-01T00:00:00Z","name_a2s":"Uncletopia | Frankfurt | 4 | All Maps","protocol":17,"map":"pl_badwater","folder":"tf","game":"Team Fortress","app_id":440,"player_count":24,"max_players":24,"Bots":0,"server_type":"Dedicated","server_os":"Linux","password":true,"vac":true,"version":"7932396","steam_id":85568392924504275,"keywords":["nocrits","nodmgspread","payload","uncletopia"],"game_id":440,"stv_port":27046,"stv_name":"Uncletopia | Frankfurt | 4 | All Maps | STV","players":[{"user_id":748,"name":"cuddle","steam_id":76561198805181599,"connected_time":1202000000000,"state":"active","ping":70},{"user_id":752,"name":"asdqwer","steam_id":76561198058312220,"connected_time":579000000000,"state":"active","ping":60},{"user_id":755,"name":"Flostro","steam_id":76561198259793697,"connected_time":96000000000,"state":"active","ping":55},{"user_id":722,"name":"Critical","steam_id":76561198000772038,"connected_time":3133000000000,"state":"active","ping":97},{"user_id":756,"name":"MarJar","steam_id":76561198177339194,"connected_time":25000000000,"state":"active","ping":53},{"user_id":757,"name":"can u do sum for me","steam_id":76561198132723577,"connected_time":20000000000,"state":"active","ping":84},{"user_id":704,"name":"Teathling","steam_id":76561198061580505,"connected_time":5184000000000,"state":"active","ping":57},{"user_id":742,"name":"Rolloden","steam_id":76561198069414404,"connected_time":1669000000000,"state":"active","ping":61},{"user_id":743,"name":"margaret thatcher's girl power","steam_id":76561199401283123,"connected_time":1538000000000,"state":"active","ping":66},{"user_id":747,"name":"Qwerty","steam_id":76561198023525894,"connected_time":1356000000000,"state":"active","ping":94},{"user_id":736,"name":"Zoombie","steam_id":76561198041219518,"connected_time":2551000000000,"state":"active","ping":74},{"user_id":737,"name":"Jetstream Samuel Beckett","steam_id":76561198072017971,"connected_time":2550000000000,"state":"active","ping":70},{"user_id":758,"name":"GoatLord1","steam_id":76561198157964544,"connected_time":20000000000,"state":"active","ping":67},{"user_id":729,"name":"Edling","steam_id":76561199111565357,"connected_time":2950000000000,"state":"active","ping":90},{"user_id":652,"name":"KiT","steam_id":76561198043770371,"connected_time":9813000000000,"state":"active","ping":63},{"user_id":751,"name":"BUREK od Sira","steam_id":76561198092589818,"connected_time":923000000000,"state":"active","ping":66},{"user_id":739,"name":"Ë™∞„Åã„ÅåË¶ã„Å¶„ÅÑ„Çã","steam_id":76561198834913692,"connected_time":2458000000000,"state":"active","ping":71},{"user_id":749,"name":"Long Lost Soul","steam_id":76561198187090805,"connected_time":1034000000000,"state":"active","ping":83},{"user_id":753,"name":"happygregor60","steam_id":76561198798803845,"connected_time":196000000000,"state":"active","ping":58},{"user_id":740,"name":"when you sleep","steam_id":76561198028164246,"connected_time":2088000000000,"state":"active","ping":75},{"user_id":741,"name":"Femboy Lilli","steam_id":76561198090146457,"connected_time":2087000000000,"state":"active","ping":54},{"user_id":732,"name":"Naxz Dendenz","steam_id":76561198015804604,"connected_time":2938000000000,"state":"active","ping":90},{"user_id":738,"name":"Liko","steam_id":76561197994660517,"connected_time":2538000000000,"state":"active","ping":79},{"user_id":733,"name":"SeaKane","steam_id":76561198165453318,"connected_time":2899000000000,"state":"active","ping":56}]},{"server_id":310,"name":"Uncletopia | Frankfurt | 5 | All Maps","name_short":"frk-5","host":"frk-1.de.uncletopia.com","port":27055,"enabled":true,"region":"eu","cc":"de","latitude":50.110924,"longitude":8.682127,"reserved":0,"last_update":"0001-01-01T00:00:00Z","name_a2s":"Uncletopia | Frankfurt | 5 | All Maps","protocol":17,"map":"cp_altitude","folder":"tf","game":"Team Fortress","app_id":440,"player_count":0,"max_players":24,"Bots":0,"server_type":"Dedicated","server_os":"Linux","password":true,"vac":true,"version":"7932396","steam_id":85568392924504277,"keywords":["cp","nocrits","nodmgspread","uncletopia"],"game_id":440,"stv_port":27056,"stv_name":"Uncletopia | Frankfurt | 5 | All Maps | STV","players":null},{"server_id":311,"name":"Uncletopia | Frankfurt | 6 | All Maps","name_short":"frk-6","host":"frk-1.de.uncletopia.com","port":27065,"enabled":true,"region":"eu","cc":"de","latitude":50.110924,"longitude":8.682127,"reserved":0,"last_update":"0001-01-01T00:00:00Z","name_a2s":"Uncletopia | Frankfurt | 6 | All Maps","protocol":17,"map":"koth_viaduct","folder":"tf","game":"Team Fortress","app_id":440,"player_count":0,"max_players":24,"Bots":0,"server_type":"Dedicated","server_os":"Linux","password":true,"vac":true,"version":"7932396","steam_id":85568392924504278,"keywords":["cp","nocrits","nodmgspread","uncletopia"],"game_id":440,"stv_port":27066,"stv_name":"Uncletopia | Frankfurt | 6 | All Maps | STV","players":null},{"server_id":23,"name":"Uncletopia | Frankfurt | 7 | Stopwatch Beta","name_short":"frk-7","host":"frk-1.de.uncletopia.com","port":27075,"enabled":true,"region":"eu","cc":"de","latitude":50.110924,"longitude":8.682127,"reserved":0,"last_update":"0001-01-01T00:00:00Z","name_a2s":"Uncletopia | Frankfurt | 7 | Stopwatch Beta","protocol":17,"map":"pl_snowycoast","folder":"tf","game":"Team Fortress","app_id":440,"player_count":0,"max_players":24,"Bots":0,"server_type":"Dedicated","server_os":"Linux","password":true,"vac":true,"version":"7932396","steam_id":85568392924742827,"keywords":["nocrits","nodmgspread","payload","uncletopia"],"game_id":440,"stv_port":27076,"stv_name":"Uncletopia | Frankfurt | 7 | Stopwatch Beta | STV","players":null},{"server_id":24,"name":"Uncletopia | Frankfurt | 8 | Community","name_short":"frk-8","host":"frk-1.de.uncletopia.com","port":27085,"enabled":true,"region":"eu","cc":"de","latitude":50.110924,"longitude":8.682127,"reserved":0,"last_update":"0001-01-01T00:00:00Z","name_a2s":"Uncletopia | Frankfurt | 8 | Community","protocol":17,"map":"workshop/cp_alloy_rc3.ugc592805587","folder":"tf","game":"Team Fortress","app_id":440,"player_count":0,"max_players":24,"Bots":0,"server_type":"Dedicated","server_os":"Linux","password":true,"vac":true,"version":"7932396","steam_id":85568392924742828,"keywords":["cp","nocrits","nodmgspread","uncletopia"],"game_id":440,"stv_port":27086,"stv_name":"Uncletopia | Frankfurt | 8 | Community | STV","players":null},{"server_id":202,"name":"Uncletopia | Hong Kong | 1 | All Maps","name_short":"hgk-1","host":"hgk-1.hk.uncletopia.com","port":27015,"enabled":true,"region":"asia","cc":"hk","latitude":22.302711,"longitude":114.177216,"reserved":0,"last_update":"0001-01-01T00:00:00Z","name_a2s":"Uncletopia | Hong Kong | 1 | All Maps","protocol":17,"map":"cp_altitude","folder":"tf","game":"Team Fortress","app_id":440,"player_count":0,"max_players":24,"Bots":0,"server_type":"Dedicated","server_os":"Linux","password":true,"vac":true,"version":"7932396","steam_id":85568392924494504,"keywords":["cp","nocrits","nodmgspread","uncletopia"],"game_id":440,"stv_port":27016,"stv_name":"Uncletopia | Hong Kong | 1 | All Maps | STV","players":null},{"server_id":1,"name":"Uncletopia | Los Angeles | 1 | All Maps","name_short":"lax-1","host":"lax-1.us.uncletopia.com","port":27015,"enabled":true,"region":"us-west","cc":"us","latitude":33.94279,"longitude":-118.41004,"reserved":0,"last_update":"0001-01-01T00:00:00Z","name_a2s":"Uncletopia | Los Angeles | 1 | All Maps","protocol":17,"map":"pl_upward","folder":"tf","game":"Team Fortress","app_id":440,"player_count":23,"max_players":24,"Bots":0,"server_type":"Dedicated","server_os":"Linux","password":true,"vac":true,"version":"7932396","steam_id":85568392924469991,"keywords":["nocrits","nodmgspread","payload","uncletopia"],"game_id":440,"stv_port":27016,"stv_name":"Uncletopia | Los Angeles | 1 | All Maps | STV","players":[{"user_id":161,"name":"normal","steam_id":76561198133712839,"connected_time":1834000000000,"state":"active","ping":104},{"user_id":132,"name":"cockroach massive","steam_id":76561198011675372,"connected_time":3862000000000,"state":"active","ping":87},{"user_id":173,"name":"nat","steam_id":76561198179923093,"connected_time":362000000000,"state":"active","ping":45},{"user_id":175,"name":"Deltaco","steam_id":76561198094572694,"connected_time":310000000000,"state":"active","ping":150},{"user_id":149,"name":"thai tea","steam_id":76561198308290211,"connected_time":3247000000000,"state":"active","ping":87},{"user_id":176,"name":"Elfy","steam_id":76561199166448617,"connected_time":302000000000,"state":"active","ping":85},{"user_id":158,"name":"NotAWeeb","steam_id":76561198165530739,"connected_time":1852000000000,"state":"active","ping":53},{"user_id":177,"name":"npc energy","steam_id":76561198035342207,"connected_time":273000000000,"state":"active","ping":83},{"user_id":151,"name":"PurpleStar","steam_id":76561198760470731,"connected_time":2663000000000,"state":"active","ping":93},{"user_id":169,"name":"brando_not_lando","steam_id":76561198163197384,"connected_time":1038000000000,"state":"active","ping":97},{"user_id":172,"name":"coolbust carti","steam_id":76561198065384345,"connected_time":701000000000,"state":"active","ping":55},{"user_id":167,"name":"astroLC","steam_id":76561199040914098,"connected_time":1432000000000,"state":"active","ping":60},{"user_id":178,"name":"Linkedfurhire","steam_id":76561198149363268,"connected_time":222000000000,"state":"active","ping":62},{"user_id":179,"name":"Gazelle","steam_id":76561198336397088,"connected_time":197000000000,"state":"active","ping":48},{"user_id":180,"name":"blossom","steam_id":76561198042735130,"connected_time":99000000000,"state":"active","ping":86},{"user_id":181,"name":"Wagemage","steam_id":76561198013625580,"connected_time":67000000000,"state":"active","ping":86},{"user_id":182,"name":"Jam Jams","steam_id":76561198128811267,"connected_time":45000000000,"state":"active","ping":89},{"user_id":183,"name":"sunny","steam_id":76561198069380992,"connected_time":26000000000,"state":"spawning","ping":83},{"user_id":170,"name":"FlapJacksWithButter","steam_id":76561199440019550,"connected_time":988000000000,"state":"active","ping":104},{"user_id":119,"name":"Pines","steam_id":76561199024146278,"connected_time":4951000000000,"state":"active","ping":57},{"user_id":184,"name":"_Ati","steam_id":76561198339777801,"connected_time":1000000000,"state":"spawning","ping":40},{"user_id":171,"name":"Astro","steam_id":76561198035676106,"connected_time":973000000000,"state":"active","ping":87},{"user_id":160,"name":"Pah-Wraith Gul Dukat","steam_id":76561198033918106,"connected_time":1851000000000,"state":"active","ping":51}]},{"server_id":112,"name":"Uncletopia | Los Angeles | 2 | All Maps","name_short":"lax-2","host":"lax-1.us.uncletopia.com","port":27025,"enabled":true,"region":"us-west","cc":"us","latitude":33.94279,"longitude":-118.41004,"reserved":0,"last_update":"0001-01-01T00:00:00Z","name_a2s":"Uncletopia | Los Angeles | 2 | All Maps","protocol":17,"map":"koth_lazarus","folder":"tf","game":"Team Fortress","app_id":440,"player_count":21,"max_players":24,"Bots":0,"server_type":"Dedicated","server_os":"Linux","password":true,"vac":true,"version":"7932396","steam_id":85568392924469992,"keywords":["cp","nocrits","nodmgspread","uncletopia"],"game_id":440,"stv_port":27026,"stv_name":"Uncletopia | Los Angeles | 2 | All Maps | STV","players":[{"user_id":318,"name":"Vile Gunner","steam_id":76561198806668514,"connected_time":545000000000,"state":"active","ping":91},{"user_id":322,"name":"CirkeyMoncus","steam_id":76561198170699967,"connected_time":342000000000,"state":"active","ping":86},{"user_id":306,"name":"Rat","steam_id":76561199143308799,"connected_time":1258000000000,"state":"active","ping":80},{"user_id":273,"name":"Redcat79","steam_id":76561199109688591,"connected_time":3996000000000,"state":"active","ping":74},{"user_id":327,"name":"Rock Kickass","steam_id":76561198450510841,"connected_time":251000000000,"state":"active","ping":80},{"user_id":332,"name":"dave strider","steam_id":76561198065112186,"connected_time":57000000000,"state":"active","ping":69},{"user_id":298,"name":"greens beans","steam_id":76561198153611491,"connected_time":1361000000000,"state":"active","ping":69},{"user_id":299,"name":"riSygneD","steam_id":76561198331618687,"connected_time":1321000000000,"state":"active","ping":30},{"user_id":291,"name":"TacticalFluke","steam_id":76561198403291862,"connected_time":2335000000000,"state":"active","ping":79},{"user_id":312,"name":"frostedflakes99","steam_id":76561199049292578,"connected_time":1050000000000,"state":"active","ping":42},{"user_id":330,"name":"elephant thumb","steam_id":76561198118859752,"connected_time":146000000000,"state":"active","ping":46},{"user_id":310,"name":"Maven (famous)","steam_id":76561198045517514,"connected_time":1135000000000,"state":"active","ping":100},{"user_id":303,"name":"mine diam","steam_id":76561198119123981,"connected_time":1295000000000,"state":"active","ping":75},{"user_id":323,"name":"sand","steam_id":76561198214390228,"connected_time":341000000000,"state":"active","ping":72},{"user_id":305,"name":"beans","steam_id":76561199082781884,"connected_time":1283000000000,"state":"active","ping":54},{"user_id":317,"name":"hoOmIN","steam_id":76561198334947079,"connected_time":811000000000,"state":"active","ping":46},{"user_id":324,"name":"lightsword24","steam_id":76561198227552556,"connected_time":312000000000,"state":"active","ping":75},{"user_id":325,"name":"bobby cigarette","steam_id":76561198059780866,"connected_time":308000000000,"state":"active","ping":92},{"user_id":316,"name":"Armored Fetus","steam_id":76561199124368632,"connected_time":910000000000,"state":"active","ping":117},{"user_id":274,"name":"Day","steam_id":76561198071356262,"connected_time":3977000000000,"state":"active","ping":112},{"user_id":326,"name":"Freedy","steam_id":76561199115274103,"connected_time":293000000000,"state":"active","ping":48}]},{"server_id":324,"name":"Uncletopia | Los Angeles | 3 | All Maps","name_short":"lax-3","host":"lax-1.us.uncletopia.com","port":27035,"enabled":true,"region":"us-west","cc":"us","latitude":33.94279,"longitude":-118.41004,"reserved":0,"last_update":"0001-01-01T00:00:00Z","name_a2s":"Uncletopia | Los Angeles | 3 | All Maps","protocol":17,"map":"pl_swiftwater_final1","folder":"tf","game":"Team Fortress","app_id":440,"player_count":0,"max_players":24,"Bots":0,"server_type":"Dedicated","server_os":"Linux","password":true,"vac":true,"version":"7932396","steam_id":85568392924510198,"keywords":["nocrits","nodmgspread","payload","uncletopia"],"game_id":440,"stv_port":27036,"stv_name":"Uncletopia | Los Angeles | 3 | All Maps | STV","players":null},{"server_id":25,"name":"Uncletopia | Los Angeles | 4 | Stopwatch Beta","name_short":"lax-4","host":"lax-1.us.uncletopia.com","port":27045,"enabled":true,"region":"us-west","cc":"us","latitude":33.94279,"longitude":-118.41004,"reserved":0,"last_update":"0001-01-01T00:00:00Z","name_a2s":"Uncletopia | Los Angeles | 4 | Stopwatch Beta","protocol":17,"map":"workshop/koth_clearcut_b15.ugc2107050255","folder":"tf","game":"Team Fortress","app_id":440,"player_count":0,"max_players":24,"Bots":0,"server_type":"Dedicated","server_os":"Linux","password":true,"vac":true,"version":"7932396","steam_id":85568392924510199,"keywords":["cp","nocrits","nodmgspread","uncletopia"],"game_id":440,"stv_port":27046,"stv_name":"Uncletopia | Los Angeles | 4 | Stopwatch Beta | STV","players":null},{"server_id":11,"name":"Uncletopia | London | 1 | All Maps","name_short":"lon-1","host":"lon-1.uk.uncletopia.com","port":27015,"enabled":true,"region":"eu","cc":"gb","latitude":51.509865,"longitude":-0.118092,"reserved":0,"last_update":"0001-01-01T00:00:00Z","name_a2s":"Uncletopia | London | 1 | All Maps","protocol":17,"map":"pl_barnblitz","folder":"tf","game":"Team Fortress","app_id":440,"player_count":23,"max_players":24,"Bots":0,"server_type":"Dedicated","server_os":"Linux","password":true,"vac":true,"version":"7932396","steam_id":85568392924367362,"keywords":["nocrits","nodmgspread","payload","uncletopia"],"game_id":440,"stv_port":27016,"stv_name":"Uncletopia | London | 1 | All Maps | STV","players":[{"user_id":700,"name":"spovak","steam_id":76561198091429079,"connected_time":361000000000,"state":"active","ping":82},{"user_id":702,"name":"Xariklhs Kolimpithras","steam_id":76561198165584544,"connected_time":327000000000,"state":"active","ping":112},{"user_id":624,"name":"walking plane","steam_id":76561198146779559,"connected_time":8936000000000,"state":"active","ping":82},{"user_id":699,"name":"NeiroüëΩ·ó©YY ·í™·ó∞·ó©O","steam_id":76561198046743985,"connected_time":408000000000,"state":"active","ping":62},{"user_id":633,"name":"cazador","steam_id":76561198123096922,"connected_time":8644000000000,"state":"active","ping":97},{"user_id":696,"name":"snake","steam_id":76561198378235611,"connected_time":806000000000,"state":"active","ping":76},{"user_id":714,"name":"Faustino","steam_id":76561198061771785,"connected_time":78000000000,"state":"active","ping":73},{"user_id":701,"name":"siental","steam_id":76561198275457864,"connected_time":357000000000,"state":"active","ping":31},{"user_id":710,"name":"stun","steam_id":76561199436823532,"connected_time":135000000000,"state":"active","ping":177},{"user_id":704,"name":"Bubblegum","steam_id":76561198271590771,"connected_time":311000000000,"state":"active","ping":54},{"user_id":715,"name":"tm`","steam_id":76561197993580412,"connected_time":46000000000,"state":"active","ping":61},{"user_id":707,"name":"Quniy, Son Of Quniy","steam_id":76561198872259430,"connected_time":208000000000,"state":"active","ping":147},{"user_id":688,"name":"tone","steam_id":76561197975301462,"connected_time":2662000000000,"state":"active","ping":72},{"user_id":663,"name":"mohemmedmokhter2005","steam_id":76561199197650506,"connected_time":4827000000000,"state":"active","ping":114},{"user_id":708,"name":"froglids","steam_id":76561198045466919,"connected_time":185000000000,"state":"active","ping":73},{"user_id":676,"name":"UltimateAura","steam_id":76561198338361324,"connected_time":3853000000000,"state":"active","ping":43},{"user_id":709,"name":"install gentoo","steam_id":76561198185257982,"connected_time":144000000000,"state":"active","ping":77},{"user_id":716,"name":"Valen","steam_id":76561198049614521,"connected_time":25000000000,"state":"active","ping":69},{"user_id":717,"name":"AR Peetzo","steam_id":76561198101998300,"connected_time":10000000000,"state":"spawning","ping":58},{"user_id":712,"name":"lofimonkeyjazz","steam_id":76561198117059662,"connected_time":103000000000,"state":"active","ping":72},{"user_id":713,"name":"Pretentious Gunspy","steam_id":76561199241325005,"connected_time":89000000000,"state":"active","ping":148},{"user_id":718,"name":"Byrkou√©","steam_id":76561198128782412,"connected_time":4000000000,"state":"spawning","ping":58},{"user_id":680,"name":"Teacup","steam_id":76561198190654091,"connected_time":3749000000000,"state":"active","ping":57}]},{"server_id":114,"name":"Uncletopia | London | 2 | All Maps","name_short":"lon-2","host":"lon-1.uk.uncletopia.com","port":27025,"enabled":true,"region":"eu","cc":"gb","latitude":51.509865,"longitude":-0.118092,"reserved":0,"last_update":"0001-01-01T00:00:00Z","name_a2s":"Uncletopia | London | 2 | All Maps","protocol":17,"map":"koth_brazil","folder":"tf","game":"Team Fortress","app_id":440,"player_count":24,"max_players":24,"Bots":0,"server_type":"Dedicated","server_os":"Linux","password":true,"vac":true,"version":"7932396","steam_id":85568392924470941,"keywords":["cp","nocrits","nodmgspread","uncletopia"],"game_id":440,"stv_port":27026,"stv_name":"Uncletopia | London | 2 | All Maps | STV","players":[{"user_id":660,"name":"jonobrow","steam_id":76561198014630492,"connected_time":1490000000000,"state":"active","ping":55},{"user_id":567,"name":"W","steam_id":76561198273623211,"connected_time":5554000000000,"state":"active","ping":86},{"user_id":637,"name":"Etherhel","steam_id":76561198838449544,"connected_time":2295000000000,"state":"active","ping":94},{"user_id":652,"name":"Dee","steam_id":76561198105520278,"connected_time":1742000000000,"state":"active","ping":66},{"user_id":650,"name":"StarBridge56","steam_id":76561198154221684,"connected_time":1872000000000,"state":"active","ping":31},{"user_id":638,"name":"ethan","steam_id":76561198119495513,"connected_time":2295000000000,"state":"active","ping":36},{"user_id":669,"name":"Dr.Cranium","steam_id":76561197992726926,"connected_time":630000000000,"state":"active","ping":122},{"user_id":627,"name":"bowchika wowa #SlavaUkraine","steam_id":76561198159564550,"connected_time":2771000000000,"state":"active","ping":72},{"user_id":676,"name":"t.tv/anguishjumps","steam_id":76561198086442571,"connected_time":288000000000,"state":"active","ping":46},{"user_id":630,"name":"Envy","steam_id":76561198132723219,"connected_time":2544000000000,"state":"active","ping":107},{"user_id":603,"name":"LainBizkit","steam_id":76561199200708626,"connected_time":3760000000000,"state":"active","ping":98},{"user_id":677,"name":"hmscole09","steam_id":76561198811362788,"connected_time":254000000000,"state":"active","ping":59},{"user_id":678,"name":"Magicman","steam_id":76561198260119033,"connected_time":249000000000,"state":"active","ping":102},{"user_id":643,"name":"Sarah Obama Michella","steam_id":76561198078996559,"connected_time":2246000000000,"state":"active","ping":85},{"user_id":583,"name":"Pumm","steam_id":76561198110871772,"connected_time":4544000000000,"state":"active","ping":46},{"user_id":679,"name":"Fallen_Scholar","steam_id":76561198055468709,"connected_time":221000000000,"state":"active","ping":61},{"user_id":666,"name":"Kowakum","steam_id":76561197998125950,"connected_time":686000000000,"state":"active","ping":117},{"user_id":667,"name":"QualityRubbish","steam_id":76561198069645046,"connected_time":675000000000,"state":"active","ping":55},{"user_id":670,"name":"[zzubo] Hallowasniet","steam_id":76561198168485956,"connected_time":610000000000,"state":"active","ping":53},{"user_id":671,"name":"[zzubo] joonstoons","steam_id":76561198328082426,"connected_time":578000000000,"state":"active","ping":43},{"user_id":648,"name":"BONA FIDE PISS","steam_id":76561198130020929,"connected_time":2176000000000,"state":"active","ping":44},{"user_id":674,"name":"Meterora","steam_id":76561198092422131,"connected_time":382000000000,"state":"active","ping":57},{"user_id":675,"name":"Chem","steam_id":76561198207459491,"connected_time":354000000000,"state":"active","ping":31},{"user_id":673,"name":"Steaamy","steam_id":76561198068109548,"connected_time":512000000000,"state":"active","ping":69}]},{"server_id":320,"name":"Uncletopia | London | 3 | All Maps","name_short":"lon-3","host":"lon-1.uk.uncletopia.com","port":27035,"enabled":true,"region":"eu","cc":"gb","latitude":51.509865,"longitude":-0.118092,"reserved":0,"last_update":"0001-01-01T00:00:00Z","name_a2s":"Uncletopia | London | 3 | All Maps","protocol":17,"map":"pl_upward","folder":"tf","game":"Team Fortress","app_id":440,"player_count":0,"max_players":24,"Bots":0,"server_type":"Dedicated","server_os":"Linux","password":true,"vac":true,"version":"7932396","steam_id":85568392924510192,"keywords":["nocrits","nodmgspread","payload","uncletopia"],"game_id":440,"stv_port":27036,"stv_name":"Uncletopia | London | 3 | All Maps | STV","players":null},{"server_id":321,"name":"Uncletopia | London | 4 | All Maps","name_short":"lon-4","host":"lon-1.uk.uncletopia.com","port":27045,"enabled":true,"region":"eu","cc":"gb","latitude":51.509865,"longitude":-0.118092,"reserved":0,"last_update":"0001-01-01T00:00:00Z","name_a2s":"Uncletopia | London | 4 | All Maps","protocol":17,"map":"pl_pier","folder":"tf","game":"Team Fortress","app_id":440,"player_count":0,"max_players":24,"Bots":0,"server_type":"Dedicated","server_os":"Linux","password":true,"vac":true,"version":"7932396","steam_id":85568392924510193,"keywords":["nocrits","nodmgspread","payload","uncletopia"],"game_id":440,"stv_port":27046,"stv_name":"Uncletopia | London | 4 | All Maps | STV","players":null},{"server_id":21,"name":"Uncletopia | London | 5 | All Maps","name_short":"lon-5","host":"lon-1.uk.uncletopia.com","port":27055,"enabled":true,"region":"eu","cc":"gb","latitude":51.509865,"longitude":-0.118092,"reserved":0,"last_update":"0001-01-01T00:00:00Z","name_a2s":"Uncletopia | London | 5 | All Maps","protocol":17,"map":"pl_badwater","folder":"tf","game":"Team Fortress","app_id":440,"player_count":9,"max_players":24,"Bots":0,"server_type":"Dedicated","server_os":"Linux","password":true,"vac":true,"version":"7932396","steam_id":85568392924742829,"keywords":["nocrits","nodmgspread","payload","uncletopia"],"game_id":440,"stv_port":27056,"stv_name":"Uncletopia | London | 5 | All Maps | STV","players":[{"user_id":366,"name":"knavepunk","steam_id":76561198158631142,"connected_time":1889000000000,"state":"active","ping":41},{"user_id":375,"name":"Herb","steam_id":76561198205266944,"connected_time":897000000000,"state":"active","ping":43},{"user_id":281,"name":"Purps","steam_id":76561198053886680,"connected_time":5256000000000,"state":"active","ping":42},{"user_id":365,"name":"¬§„ÄäMint„Äã¬§","steam_id":76561198156820201,"connected_time":1952000000000,"state":"active","ping":82},{"user_id":376,"name":"griejes","steam_id":76561198053184757,"connected_time":862000000000,"state":"active","ping":41},{"user_id":371,"name":"Cabbch","steam_id":76561198045955679,"connected_time":1819000000000,"state":"active","ping":45},{"user_id":326,"name":"stuntz","steam_id":76561197974814348,"connected_time":3171000000000,"state":"active","ping":60},{"user_id":279,"name":"KittyKate ‚ù§","steam_id":76561198116340817,"connected_time":5646000000000,"state":"active","ping":66},{"user_id":280,"name":"BuzzBees ‚ù§","steam_id":76561198101502273,"connected_time":5440000000000,"state":"active","ping":55}]},{"server_id":22,"name":"Uncletopia | London | 6 | All Maps","name_short":"lon-6","host":"lon-1.uk.uncletopia.com","port":27065,"enabled":true,"region":"eu","cc":"gb","latitude":51.509865,"longitude":-0.118092,"reserved":0,"last_update":"0001-01-01T00:00:00Z","name_a2s":"Uncletopia | London | 6 | All Maps","protocol":17,"map":"koth_king","folder":"tf","game":"Team Fortress","app_id":440,"player_count":12,"max_players":24,"Bots":0,"server_type":"Dedicated","server_os":"Linux","password":true,"vac":true,"version":"7932396","steam_id":85568392924742830,"keywords":["cp","nocrits","nodmgspread","uncletopia"],"game_id":440,"stv_port":27066,"stv_name":"Uncletopia | London | 6 | All Maps | STV","players":[{"user_id":237,"name":"Mahitmal","steam_id":76561198254664484,"connected_time":966000000000,"state":"active","ping":52},{"user_id":238,"name":"HeroInn","steam_id":76561198059837804,"connected_time":357000000000,"state":"active","ping":39},{"user_id":239,"name":"God","steam_id":76561199049925843,"connected_time":110000000000,"state":"active","ping":104},{"user_id":178,"name":"Sanity Issues","steam_id":76561198041535987,"connected_time":4739000000000,"state":"active","ping":91},{"user_id":236,"name":"szmen","steam_id":76561198072569764,"connected_time":982000000000,"state":"active","ping":85},{"user_id":217,"name":"calum92","steam_id":76561197992188760,"connected_time":2470000000000,"state":"active","ping":57},{"user_id":187,"name":"Nyhde","steam_id":76561198012771416,"connected_time":3932000000000,"state":"active","ping":100},{"user_id":228,"name":"pardner","steam_id":76561198451471161,"connected_time":1682000000000,"state":"active","ping":48},{"user_id":229,"name":"Mario","steam_id":76561198321794277,"connected_time":1651000000000,"state":"active","ping":141},{"user_id":224,"name":"shrark","steam_id":76561198090001673,"connected_time":2100000000000,"state":"active","ping":132},{"user_id":202,"name":"Famous Collector","steam_id":76561198097693666,"connected_time":3478000000000,"state":"active","ping":44}]},{"server_id":40,"name":"Uncletopia | London | 7 | No Payload","name_short":"lon-7","host":"lon-1.uk.uncletopia.com","port":27075,"enabled":true,"region":"eu","cc":"gb","latitude":51.509865,"longitude":-0.118092,"reserved":0,"last_update":"0001-01-01T00:00:00Z","name_a2s":"Uncletopia | London | 7 | No Payload","protocol":17,"map":"koth_nucleus","folder":"tf","game":"Team Fortress","app_id":440,"player_count":0,"max_players":24,"Bots":0,"server_type":"Dedicated","server_os":"Linux","password":true,"vac":true,"version":"7932396","steam_id":85568392924964314,"keywords":["cp","nocrits","nodmgspread","uncletopia"],"game_id":440,"stv_port":27076,"stv_name":"Uncletopia | London | 7 | No Payload | STV","players":null},{"server_id":41,"name":"Uncletopia | London | 8 | Community","name_short":"lon-8","host":"lon-1.uk.uncletopia.com","port":27085,"enabled":true,"region":"eu","cc":"gb","latitude":51.509865,"longitude":-0.118092,"reserved":0,"last_update":"0001-01-01T00:00:00Z","name_a2s":"Uncletopia | London | 8 | Community","protocol":17,"map":"workshop/cp_glassworks_rc6a.ugc454118349","folder":"tf","game":"Team Fortress","app_id":440,"player_count":0,"max_players":24,"Bots":0,"server_type":"Dedicated","server_os":"Linux","password":true,"vac":true,"version":"7932396","steam_id":85568392924964315,"keywords":["cp","nocrits","nodmgspread","uncletopia"],"game_id":440,"stv_port":27086,"stv_name":"Uncletopia | London | 8 | Community | STV","players":null},{"server_id":300,"name":"Uncletopia | Montr√©al | 1 | All Maps","name_short":"mtl-1","host":"mtl-1.ca.uncletopia.com","port":27015,"enabled":true,"region":"us-east","cc":"ca","latitude":45.50889,"longitude":-73.56167,"reserved":0,"last_update":"0001-01-01T00:00:00Z","name_a2s":"Uncletopia | Montr√©al | 1 | All Maps","protocol":17,"map":"cp_altitude","folder":"tf","game":"Team Fortress","app_id":440,"player_count":0,"max_players":24,"Bots":0,"server_type":"Dedicated","server_os":"Linux","password":true,"vac":true,"version":"7932396","steam_id":85568392924500087,"keywords":["cp","nocrits","nodmgspread","uncletopia"],"game_id":440,"stv_port":27016,"stv_name":"Uncletopia | Montr√©al | 1 | All Maps | STV","players":null},{"server_id":301,"name":"Uncletopia | Montr√©al | 2 | All Maps","name_short":"mtl-2","host":"mtl-1.ca.uncletopia.com","port":27025,"enabled":true,"region":"us-east","cc":"ca","latitude":45.50889,"longitude":-73.56167,"reserved":0,"last_update":"0001-01-01T00:00:00Z","name_a2s":"Uncletopia | Montr√©al | 2 | All Maps","protocol":17,"map":"koth_lakeside_final","folder":"tf","game":"Team Fortress","app_id":440,"player_count":3,"max_players":24,"Bots":0,"server_type":"Dedicated","server_os":"Linux","password":true,"vac":true,"version":"7932396","steam_id":85568392924500088,"keywords":["cp","nocrits","nodmgspread","uncletopia"],"game_id":440,"stv_port":27026,"stv_name":"Uncletopia | Montr√©al | 2 | All Maps | STV","players":[{"user_id":5,"name":"Big Milk","steam_id":76561198066904836,"connected_time":354000000000,"state":"active","ping":68},{"user_id":6,"name":"Auklin","steam_id":76561198069877582,"connected_time":306000000000,"state":"active","ping":75},{"user_id":8,"name":"tinkercrab11","steam_id":76561198881792140,"connected_time":72000000000,"state":"active","ping":60}]},{"server_id":302,"name":"Uncletopia | Montr√©al | 3 | All Maps","name_short":"mtl-3","host":"mtl-1.ca.uncletopia.com","port":27035,"enabled":true,"region":"us-east","cc":"ca","latitude":45.50889,"longitude":-73.56167,"reserved":0,"last_update":"0001-01-01T00:00:00Z","name_a2s":"Uncletopia | Montr√©al | 3 | All Maps","protocol":17,"map":"pl_upward","folder":"tf","game":"Team Fortress","app_id":440,"player_count":0,"max_players":24,"Bots":0,"server_type":"Dedicated","server_os":"Linux","password":true,"vac":true,"version":"7932396","steam_id":85568392924500089,"keywords":["nocrits","nodmgspread","payload","uncletopia"],"game_id":440,"stv_port":27036,"stv_name":"Uncletopia | Montr√©al | 3 | All Maps | STV","players":null},{"server_id":303,"name":"Uncletopia | Montr√©al | 4 | No Payload","name_short":"mtl-4","host":"mtl-1.ca.uncletopia.com","port":27045,"enabled":true,"region":"us-east","cc":"ca","latitude":45.50889,"longitude":-73.56167,"reserved":0,"last_update":"0001-01-01T00:00:00Z","name_a2s":"Uncletopia | Montr√©al | 4 | No Payload","protocol":17,"map":"cp_snakewater_final1","folder":"tf","game":"Team Fortress","app_id":440,"player_count":1,"max_players":24,"Bots":0,"server_type":"Dedicated","server_os":"Linux","password":true,"vac":true,"version":"7932396","steam_id":85568392924500090,"keywords":["cp","nocrits","nodmgspread","uncletopia"],"game_id":440,"stv_port":27046,"stv_name":"Uncletopia | Montr√©al | 4 | No Payload | STV","players":[{"user_id":5,"name":"ToastyBugg","steam_id":76561198291952184,"connected_time":252000000000,"state":"active","ping":104}]},{"server_id":13,"name":"Uncletopia | New York City | 1 | All Maps","name_short":"nyc-1","host":"nyc-1.us.uncletopia.com","port":27015,"enabled":true,"region":"us-east","cc":"us","latitude":40.73061,"longitude":-73.93524,"reserved":0,"last_update":"0001-01-01T00:00:00Z","name_a2s":"Uncletopia | New York City | 1 | All Maps","protocol":17,"map":"cp_process_final","folder":"tf","game":"Team Fortress","app_id":440,"player_count":24,"max_players":24,"Bots":0,"server_type":"Dedicated","server_os":"Linux","password":true,"vac":true,"version":"7932396","steam_id":85568392924469993,"keywords":["cp","nocrits","nodmgspread","uncletopia"],"game_id":440,"stv_port":27016,"stv_name":"Uncletopia | New York City | 1 | All Maps | STV","players":[{"user_id":316,"name":"Charlie","steam_id":76561198798127908,"connected_time":2387000000000,"state":"active","ping":80},{"user_id":334,"name":"Strangelove","steam_id":76561198353773611,"connected_time":1213000000000,"state":"active","ping":101},{"user_id":350,"name":"juanjoesc","steam_id":76561198186368430,"connected_time":213000000000,"state":"active","ping":127},{"user_id":280,"name":"(‚òû Õ°¬∞ Õú ñ Õ°¬∞)‚òû","steam_id":76561199130128575,"connected_time":5328000000000,"state":"active","ping":126},{"user_id":353,"name":"DaRoyalYoshi","steam_id":76561198145186375,"connected_time":91000000000,"state":"active","ping":46},{"user_id":314,"name":"lwyr","steam_id":76561198007982579,"connected_time":2426000000000,"state":"active","ping":45},{"user_id":335,"name":"ADRIEN BRODY","steam_id":76561198009299473,"connected_time":1202000000000,"state":"active","ping":55},{"user_id":342,"name":"Pan Wizard","steam_id":76561198031939694,"connected_time":1037000000000,"state":"active","ping":69},{"user_id":327,"name":"SciFurLycan","steam_id":76561198809333252,"connected_time":1951000000000,"state":"active","ping":68},{"user_id":321,"name":"Pim","steam_id":76561198046050375,"connected_time":2285000000000,"state":"active","ping":127},{"user_id":351,"name":"water and water and water water","steam_id":76561198257848207,"connected_time":205000000000,"state":"active","ping":72},{"user_id":324,"name":"Ghost Modern Warfare 2 (2022)","steam_id":76561198116295334,"connected_time":2065000000000,"state":"active","ping":54},{"user_id":346,"name":"SCP Kenneth","steam_id":76561199122399886,"connected_time":685000000000,"state":"active","ping":113},{"user_id":300,"name":"gIBBY","steam_id":76561198080099598,"connected_time":4016000000000,"state":"active","ping":43},{"user_id":207,"name":"ATL1 | cola","steam_id":76561198374390458,"connected_time":10644000000000,"state":"active","ping":74},{"user_id":338,"name":"marlow","steam_id":76561198094408360,"connected_time":1175000000000,"state":"active","ping":73},{"user_id":322,"name":"heyCharn","steam_id":76561198058641350,"connected_time":2187000000000,"state":"active","ping":125},{"user_id":347,"name":"Keyboard Warrior","steam_id":76561198152587680,"connected_time":314000000000,"state":"active","ping":98},{"user_id":343,"name":"Pebel","steam_id":76561198128639471,"connected_time":805000000000,"state":"active","ping":115},{"user_id":318,"name":"A Loaf Of Fetus","steam_id":76561198058016214,"connected_time":2381000000000,"state":"active","ping":124},{"user_id":339,"name":"lynt","steam_id":76561198988333976,"connected_time":1130000000000,"state":"active","ping":59},{"user_id":341,"name":"jeff","steam_id":76561198059450566,"connected_time":1106000000000,"state":"active","ping":61},{"user_id":352,"name":"IZISOO","steam_id":76561198970380577,"connected_time":171000000000,"state":"active","ping":87},{"user_id":349,"name":"giant_dork","steam_id":76561199105606956,"connected_time":232000000000,"state":"active","ping":50}]},{"server_id":14,"name":"Uncletopia | New York City | 2 | All Maps","name_short":"nyc-2","host":"nyc-1.us.uncletopia.com","port":27025,"enabled":true,"region":"us-east","cc":"us","latitude":40.73061,"longitude":-73.93524,"reserved":0,"last_update":"0001-01-01T00:00:00Z","name_a2s":"Uncletopia | New York City | 2 | All Maps","protocol":17,"map":"cp_sunshine","folder":"tf","game":"Team Fortress","app_id":440,"player_count":24,"max_players":24,"Bots":0,"server_type":"Dedicated","server_os":"Linux","password":true,"vac":true,"version":"7932396","steam_id":85568392924469994,"keywords":["cp","nocrits","nodmgspread","uncletopia"],"game_id":440,"stv_port":27026,"stv_name":"Uncletopia | New York City | 2 | All Maps | STV","players":[{"user_id":168,"name":"shark kid","steam_id":76561198055660354,"connected_time":378000000000,"state":"active","ping":90},{"user_id":145,"name":"sqerkbo","steam_id":76561198080012700,"connected_time":2128000000000,"state":"active","ping":52},{"user_id":173,"name":"Mr. Durian","steam_id":76561198093813212,"connected_time":178000000000,"state":"active","ping":67},{"user_id":174,"name":"minecraft","steam_id":76561198104345201,"connected_time":166000000000,"state":"active","ping":50},{"user_id":119,"name":"jim bob","steam_id":76561198815547064,"connected_time":4067000000000,"state":"active","ping":59},{"user_id":165,"name":"lagzer","steam_id":76561198029295449,"connected_time":543000000000,"state":"active","ping":139},{"user_id":181,"name":"Chris P. Bacon","steam_id":76561198000851038,"connected_time":32000000000,"state":"active","ping":55},{"user_id":177,"name":"joddson63","steam_id":76561198124576125,"connected_time":130000000000,"state":"active","ping":84},{"user_id":169,"name":"Tough Puffin","steam_id":76561198024011010,"connected_time":376000000000,"state":"active","ping":74},{"user_id":171,"name":"thats free rizz","steam_id":76561198056186750,"connected_time":247000000000,"state":"active","ping":66},{"user_id":134,"name":"Xx_gam3rberg_xX","steam_id":76561199035781025,"connected_time":3004000000000,"state":"active","ping":75},{"user_id":160,"name":"Rumi_killer","steam_id":76561198077439866,"connected_time":880000000000,"state":"active","ping":113},{"user_id":166,"name":"Jabs","steam_id":76561198004411240,"connected_time":513000000000,"state":"active","ping":58},{"user_id":179,"name":"AudioMedic","steam_id":76561198333939032,"connected_time":88000000000,"state":"active","ping":52},{"user_id":130,"name":"CryshireWithAK","steam_id":76561198857908089,"connected_time":3368000000000,"state":"active","ping":75},{"user_id":122,"name":"Pluto","steam_id":76561198338593690,"connected_time":3963000000000,"state":"active","ping":75},{"user_id":162,"name":"sciencenerd42","steam_id":76561198274563320,"connected_time":719000000000,"state":"active","ping":40},{"user_id":69,"name":"KBoneski ‚ô°","steam_id":76561198307409065,"connected_time":6946000000000,"state":"active","ping":110},{"user_id":163,"name":"KrashBoomBang","steam_id":76561199002978777,"connected_time":701000000000,"state":"active","ping":50},{"user_id":128,"name":"ChaoticAngel","steam_id":76561198293528217,"connected_time":3747000000000,"state":"active","ping":47},{"user_id":158,"name":"Unk","steam_id":76561198031717617,"connected_time":1086000000000,"state":"active","ping":31},{"user_id":180,"name":"A little less gun","steam_id":76561198400987463,"connected_time":82000000000,"state":"active","ping":78},{"user_id":170,"name":"Thedarkdot","steam_id":76561199200787877,"connected_time":323000000000,"state":"active","ping":54},{"user_id":164,"name":"Devoid","steam_id":76561198254039012,"connected_time":684000000000,"state":"active","ping":33}]},{"server_id":15,"name":"Uncletopia | New York City | 3 | Stopwatch Beta","name_short":"nyc-3","host":"nyc-1.us.uncletopia.com","port":27035,"enabled":true,"region":"us-east","cc":"us","latitude":40.73061,"longitude":-73.93524,"reserved":0,"last_update":"0001-01-01T00:00:00Z","name_a2s":"Uncletopia | New York City | 3 | Stopwatch Beta","protocol":17,"map":"koth_lakeside_final","folder":"tf","game":"Team Fortress","app_id":440,"player_count":0,"max_players":24,"Bots":0,"server_type":"Dedicated","server_os":"Linux","password":true,"vac":true,"version":"7932396","steam_id":85568392924742820,"keywords":["cp","nocrits","nodmgspread","uncletopia"],"game_id":440,"stv_port":27036,"stv_name":"Uncletopia | New York City | 3 | Stopwatch Beta | STV","players":null},{"server_id":16,"name":"Uncletopia | New York City | 4 | Community","name_short":"nyc-4","host":"nyc-1.us.uncletopia.com","port":27045,"enabled":true,"region":"us-east","cc":"us","latitude":40.73061,"longitude":-73.93524,"reserved":0,"last_update":"0001-01-01T00:00:00Z","name_a2s":"Uncletopia | New York City | 4 | Community","protocol":17,"map":"workshop/cp_bruhstbowl_b6.ugc2878604990","folder":"tf","game":"Team Fortress","app_id":440,"player_count":24,"max_players":24,"Bots":0,"server_type":"Dedicated","server_os":"Linux","password":true,"vac":true,"version":"7932396","steam_id":85568392924742821,"keywords":["cp","nocrits","nodmgspread","uncletopia"],"game_id":440,"stv_port":27046,"stv_name":"Uncletopia | New York City | 4 | Community | STV","players":[{"user_id":423,"name":"Awoostin","steam_id":76561198046130018,"connected_time":2299000000000,"state":"active","ping":61},{"user_id":454,"name":"J3FF","steam_id":76561199209782011,"connected_time":180000000000,"state":"active","ping":65},{"user_id":429,"name":"grilled cheese enjoyer","steam_id":76561198882986104,"connected_time":1511000000000,"state":"active","ping":72},{"user_id":344,"name":"GGass","steam_id":76561198173172369,"connected_time":8412000000000,"state":"active","ping":151},{"user_id":406,"name":"helen keller","steam_id":76561197979870540,"connected_time":3099000000000,"state":"active","ping":66},{"user_id":430,"name":"Tim Reidell","steam_id":76561198118319408,"connected_time":1495000000000,"state":"active","ping":73},{"user_id":438,"name":"Fairchild Republic A-10 Thndrbl","steam_id":76561199038043360,"connected_time":1252000000000,"state":"active","ping":72},{"user_id":437,"name":"Rhutebeer","steam_id":76561198018302761,"connected_time":1308000000000,"state":"active","ping":103},{"user_id":442,"name":"AnnieM","steam_id":76561199435467297,"connected_time":924000000000,"state":"active","ping":85},{"user_id":444,"name":"Nick.","steam_id":76561198881036699,"connected_time":654000000000,"state":"active","ping":77},{"user_id":445,"name":"homo","steam_id":76561198404564240,"connected_time":588000000000,"state":"active","ping":45},{"user_id":446,"name":"Toblerone","steam_id":76561198057374871,"connected_time":560000000000,"state":"active","ping":75},{"user_id":428,"name":"illious","steam_id":76561198169925494,"connected_time":1611000000000,"state":"active","ping":70},{"user_id":453,"name":"MattJettskie","steam_id":76561199229493583,"connected_time":273000000000,"state":"active","ping":99},{"user_id":452,"name":"sheep man shaun","steam_id":76561198994349483,"connected_time":295000000000,"state":"active","ping":111},{"user_id":432,"name":"EmeraldCola","steam_id":76561198066663687,"connected_time":1457000000000,"state":"active","ping":55},{"user_id":455,"name":"Rutbeer","steam_id":76561198820444541,"connected_time":163000000000,"state":"active","ping":76},{"user_id":443,"name":"Zoawsome","steam_id":76561198018758753,"connected_time":902000000000,"state":"active","ping":65},{"user_id":440,"name":"GotYourNose","steam_id":76561198803527852,"connected_time":1129000000000,"state":"active","ping":53},{"user_id":424,"name":"Ahcer","steam_id":76561198125190121,"connected_time":2273000000000,"state":"active","ping":142},{"user_id":456,"name":"Oxygen User","steam_id":76561199111975528,"connected_time":123000000000,"state":"active","ping":89},{"user_id":376,"name":"Joey","steam_id":76561198094551677,"connected_time":5198000000000,"state":"active","ping":63},{"user_id":409,"name":"dave","steam_id":76561198135961731,"connected_time":3049000000000,"state":"active","ping":91},{"user_id":460,"name":"iceguycrudding","steam_id":76561198161385366,"connected_time":37000000000,"state":"active","ping":53}]},{"server_id":142,"name":"Uncletopia | S√£o Paulo | 1 | All Maps","name_short":"sao-1","host":"sao-1.br.uncletopia.com","port":27015,"enabled":true,"region":"sa","cc":"br","latitude":-23.533773,"longitude":-46.62529,"reserved":0,"last_update":"0001-01-01T00:00:00Z","name_a2s":"Uncletopia | S√£o Paulo | 1 | All Maps","protocol":17,"map":"cp_dustbowl","folder":"tf","game":"Team Fortress","app_id":440,"player_count":1,"max_players":24,"Bots":0,"server_type":"Dedicated","server_os":"Linux","password":true,"vac":true,"version":"7932396","steam_id":85568392924469996,"keywords":["cp","nocrits","nodmgspread","uncletopia"],"game_id":440,"stv_port":27016,"stv_name":"Uncletopia | S√£o Paulo | 1 | All Maps | STV","players":[{"user_id":10,"name":"Verdious","steam_id":76561198211839171,"connected_time":440000000000,"state":"active","ping":93}]},{"server_id":143,"name":"Uncletopia | S√£o Paulo | 2 | All Maps","name_short":"sao-2","host":"sao-2.br.uncletopia.com","port":27015,"enabled":true,"region":"sa","cc":"br","latitude":-23.533773,"longitude":-46.62529,"reserved":0,"last_update":"0001-01-01T00:00:00Z","name_a2s":"Uncletopia | S√£o Paulo | 2 | All Maps","protocol":17,"map":"koth_cascade","folder":"tf","game":"Team Fortress","app_id":440,"player_count":0,"max_players":24,"Bots":0,"server_type":"Dedicated","server_os":"Linux","password":true,"vac":true,"version":"7932396","steam_id":85568392924485349,"keywords":["cp","nocrits","nodmgspread","uncletopia"],"game_id":440,"stv_port":27016,"stv_name":"Uncletopia | S√£o Paulo | 2 | All Maps | STV","players":null},{"server_id":7,"name":"Uncletopia | Seattle | 1 | All Maps","name_short":"sea-1","host":"sea-1.us.uncletopia.com","port":27015,"enabled":true,"region":"us-west","cc":"us","latitude":47.608013,"longitude":-122.33517,"reserved":0,"last_update":"0001-01-01T00:00:00Z","name_a2s":"Uncletopia | Seattle | 1 | All Maps","protocol":17,"map":"pl_borneo","folder":"tf","game":"Team Fortress","app_id":440,"player_count":24,"max_players":24,"Bots":0,"server_type":"Dedicated","server_os":"Linux","password":true,"vac":true,"version":"7932396","steam_id":85568392924469997,"keywords":["nocrits","nodmgspread","payload","uncletopia"],"game_id":440,"stv_port":27016,"stv_name":"Uncletopia | Seattle | 1 | All Maps | STV","players":[{"user_id":267,"name":"Ayayayayayahuasca","steam_id":76561199002906056,"connected_time":682000000000,"state":"active","ping":49},{"user_id":255,"name":"tunafish64","steam_id":76561199488561842,"connected_time":1984000000000,"state":"active","ping":71},{"user_id":263,"name":"Banned Worthless Specimen","steam_id":76561198117206414,"connected_time":1413000000000,"state":"active","ping":111},{"user_id":256,"name":"Wheaties","steam_id":76561198060909578,"connected_time":1835000000000,"state":"active","ping":52},{"user_id":250,"name":"FireQuiz","steam_id":76561198107357249,"connected_time":2260000000000,"state":"active","ping":68},{"user_id":270,"name":"Dreamzapp","steam_id":76561199084936632,"connected_time":453000000000,"state":"active","ping":88},{"user_id":251,"name":"MondoDong","steam_id":76561197991400109,"connected_time":2236000000000,"state":"active","ping":113},{"user_id":246,"name":"Scorcho","steam_id":76561198071413833,"connected_time":2411000000000,"state":"active","ping":62},{"user_id":228,"name":"Mocha Josie","steam_id":76561198066452726,"connected_time":2739000000000,"state":"active","ping":79},{"user_id":152,"name":"bubblefier","steam_id":76561198872316133,"connected_time":7297000000000,"state":"active","ping":67},{"user_id":187,"name":"SYMBOL_YT","steam_id":76561198848655517,"connected_time":5485000000000,"state":"active","ping":60},{"user_id":268,"name":"J O S H¬≥¬≤","steam_id":76561198122603779,"connected_time":488000000000,"state":"active","ping":95},{"user_id":205,"name":"antivirus.exe","steam_id":76561198152067633,"connected_time":3468000000000,"state":"active","ping":112},{"user_id":266,"name":"VerseG","steam_id":76561198059246919,"connected_time":1282000000000,"state":"active","ping":47},{"user_id":229,"name":"DistantJragon","steam_id":76561198117563641,"connected_time":2712000000000,"state":"active","ping":101},{"user_id":271,"name":"Keamy","steam_id":76561199471434875,"connected_time":433000000000,"state":"active","ping":45},{"user_id":226,"name":"Young Sandwich","steam_id":76561198180908482,"connected_time":2848000000000,"state":"active","ping":91},{"user_id":269,"name":"maleficent ‚∏∏","steam_id":76561198177893343,"connected_time":479000000000,"state":"active","ping":63},{"user_id":257,"name":"I'mFromSpace","steam_id":76561198808969653,"connected_time":1815000000000,"state":"active","ping":76},{"user_id":233,"name":"Moth","steam_id":76561198861649957,"connected_time":2628000000000,"state":"active","ping":141},{"user_id":252,"name":"Your Local Queer Librarian","steam_id":76561198013077080,"connected_time":2120000000000,"state":"active","ping":108},{"user_id":195,"name":"Puppygirl GF","steam_id":76561198085813708,"connected_time":5064000000000,"state":"active","ping":116},{"user_id":235,"name":"Airbag","steam_id":76561197971333044,"connected_time":2611000000000,"state":"active","ping":100},{"user_id":264,"name":"Papillon","steam_id":76561198049725849,"connected_time":1388000000000,"state":"active","ping":115}]},{"server_id":119,"name":"Uncletopia | Seattle | 2 | All Maps","name_short":"sea-2","host":"sea-1.us.uncletopia.com","port":27025,"enabled":true,"region":"us-west","cc":"us","latitude":47.608013,"longitude":-122.33517,"reserved":0,"last_update":"0001-01-01T00:00:00Z","name_a2s":"Uncletopia | Seattle | 2 | All Maps","protocol":17,"map":"pl_borneo","folder":"tf","game":"Team Fortress","app_id":440,"player_count":24,"max_players":24,"Bots":0,"server_type":"Dedicated","server_os":"Linux","password":true,"vac":true,"version":"7932396","steam_id":85568392924469998,"keywords":["nocrits","nodmgspread","payload","uncletopia"],"game_id":440,"stv_port":27026,"stv_name":"Uncletopia | Seattle | 2 | All Maps | STV","players":[{"user_id":466,"name":"spiderland","steam_id":76561198335992132,"connected_time":4428000000000,"state":"active","ping":44},{"user_id":531,"name":"Zel","steam_id":76561198093795799,"connected_time":421000000000,"state":"active","ping":99},{"user_id":479,"name":"BarrowBaron","steam_id":76561198013633236,"connected_time":4218000000000,"state":"active","ping":96},{"user_id":500,"name":"Ockulus","steam_id":76561199069638460,"connected_time":2542000000000,"state":"active","ping":79},{"user_id":501,"name":"Captain Underbelly","steam_id":76561198811270935,"connected_time":2508000000000,"state":"active","ping":72},{"user_id":535,"name":"cowboy worm","steam_id":76561198129564488,"connected_time":388000000000,"state":"active","ping":58},{"user_id":522,"name":"Laxoloni","steam_id":76561199197045700,"connected_time":903000000000,"state":"active","ping":88},{"user_id":536,"name":"Bookhead","steam_id":76561197962042356,"connected_time":372000000000,"state":"active","ping":36},{"user_id":482,"name":"Spy of 83","steam_id":76561199062242958,"connected_time":4073000000000,"state":"active","ping":74},{"user_id":539,"name":"misterjozo","steam_id":76561198012300755,"connected_time":42000000000,"state":"active","ping":61},{"user_id":506,"name":"Market Brand","steam_id":76561197980385816,"connected_time":2279000000000,"state":"active","ping":56},{"user_id":516,"name":"Zigadox","steam_id":76561198079813479,"connected_time":1602000000000,"state":"active","ping":141},{"user_id":530,"name":"Cinnifox","steam_id":76561198068773971,"connected_time":426000000000,"state":"active","ping":69},{"user_id":526,"name":"Jacob Hornberger 2016","steam_id":76561198204549723,"connected_time":797000000000,"state":"active","ping":106},{"user_id":538,"name":"MrVegasAguitar","steam_id":76561198084466946,"connected_time":253000000000,"state":"active","ping":133},{"user_id":529,"name":"Owen V","steam_id":76561198887059696,"connected_time":473000000000,"state":"active","ping":107},{"user_id":534,"name":"Funky Kong Jr.","steam_id":76561199351137762,"connected_time":395000000000,"state":"active","ping":53},{"user_id":521,"name":"Mocha","steam_id":76561199100342013,"connected_time":1192000000000,"state":"active","ping":74},{"user_id":527,"name":"Coowil","steam_id":76561198070985437,"connected_time":752000000000,"state":"active","ping":44},{"user_id":510,"name":"NickoDeeBz","steam_id":76561198294657867,"connected_time":1939000000000,"state":"active","ping":53},{"user_id":496,"name":"TeriyakiDynamite","steam_id":76561198050049346,"connected_time":2642000000000,"state":"active","ping":88},{"user_id":518,"name":"etymology","steam_id":76561198043558709,"connected_time":1592000000000,"state":"active","ping":45},{"user_id":476,"name":"Vapor Man","steam_id":76561198210173112,"connected_time":4305000000000,"state":"active","ping":165},{"user_id":537,"name":"mrthugpug1732","steam_id":76561198881200768,"connected_time":365000000000,"state":"active","ping":92}]},{"server_id":406,"name":"Uncletopia | Seattle | 3 | Stopwatch Beta","name_short":"sea-3","host":"sea-1.us.uncletopia.com","port":27035,"enabled":true,"region":"us-west","cc":"us","latitude":47.608013,"longitude":-122.33517,"reserved":0,"last_update":"0001-01-01T00:00:00Z","name_a2s":"Uncletopia | Seattle | 3 | Stopwatch Beta","protocol":17,"map":"workshop/koth_clearcut_b15.ugc2107050255","folder":"tf","game":"Team Fortress","app_id":440,"player_count":0,"max_players":24,"Bots":0,"server_type":"Dedicated","server_os":"Linux","password":true,"vac":true,"version":"7932396","steam_id":85568392924515217,"keywords":["cp","nocrits","nodmgspread","uncletopia"],"game_id":440,"stv_port":27036,"stv_name":"Uncletopia | Seattle | 3 | Stopwatch Beta | STV","players":null},{"server_id":17,"name":"Uncletopia | San Francisco | 1 | All Maps","name_short":"sfo-1","host":"sfo-1.us.uncletopia.com","port":27015,"enabled":true,"region":"us-west","cc":"us","latitude":37.77397,"longitude":-122.4313,"reserved":0,"last_update":"0001-01-01T00:00:00Z","name_a2s":"Uncletopia | San Francisco | 1 | All Maps","protocol":17,"map":"koth_lakeside_final","folder":"tf","game":"Team Fortress","app_id":440,"player_count":0,"max_players":24,"Bots":0,"server_type":"Dedicated","server_os":"Linux","password":true,"vac":true,"version":"7932396","steam_id":85568392924469999,"keywords":["cp","nocrits","nodmgspread","uncletopia"],"game_id":440,"stv_port":27016,"stv_name":"Uncletopia | San Francisco | 1 | All Maps | STV","players":null},{"server_id":18,"name":"Uncletopia | San Francisco | 2 | All Maps","name_short":"sfo-2","host":"sfo-1.us.uncletopia.com","port":27025,"enabled":true,"region":"us-west","cc":"us","latitude":37.77397,"longitude":-122.4313,"reserved":0,"last_update":"0001-01-01T00:00:00Z","name_a2s":"Uncletopia | San Francisco | 2 | All Maps","protocol":17,"map":"koth_highpass","folder":"tf","game":"Team Fortress","app_id":440,"player_count":0,"max_players":24,"Bots":0,"server_type":"Dedicated","server_os":"Linux","password":true,"vac":true,"version":"7932396","steam_id":85568392924470000,"keywords":["cp","nocrits","nodmgspread","uncletopia"],"game_id":440,"stv_port":27026,"stv_name":"Uncletopia | San Francisco | 2 | All Maps | STV","players":null},{"server_id":19,"name":"Uncletopia | San Francisco | 3 | Stopwatch Beta","name_short":"sfo-3","host":"sfo-1.us.uncletopia.com","port":27035,"enabled":true,"region":"us-west","cc":"us","latitude":37.77397,"longitude":-122.4313,"reserved":0,"last_update":"0001-01-01T00:00:00Z","name_a2s":"Uncletopia | San Francisco | 3 | Stopwatch Beta","protocol":17,"map":"koth_lakeside_final","folder":"tf","game":"Team Fortress","app_id":440,"player_count":0,"max_players":24,"Bots":0,"server_type":"Dedicated","server_os":"Linux","password":true,"vac":true,"version":"7932396","steam_id":85568392924742824,"keywords":["cp","nocrits","nodmgspread","uncletopia"],"game_id":440,"stv_port":27036,"stv_name":"Uncletopia | San Francisco | 3 | Stopwatch Beta | STV","players":null},{"server_id":20,"name":"Uncletopia | San Francisco | 4 | Community","name_short":"sfo-4","host":"sfo-1.us.uncletopia.com","port":27045,"enabled":true,"region":"us-west","cc":"us","latitude":37.77397,"longitude":-122.4313,"reserved":0,"last_update":"0001-01-01T00:00:00Z","name_a2s":"Uncletopia | San Francisco | 4 | Community","protocol":17,"map":"pl_borneo","folder":"tf","game":"Team Fortress","app_id":440,"player_count":0,"max_players":24,"Bots":0,"server_type":"Dedicated","server_os":"Linux","password":true,"vac":true,"version":"7932396","steam_id":85568392924742826,"keywords":["nocrits","nodmgspread","payload","uncletopia"],"game_id":440,"stv_port":27046,"stv_name":"Uncletopia | San Francisco | 4 | Community | STV","players":null},{"server_id":141,"name":"Uncletopia | Sydney | 1 | All Maps","name_short":"syd-1","host":"syd-1.au.uncletopia.com","port":27015,"enabled":true,"region":"au","cc":"au","latitude":-33.865143,"longitude":151.2099,"reserved":0,"last_update":"0001-01-01T00:00:00Z","name_a2s":"Uncletopia | Sydney | 1 | All Maps","protocol":17,"map":"pl_pier","folder":"tf","game":"Team Fortress","app_id":440,"player_count":0,"max_players":24,"Bots":0,"server_type":"Dedicated","server_os":"Linux","password":true,"vac":true,"version":"7932396","steam_id":85568392924470001,"keywords":["nocrits","nodmgspread","payload","uncletopia"],"game_id":440,"stv_port":27016,"stv_name":"Uncletopia | Sydney | 1 | All Maps | STV","players":null},{"server_id":123,"name":"Uncletopia | Sydney | 2 | All Maps","name_short":"syd-2","host":"syd-1.au.uncletopia.com","port":27025,"enabled":true,"region":"au","cc":"au","latitude":-33.865143,"longitude":151.2099,"reserved":0,"last_update":"0001-01-01T00:00:00Z","name_a2s":"Uncletopia | Sydney | 2 | All Maps","protocol":17,"map":"koth_lakeside_final","folder":"tf","game":"Team Fortress","app_id":440,"player_count":0,"max_players":24,"Bots":0,"server_type":"Dedicated","server_os":"Linux","password":true,"vac":true,"version":"7932396","steam_id":85568392924470002,"keywords":["cp","nocrits","nodmgspread","uncletopia"],"game_id":440,"stv_port":27026,"stv_name":"Uncletopia | Sydney | 2 | All Maps | STV","players":null},{"server_id":395,"name":"Uncletopia | Sydney | 3 | All Maps","name_short":"syd-3","host":"syd-1.au.uncletopia.com","port":27035,"enabled":true,"region":"au","cc":"au","latitude":-33.865143,"longitude":151.2099,"reserved":0,"last_update":"0001-01-01T00:00:00Z","name_a2s":"Uncletopia | Sydney | 3 | All Maps","protocol":17,"map":"pl_frontier_final","folder":"tf","game":"Team Fortress","app_id":440,"player_count":0,"max_players":24,"Bots":0,"server_type":"Dedicated","server_os":"Linux","password":true,"vac":true,"version":"7932396","steam_id":85568392925194467,"keywords":["nocrits","nodmgspread","payload","uncletopia"],"game_id":440,"stv_port":27036,"stv_name":"Uncletopia | Sydney | 3 | All Maps | STV","players":null},{"server_id":396,"name":"Uncletopia | Sydney | 4 | All Maps","name_short":"syd-4","host":"syd-1.au.uncletopia.com","port":27045,"enabled":true,"region":"au","cc":"au","latitude":-33.865143,"longitude":151.2099,"reserved":0,"last_update":"0001-01-01T00:00:00Z","name_a2s":"Uncletopia | Sydney | 4 | All Maps","protocol":17,"map":"pl_pier","folder":"tf","game":"Team Fortress","app_id":440,"player_count":0,"max_players":24,"Bots":0,"server_type":"Dedicated","server_os":"Linux","password":true,"vac":true,"version":"7932396","steam_id":85568392925397958,"keywords":["nocrits","nodmgspread","payload","uncletopia"],"game_id":440,"stv_port":27046,"stv_name":"Uncletopia | Sydney | 4 | All Maps | STV","players":null},{"server_id":58,"name":"Uncletopia | Sydney | 5 | Stopwatch Beta","name_short":"syd-5","host":"syd-1.au.uncletopia.com","port":27055,"enabled":true,"region":"au","cc":"au","latitude":-33.865143,"longitude":151.2099,"reserved":0,"last_update":"0001-01-01T00:00:00Z","name_a2s":"Uncletopia | Sydney | 5 | Stopwatch Beta","protocol":17,"map":"pl_borneo","folder":"tf","game":"Team Fortress","app_id":440,"player_count":0,"max_players":24,"Bots":0,"server_type":"Dedicated","server_os":"Linux","password":true,"vac":true,"version":"7932396","steam_id":85568392925397959,"keywords":["nocrits","nodmgspread","payload","uncletopia"],"game_id":440,"stv_port":27056,"stv_name":"Uncletopia | Sydney | 5 | Stopwatch Beta | STV","players":null},{"server_id":59,"name":"Uncletopia | Sydney | 6 | Community","name_short":"syd-6","host":"syd-1.au.uncletopia.com","port":27065,"enabled":true,"region":"au","cc":"au","latitude":-33.865143,"longitude":151.2099,"reserved":0,"last_update":"0001-01-01T00:00:00Z","name_a2s":"Uncletopia | Sydney | 6 | Community","protocol":17,"map":"workshop/pl_highwood_b13.ugc1769496557","folder":"tf","game":"Team Fortress","app_id":440,"player_count":0,"max_players":24,"Bots":0,"server_type":"Dedicated","server_os":"Linux","password":true,"vac":true,"version":"7932396","steam_id":85568392925397960,"keywords":["nocrits","nodmgspread","payload","uncletopia"],"game_id":440,"stv_port":27066,"stv_name":"Uncletopia | Sydney | 6 | Community | STV","players":null},{"server_id":49,"name":"Uncletopia | Warsaw | 1 | All Maps","name_short":"waw-1","host":"waw-1.pl.uncletopia.com","port":27015,"enabled":true,"region":"eu","cc":"pl","latitude":52.2297,"longitude":21.017532,"reserved":0,"last_update":"0001-01-01T00:00:00Z","name_a2s":"","protocol":0,"map":"","folder":"","game":"","app_id":0,"player_count":0,"max_players":0,"Bots":0,"server_type":"","server_os":"","password":false,"vac":false,"version":"","steam_id":0,"keywords":null,"game_id":0,"stv_port":0,"stv_name":"","players":null},{"server_id":50,"name":"Uncletopia | Warsaw | 2 | All Maps","name_short":"waw-2","host":"waw-1.pl.uncletopia.com","port":27025,"enabled":true,"region":"eu","cc":"pl","latitude":52.2297,"longitude":21.017532,"reserved":0,"last_update":"0001-01-01T00:00:00Z","name_a2s":"Uncletopia | Warsaw | 2 | All Maps","protocol":17,"map":"koth_lakeside_final","folder":"tf","game":"Team Fortress","app_id":440,"player_count":0,"max_players":24,"Bots":0,"server_type":"Dedicated","server_os":"Linux","password":true,"vac":true,"version":"7932396","steam_id":85568392925397851,"keywords":["cp","nocrits","nodmgspread","uncletopia"],"game_id":440,"stv_port":27026,"stv_name":"Uncletopia | Warsaw | 2 | All Maps | STV","players":null},{"server_id":51,"name":"Uncletopia | Warsaw | 3 | All Maps","name_short":"waw-3","host":"waw-1.pl.uncletopia.com","port":27035,"enabled":true,"region":"eu","cc":"pl","latitude":52.2297,"longitude":21.017532,"reserved":0,"last_update":"0001-01-01T00:00:00Z","name_a2s":"Uncletopia | Warsaw | 3 | All Maps","protocol":17,"map":"koth_cascade","folder":"tf","game":"Team Fortress","app_id":440,"player_count":0,"max_players":24,"Bots":0,"server_type":"Dedicated","server_os":"Linux","password":true,"vac":true,"version":"7932396","steam_id":85568392925397852,"keywords":["cp","nocrits","nodmgspread","uncletopia"],"game_id":440,"stv_port":27036,"stv_name":"Uncletopia | Warsaw | 3 | All Maps | STV","players":null},{"server_id":52,"name":"Uncletopia | Warsaw | 4 | All Maps","name_short":"waw-4","host":"waw-1.pl.uncletopia.com","port":27045,"enabled":true,"region":"eu","cc":"pl","latitude":52.2297,"longitude":21.017532,"reserved":0,"last_update":"0001-01-01T00:00:00Z","name_a2s":"Uncletopia | Warsaw | 4 | All Maps","protocol":17,"map":"pl_barnblitz","folder":"tf","game":"Team Fortress","app_id":440,"player_count":0,"max_players":24,"Bots":0,"server_type":"Dedicated","server_os":"Linux","password":true,"vac":true,"version":"7932396","steam_id":85568392925397853,"keywords":["nocrits","nodmgspread","payload","uncletopia"],"game_id":440,"stv_port":27046,"stv_name":"Uncletopia | Warsaw | 4 | All Maps | STV","players":null},{"server_id":53,"name":"Uncletopia | Warsaw | 5 | Stopwatch Beta","name_short":"waw-5","host":"waw-1.pl.uncletopia.com","port":27055,"enabled":true,"region":"eu","cc":"pl","latitude":52.2297,"longitude":21.017532,"reserved":0,"last_update":"0001-01-01T00:00:00Z","name_a2s":"Uncletopia | Warsaw | 5 | Stopwatch Beta","protocol":17,"map":"workshop/pl_vigil_rc9.ugc1266210012","folder":"tf","game":"Team Fortress","app_id":440,"player_count":0,"max_players":24,"Bots":0,"server_type":"Dedicated","server_os":"Linux","password":true,"vac":true,"version":"7932396","steam_id":85568392925397854,"keywords":["nocrits","nodmgspread","payload","uncletopia"],"game_id":440,"stv_port":27056,"stv_name":"Uncletopia | Warsaw | 5 | Stopwatch Beta | STV","players":null},{"server_id":54,"name":"Uncletopia | Warsaw | 6 | Community","name_short":"waw-6","host":"waw-1.pl.uncletopia.com","port":27065,"enabled":true,"region":"eu","cc":"pl","latitude":52.2297,"longitude":21.017532,"reserved":0,"last_update":"0001-01-01T00:00:00Z","name_a2s":"Uncletopia | Warsaw | 6 | Community","protocol":17,"map":"workshop/pl_fifthcurve_rc1.ugc648227046","folder":"tf","game":"Team Fortress","app_id":440,"player_count":4,"max_players":24,"Bots":0,"server_type":"Dedicated","server_os":"Linux","password":true,"vac":true,"version":"7932396","steam_id":85568392925397856,"keywords":["nocrits","nodmgspread","payload","uncletopia"],"game_id":440,"stv_port":27066,"stv_name":"Uncletopia | Warsaw | 6 | Community | STV","players":[{"user_id":9,"name":"TSx* Naxer","steam_id":76561198011986779,"connected_time":11833000000000,"state":"active","ping":45},{"user_id":26,"name":"Cynamoniak","steam_id":76561199005580029,"connected_time":1950000000000,"state":"active","ping":54},{"user_id":16,"name":"TSx* Bargal","steam_id":76561198040266872,"connected_time":9612000000000,"state":"active","ping":49},{"user_id":29,"name":"Quinn loneheart","steam_id":76561198303829611,"connected_time":791000000000,"state":"active","ping":114}]}]}