{"status":true,"message":"","result":[{"server_id":9,"name":"Uncletopia | Atlanta | 1 | All Maps","name_short":"atl-1","host":"atl-1.us.uncletopia.com","port":27015,"enabled":true,"region":"us-east","cc":"us","latitude":33.753746,"longitude":-84.38633,"reserved":0,"last_update":"0001-01-01T00:00:00Z","name_a2s":"Uncletopia | Atlanta | 1 | All Maps","protocol":17,"map":"pl_barnblitz","folder":"tf","game":"Team Fortress","app_id":440,"player_count":24,"max_players":24,"Bots":0,"server_type":"Dedicated","server_os":"Linux","password":true,"vac":true,"version":"7708610","steam_id":85568392924469982,"keywords":["nocrits","nodmgspread","payload","uncletopia"],"game_id":440,"stv_port":27016,"stv_name":"Uncletopia | Atlanta | 1 | All Maps | STV","players":[{"user_id":367,"name":"HarryjusttHarry","steam_id":76561198982810452,"connected_time":2167000000000,"state":"active","ping":68},{"user_id":369,"name":"ash","steam_id":76561198127890645,"connected_time":2008000000000,"state":"active","ping":71},{"user_id":379,"name":"xZackAttack27x","steam_id":76561198035446639,"connected_time":1170000000000,"state":"active","ping":60},{"user_id":380,"name":"Alfa","steam_id":76561197989393760,"connected_time":1146000000000,"state":"active","ping":107},{"user_id":327,"name":"noelle","steam_id":76561198386344068,"connected_time":5616000000000,"state":"active","ping":69},{"user_id":356,"name":"Waffle Wannabe","steam_id":76561198064510650,"connected_time":3203000000000,"state":"active","ping":58},{"user_id":353,"name":"secret urinal chamber","steam_id":76561198098769105,"connected_time":3312000000000,"state":"active","ping":50},{"user_id":381,"name":"MOTORTREND TRUCK OF THE YEAR","steam_id":76561198077654131,"connected_time":1094000000000,"state":"active","ping":75},{"user_id":382,"name":"Lots0","steam_id":76561198043143145,"connected_time":1064000000000,"state":"active","ping":93},{"user_id":377,"name":"Bandicario","steam_id":76561198432036026,"connected_time":1734000000000,"state":"active","ping":46},{"user_id":358,"name":"SnowStorm","steam_id":76561198095817025,"connected_time":3099000000000,"state":"active","ping":39},{"user_id":383,"name":"apathy","steam_id":76561198286300564,"connected_time":1054000000000,"state":"active","ping":59},{"user_id":391,"name":"❤ Ashley ❤","steam_id":76561198056428303,"connected_time":765000000000,"state":"active","ping":107},{"user_id":393,"name":"THIRDPIERCE","steam_id":76561198405366314,"connected_time":619000000000,"state":"active","ping":84},{"user_id":386,"name":"Comic","steam_id":76561197979834355,"connected_time":1006000000000,"state":"active","ping":68},{"user_id":266,"name":"timestew","steam_id":76561198367583372,"connected_time":11181000000000,"state":"active","ping":84},{"user_id":374,"name":"Young-OG","steam_id":76561198058800479,"connected_time":1848000000000,"state":"active","ping":86},{"user_id":364,"name":"BigBubble42","steam_id":76561198136286123,"connected_time":2651000000000,"state":"active","ping":48},{"user_id":390,"name":"ATL1 | Crystron","steam_id":76561198880437428,"connected_time":827000000000,"state":"active","ping":85},{"user_id":398,"name":"Towns","steam_id":76561198984662863,"connected_time":148000000000,"state":"active","ping":118},{"user_id":395,"name":"ATL1 | Lancer Fan Club","steam_id":76561198355495948,"connected_time":268000000000,"state":"active","ping":89},{"user_id":401,"name":"thinking of you","steam_id":76561198025668771,"connected_time":24000000000,"state":"active","ping":131},{"user_id":355,"name":"xyt0nix","steam_id":76561199437938235,"connected_time":3289000000000,"state":"active","ping":57},{"user_id":296,"name":"ATL1 | p4ka","steam_id":76561198315291317,"connected_time":8095000000000,"state":"active","ping":79}]},{"server_id":400,"name":"Uncletopia | Atlanta | 3 | All Maps","name_short":"atl-3","host":"atl-1.us.uncletopia.com","port":27035,"enabled":true,"region":"us-east","cc":"us","latitude":33.753746,"longitude":-84.38633,"reserved":0,"last_update":"0001-01-01T00:00:00Z","name_a2s":"Uncletopia | Atlanta | 3 | All Maps","protocol":17,"map":"pl_pier","folder":"tf","game":"Team Fortress","app_id":440,"player_count":24,"max_players":24,"Bots":0,"server_type":"Dedicated","server_os":"Linux","password":true,"vac":true,"version":"7708610","steam_id":85568392924515187,"keywords":["nocrits","nodmgspread","payload","uncletopia"],"game_id":440,"stv_port":27036,"stv_name":"Uncletopia | Atlanta | 3 | All Maps | STV","players":[{"user_id":320,"name":"MeatShield 2000","steam_id":76561199375192850,"connected_time":965000000000,"state":"active","ping":125},{"user_id":333,"name":"Miramar","steam_id":76561198022057653,"connected_time":596000000000,"state":"active","ping":78},{"user_id":335,"name":"walidov","steam_id":76561198079965605,"connected_time":392000000000,"state":"active","ping":109},{"user_id":276,"name":"Devinish","steam_id":76561198024927243,"connected_time":4094000000000,"state":"active","ping":49},{"user_id":292,"name":"Round King","steam_id":76561198273185290,"connected_time":3265000000000,"state":"active","ping":85},{"user_id":313,"name":"MenacingMekhet","steam_id":76561198053165462,"connected_time":1431000000000,"state":"active","ping":61},{"user_id":298,"name":"I LOVE WEED","steam_id":76561198964074985,"connected_time":2560000000000,"state":"active","ping":129},{"user_id":327,"name":"TheChickenChuck","steam_id":76561199192686708,"connected_time":830000000000,"state":"active","ping":83},{"user_id":308,"name":"tulpa","steam_id":76561198013253513,"connected_time":1926000000000,"state":"active","ping":60},{"user_id":294,"name":"evnobev","steam_id":76561198038966462,"connected_time":2632000000000,"state":"active","ping":58},{"user_id":337,"name":"The Coffee","steam_id":76561198171941807,"connected_time":142000000000,"state":"active","ping":65},{"user_id":329,"name":"tingle shitmouth","steam_id":76561198055109192,"connected_time":773000000000,"state":"active","ping":90},{"user_id":336,"name":"Shame","steam_id":76561198100490994,"connected_time":275000000000,"state":"active","ping":67},{"user_id":315,"name":"MeepoBeepo","steam_id":76561199103069202,"connected_time":1361000000000,"state":"active","ping":108},{"user_id":317,"name":"Mr. Ruckus","steam_id":76561198339566190,"connected_time":1287000000000,"state":"active","ping":79},{"user_id":321,"name":"Holacti","steam_id":76561198025974279,"connected_time":935000000000,"state":"active","ping":88},{"user_id":325,"name":"[festive] coms","steam_id":76561198359456881,"connected_time":864000000000,"state":"active","ping":61},{"user_id":319,"name":"Rock Kickass","steam_id":76561198450510841,"connected_time":1114000000000,"state":"active","ping":101},{"user_id":278,"name":"BurgerPizza","steam_id":76561198151256410,"connected_time":4034000000000,"state":"active","ping":125},{"user_id":322,"name":"Samek","steam_id":76561198008558459,"connected_time":919000000000,"state":"active","ping":95},{"user_id":323,"name":"footoftheday","steam_id":76561198052712449,"connected_time":916000000000,"state":"active","ping":84},{"user_id":324,"name":"Sponsored by Red Bull","steam_id":76561198062763756,"connected_time":883000000000,"state":"active","ping":64},{"user_id":307,"name":"Al'","steam_id":76561198105420574,"connected_time":2101000000000,"state":"active","ping":70},{"user_id":332,"name":"Len","steam_id":76561199141913673,"connected_time":701000000000,"state":"active","ping":93}]},{"server_id":401,"name":"Uncletopia | Atlanta | 4 | No Payload","name_short":"atl-4","host":"atl-1.us.uncletopia.com","port":27045,"enabled":true,"region":"us-east","cc":"us","latitude":33.753746,"longitude":-84.38633,"reserved":0,"last_update":"0001-01-01T00:00:00Z","name_a2s":"Uncletopia | Atlanta | 4 | No Payload","protocol":17,"map":"plr_bananabay","folder":"tf","game":"Team Fortress","app_id":440,"player_count":0,"max_players":24,"Bots":0,"server_type":"Dedicated","server_os":"Linux","password":true,"vac":true,"version":"7708610","steam_id":85568392924515188,"keywords":["nocrits","nodmgspread","payload","uncletopia"],"game_id":440,"stv_port":27046,"stv_name":"Uncletopia | Atlanta | 4 | No Payload | STV","players":null},{"server_id":2,"name":"Uncletopia | Chicago | 1 | All Maps","name_short":"chi-1","host":"chi-1.us.uncletopia.com","port":27015,"enabled":true,"region":"us-central","cc":"us","latitude":41.881832,"longitude":-87.62318,"reserved":0,"last_update":"0001-01-01T00:00:00Z","name_a2s":"Uncletopia | Chicago | 1 | All Maps","protocol":17,"map":"koth_viaduct","folder":"tf","game":"Team Fortress","app_id":440,"player_count":22,"max_players":24,"Bots":0,"server_type":"Dedicated","server_os":"Linux","password":true,"vac":true,"version":"7708610","steam_id":85568392924469984,"keywords":["cp","nocrits","nodmgspread","uncletopia"],"game_id":440,"stv_port":27016,"stv_name":"Uncletopia | Chicago | 1 | All Maps | STV","players":[{"user_id":224,"name":"SomeRandomPerson (F2p)","steam_id":76561198977045933,"connected_time":453000000000,"state":"active","ping":92},{"user_id":222,"name":"(1)Greg","steam_id":76561198299543780,"connected_time":553000000000,"state":"active","ping":91},{"user_id":187,"name":"Muttonchops","steam_id":76561198050240160,"connected_time":3135000000000,"state":"active","ping":62},{"user_id":189,"name":"Trogdor","steam_id":76561198121353181,"connected_time":2901000000000,"state":"active","ping":89},{"user_id":225,"name":"LastSpaceMarine","steam_id":76561198034706201,"connected_time":439000000000,"state":"active","ping":53},{"user_id":228,"name":"Timbs!!","steam_id":76561198156215344,"connected_time":278000000000,"state":"active","ping":81},{"user_id":197,"name":"Trunk Slamchest","steam_id":76561198032910884,"connected_time":2134000000000,"state":"active","ping":57},{"user_id":226,"name":"Sgt. Polaris","steam_id":76561198034752644,"connected_time":431000000000,"state":"active","ping":61},{"user_id":227,"name":"Santa","steam_id":76561198044130442,"connected_time":354000000000,"state":"active","ping":65},{"user_id":178,"name":"GREG","steam_id":76561198073021168,"connected_time":4153000000000,"state":"active","ping":79},{"user_id":219,"name":"Taste the Pain","steam_id":76561198081617990,"connected_time":612000000000,"state":"active","ping":87},{"user_id":218,"name":"Ax0L_","steam_id":76561199008960175,"connected_time":805000000000,"state":"active","ping":49},{"user_id":114,"name":"Killroy NQP ❤","steam_id":76561198006983771,"connected_time":8370000000000,"state":"active","ping":72},{"user_id":211,"name":"5 g of neutron-degenerate matte","steam_id":76561198212031324,"connected_time":1663000000000,"state":"active","ping":55},{"user_id":221,"name":"Basurado","steam_id":76561198819695655,"connected_time":560000000000,"state":"active","ping":59},{"user_id":229,"name":"Hey","steam_id":76561198447517893,"connected_time":222000000000,"state":"active","ping":73},{"user_id":135,"name":"Ras","steam_id":76561198123546775,"connected_time":7043000000000,"state":"active","ping":66},{"user_id":214,"name":"stop","steam_id":76561198268686419,"connected_time":1091000000000,"state":"active","ping":51},{"user_id":180,"name":"Scruncle","steam_id":76561198058313186,"connected_time":3946000000000,"state":"active","ping":64},{"user_id":217,"name":"DuckKey","steam_id":76561198904477889,"connected_time":935000000000,"state":"active","ping":60},{"user_id":230,"name":"minion from minions","steam_id":76561199001464827,"connected_time":206000000000,"state":"active","ping":75},{"user_id":231,"name":"bluehoodie77","steam_id":76561199441768573,"connected_time":111000000000,"state":"active","ping":82}]},{"server_id":106,"name":"Uncletopia | Chicago | 2 | All Maps","name_short":"chi-2","host":"chi-1.us.uncletopia.com","port":27025,"enabled":true,"region":"us-central","cc":"us","latitude":41.881832,"longitude":-87.62318,"reserved":0,"last_update":"0001-01-01T00:00:00Z","name_a2s":"Uncletopia | Chicago | 2 | All Maps","protocol":17,"map":"koth_viaduct","folder":"tf","game":"Team Fortress","app_id":440,"player_count":24,"max_players":24,"Bots":0,"server_type":"Dedicated","server_os":"Linux","password":true,"vac":true,"version":"7708610","steam_id":85568392924469985,"keywords":["cp","nocrits","nodmgspread","uncletopia"],"game_id":440,"stv_port":27026,"stv_name":"Uncletopia | Chicago | 2 | All Maps | STV","players":[{"user_id":157,"name":"Anxiety","steam_id":76561198365627687,"connected_time":542000000000,"state":"active","ping":106},{"user_id":133,"name":"YODIELAND","steam_id":76561198123883661,"connected_time":2212000000000,"state":"active","ping":43},{"user_id":134,"name":"Vampire Juicebox","steam_id":76561198148652081,"connected_time":2172000000000,"state":"active","ping":51},{"user_id":142,"name":"Moth13","steam_id":76561199116006136,"connected_time":1913000000000,"state":"active","ping":86},{"user_id":148,"name":"Sod","steam_id":76561198130329863,"connected_time":1514000000000,"state":"active","ping":59},{"user_id":120,"name":"Nobody","steam_id":76561198286486517,"connected_time":3693000000000,"state":"active","ping":62},{"user_id":168,"name":"notmanhattan","steam_id":76561198143117561,"connected_time":315000000000,"state":"active","ping":40},{"user_id":155,"name":"Corbe","steam_id":76561198353893927,"connected_time":605000000000,"state":"active","ping":42},{"user_id":136,"name":"火星 | Marsy","steam_id":76561198014979892,"connected_time":2045000000000,"state":"active","ping":76},{"user_id":158,"name":"scarybroccoli","steam_id":76561198296440084,"connected_time":513000000000,"state":"active","ping":75},{"user_id":132,"name":"Medical Toast","steam_id":76561198880425593,"connected_time":2281000000000,"state":"active","ping":87},{"user_id":165,"name":"butterfly2","steam_id":76561198017012057,"connected_time":410000000000,"state":"active","ping":71},{"user_id":159,"name":"PintoVero","steam_id":76561198088369252,"connected_time":505000000000,"state":"active","ping":58},{"user_id":160,"name":"Splinto","steam_id":76561198111260488,"connected_time":477000000000,"state":"active","ping":46},{"user_id":150,"name":"Ta5K","steam_id":76561198939558155,"connected_time":1464000000000,"state":"active","ping":42},{"user_id":151,"name":"Cook Beldin","steam_id":76561198260748461,"connected_time":974000000000,"state":"active","ping":127},{"user_id":170,"name":"KevCraft","steam_id":76561199000622939,"connected_time":165000000000,"state":"active","ping":102},{"user_id":169,"name":"Fuji","steam_id":76561199168680069,"connected_time":280000000000,"state":"active","ping":76},{"user_id":109,"name":"GreekGoat_Coffee","steam_id":76561198129331088,"connected_time":4405000000000,"state":"active","ping":45},{"user_id":166,"name":"strategic dier","steam_id":76561197999257178,"connected_time":409000000000,"state":"active","ping":75},{"user_id":122,"name":"Pandanator13","steam_id":76561199203491997,"connected_time":3511000000000,"state":"active","ping":57},{"user_id":153,"name":"asfd","steam_id":76561198012566405,"connected_time":926000000000,"state":"active","ping":68},{"user_id":146,"name":"Ted_Toast","steam_id":76561198072533533,"connected_time":1829000000000,"state":"active","ping":148},{"user_id":167,"name":"ObiWonJacobi","steam_id":76561198041921071,"connected_time":408000000000,"state":"active","ping":67}]},{"server_id":402,"name":"Uncletopia | Chicago | 3 | All Maps","name_short":"chi-3","host":"chi-1.us.uncletopia.com","port":27035,"enabled":true,"region":"us-central","cc":"us","latitude":41.881832,"longitude":-87.62318,"reserved":0,"last_update":"0001-01-01T00:00:00Z","name_a2s":"Uncletopia | Chicago | 3 | All Maps","protocol":17,"map":"koth_viaduct","folder":"tf","game":"Team Fortress","app_id":440,"player_count":0,"max_players":24,"Bots":0,"server_type":"Dedicated","server_os":"Linux","password":true,"vac":true,"version":"7708610","steam_id":85568392924515191,"keywords":["cp","nocrits","nodmgspread","uncletopia"],"game_id":440,"stv_port":27036,"stv_name":"Uncletopia | Chicago | 3 | All Maps | STV","players":null},{"server_id":403,"name":"Uncletopia | Chicago | 4 | All Maps","name_short":"chi-4","host":"chi-1.us.uncletopia.com","port":27045,"enabled":true,"region":"us-central","cc":"us","latitude":41.881832,"longitude":-87.62318,"reserved":0,"last_update":"0001-01-01T00:00:00Z","name_a2s":"Uncletopia | Chicago | 4 | All Maps","protocol":17,"map":"koth_viaduct","folder":"tf","game":"Team Fortress","app_id":440,"player_count":23,"max_players":24,"Bots":0,"server_type":"Dedicated","server_os":"Linux","password":true,"vac":true,"version":"7708610","steam_id":85568392924515193,"keywords":["cp","nocrits","nodmgspread","uncletopia"],"game_id":440,"stv_port":27046,"stv_name":"Uncletopia | Chicago | 4 | All Maps | STV","players":[{"user_id":121,"name":"Rukks","steam_id":76561197993918954,"connected_time":1048000000000,"state":"active","ping":63},{"user_id":129,"name":"CSCX","steam_id":76561198022728525,"connected_time":105000000000,"state":"active","ping":110},{"user_id":130,"name":"dr peppah chug!","steam_id":76561198068835693,"connected_time":103000000000,"state":"active","ping":85},{"user_id":101,"name":"Fresh Lychee","steam_id":76561198045399559,"connected_time":3074000000000,"state":"active","ping":51},{"user_id":14,"name":"The World's Softest Sandwich","steam_id":76561198015577707,"connected_time":8902000000000,"state":"active","ping":72},{"user_id":108,"name":"seaneneh 凹","steam_id":76561198354473513,"connected_time":2289000000000,"state":"active","ping":45},{"user_id":103,"name":"mineblast99","steam_id":76561199065648954,"connected_time":2766000000000,"state":"active","ping":76},{"user_id":115,"name":"LocaKola","steam_id":76561198173435430,"connected_time":1226000000000,"state":"active","ping":67},{"user_id":116,"name":"_DrunkenGibberish_","steam_id":76561199123070071,"connected_time":1191000000000,"state":"active","ping":97},{"user_id":94,"name":"Toest","steam_id":76561198076061844,"connected_time":3691000000000,"state":"active","ping":50},{"user_id":30,"name":"workin for snapple","steam_id":76561198013732450,"connected_time":7808000000000,"state":"active","ping":48},{"user_id":33,"name":"jolo","steam_id":76561198042831480,"connected_time":7720000000000,"state":"active","ping":73},{"user_id":131,"name":"Wang of Wall St","steam_id":76561198047460598,"connected_time":34000000000,"state":"active","ping":69},{"user_id":117,"name":"22moo","steam_id":76561199075331630,"connected_time":1190000000000,"state":"active","ping":85},{"user_id":132,"name":"engine","steam_id":76561198404006111,"connected_time":30000000000,"state":"active","ping":46},{"user_id":127,"name":"Wolbey","steam_id":76561198042148095,"connected_time":227000000000,"state":"active","ping":38},{"user_id":97,"name":"yitz","steam_id":76561198375575841,"connected_time":3596000000000,"state":"active","ping":55},{"user_id":111,"name":"firetamer2","steam_id":76561198040886980,"connected_time":1801000000000,"state":"active","ping":62},{"user_id":119,"name":"6t26j","steam_id":76561198278282836,"connected_time":1181000000000,"state":"active","ping":46},{"user_id":133,"name":"Spiffyo™","steam_id":76561198169937791,"connected_time":19000000000,"state":"spawning","ping":183},{"user_id":128,"name":"pain. suffering even.","steam_id":76561198411973380,"connected_time":203000000000,"state":"active","ping":60},{"user_id":106,"name":"beefandriceconsumer666","steam_id":76561198232617936,"connected_time":2406000000000,"state":"active","ping":49},{"user_id":90,"name":"4d4","steam_id":76561198402360789,"connected_time":3850000000000,"state":"active","ping":58}]},{"server_id":36,"name":"Uncletopia | Chicago | 5 | All Maps","name_short":"chi-5","host":"chi-2.us.uncletopia.com","port":27015,"enabled":true,"region":"us-central","cc":"us","latitude":41.881832,"longitude":-87.62318,"reserved":0,"last_update":"0001-01-01T00:00:00Z","name_a2s":"Uncletopia | Chicago | 5 | All Maps","protocol":17,"map":"cp_snakewater_final1","folder":"tf","game":"Team Fortress","app_id":440,"player_count":0,"max_players":24,"Bots":0,"server_type":"Dedicated","server_os":"Linux","password":true,"vac":true,"version":"7708610","steam_id":85568392924866362,"keywords":["cp","nocrits","nodmgspread","uncletopia"],"game_id":440,"stv_port":0,"stv_name":"","players":null},{"server_id":37,"name":"Uncletopia | Chicago | 6 | All Maps","name_short":"chi-6","host":"chi-2.us.uncletopia.com","port":27025,"enabled":true,"region":"us-central","cc":"us","latitude":41.881832,"longitude":-87.62318,"reserved":0,"last_update":"0001-01-01T00:00:00Z","name_a2s":"Uncletopia | Chicago | 6 | All Maps","protocol":17,"map":"koth_cascade","folder":"tf","game":"Team Fortress","app_id":440,"player_count":0,"max_players":24,"Bots":0,"server_type":"Dedicated","server_os":"Linux","password":true,"vac":true,"version":"7708610","steam_id":85568392924866363,"keywords":["cp","nocrits","nodmgspread","uncletopia"],"game_id":440,"stv_port":0,"stv_name":"","players":null},{"server_id":38,"name":"Uncletopia | Chicago | 7 | No Payload","name_short":"chi-7","host":"chi-2.us.uncletopia.com","port":27035,"enabled":true,"region":"us-central","cc":"us","latitude":41.881832,"longitude":-87.62318,"reserved":0,"last_update":"0001-01-01T00:00:00Z","name_a2s":"Uncletopia | Chicago | 7 | No Payload","protocol":17,"map":"koth_viaduct","folder":"tf","game":"Team Fortress","app_id":440,"player_count":0,"max_players":24,"Bots":0,"server_type":"Dedicated","server_os":"Linux","password":true,"vac":true,"version":"7708610","steam_id":85568392924866364,"keywords":["cp","nocrits","nodmgspread","uncletopia"],"game_id":440,"stv_port":0,"stv_name":"","players":null},{"server_id":39,"name":"Uncletopia | Chicago | 8 | Community","name_short":"chi-8","host":"chi-2.us.uncletopia.com","port":27045,"enabled":true,"region":"us-central","cc":"us","latitude":41.881832,"longitude":-87.62318,"reserved":0,"last_update":"0001-01-01T00:00:00Z","name_a2s":"Uncletopia | Chicago | 8 | Community","protocol":17,"map":"workshop/koth_bagel_rc5.ugc2514036946","folder":"tf","game":"Team Fortress","app_id":440,"player_count":0,"max_players":24,"Bots":0,"server_type":"Dedicated","server_os":"Linux","password":true,"vac":true,"version":"7708610","steam_id":85568392924866365,"keywords":["cp","nocrits","nodmgspread","uncletopia"],"game_id":440,"stv_port":27046,"stv_name":"Uncletopia | Chicago | 8 | Community | STV","players":null},{"server_id":8,"name":"Uncletopia | Dallas | 1 | All Maps","name_short":"dal-1","host":"dal-1.us.uncletopia.com","port":27015,"enabled":true,"region":"us-central","cc":"us","latitude":32.779167,"longitude":-96.80889,"reserved":0,"last_update":"0001-01-01T00:00:00Z","name_a2s":"Uncletopia | Dallas | 1 | All Maps","protocol":17,"map":"pl_snowycoast","folder":"tf","game":"Team Fortress","app_id":440,"player_count":24,"max_players":24,"Bots":0,"server_type":"Dedicated","server_os":"Linux","password":true,"vac":true,"version":"7708610","steam_id":85568392924469986,"keywords":["nocrits","nodmgspread","payload","uncletopia"],"game_id":440,"stv_port":27016,"stv_name":"Uncletopia | Dallas | 1 | All Maps | STV","players":[{"user_id":232,"name":"CHIEF","steam_id":76561198011209422,"connected_time":7321000000000,"state":"active","ping":47},{"user_id":305,"name":"roln","steam_id":76561198041066271,"connected_time":1514000000000,"state":"active","ping":64},{"user_id":293,"name":"JobsDone2","steam_id":76561198159158870,"connected_time":2809000000000,"state":"active","ping":90},{"user_id":306,"name":"B.","steam_id":76561198040445907,"connected_time":1498000000000,"state":"active","ping":75},{"user_id":313,"name":"Dr. Bonair","steam_id":76561198129237487,"connected_time":1198000000000,"state":"active","ping":61},{"user_id":187,"name":"oct9ber f9rever","steam_id":76561198036283992,"connected_time":11005000000000,"state":"active","ping":82},{"user_id":285,"name":"Father of Lies","steam_id":76561198985847893,"connected_time":2938000000000,"state":"active","ping":48},{"user_id":310,"name":"Taco","steam_id":76561198158621392,"connected_time":1408000000000,"state":"active","ping":91},{"user_id":312,"name":"Zero","steam_id":76561199383267408,"connected_time":1212000000000,"state":"active","ping":44},{"user_id":318,"name":"squish","steam_id":76561198186417941,"connected_time":866000000000,"state":"active","ping":73},{"user_id":267,"name":"rampu","steam_id":76561198355756412,"connected_time":4276000000000,"state":"active","ping":78},{"user_id":289,"name":"Tyler\u0026Fingers","steam_id":76561198085154485,"connected_time":2866000000000,"state":"active","ping":77},{"user_id":314,"name":"moe5x","steam_id":76561198316877833,"connected_time":1185000000000,"state":"active","ping":60},{"user_id":249,"name":"Wump ৹° :ᵛ◠ʷ ₒ°৹","steam_id":76561197997817642,"connected_time":5197000000000,"state":"active","ping":95},{"user_id":252,"name":"Mr.Indian Jokar","steam_id":76561198381343086,"connected_time":4651000000000,"state":"active","ping":77},{"user_id":264,"name":"The Krinkler","steam_id":76561198020308956,"connected_time":4343000000000,"state":"active","ping":67},{"user_id":219,"name":"Spazz","steam_id":76561198036167494,"connected_time":8593000000000,"state":"active","ping":63},{"user_id":301,"name":"JustSomeInternetGuy","steam_id":76561199066037843,"connected_time":1658000000000,"state":"active","ping":53},{"user_id":317,"name":"puffer","steam_id":76561199049164456,"connected_time":1022000000000,"state":"active","ping":109},{"user_id":315,"name":"moe","steam_id":76561198929586245,"connected_time":1175000000000,"state":"active","ping":80},{"user_id":316,"name":"Barbacoa","steam_id":76561198331376056,"connected_time":1120000000000,"state":"active","ping":97},{"user_id":272,"name":"[LINUX] F2P=S*(M/B)+H || Spy!","steam_id":76561198093538786,"connected_time":4084000000000,"state":"active","ping":45},{"user_id":304,"name":"Spectre","steam_id":76561198020088922,"connected_time":1593000000000,"state":"active","ping":78},{"user_id":279,"name":"Pump","steam_id":76561198085846167,"connected_time":3391000000000,"state":"active","ping":119}]},{"server_id":108,"name":"Uncletopia | Dallas | 2 | All Maps","name_short":"dal-2","host":"dal-1.us.uncletopia.com","port":27025,"enabled":true,"region":"us-central","cc":"us","latitude":32.779167,"longitude":-96.80889,"reserved":0,"last_update":"0001-01-01T00:00:00Z","name_a2s":"Uncletopia | Dallas | 2 | All Maps","protocol":17,"map":"koth_viaduct","folder":"tf","game":"Team Fortress","app_id":440,"player_count":24,"max_players":24,"Bots":0,"server_type":"Dedicated","server_os":"Linux","password":true,"vac":true,"version":"7708610","steam_id":85568392924469988,"keywords":["cp","nocrits","nodmgspread","uncletopia"],"game_id":440,"stv_port":27026,"stv_name":"Uncletopia | Dallas | 2 | All Maps | STV","players":[{"user_id":162,"name":"Oddity_","steam_id":76561198117154809,"connected_time":734000000000,"state":"active","ping":93},{"user_id":140,"name":"DaBubbleGuppies","steam_id":76561198253177879,"connected_time":2565000000000,"state":"active","ping":57},{"user_id":165,"name":"Jesus Loves You57","steam_id":76561199058833769,"connected_time":573000000000,"state":"active","ping":84},{"user_id":145,"name":"Poop Deck Joe","steam_id":76561198271397568,"connected_time":1887000000000,"state":"active","ping":64},{"user_id":157,"name":"Moroes","steam_id":76561198085494609,"connected_time":1141000000000,"state":"active","ping":48},{"user_id":163,"name":"Lard Extract from a Lard Factor","steam_id":76561199016285746,"connected_time":710000000000,"state":"active","ping":75},{"user_id":93,"name":"Lolxdloldx","steam_id":76561198136887125,"connected_time":4710000000000,"state":"active","ping":74},{"user_id":153,"name":"Dirt Road","steam_id":76561198210372012,"connected_time":1477000000000,"state":"active","ping":86},{"user_id":127,"name":"FestivizedPomsonPug","steam_id":76561198049093575,"connected_time":3105000000000,"state":"active","ping":85},{"user_id":146,"name":"dearender","steam_id":76561199427644498,"connected_time":1880000000000,"state":"active","ping":107},{"user_id":130,"name":"NRMN","steam_id":76561198086863106,"connected_time":3027000000000,"state":"active","ping":103},{"user_id":155,"name":"Eightyy  Fourr","steam_id":76561197960374225,"connected_time":1429000000000,"state":"active","ping":45},{"user_id":170,"name":"Passive-Aggressive Land Whale","steam_id":76561198058057999,"connected_time":359000000000,"state":"active","ping":65},{"user_id":97,"name":"Moonflower ✦","steam_id":76561198191782483,"connected_time":4612000000000,"state":"active","ping":51},{"user_id":171,"name":"SquirrelAway™","steam_id":76561197998828619,"connected_time":70000000000,"state":"active","ping":61},{"user_id":143,"name":"Boom13 LFT Am","steam_id":76561198126796502,"connected_time":1996000000000,"state":"active","ping":87},{"user_id":151,"name":"Diamond Jack","steam_id":76561198321304762,"connected_time":1588000000000,"state":"active","ping":59},{"user_id":158,"name":"flu walrus","steam_id":76561198207940136,"connected_time":857000000000,"state":"active","ping":55},{"user_id":161,"name":"Aces","steam_id":76561198152270731,"connected_time":792000000000,"state":"active","ping":74},{"user_id":168,"name":"RetroGamerK","steam_id":76561198353075218,"connected_time":403000000000,"state":"active","ping":49},{"user_id":150,"name":"pt","steam_id":76561198143023330,"connected_time":1719000000000,"state":"active","ping":82},{"user_id":159,"name":"connor","steam_id":76561198076527332,"connected_time":802000000000,"state":"active","ping":66},{"user_id":154,"name":"the senate","steam_id":76561198353542913,"connected_time":1472000000000,"state":"active","ping":121},{"user_id":164,"name":"Establish Dominance","steam_id":76561197994706942,"connected_time":664000000000,"state":"active","ping":83}]},{"server_id":5,"name":"Uncletopia | Frankfurt | 1 | All Maps","name_short":"frk-1","host":"frk-1.de.uncletopia.com","port":27015,"enabled":true,"region":"eu","cc":"de","latitude":50.110924,"longitude":8.682127,"reserved":0,"last_update":"0001-01-01T00:00:00Z","name_a2s":"Uncletopia | Frankfurt | 1 | All Maps","protocol":17,"map":"pl_thundermountain","folder":"tf","game":"Team Fortress","app_id":440,"player_count":24,"max_players":24,"Bots":0,"server_type":"Dedicated","server_os":"Linux","password":true,"vac":true,"version":"7708610","steam_id":85568392924469989,"keywords":["nocrits","nodmgspread","payload","uncletopia"],"game_id":440,"stv_port":27016,"stv_name":"Uncletopia | Frankfurt | 1 | All Maps | STV","players":[{"user_id":561,"name":"Speibsackerl","steam_id":76561198058135257,"connected_time":1346000000000,"state":"active","ping":63},{"user_id":553,"name":"hoddie_GUY152","steam_id":76561199222164769,"connected_time":2092000000000,"state":"active","ping":58},{"user_id":565,"name":"askulap","steam_id":76561197992018795,"connected_time":1227000000000,"state":"active","ping":77},{"user_id":559,"name":"That One Degenerate","steam_id":76561198377603752,"connected_time":1443000000000,"state":"active","ping":82},{"user_id":572,"name":"pablo","steam_id":76561198089285014,"connected_time":839000000000,"state":"active","ping":94},{"user_id":579,"name":"kamekame","steam_id":76561198047108054,"connected_time":462000000000,"state":"active","ping":93},{"user_id":573,"name":"rat performance","steam_id":76561198065854668,"connected_time":805000000000,"state":"active","ping":60},{"user_id":518,"name":"Asemov","steam_id":76561198396847737,"connected_time":3824000000000,"state":"active","ping":109},{"user_id":567,"name":"Hedj","steam_id":76561198108369687,"connected_time":1105000000000,"state":"active","ping":47},{"user_id":568,"name":"Thäas","steam_id":76561198264708239,"connected_time":989000000000,"state":"active","ping":62},{"user_id":557,"name":"loser","steam_id":76561198874129419,"connected_time":1615000000000,"state":"active","ping":113},{"user_id":581,"name":"zak","steam_id":76561197998895428,"connected_time":346000000000,"state":"active","ping":57},{"user_id":554,"name":"//frequeNt","steam_id":76561198087457220,"connected_time":2083000000000,"state":"active","ping":71},{"user_id":574,"name":"garf","steam_id":76561198162723276,"connected_time":793000000000,"state":"active","ping":111},{"user_id":575,"name":"FISHBREATH","steam_id":76561198875978471,"connected_time":734000000000,"state":"active","ping":98},{"user_id":580,"name":"DeleteTrickster","steam_id":76561198397120242,"connected_time":376000000000,"state":"active","ping":86},{"user_id":534,"name":"DeCypher","steam_id":76561198171992619,"connected_time":3392000000000,"state":"active","ping":67},{"user_id":512,"name":"Sloppyspider","steam_id":76561198178869441,"connected_time":3870000000000,"state":"active","ping":61},{"user_id":527,"name":"Jag är ett anka","steam_id":76561198059978438,"connected_time":3657000000000,"state":"active","ping":75},{"user_id":570,"name":"got that right","steam_id":76561198064656601,"connected_time":958000000000,"state":"active","ping":69},{"user_id":543,"name":"PLUTO","steam_id":76561198312436128,"connected_time":2668000000000,"state":"active","ping":134},{"user_id":577,"name":"haus","steam_id":76561198186770569,"connected_time":680000000000,"state":"active","ping":79},{"user_id":578,"name":"Strike a pose! Gimme that walle","steam_id":76561198104896547,"connected_time":643000000000,"state":"active","ping":75},{"user_id":547,"name":"prcg","steam_id":76561198047619456,"connected_time":2580000000000,"state":"active","ping":78}]},{"server_id":110,"name":"Uncletopia | Frankfurt | 2 | All Maps","name_short":"frk-2","host":"frk-1.de.uncletopia.com","port":27025,"enabled":true,"region":"eu","cc":"de","latitude":50.110924,"longitude":8.682127,"reserved":0,"last_update":"0001-01-01T00:00:00Z","name_a2s":"Uncletopia | Frankfurt | 2 | All Maps","protocol":17,"map":"pl_frontier_final","folder":"tf","game":"Team Fortress","app_id":440,"player_count":23,"max_players":24,"Bots":0,"server_type":"Dedicated","server_os":"Linux","password":true,"vac":true,"version":"7708610","steam_id":85568392924469990,"keywords":["nocrits","nodmgspread","payload","uncletopia"],"game_id":440,"stv_port":27026,"stv_name":"Uncletopia | Frankfurt | 2 | All Maps | STV","players":[{"user_id":421,"name":"washed up","steam_id":76561198275742101,"connected_time":2343000000000,"state":"active","ping":54},{"user_id":404,"name":"Marko Rutto","steam_id":76561198124226614,"connected_time":3754000000000,"state":"active","ping":49},{"user_id":449,"name":"Col0bok","steam_id":76561197999097117,"connected_time":18000000000,"state":"active","ping":62},{"user_id":427,"name":"Gordon Birdman","steam_id":76561198013382324,"connected_time":1947000000000,"state":"active","ping":75},{"user_id":405,"name":"Baanis","steam_id":76561198082869860,"connected_time":3749000000000,"state":"active","ping":76},{"user_id":417,"name":"magras","steam_id":76561198972671525,"connected_time":2731000000000,"state":"active","ping":99},{"user_id":443,"name":"Prox","steam_id":76561198351490981,"connected_time":87000000000,"state":"active","ping":49},{"user_id":444,"name":"bola typu święta","steam_id":76561199145943588,"connected_time":78000000000,"state":"active","ping":75},{"user_id":446,"name":"EngieAndArma","steam_id":76561199012020120,"connected_time":69000000000,"state":"spawning","ping":80},{"user_id":426,"name":"Scary Gary","steam_id":76561198128659449,"connected_time":1953000000000,"state":"active","ping":146},{"user_id":360,"name":"amberkleurig","steam_id":76561198394582460,"connected_time":5981000000000,"state":"active","ping":59},{"user_id":425,"name":"moser23","steam_id":76561197960543171,"connected_time":1956000000000,"state":"active","ping":45},{"user_id":416,"name":"Pahlberg","steam_id":76561198208547929,"connected_time":2947000000000,"state":"active","ping":76},{"user_id":441,"name":"miko csgofast.com","steam_id":76561198167085293,"connected_time":94000000000,"state":"active","ping":74},{"user_id":434,"name":"loveless","steam_id":76561198142256651,"connected_time":1696000000000,"state":"active","ping":78},{"user_id":447,"name":"Drommar","steam_id":76561199219654706,"connected_time":61000000000,"state":"active","ping":74},{"user_id":438,"name":"Vectre","steam_id":76561198129397548,"connected_time":681000000000,"state":"active","ping":84},{"user_id":433,"name":"Jedi Knight","steam_id":76561198039030709,"connected_time":1743000000000,"state":"active","ping":130},{"user_id":448,"name":"Jonathan","steam_id":76561198087988880,"connected_time":38000000000,"state":"active","ping":42},{"user_id":436,"name":"Sgt. Doge Rottweiler","steam_id":76561198061195061,"connected_time":905000000000,"state":"active","ping":50},{"user_id":442,"name":"FuckThisI'mOut","steam_id":76561198229777208,"connected_time":94000000000,"state":"active","ping":67},{"user_id":432,"name":"GGabesz","steam_id":76561198117199068,"connected_time":1867000000000,"state":"active","ping":60},{"user_id":398,"name":"I Break Mirrors With My Face","steam_id":76561198983900735,"connected_time":4186000000000,"state":"active","ping":46}]},{"server_id":308,"name":"Uncletopia | Frankfurt | 3 | All Maps","name_short":"frk-3","host":"frk-1.de.uncletopia.com","port":27035,"enabled":true,"region":"eu","cc":"de","latitude":50.110924,"longitude":8.682127,"reserved":0,"last_update":"0001-01-01T00:00:00Z","name_a2s":"Uncletopia | Frankfurt | 3 | All Maps","protocol":17,"map":"pl_borneo","folder":"tf","game":"Team Fortress","app_id":440,"player_count":24,"max_players":24,"Bots":0,"server_type":"Dedicated","server_os":"Linux","password":true,"vac":true,"version":"7708610","steam_id":85568392924504274,"keywords":["nocrits","nodmgspread","payload","uncletopia"],"game_id":440,"stv_port":27036,"stv_name":"Uncletopia | Frankfurt | 3 | All Maps | STV","players":[{"user_id":535,"name":"soopeli","steam_id":76561198003350251,"connected_time":3060000000000,"state":"active","ping":60},{"user_id":559,"name":"Löysä Masa","steam_id":76561198343396172,"connected_time":692000000000,"state":"active","ping":101},{"user_id":542,"name":"casual zyzz praiser","steam_id":76561198022382969,"connected_time":2438000000000,"state":"active","ping":76},{"user_id":551,"name":"Dzan50","steam_id":76561198059758591,"connected_time":946000000000,"state":"active","ping":76},{"user_id":552,"name":"sock","steam_id":76561199117597830,"connected_time":939000000000,"state":"active","ping":141},{"user_id":525,"name":"Lore","steam_id":76561199065520497,"connected_time":3815000000000,"state":"active","ping":92},{"user_id":553,"name":"nwp?","steam_id":76561198082516068,"connected_time":914000000000,"state":"active","ping":81},{"user_id":554,"name":"Sotoben","steam_id":76561198045884113,"connected_time":879000000000,"state":"active","ping":54},{"user_id":533,"name":"mimi","steam_id":76561198060648946,"connected_time":3101000000000,"state":"active","ping":59},{"user_id":560,"name":"Rover","steam_id":76561198046267597,"connected_time":229000000000,"state":"active","ping":55},{"user_id":549,"name":"player","steam_id":76561198054474684,"connected_time":1386000000000,"state":"active","ping":74},{"user_id":555,"name":"Wizard","steam_id":76561198088629007,"connected_time":879000000000,"state":"active","ping":56},{"user_id":536,"name":"maika","steam_id":76561198027172275,"connected_time":3052000000000,"state":"active","ping":67},{"user_id":537,"name":"pepper","steam_id":76561198059782462,"connected_time":3042000000000,"state":"active","ping":47},{"user_id":540,"name":"Bölverkr","steam_id":76561198037444331,"connected_time":2665000000000,"state":"active","ping":72},{"user_id":539,"name":"VolcanicArts","steam_id":76561198063453246,"connected_time":2977000000000,"state":"active","ping":68},{"user_id":556,"name":"2-D (secretly undercover)","steam_id":76561198287344223,"connected_time":861000000000,"state":"active","ping":72},{"user_id":543,"name":"JohnTraveltime","steam_id":76561199244281754,"connected_time":2381000000000,"state":"active","ping":73},{"user_id":483,"name":"Luke SpyWalker","steam_id":76561198008643276,"connected_time":6702000000000,"state":"active","ping":61},{"user_id":558,"name":"MrBanana","steam_id":76561198116021623,"connected_time":743000000000,"state":"active","ping":45},{"user_id":526,"name":"Beanos85","steam_id":76561199103337508,"connected_time":3804000000000,"state":"active","ping":193},{"user_id":550,"name":"Rarky","steam_id":76561198054398642,"connected_time":984000000000,"state":"active","ping":45},{"user_id":544,"name":"HimpoX","steam_id":76561198043946778,"connected_time":2242000000000,"state":"active","ping":108},{"user_id":562,"name":"GreenSand","steam_id":76561198113229401,"connected_time":52000000000,"state":"spawning","ping":67}]},{"server_id":309,"name":"Uncletopia | Frankfurt | 4 | All Maps","name_short":"frk-4","host":"frk-1.de.uncletopia.com","port":27045,"enabled":true,"region":"eu","cc":"de","latitude":50.110924,"longitude":8.682127,"reserved":0,"last_update":"0001-01-01T00:00:00Z","name_a2s":"Uncletopia | Frankfurt | 4 | All Maps","protocol":17,"map":"pl_pier","folder":"tf","game":"Team Fortress","app_id":440,"player_count":24,"max_players":24,"Bots":0,"server_type":"Dedicated","server_os":"Linux","password":true,"vac":true,"version":"7708610","steam_id":85568392924504275,"keywords":["nocrits","nodmgspread","payload","uncletopia"],"game_id":440,"stv_port":27046,"stv_name":"Uncletopia | Frankfurt | 4 | All Maps | STV","players":[{"user_id":567,"name":"After8","steam_id":76561198090750865,"connected_time":3589000000000,"state":"active","ping":75},{"user_id":551,"name":"Mklavzovc","steam_id":76561198305794970,"connected_time":5035000000000,"state":"active","ping":75},{"user_id":568,"name":"Rubi","steam_id":76561198139410003,"connected_time":3587000000000,"state":"active","ping":123},{"user_id":619,"name":"luvny","steam_id":76561198159928154,"connected_time":563000000000,"state":"active","ping":58},{"user_id":495,"name":"The Ilusive Man","steam_id":76561198332917045,"connected_time":9321000000000,"state":"active","ping":103},{"user_id":632,"name":"KillerQueen (he/they/she)","steam_id":76561199019399725,"connected_time":73000000000,"state":"active","ping":60},{"user_id":592,"name":"shit gaming","steam_id":76561198153877395,"connected_time":1668000000000,"state":"active","ping":82},{"user_id":549,"name":"Floppa-z","steam_id":76561199385382550,"connected_time":5275000000000,"state":"active","ping":115},{"user_id":615,"name":"pablo.gonzalez.2005","steam_id":76561198971389390,"connected_time":646000000000,"state":"active","ping":68},{"user_id":562,"name":"?","steam_id":76561199114927025,"connected_time":4013000000000,"state":"active","ping":110},{"user_id":590,"name":"Nyreen Nebula","steam_id":76561199437842841,"connected_time":1808000000000,"state":"active","ping":102},{"user_id":593,"name":"mohemmedmokhter2005","steam_id":76561199197650506,"connected_time":1665000000000,"state":"active","ping":110},{"user_id":546,"name":"Galzra87","steam_id":76561198063414443,"connected_time":5804000000000,"state":"active","ping":74},{"user_id":407,"name":"Заднепроходец","steam_id":76561198059741978,"connected_time":15302000000000,"state":"active","ping":78},{"user_id":631,"name":"Malin743","steam_id":76561198057290934,"connected_time":83000000000,"state":"active","ping":96},{"user_id":620,"name":"padillacampos","steam_id":76561198161923970,"connected_time":482000000000,"state":"active","ping":83},{"user_id":594,"name":"Yoshikage Kira","steam_id":76561199051752886,"connected_time":1665000000000,"state":"active","ping":46},{"user_id":595,"name":"jaMie","steam_id":76561198170148783,"connected_time":1656000000000,"state":"active","ping":53},{"user_id":625,"name":"lulu","steam_id":76561199147764133,"connected_time":387000000000,"state":"active","ping":80},{"user_id":597,"name":"Andy","steam_id":76561198136364381,"connected_time":1647000000000,"state":"active","ping":78},{"user_id":599,"name":"Clitorina","steam_id":76561198077570815,"connected_time":1599000000000,"state":"active","ping":58},{"user_id":602,"name":"dusty","steam_id":76561199011977567,"connected_time":1413000000000,"state":"active","ping":60},{"user_id":605,"name":"Datsun64","steam_id":76561198231121180,"connected_time":1239000000000,"state":"active","ping":65},{"user_id":612,"name":"Sabour","steam_id":76561197963965445,"connected_time":862000000000,"state":"active","ping":67}]},{"server_id":310,"name":"Uncletopia | Frankfurt | 5 | All Maps","name_short":"frk-5","host":"frk-1.de.uncletopia.com","port":27055,"enabled":true,"region":"eu","cc":"de","latitude":50.110924,"longitude":8.682127,"reserved":0,"last_update":"0001-01-01T00:00:00Z","name_a2s":"Uncletopia | Frankfurt | 5 | All Maps","protocol":17,"map":"ctf_sawmill","folder":"tf","game":"Team Fortress","app_id":440,"player_count":20,"max_players":24,"Bots":0,"server_type":"Dedicated","server_os":"Linux","password":true,"vac":true,"version":"7708610","steam_id":85568392924504277,"keywords":["ctf","nocrits","nodmgspread","uncletopia"],"game_id":440,"stv_port":27056,"stv_name":"Uncletopia | Frankfurt | 5 | All Maps | STV","players":[{"user_id":545,"name":"Jingleboob's Elf","steam_id":76561198067204908,"connected_time":4065000000000,"state":"active","ping":66},{"user_id":600,"name":"average glue sniffer","steam_id":76561198104603442,"connected_time":1312000000000,"state":"active","ping":92},{"user_id":583,"name":"Proofmean","steam_id":76561198878552103,"connected_time":1910000000000,"state":"active","ping":54},{"user_id":552,"name":"|SoW| IgI","steam_id":76561198001541383,"connected_time":3453000000000,"state":"active","ping":64},{"user_id":585,"name":"Qatuk","steam_id":76561198857696199,"connected_time":1821000000000,"state":"active","ping":59},{"user_id":517,"name":"Человек яйца","steam_id":76561198277599844,"connected_time":6024000000000,"state":"active","ping":97},{"user_id":609,"name":"cosminulsucksatlife","steam_id":76561199184413425,"connected_time":450000000000,"state":"active","ping":73},{"user_id":542,"name":"Light601","steam_id":76561198134998492,"connected_time":4573000000000,"state":"active","ping":83},{"user_id":370,"name":"PlebCord","steam_id":76561198120685803,"connected_time":14032000000000,"state":"active","ping":76},{"user_id":530,"name":"jingleboob","steam_id":76561198097507847,"connected_time":4805000000000,"state":"active","ping":74},{"user_id":586,"name":"Fat Pigeon","steam_id":76561198817940142,"connected_time":1804000000000,"state":"active","ping":56},{"user_id":613,"name":"Silky","steam_id":76561198141776731,"connected_time":89000000000,"state":"active","ping":122},{"user_id":580,"name":"romaingallo","steam_id":76561198268112907,"connected_time":2049000000000,"state":"active","ping":58},{"user_id":612,"name":"trite","steam_id":76561197983765323,"connected_time":216000000000,"state":"active","ping":63},{"user_id":608,"name":"Zateske","steam_id":76561198047446276,"connected_time":474000000000,"state":"active","ping":59},{"user_id":597,"name":"Neghim","steam_id":76561198272001124,"connected_time":1359000000000,"state":"active","ping":53},{"user_id":605,"name":"󠁳⁧⁧Mark","steam_id":76561198117226733,"connected_time":729000000000,"state":"active","ping":72},{"user_id":607,"name":"you","steam_id":76561198373270492,"connected_time":647000000000,"state":"active","ping":59},{"user_id":610,"name":"Shawty","steam_id":76561198256704286,"connected_time":447000000000,"state":"active","ping":57},{"user_id":548,"name":"twitch.tv/biofun_","steam_id":76561198170609049,"connected_time":3658000000000,"state":"active","ping":82}]},{"server_id":311,"name":"Uncletopia | Frankfurt | 6 | All Maps","name_short":"frk-6","host":"frk-1.de.uncletopia.com","port":27065,"enabled":true,"region":"eu","cc":"de","latitude":50.110924,"longitude":8.682127,"reserved":0,"last_update":"0001-01-01T00:00:00Z","name_a2s":"Uncletopia | Frankfurt | 6 | All Maps","protocol":17,"map":"koth_highpass","folder":"tf","game":"Team Fortress","app_id":440,"player_count":5,"max_players":24,"Bots":0,"server_type":"Dedicated","server_os":"Linux","password":true,"vac":true,"version":"7708610","steam_id":85568392924504278,"keywords":["cp","nocrits","nodmgspread","uncletopia"],"game_id":440,"stv_port":27066,"stv_name":"Uncletopia | Frankfurt | 6 | All Maps | STV","players":[{"user_id":218,"name":"Waffles","steam_id":76561199086942763,"connected_time":1358000000000,"state":"active","ping":83},{"user_id":219,"name":"JoueurFrançais","steam_id":76561198108081068,"connected_time":470000000000,"state":"active","ping":46},{"user_id":220,"name":"N3na3","steam_id":76561198149644285,"connected_time":283000000000,"state":"active","ping":84},{"user_id":201,"name":"TheFlames","steam_id":76561198179314694,"connected_time":3281000000000,"state":"active","ping":52},{"user_id":87,"name":"MagicTITIKAKA","steam_id":76561198129509548,"connected_time":9584000000000,"state":"active","ping":97}]},{"server_id":23,"name":"Uncletopia | Frankfurt | 7 | No Payload","name_short":"frk-7","host":"frk-1.de.uncletopia.com","port":27075,"enabled":true,"region":"eu","cc":"de","latitude":50.110924,"longitude":8.682127,"reserved":0,"last_update":"0001-01-01T00:00:00Z","name_a2s":"Uncletopia | Frankfurt | 7 | No Payload","protocol":17,"map":"koth_viaduct","folder":"tf","game":"Team Fortress","app_id":440,"player_count":24,"max_players":24,"Bots":0,"server_type":"Dedicated","server_os":"Linux","password":true,"vac":true,"version":"7708610","steam_id":85568392924742827,"keywords":["cp","nocrits","nodmgspread","uncletopia"],"game_id":440,"stv_port":27076,"stv_name":"Uncletopia | Frankfurt | 7 | No Payload | STV","players":[{"user_id":102,"name":"Here's Johnny!","steam_id":76561198065506317,"connected_time":3186000000000,"state":"active","ping":73},{"user_id":147,"name":"GMsU | Smiley","steam_id":76561198121494414,"connected_time":605000000000,"state":"active","ping":86},{"user_id":131,"name":"GMsU | DaLuigi","steam_id":76561198054486188,"connected_time":1496000000000,"state":"active","ping":48},{"user_id":135,"name":"heavy sings (real)","steam_id":76561199023804405,"connected_time":1300000000000,"state":"active","ping":73},{"user_id":148,"name":"Smitty Werben Jagger Man Jensen","steam_id":76561197986670014,"connected_time":436000000000,"state":"active","ping":50},{"user_id":125,"name":"Yoggen","steam_id":76561198048785962,"connected_time":2179000000000,"state":"active","ping":75},{"user_id":149,"name":"Torben","steam_id":76561198377574408,"connected_time":382000000000,"state":"active","ping":56},{"user_id":132,"name":"Karsapaali","steam_id":76561198322322739,"connected_time":1396000000000,"state":"active","ping":85},{"user_id":133,"name":"clems17","steam_id":76561199420685482,"connected_time":1370000000000,"state":"active","ping":46},{"user_id":143,"name":"Shynii","steam_id":76561198194682105,"connected_time":1010000000000,"state":"active","ping":74},{"user_id":95,"name":"roblan11","steam_id":76561198066839258,"connected_time":3461000000000,"state":"active","ping":53},{"user_id":59,"name":"Lady Maria","steam_id":76561198953210459,"connected_time":4128000000000,"state":"active","ping":90},{"user_id":150,"name":"Vanadis","steam_id":76561198255557997,"connected_time":266000000000,"state":"active","ping":77},{"user_id":138,"name":"Deadsky","steam_id":76561198044839079,"connected_time":1264000000000,"state":"active","ping":64},{"user_id":139,"name":"GMsU | Rebikas","steam_id":76561198077053764,"connected_time":1253000000000,"state":"active","ping":42},{"user_id":127,"name":"regen","steam_id":76561198037550223,"connected_time":1858000000000,"state":"active","ping":111},{"user_id":141,"name":"Technic","steam_id":76561198128096130,"connected_time":1170000000000,"state":"active","ping":54},{"user_id":142,"name":"GMsU | AuxiliusM","steam_id":76561198071903356,"connected_time":1145000000000,"state":"active","ping":42},{"user_id":151,"name":"Punch","steam_id":76561198152373135,"connected_time":220000000000,"state":"active","ping":92},{"user_id":144,"name":"Whoopi Goldberg","steam_id":76561199378865926,"connected_time":1004000000000,"state":"active","ping":116},{"user_id":146,"name":"Perci","steam_id":76561198097789669,"connected_time":960000000000,"state":"active","ping":63},{"user_id":122,"name":"kachow","steam_id":76561198202990635,"connected_time":2252000000000,"state":"active","ping":65},{"user_id":145,"name":"A Literal Fucking Rat","steam_id":76561198178872429,"connected_time":999000000000,"state":"active","ping":163},{"user_id":123,"name":"M4R1O","steam_id":76561198050528464,"connected_time":2230000000000,"state":"active","ping":60}]},{"server_id":24,"name":"Uncletopia | Frankfurt | 8 | Community","name_short":"frk-8","host":"frk-1.de.uncletopia.com","port":27085,"enabled":true,"region":"eu","cc":"de","latitude":50.110924,"longitude":8.682127,"reserved":0,"last_update":"0001-01-01T00:00:00Z","name_a2s":"Uncletopia | Frankfurt | 8 | Community","protocol":17,"map":"workshop/koth_ashville_final.ugc2130459942","folder":"tf","game":"Team Fortress","app_id":440,"player_count":1,"max_players":24,"Bots":0,"server_type":"Dedicated","server_os":"Linux","password":true,"vac":true,"version":"7708610","steam_id":85568392924742828,"keywords":["cp","nocrits","nodmgspread","uncletopia"],"game_id":440,"stv_port":27086,"stv_name":"Uncletopia | Frankfurt | 8 | Community | STV","players":[{"user_id":30,"name":"Greek_Yogurt","steam_id":76561199370983520,"connected_time":543000000000,"state":"active","ping":68}]},{"server_id":202,"name":"Uncletopia | Hong Kong | 1 | All Maps","name_short":"hgk-1","host":"hgk-1.hk.uncletopia.com","port":27015,"enabled":true,"region":"asia","cc":"hk","latitude":22.302711,"longitude":114.177216,"reserved":0,"last_update":"0001-01-01T00:00:00Z","name_a2s":"Uncletopia | Hong Kong | 1 | All Maps","protocol":17,"map":"plr_bananabay","folder":"tf","game":"Team Fortress","app_id":440,"player_count":0,"max_players":24,"Bots":0,"server_type":"Dedicated","server_os":"Linux","password":true,"vac":true,"version":"7708610","steam_id":85568392924494504,"keywords":["nocrits","nodmgspread","payload","uncletopia"],"game_id":440,"stv_port":27016,"stv_name":"Uncletopia | Hong Kong | 1 | All Maps | STV","players":null},{"server_id":1,"name":"Uncletopia | Los Angeles | 1 | All Maps","name_short":"lax-1","host":"lax-1.us.uncletopia.com","port":27015,"enabled":true,"region":"us-west","cc":"us","latitude":33.94279,"longitude":-118.41004,"reserved":0,"last_update":"0001-01-01T00:00:00Z","name_a2s":"Uncletopia | Los Angeles | 1 | All Maps","protocol":17,"map":"pl_frontier_final","folder":"tf","game":"Team Fortress","app_id":440,"player_count":0,"max_players":24,"Bots":0,"server_type":"Dedicated","server_os":"Linux","password":true,"vac":true,"version":"7708610","steam_id":85568392924469991,"keywords":["nocrits","nodmgspread","payload","uncletopia"],"game_id":440,"stv_port":27016,"stv_name":"Uncletopia | Los Angeles | 1 | All Maps | STV","players":null},{"server_id":112,"name":"Uncletopia | Los Angeles | 2 | All Maps","name_short":"lax-2","host":"lax-1.us.uncletopia.com","port":27025,"enabled":true,"region":"us-west","cc":"us","latitude":33.94279,"longitude":-118.41004,"reserved":0,"last_update":"0001-01-01T00:00:00Z","name_a2s":"Uncletopia | Los Angeles | 2 | All Maps","protocol":17,"map":"cp_dustbowl","folder":"tf","game":"Team Fortress","app_id":440,"player_count":0,"max_players":24,"Bots":0,"server_type":"Dedicated","server_os":"Linux","password":true,"vac":true,"version":"7708610","steam_id":85568392924469992,"keywords":["cp","nocrits","nodmgspread","uncletopia"],"game_id":440,"stv_port":27026,"stv_name":"Uncletopia | Los Angeles | 2 | All Maps | STV","players":null},{"server_id":324,"name":"Uncletopia | Los Angeles | 3 | All Maps","name_short":"lax-3","host":"lax-1.us.uncletopia.com","port":27035,"enabled":true,"region":"us-west","cc":"us","latitude":33.94279,"longitude":-118.41004,"reserved":0,"last_update":"0001-01-01T00:00:00Z","name_a2s":"Uncletopia | Los Angeles | 3 | All Maps","protocol":17,"map":"cp_dustbowl","folder":"tf","game":"Team Fortress","app_id":440,"player_count":0,"max_players":24,"Bots":0,"server_type":"Dedicated","server_os":"Linux","password":true,"vac":true,"version":"7708610","steam_id":85568392924510198,"keywords":["cp","nocrits","nodmgspread","uncletopia"],"game_id":440,"stv_port":27036,"stv_name":"Uncletopia | Los Angeles | 3 | All Maps | STV","players":null},{"server_id":25,"name":"Uncletopia | Los Angeles | 4 | No Payload","name_short":"lax-4","host":"lax-1.us.uncletopia.com","port":27045,"enabled":true,"region":"us-west","cc":"us","latitude":33.94279,"longitude":-118.41004,"reserved":0,"last_update":"0001-01-01T00:00:00Z","name_a2s":"Uncletopia | Los Angeles | 4 | No Payload","protocol":17,"map":"cp_freight_final1","folder":"tf","game":"Team Fortress","app_id":440,"player_count":0,"max_players":24,"Bots":0,"server_type":"Dedicated","server_os":"Linux","password":true,"vac":true,"version":"7708610","steam_id":85568392924510199,"keywords":["cp","nocrits","nodmgspread","uncletopia"],"game_id":440,"stv_port":27046,"stv_name":"Uncletopia | Los Angeles | 4 | No Payload | STV","players":null},{"server_id":11,"name":"Uncletopia | London | 1 | All Maps","name_short":"lon-1","host":"lon-1.uk.uncletopia.com","port":27015,"enabled":true,"region":"eu","cc":"gb","latitude":51.509865,"longitude":-0.118092,"reserved":0,"last_update":"0001-01-01T00:00:00Z","name_a2s":"Uncletopia | London | 1 | All Maps","protocol":17,"map":"koth_harvest_final","folder":"tf","game":"Team Fortress","app_id":440,"player_count":22,"max_players":24,"Bots":0,"server_type":"Dedicated","server_os":"Linux","password":true,"vac":true,"version":"7708610","steam_id":85568392924367362,"keywords":["cp","nocrits","nodmgspread","uncletopia"],"game_id":440,"stv_port":27016,"stv_name":"Uncletopia | London | 1 | All Maps | STV","players":[{"user_id":438,"name":"Bobo","steam_id":76561198052308399,"connected_time":3148000000000,"state":"active","ping":60},{"user_id":404,"name":"Jam","steam_id":76561198090409013,"connected_time":5666000000000,"state":"active","ping":89},{"user_id":418,"name":"( ]KROAN[ )","steam_id":76561198022840710,"connected_time":4356000000000,"state":"active","ping":75},{"user_id":434,"name":"Kard","steam_id":76561198191894926,"connected_time":3505000000000,"state":"active","ping":98},{"user_id":454,"name":"Thunderfuck Studios","steam_id":76561199229291603,"connected_time":295000000000,"state":"active","ping":61},{"user_id":455,"name":"''-_-''","steam_id":76561198267463398,"connected_time":295000000000,"state":"active","ping":60},{"user_id":453,"name":"Mango","steam_id":76561198139555709,"connected_time":1131000000000,"state":"active","ping":55},{"user_id":447,"name":"Celtins","steam_id":76561198839837475,"connected_time":1760000000000,"state":"active","ping":52},{"user_id":431,"name":"Jofiah/TTV","steam_id":76561197977233962,"connected_time":3733000000000,"state":"active","ping":42},{"user_id":457,"name":"Dane","steam_id":76561198312362896,"connected_time":174000000000,"state":"active","ping":58},{"user_id":462,"name":"SPONGE","steam_id":76561198040933472,"connected_time":14000000000,"state":"active","ping":63},{"user_id":405,"name":"whimsmas.","steam_id":76561198878171763,"connected_time":5554000000000,"state":"active","ping":47},{"user_id":439,"name":"festive jones","steam_id":76561198073975078,"connected_time":3074000000000,"state":"active","ping":44},{"user_id":381,"name":"chrissymas","steam_id":76561198096547662,"connected_time":7708000000000,"state":"active","ping":52},{"user_id":456,"name":"Grim the lemon","steam_id":76561199083433988,"connected_time":268000000000,"state":"active","ping":48},{"user_id":451,"name":"festive astra","steam_id":76561198042980579,"connected_time":1604000000000,"state":"active","ping":67},{"user_id":459,"name":"Kahvi","steam_id":76561198723244199,"connected_time":127000000000,"state":"active","ping":82},{"user_id":437,"name":"NO. bad girl \u003e:(","steam_id":76561198198984282,"connected_time":3258000000000,"state":"active","ping":125},{"user_id":422,"name":"kuidaskunagi","steam_id":76561198044697096,"connected_time":4255000000000,"state":"active","ping":82},{"user_id":460,"name":"FliggerFlitt","steam_id":76561198147711035,"connected_time":125000000000,"state":"active","ping":98},{"user_id":461,"name":"Rare Demoman Plant ✪","steam_id":76561198157824042,"connected_time":111000000000,"state":"active","ping":44},{"user_id":448,"name":"juJu","steam_id":76561198049343793,"connected_time":1760000000000,"state":"active","ping":61}]},{"server_id":114,"name":"Uncletopia | London | 2 | All Maps","name_short":"lon-2","host":"lon-1.uk.uncletopia.com","port":27025,"enabled":true,"region":"eu","cc":"gb","latitude":51.509865,"longitude":-0.118092,"reserved":0,"last_update":"0001-01-01T00:00:00Z","name_a2s":"Uncletopia | London | 2 | All Maps","protocol":17,"map":"pl_badwater","folder":"tf","game":"Team Fortress","app_id":440,"player_count":24,"max_players":24,"Bots":0,"server_type":"Dedicated","server_os":"Linux","password":true,"vac":true,"version":"7708610","steam_id":85568392924470941,"keywords":["nocrits","nodmgspread","payload","uncletopia"],"game_id":440,"stv_port":27026,"stv_name":"Uncletopia | London | 2 | All Maps | STV","players":[{"user_id":227,"name":"Videomaniac","steam_id":76561199238019761,"connected_time":3221000000000,"state":"active","ping":99},{"user_id":269,"name":"tshirt","steam_id":76561198040757844,"connected_time":456000000000,"state":"active","ping":76},{"user_id":262,"name":"HanhiGaming","steam_id":76561198877007477,"connected_time":1049000000000,"state":"active","ping":86},{"user_id":270,"name":"Kinjo","steam_id":76561197961489161,"connected_time":384000000000,"state":"active","ping":54},{"user_id":243,"name":"tf2 enjoyer","steam_id":76561199043416615,"connected_time":1969000000000,"state":"active","ping":60},{"user_id":259,"name":"Henk_de_Patatman","steam_id":76561198070103191,"connected_time":1141000000000,"state":"active","ping":38},{"user_id":232,"name":"Ale1199","steam_id":76561198994871986,"connected_time":2302000000000,"state":"active","ping":80},{"user_id":257,"name":"gagalak","steam_id":76561198089979108,"connected_time":1173000000000,"state":"active","ping":110},{"user_id":268,"name":"Zembis","steam_id":76561198008017918,"connected_time":494000000000,"state":"active","ping":101},{"user_id":220,"name":"IHAV3NOID3A","steam_id":76561199056318007,"connected_time":3473000000000,"state":"active","ping":76},{"user_id":264,"name":"Langlock509","steam_id":76561198402284626,"connected_time":986000000000,"state":"active","ping":49},{"user_id":271,"name":"sharkmax12312","steam_id":76561198996008569,"connected_time":329000000000,"state":"active","ping":78},{"user_id":274,"name":"KowalsKi","steam_id":76561198071641106,"connected_time":101000000000,"state":"active","ping":86},{"user_id":275,"name":"Skiziko","steam_id":76561198188930797,"connected_time":78000000000,"state":"active","ping":101},{"user_id":267,"name":"SausageRoll","steam_id":76561197994072622,"connected_time":571000000000,"state":"active","ping":43},{"user_id":248,"name":"SaltyPig","steam_id":76561198213643013,"connected_time":1527000000000,"state":"active","ping":52},{"user_id":250,"name":"chickenoidi0DEMDb","steam_id":76561198449498382,"connected_time":1475000000000,"state":"active","ping":78},{"user_id":244,"name":"Mar","steam_id":76561198127633424,"connected_time":1957000000000,"state":"active","ping":81},{"user_id":273,"name":"aaaaa aa aaa","steam_id":76561198377289568,"connected_time":281000000000,"state":"active","ping":64},{"user_id":249,"name":"gremlin GOD","steam_id":76561198169972571,"connected_time":1505000000000,"state":"active","ping":58},{"user_id":251,"name":"Archangel","steam_id":76561197972456666,"connected_time":1437000000000,"state":"active","ping":50},{"user_id":260,"name":"curse these metal hands","steam_id":76561198056531586,"connected_time":1088000000000,"state":"active","ping":45},{"user_id":261,"name":"When Life gives you Lemons","steam_id":76561198318290663,"connected_time":1071000000000,"state":"active","ping":60},{"user_id":263,"name":"Ponto-Cho","steam_id":76561198859709451,"connected_time":1014000000000,"state":"active","ping":45}]},{"server_id":320,"name":"Uncletopia | London | 3 | All Maps","name_short":"lon-3","host":"lon-1.uk.uncletopia.com","port":27035,"enabled":true,"region":"eu","cc":"gb","latitude":51.509865,"longitude":-0.118092,"reserved":0,"last_update":"0001-01-01T00:00:00Z","name_a2s":"Uncletopia | London | 3 | All Maps","protocol":17,"map":"pl_barnblitz","folder":"tf","game":"Team Fortress","app_id":440,"player_count":19,"max_players":24,"Bots":0,"server_type":"Dedicated","server_os":"Linux","password":true,"vac":true,"version":"7708610","steam_id":85568392924510192,"keywords":["nocrits","nodmgspread","payload","uncletopia"],"game_id":440,"stv_port":27036,"stv_name":"Uncletopia | London | 3 | All Maps | STV","players":[{"user_id":307,"name":"ran is running","steam_id":76561199443185667,"connected_time":1972000000000,"state":"active","ping":134},{"user_id":289,"name":"SimplePig","steam_id":76561198071862153,"connected_time":2929000000000,"state":"active","ping":108},{"user_id":319,"name":"OstosTacos","steam_id":76561198364617470,"connected_time":944000000000,"state":"active","ping":67},{"user_id":309,"name":"Lukas","steam_id":76561198009118452,"connected_time":1384000000000,"state":"active","ping":60},{"user_id":322,"name":"sab","steam_id":76561197992945483,"connected_time":158000000000,"state":"active","ping":45},{"user_id":323,"name":"SImokukika","steam_id":76561198310937259,"connected_time":94000000000,"state":"active","ping":70},{"user_id":324,"name":"YESYes","steam_id":76561198273119448,"connected_time":71000000000,"state":"active","ping":101},{"user_id":293,"name":"CD_Off","steam_id":76561199207174007,"connected_time":2634000000000,"state":"active","ping":68},{"user_id":325,"name":"Canned","steam_id":76561199378047100,"connected_time":58000000000,"state":"active","ping":83},{"user_id":326,"name":"medick","steam_id":76561199380849468,"connected_time":27000000000,"state":"active","ping":64},{"user_id":280,"name":"TheMinerat","steam_id":76561198201171941,"connected_time":3594000000000,"state":"active","ping":63},{"user_id":316,"name":"Bob Sacamano","steam_id":76561198085610701,"connected_time":1270000000000,"state":"active","ping":108},{"user_id":297,"name":"RedFox","steam_id":76561198020168480,"connected_time":2553000000000,"state":"active","ping":69},{"user_id":298,"name":"Zøgus","steam_id":76561199080001828,"connected_time":2543000000000,"state":"active","ping":71},{"user_id":327,"name":"ReDsinat0r","steam_id":76561198365973345,"connected_time":2000000000,"state":"spawning","ping":57},{"user_id":290,"name":"Hook supervisor","steam_id":76561198069562237,"connected_time":2910000000000,"state":"active","ping":62},{"user_id":313,"name":"teamspeakisbeter","steam_id":76561198994349483,"connected_time":1340000000000,"state":"active","ping":175},{"user_id":299,"name":"Radimino","steam_id":76561199385786198,"connected_time":2541000000000,"state":"active","ping":66},{"user_id":278,"name":"justin_ (f2p)","steam_id":76561198839843428,"connected_time":3703000000000,"state":"active","ping":124}]},{"server_id":321,"name":"Uncletopia | London | 4 | All Maps","name_short":"lon-4","host":"lon-1.uk.uncletopia.com","port":27045,"enabled":true,"region":"eu","cc":"gb","latitude":51.509865,"longitude":-0.118092,"reserved":0,"last_update":"0001-01-01T00:00:00Z","name_a2s":"Uncletopia | London | 4 | All Maps","protocol":17,"map":"pl_frontier_final","folder":"tf","game":"Team Fortress","app_id":440,"player_count":24,"max_players":24,"Bots":0,"server_type":"Dedicated","server_os":"Linux","password":true,"vac":true,"version":"7708610","steam_id":85568392924510193,"keywords":["nocrits","nodmgspread","payload","uncletopia"],"game_id":440,"stv_port":27046,"stv_name":"Uncletopia | London | 4 | All Maps | STV","players":[{"user_id":676,"name":"Oak","steam_id":76561198067315672,"connected_time":1424000000000,"state":"active","ping":47},{"user_id":638,"name":"Proto-arc","steam_id":76561198012776747,"connected_time":3951000000000,"state":"active","ping":57},{"user_id":641,"name":"Raeews","steam_id":76561198254646517,"connected_time":3828000000000,"state":"active","ping":44},{"user_id":621,"name":"Varro_Sicarius","steam_id":76561198062130113,"connected_time":4526000000000,"state":"active","ping":57},{"user_id":610,"name":"twitch.tv/thewerelizard","steam_id":76561198060638325,"connected_time":5002000000000,"state":"active","ping":52},{"user_id":615,"name":"gamer man","steam_id":76561198436817109,"connected_time":4957000000000,"state":"active","ping":46},{"user_id":687,"name":"SoupeurConscient","steam_id":76561199404717904,"connected_time":95000000000,"state":"active","ping":66},{"user_id":658,"name":"Gearslut","steam_id":76561198114601678,"connected_time":2753000000000,"state":"active","ping":56},{"user_id":670,"name":"=flashpoint=","steam_id":76561197976774456,"connected_time":1798000000000,"state":"active","ping":44},{"user_id":668,"name":"autistic deepfrier","steam_id":76561199114329061,"connected_time":1855000000000,"state":"active","ping":60},{"user_id":611,"name":"Sniddies","steam_id":76561198208740557,"connected_time":4995000000000,"state":"active","ping":60},{"user_id":648,"name":"Panzerwaffle","steam_id":76561198030382800,"connected_time":3396000000000,"state":"active","ping":50},{"user_id":680,"name":"Hkitchen","steam_id":76561198194779526,"connected_time":758000000000,"state":"active","ping":35},{"user_id":654,"name":"☃☃☃ARSEQUEEF☃☃☃","steam_id":76561198914610283,"connected_time":2874000000000,"state":"active","ping":76},{"user_id":677,"name":"Mor'du","steam_id":76561198274105878,"connected_time":1376000000000,"state":"active","ping":91},{"user_id":686,"name":"randompixel","steam_id":76561198003941207,"connected_time":375000000000,"state":"active","ping":51},{"user_id":685,"name":"taxisofőr","steam_id":76561198438462532,"connected_time":625000000000,"state":"active","ping":77},{"user_id":683,"name":"NotFionn","steam_id":76561198890525176,"connected_time":721000000000,"state":"active","ping":71},{"user_id":684,"name":"Festive Yuletart","steam_id":76561198023918830,"connected_time":709000000000,"state":"active","ping":39},{"user_id":679,"name":"cat (they/them)","steam_id":76561198416657815,"connected_time":1089000000000,"state":"active","ping":74},{"user_id":678,"name":",","steam_id":76561199174579733,"connected_time":1322000000000,"state":"active","ping":126},{"user_id":653,"name":"cantsniff","steam_id":76561198259668029,"connected_time":3255000000000,"state":"active","ping":47},{"user_id":672,"name":"MaruKo","steam_id":76561198337705585,"connected_time":1780000000000,"state":"active","ping":79},{"user_id":675,"name":"Bepperman","steam_id":76561198397517828,"connected_time":1431000000000,"state":"active","ping":57}]},{"server_id":21,"name":"Uncletopia | London | 5 | All Maps","name_short":"lon-5","host":"lon-1.uk.uncletopia.com","port":27055,"enabled":true,"region":"eu","cc":"gb","latitude":51.509865,"longitude":-0.118092,"reserved":0,"last_update":"0001-01-01T00:00:00Z","name_a2s":"Uncletopia | London | 5 | All Maps","protocol":17,"map":"koth_highpass","folder":"tf","game":"Team Fortress","app_id":440,"player_count":1,"max_players":24,"Bots":0,"server_type":"Dedicated","server_os":"Linux","password":true,"vac":true,"version":"7708610","steam_id":85568392924742829,"keywords":["cp","nocrits","nodmgspread","uncletopia"],"game_id":440,"stv_port":27056,"stv_name":"Uncletopia | London | 5 | All Maps | STV","players":[{"user_id":26,"name":"jimenezpalominohugo","steam_id":76561199435800140,"connected_time":430000000000,"state":"active","ping":72}]},{"server_id":22,"name":"Uncletopia | London | 6 | All Maps","name_short":"lon-6","host":"lon-1.uk.uncletopia.com","port":27065,"enabled":true,"region":"eu","cc":"gb","latitude":51.509865,"longitude":-0.118092,"reserved":0,"last_update":"0001-01-01T00:00:00Z","name_a2s":"Uncletopia | London | 6 | All Maps","protocol":17,"map":"cp_steel","folder":"tf","game":"Team Fortress","app_id":440,"player_count":0,"max_players":24,"Bots":0,"server_type":"Dedicated","server_os":"Linux","password":true,"vac":true,"version":"7708610","steam_id":85568392924742830,"keywords":["cp","nocrits","nodmgspread","uncletopia"],"game_id":440,"stv_port":27066,"stv_name":"Uncletopia | London | 6 | All Maps | STV","players":null},{"server_id":40,"name":"Uncletopia | London | 7 | No Payload","name_short":"lon-7","host":"lon-1.uk.uncletopia.com","port":27075,"enabled":true,"region":"eu","cc":"gb","latitude":51.509865,"longitude":-0.118092,"reserved":0,"last_update":"0001-01-01T00:00:00Z","name_a2s":"Uncletopia | London | 7 | No Payload","protocol":17,"map":"koth_king","folder":"tf","game":"Team Fortress","app_id":440,"player_count":0,"max_players":24,"Bots":0,"server_type":"Dedicated","server_os":"Linux","password":true,"vac":true,"version":"7708610","steam_id":85568392924964314,"keywords":["cp","nocrits","nodmgspread","uncletopia"],"game_id":440,"stv_port":27076,"stv_name":"Uncletopia | London | 7 | No Payload | STV","players":null},{"server_id":41,"name":"Uncletopia | London | 8 | Community","name_short":"lon-8","host":"lon-1.uk.uncletopia.com","port":27085,"enabled":true,"region":"eu","cc":"gb","latitude":51.509865,"longitude":-0.118092,"reserved":0,"last_update":"0001-01-01T00:00:00Z","name_a2s":"Uncletopia | London | 8 | Community","protocol":17,"map":"workshop/pl_vigil_rc9.ugc1266210012","folder":"tf","game":"Team Fortress","app_id":440,"player_count":0,"max_players":24,"Bots":0,"server_type":"Dedicated","server_os":"Linux","password":true,"vac":true,"version":"7708610","steam_id":85568392924964315,"keywords":["nocrits","nodmgspread","payload","uncletopia"],"game_id":440,"stv_port":27086,"stv_name":"Uncletopia | London | 8 | Community | STV","players":null},{"server_id":300,"name":"Uncletopia | Montréal | 1 | All Maps","name_short":"mtl-1","host":"mtl-1.ca.uncletopia.com","port":27015,"enabled":true,"region":"us-east","cc":"ca","latitude":45.50889,"longitude":-73.56167,"reserved":0,"last_update":"0001-01-01T00:00:00Z","name_a2s":"Uncletopia | Montréal | 1 | All Maps","protocol":17,"map":"pl_badwater","folder":"tf","game":"Team Fortress","app_id":440,"player_count":8,"max_players":24,"Bots":0,"server_type":"Dedicated","server_os":"Linux","password":true,"vac":true,"version":"7708610","steam_id":85568392924500087,"keywords":["nocrits","nodmgspread","payload","uncletopia"],"game_id":440,"stv_port":27016,"stv_name":"Uncletopia | Montréal | 1 | All Maps | STV","players":[{"user_id":2,"name":"Another Me","steam_id":76561198207214655,"connected_time":3703000000000,"state":"active","ping":134},{"user_id":3,"name":"Temm32","steam_id":76561198440657154,"connected_time":3664000000000,"state":"active","ping":113},{"user_id":5,"name":"Lohskyl","steam_id":76561199193237621,"connected_time":2690000000000,"state":"active","ping":73},{"user_id":6,"name":"triangleman","steam_id":76561198972733542,"connected_time":2628000000000,"state":"active","ping":77},{"user_id":12,"name":"Fraglin","steam_id":76561198124964000,"connected_time":789000000000,"state":"active","ping":60},{"user_id":9,"name":"tiky","steam_id":76561199208101629,"connected_time":1476000000000,"state":"active","ping":212},{"user_id":14,"name":"courtham","steam_id":76561198092023855,"connected_time":449000000000,"state":"active","ping":55},{"user_id":16,"name":"Toaster889","steam_id":76561199020601573,"connected_time":264000000000,"state":"active","ping":87}]},{"server_id":301,"name":"Uncletopia | Montréal | 2 | All Maps","name_short":"mtl-2","host":"mtl-1.ca.uncletopia.com","port":27025,"enabled":true,"region":"us-east","cc":"ca","latitude":45.50889,"longitude":-73.56167,"reserved":0,"last_update":"0001-01-01T00:00:00Z","name_a2s":"Uncletopia | Montréal | 2 | All Maps","protocol":17,"map":"pl_frontier_final","folder":"tf","game":"Team Fortress","app_id":440,"player_count":0,"max_players":24,"Bots":0,"server_type":"Dedicated","server_os":"Linux","password":true,"vac":true,"version":"7708610","steam_id":85568392924500088,"keywords":["nocrits","nodmgspread","payload","uncletopia"],"game_id":440,"stv_port":0,"stv_name":"","players":null},{"server_id":302,"name":"Uncletopia | Montréal | 3 | All Maps","name_short":"mtl-3","host":"mtl-1.ca.uncletopia.com","port":27035,"enabled":true,"region":"us-east","cc":"ca","latitude":45.50889,"longitude":-73.56167,"reserved":0,"last_update":"0001-01-01T00:00:00Z","name_a2s":"Uncletopia | Montréal | 3 | All Maps","protocol":17,"map":"cp_sunshine","folder":"tf","game":"Team Fortress","app_id":440,"player_count":0,"max_players":24,"Bots":0,"server_type":"Dedicated","server_os":"Linux","password":true,"vac":true,"version":"7708610","steam_id":85568392924500089,"keywords":["cp","nocrits","nodmgspread","uncletopia"],"game_id":440,"stv_port":27036,"stv_name":"Uncletopia | Montréal | 3 | All Maps | STV","players":null},{"server_id":303,"name":"Uncletopia | Montréal | 4 | No Payload","name_short":"mtl-4","host":"mtl-1.ca.uncletopia.com","port":27045,"enabled":true,"region":"us-east","cc":"ca","latitude":45.50889,"longitude":-73.56167,"reserved":0,"last_update":"0001-01-01T00:00:00Z","name_a2s":"Uncletopia | Montréal | 4 | No Payload","protocol":17,"map":"pl_frontier_final","folder":"tf","game":"Team Fortress","app_id":440,"player_count":0,"max_players":24,"Bots":0,"server_type":"Dedicated","server_os":"Linux","password":true,"vac":true,"version":"7708610","steam_id":85568392924500090,"keywords":["nocrits","nodmgspread","payload","uncletopia"],"game_id":440,"stv_port":0,"stv_name":"","players":null},{"server_id":13,"name":"Uncletopia | New York City | 1 | All Maps","name_short":"nyc-1","host":"nyc-1.us.uncletopia.com","port":27015,"enabled":true,"region":"us-east","cc":"us","latitude":40.73061,"longitude":-73.93524,"reserved":0,"last_update":"0001-01-01T00:00:00Z","name_a2s":"Uncletopia | New York City | 1 | All Maps","protocol":17,"map":"cp_sunshine","folder":"tf","game":"Team Fortress","app_id":440,"player_count":16,"max_players":24,"Bots":0,"server_type":"Dedicated","server_os":"Linux","password":true,"vac":true,"version":"7708610","steam_id":85568392924469993,"keywords":["cp","nocrits","nodmgspread","uncletopia"],"game_id":440,"stv_port":27016,"stv_name":"Uncletopia | New York City | 1 | All Maps | STV","players":[{"user_id":249,"name":"Wique","steam_id":76561198071217597,"connected_time":2357000000000,"state":"active","ping":60},{"user_id":277,"name":"ki3ly4","steam_id":76561198249172818,"connected_time":100000000000,"state":"active","ping":161},{"user_id":278,"name":"Nic0","steam_id":76561198305690218,"connected_time":42000000000,"state":"active","ping":46},{"user_id":263,"name":"larry","steam_id":76561198139630467,"connected_time":1028000000000,"state":"active","ping":83},{"user_id":280,"name":"cthulhu_8bit","steam_id":76561199112898088,"connected_time":15000000000,"state":"spawning","ping":93},{"user_id":275,"name":"akirajimbo","steam_id":76561197979960008,"connected_time":171000000000,"state":"active","ping":44},{"user_id":273,"name":"MeKaso TropStar","steam_id":76561199109895840,"connected_time":332000000000,"state":"active","ping":46},{"user_id":274,"name":"Karma","steam_id":76561198030565234,"connected_time":230000000000,"state":"active","ping":45},{"user_id":216,"name":"SaucyAlfredo","steam_id":76561198814854234,"connected_time":3756000000000,"state":"active","ping":62},{"user_id":276,"name":"Sicko Mode (Chris Pratt Cover)","steam_id":76561198315786174,"connected_time":133000000000,"state":"active","ping":49},{"user_id":245,"name":"Pills","steam_id":76561198799440163,"connected_time":2470000000000,"state":"active","ping":97},{"user_id":235,"name":"JHLO","steam_id":76561198074359967,"connected_time":2921000000000,"state":"active","ping":73},{"user_id":256,"name":"{[F.H]} Hydroida","steam_id":76561197999797274,"connected_time":2109000000000,"state":"active","ping":60},{"user_id":267,"name":"Slondermin","steam_id":76561198320301349,"connected_time":853000000000,"state":"active","ping":63},{"user_id":266,"name":"Scum Knight","steam_id":76561198282444763,"connected_time":941000000000,"state":"active","ping":53},{"user_id":260,"name":"runthatback gaming","steam_id":76561198984131011,"connected_time":1692000000000,"state":"active","ping":66}]},{"server_id":14,"name":"Uncletopia | New York City | 2 | All Maps","name_short":"nyc-2","host":"nyc-1.us.uncletopia.com","port":27025,"enabled":true,"region":"us-east","cc":"us","latitude":40.73061,"longitude":-73.93524,"reserved":0,"last_update":"0001-01-01T00:00:00Z","name_a2s":"Uncletopia | New York City | 2 | All Maps","protocol":17,"map":"pl_swiftwater_final1","folder":"tf","game":"Team Fortress","app_id":440,"player_count":24,"max_players":24,"Bots":0,"server_type":"Dedicated","server_os":"Linux","password":true,"vac":true,"version":"7708610","steam_id":85568392924469994,"keywords":["nocrits","nodmgspread","payload","uncletopia"],"game_id":440,"stv_port":27026,"stv_name":"Uncletopia | New York City | 2 | All Maps | STV","players":[{"user_id":176,"name":"NeoN™","steam_id":76561198117608366,"connected_time":635000000000,"state":"active","ping":38},{"user_id":136,"name":"Mopar Man","steam_id":76561198077030510,"connected_time":3698000000000,"state":"active","ping":69},{"user_id":135,"name":"PizzaPasta","steam_id":76561199125109082,"connected_time":3701000000000,"state":"active","ping":58},{"user_id":177,"name":"MonkyBoo","steam_id":76561198304371716,"connected_time":590000000000,"state":"active","ping":86},{"user_id":187,"name":"hello","steam_id":76561199435176886,"connected_time":170000000000,"state":"active","ping":53},{"user_id":126,"name":"Spiteful_Guru","steam_id":76561199227572419,"connected_time":4741000000000,"state":"active","ping":69},{"user_id":99,"name":"Nibelsnarf","steam_id":76561198137642054,"connected_time":7581000000000,"state":"active","ping":58},{"user_id":167,"name":"VGjakeg","steam_id":76561198082985835,"connected_time":1513000000000,"state":"active","ping":56},{"user_id":137,"name":"Anti-Hero","steam_id":76561198042570322,"connected_time":3688000000000,"state":"active","ping":72},{"user_id":184,"name":"Kezner","steam_id":76561198993951071,"connected_time":340000000000,"state":"active","ping":40},{"user_id":127,"name":":3","steam_id":76561198078721142,"connected_time":4741000000000,"state":"active","ping":69},{"user_id":163,"name":"bdkaine1","steam_id":76561198133545467,"connected_time":1653000000000,"state":"active","ping":82},{"user_id":181,"name":"Goofball","steam_id":76561198061211537,"connected_time":480000000000,"state":"active","ping":78},{"user_id":164,"name":"len e","steam_id":76561198128123733,"connected_time":1631000000000,"state":"active","ping":47},{"user_id":146,"name":"Pizza","steam_id":76561198118748364,"connected_time":3195000000000,"state":"active","ping":72},{"user_id":151,"name":"LameNameJame","steam_id":76561198164714852,"connected_time":2543000000000,"state":"active","ping":85},{"user_id":173,"name":"gnome","steam_id":76561198262275475,"connected_time":928000000000,"state":"active","ping":62},{"user_id":157,"name":"Ripley","steam_id":76561198080766916,"connected_time":1884000000000,"state":"active","ping":66},{"user_id":186,"name":"Grossion5z","steam_id":76561198281974326,"connected_time":209000000000,"state":"active","ping":152},{"user_id":182,"name":"Jolt","steam_id":76561198168669087,"connected_time":466000000000,"state":"active","ping":45},{"user_id":154,"name":"Sweet!","steam_id":76561198112186325,"connected_time":2482000000000,"state":"active","ping":66},{"user_id":174,"name":"fat tits haver","steam_id":76561198081681647,"connected_time":780000000000,"state":"active","ping":83},{"user_id":188,"name":"Jnachopp","steam_id":76561198151746404,"connected_time":155000000000,"state":"active","ping":100},{"user_id":153,"name":"Magnitite","steam_id":76561198052499285,"connected_time":2486000000000,"state":"active","ping":49}]},{"server_id":15,"name":"Uncletopia | New York City | 3 | All Maps","name_short":"nyc-3","host":"nyc-1.us.uncletopia.com","port":27035,"enabled":true,"region":"us-east","cc":"us","latitude":40.73061,"longitude":-73.93524,"reserved":0,"last_update":"0001-01-01T00:00:00Z","name_a2s":"Uncletopia | New York City | 3 | All Maps","protocol":17,"map":"koth_viaduct","folder":"tf","game":"Team Fortress","app_id":440,"player_count":2,"max_players":24,"Bots":0,"server_type":"Dedicated","server_os":"Linux","password":true,"vac":true,"version":"7708610","steam_id":85568392924742820,"keywords":["cp","nocrits","nodmgspread","uncletopia"],"game_id":440,"stv_port":27036,"stv_name":"Uncletopia | New York City | 3 | All Maps | STV","players":[{"user_id":7,"name":"Qu3soKing","steam_id":76561198262720637,"connected_time":230000000000,"state":"active","ping":56},{"user_id":9,"name":"dafuzz305","steam_id":76561198201304841,"connected_time":71000000000,"state":"active","ping":69}]},{"server_id":16,"name":"Uncletopia | New York City | 4 | Community","name_short":"nyc-4","host":"nyc-1.us.uncletopia.com","port":27045,"enabled":true,"region":"us-east","cc":"us","latitude":40.73061,"longitude":-73.93524,"reserved":0,"last_update":"0001-01-01T00:00:00Z","name_a2s":"Uncletopia | New York City | 4 | Community","protocol":17,"map":"workshop/pl_eruption_b8c.ugc2865677281","folder":"tf","game":"Team Fortress","app_id":440,"player_count":0,"max_players":24,"Bots":0,"server_type":"Dedicated","server_os":"Linux","password":true,"vac":true,"version":"7708610","steam_id":85568392924742821,"keywords":["nocrits","nodmgspread","payload","uncletopia"],"game_id":440,"stv_port":27046,"stv_name":"Uncletopia | New York City | 4 | Community | STV","players":null},{"server_id":142,"name":"Uncletopia | São Paulo | 1 | All Maps","name_short":"sao-1","host":"sao-1.br.uncletopia.com","port":27015,"enabled":true,"region":"sa","cc":"br","latitude":-23.533773,"longitude":-46.62529,"reserved":0,"last_update":"0001-01-01T00:00:00Z","name_a2s":"Uncletopia | São Paulo | 1 | All Maps","protocol":17,"map":"pl_rumford_event","folder":"tf","game":"Team Fortress","app_id":440,"player_count":24,"max_players":24,"Bots":0,"server_type":"Dedicated","server_os":"Linux","password":true,"vac":true,"version":"7708610","steam_id":85568392924469996,"keywords":["nocrits","nodmgspread","payload","uncletopia"],"game_id":440,"stv_port":27016,"stv_name":"Uncletopia | São Paulo | 1 | All Maps | STV","players":[{"user_id":234,"name":"Ruso","steam_id":76561198968623341,"connected_time":1492000000000,"state":"active","ping":116},{"user_id":107,"name":"[-LC-] Sir Crusher","steam_id":76561198124065641,"connected_time":9862000000000,"state":"active","ping":62},{"user_id":237,"name":"Rapoza Dynamica","steam_id":76561198026327861,"connected_time":971000000000,"state":"active","ping":46},{"user_id":236,"name":"Gabrielやるき","steam_id":76561198332577325,"connected_time":987000000000,"state":"active","ping":48},{"user_id":189,"name":"Beppi sem exa","steam_id":76561198097691073,"connected_time":4058000000000,"state":"active","ping":50},{"user_id":207,"name":"mimimito","steam_id":76561198002565927,"connected_time":3250000000000,"state":"active","ping":44},{"user_id":233,"name":"tame","steam_id":76561198925005855,"connected_time":1620000000000,"state":"active","ping":92},{"user_id":188,"name":"vinisaurus","steam_id":76561198112127509,"connected_time":4165000000000,"state":"active","ping":73},{"user_id":210,"name":"Cherry Cupcake","steam_id":76561198012448942,"connected_time":3157000000000,"state":"active","ping":45},{"user_id":183,"name":"Pyrobro","steam_id":76561198155061020,"connected_time":4271000000000,"state":"active","ping":59},{"user_id":238,"name":"jao com um mousepad 15x20","steam_id":76561198408082822,"connected_time":949000000000,"state":"active","ping":61},{"user_id":239,"name":"ayumi","steam_id":76561197977365746,"connected_time":941000000000,"state":"active","ping":48},{"user_id":187,"name":"Architect","steam_id":76561198895061602,"connected_time":4205000000000,"state":"active","ping":101},{"user_id":235,"name":"N☆V","steam_id":76561198101972840,"connected_time":1450000000000,"state":"active","ping":77},{"user_id":200,"name":"ShinGojira[BR]","steam_id":76561199199037141,"connected_time":3606000000000,"state":"active","ping":86},{"user_id":108,"name":"Pathetic","steam_id":76561198051056987,"connected_time":9690000000000,"state":"active","ping":68},{"user_id":227,"name":"eduduao","steam_id":76561199066246644,"connected_time":2048000000000,"state":"active","ping":83},{"user_id":177,"name":"Emisu","steam_id":76561198278086794,"connected_time":4603000000000,"state":"active","ping":66},{"user_id":223,"name":"TomatoSandwich","steam_id":76561199080817141,"connected_time":2283000000000,"state":"active","ping":77},{"user_id":231,"name":"Véio do Saco Gelado","steam_id":76561198414902041,"connected_time":1777000000000,"state":"active","ping":44},{"user_id":240,"name":"Derretimento Geral 2017","steam_id":76561198194300069,"connected_time":356000000000,"state":"active","ping":51},{"user_id":229,"name":"Zodd","steam_id":76561198940541282,"connected_time":1857000000000,"state":"active","ping":73},{"user_id":217,"name":"敵","steam_id":76561198338188609,"connected_time":2693000000000,"state":"active","ping":64},{"user_id":232,"name":"CJAIME01345","steam_id":76561199091599141,"connected_time":1775000000000,"state":"active","ping":82}]},{"server_id":143,"name":"Uncletopia | São Paulo | 2 | All Maps","name_short":"sao-2","host":"sao-2.br.uncletopia.com","port":27015,"enabled":true,"region":"sa","cc":"br","latitude":-23.533773,"longitude":-46.62529,"reserved":0,"last_update":"0001-01-01T00:00:00Z","name_a2s":"Uncletopia | São Paulo | 2 | All Maps","protocol":17,"map":"pl_snowycoast","folder":"tf","game":"Team Fortress","app_id":440,"player_count":1,"max_players":24,"Bots":0,"server_type":"Dedicated","server_os":"Linux","password":true,"vac":true,"version":"7708610","steam_id":85568392924485349,"keywords":["nocrits","nodmgspread","payload","uncletopia"],"game_id":440,"stv_port":27016,"stv_name":"Uncletopia | São Paulo | 2 | All Maps | STV","players":[{"user_id":35,"name":"☥Powerfull","steam_id":76561198839713730,"connected_time":40000000000,"state":"spawning","ping":64}]},{"server_id":7,"name":"Uncletopia | Seattle | 1 | All Maps","name_short":"sea-1","host":"sea-1.us.uncletopia.com","port":27015,"enabled":true,"region":"us-west","cc":"us","latitude":47.608013,"longitude":-122.33517,"reserved":0,"last_update":"0001-01-01T00:00:00Z","name_a2s":"Uncletopia | Seattle | 1 | All Maps","protocol":17,"map":"cp_dustbowl","folder":"tf","game":"Team Fortress","app_id":440,"player_count":20,"max_players":24,"Bots":0,"server_type":"Dedicated","server_os":"Linux","password":true,"vac":true,"version":"7708610","steam_id":85568392924469997,"keywords":["cp","nocrits","nodmgspread","uncletopia"],"game_id":440,"stv_port":27016,"stv_name":"Uncletopia | Seattle | 1 | All Maps | STV","players":[{"user_id":72,"name":"Grill Skills","steam_id":76561198053575147,"connected_time":5222000000000,"state":"active","ping":56},{"user_id":133,"name":"Dorkified","steam_id":76561198823574538,"connected_time":1220000000000,"state":"active","ping":72},{"user_id":90,"name":"Nolan","steam_id":76561198169648081,"connected_time":4218000000000,"state":"active","ping":97},{"user_id":146,"name":"beans","steam_id":76561198967794028,"connected_time":58000000000,"state":"active","ping":99},{"user_id":50,"name":"Dedlock","steam_id":76561198046290002,"connected_time":6386000000000,"state":"active","ping":60},{"user_id":143,"name":"Some Genius","steam_id":76561198101868089,"connected_time":163000000000,"state":"active","ping":60},{"user_id":122,"name":"Joseph Stalin","steam_id":76561198126234142,"connected_time":1440000000000,"state":"active","ping":66},{"user_id":98,"name":"ejschild745","steam_id":76561199013388867,"connected_time":2938000000000,"state":"active","ping":64},{"user_id":144,"name":"rat gets the cheese","steam_id":76561198031234032,"connected_time":109000000000,"state":"active","ping":103},{"user_id":52,"name":"SesataPomang","steam_id":76561198145133059,"connected_time":6359000000000,"state":"active","ping":94},{"user_id":145,"name":"Styn Jeezy","steam_id":76561198087380018,"connected_time":108000000000,"state":"active","ping":91},{"user_id":99,"name":"Liquid Gold","steam_id":76561198347510093,"connected_time":2936000000000,"state":"active","ping":56},{"user_id":127,"name":"dust","steam_id":76561198045218909,"connected_time":1372000000000,"state":"active","ping":30},{"user_id":92,"name":"shiadyne","steam_id":76561198271939793,"connected_time":3898000000000,"state":"active","ping":42},{"user_id":131,"name":"lag","steam_id":76561197963872739,"connected_time":1289000000000,"state":"active","ping":48},{"user_id":125,"name":"Synergy","steam_id":76561198098630198,"connected_time":1389000000000,"state":"active","ping":45},{"user_id":113,"name":"Bruised Banana","steam_id":76561198364172677,"connected_time":2052000000000,"state":"active","ping":133},{"user_id":121,"name":"грустный","steam_id":76561198274550638,"connected_time":1449000000000,"state":"active","ping":105},{"user_id":105,"name":"-=Bits=-Dinkleberg","steam_id":76561198080367616,"connected_time":2642000000000,"state":"active","ping":106},{"user_id":137,"name":"Mewwy","steam_id":76561198015392271,"connected_time":910000000000,"state":"active","ping":83}]},{"server_id":119,"name":"Uncletopia | Seattle | 2 | All Maps","name_short":"sea-2","host":"sea-1.us.uncletopia.com","port":27025,"enabled":true,"region":"us-west","cc":"us","latitude":47.608013,"longitude":-122.33517,"reserved":0,"last_update":"0001-01-01T00:00:00Z","name_a2s":"Uncletopia | Seattle | 2 | All Maps","protocol":17,"map":"pl_borneo","folder":"tf","game":"Team Fortress","app_id":440,"player_count":21,"max_players":24,"Bots":0,"server_type":"Dedicated","server_os":"Linux","password":true,"vac":true,"version":"7708610","steam_id":85568392924469998,"keywords":["nocrits","nodmgspread","payload","uncletopia"],"game_id":440,"stv_port":27026,"stv_name":"Uncletopia | Seattle | 2 | All Maps | STV","players":[{"user_id":46,"name":"whimmu","steam_id":76561198370839794,"connected_time":732000000000,"state":"active","ping":90},{"user_id":50,"name":"TheDiBZ","steam_id":76561198281723502,"connected_time":445000000000,"state":"active","ping":68},{"user_id":17,"name":"taishang","steam_id":76561198065328284,"connected_time":2222000000000,"state":"active","ping":71},{"user_id":9,"name":"Goofy Goober","steam_id":76561198128299594,"connected_time":3783000000000,"state":"active","ping":89},{"user_id":26,"name":"2cats_2curious","steam_id":76561198027143149,"connected_time":1752000000000,"state":"active","ping":71},{"user_id":14,"name":"dave strider","steam_id":76561198065112186,"connected_time":2923000000000,"state":"active","ping":59},{"user_id":51,"name":"PRINGLES® SOUR CREAM \u0026 ONION","steam_id":76561198094836871,"connected_time":322000000000,"state":"active","ping":80},{"user_id":23,"name":"filthycasual","steam_id":76561199138226238,"connected_time":1992000000000,"state":"active","ping":40},{"user_id":30,"name":"Themasterman75","steam_id":76561199385573293,"connected_time":1459000000000,"state":"active","ping":65},{"user_id":45,"name":"PopcornNinja101","steam_id":76561198330680181,"connected_time":764000000000,"state":"active","ping":46},{"user_id":32,"name":"DeckofDragons","steam_id":76561198057398213,"connected_time":1415000000000,"state":"active","ping":75},{"user_id":33,"name":"chunkysquare","steam_id":76561199076468383,"connected_time":1372000000000,"state":"active","ping":79},{"user_id":43,"name":"gamer_hater","steam_id":76561198973306314,"connected_time":987000000000,"state":"active","ping":75},{"user_id":36,"name":"luvvstory (she/her)","steam_id":76561198333675595,"connected_time":1221000000000,"state":"active","ping":123},{"user_id":47,"name":"Freeza","steam_id":76561198050341005,"connected_time":667000000000,"state":"active","ping":63},{"user_id":48,"name":"GalacticQuasaur","steam_id":76561199066172937,"connected_time":631000000000,"state":"active","ping":89},{"user_id":49,"name":"exephur","steam_id":76561198135763234,"connected_time":604000000000,"state":"active","ping":60},{"user_id":53,"name":"Yeagle","steam_id":76561199086620299,"connected_time":215000000000,"state":"active","ping":102},{"user_id":54,"name":"im actually gaming","steam_id":76561198128736669,"connected_time":199000000000,"state":"active","ping":69},{"user_id":55,"name":"The Gremlin","steam_id":76561198419066993,"connected_time":192000000000,"state":"active","ping":55},{"user_id":56,"name":"Sir Severus","steam_id":76561198061295188,"connected_time":183000000000,"state":"active","ping":55}]},{"server_id":17,"name":"Uncletopia | San Francisco | 1 | All Maps","name_short":"sfo-1","host":"sfo-1.us.uncletopia.com","port":27015,"enabled":true,"region":"us-west","cc":"us","latitude":37.77397,"longitude":-122.4313,"reserved":0,"last_update":"0001-01-01T00:00:00Z","name_a2s":"Uncletopia | San Francisco | 1 | All Maps","protocol":17,"map":"cp_sunshine","folder":"tf","game":"Team Fortress","app_id":440,"player_count":0,"max_players":24,"Bots":0,"server_type":"Dedicated","server_os":"Linux","password":true,"vac":true,"version":"7708610","steam_id":85568392924469999,"keywords":["cp","nocrits","nodmgspread","uncletopia"],"game_id":440,"stv_port":0,"stv_name":"","players":null},{"server_id":18,"name":"Uncletopia | San Francisco | 2 | All Maps","name_short":"sfo-2","host":"sfo-1.us.uncletopia.com","port":27025,"enabled":true,"region":"us-west","cc":"us","latitude":37.77397,"longitude":-122.4313,"reserved":0,"last_update":"0001-01-01T00:00:00Z","name_a2s":"Uncletopia | San Francisco | 2 | All Maps","protocol":17,"map":"koth_cascade","folder":"tf","game":"Team Fortress","app_id":440,"player_count":0,"max_players":24,"Bots":0,"server_type":"Dedicated","server_os":"Linux","password":true,"vac":true,"version":"7708610","steam_id":85568392924470000,"keywords":["cp","nocrits","nodmgspread","uncletopia"],"game_id":440,"stv_port":0,"stv_name":"","players":null},{"server_id":19,"name":"Uncletopia | San Francisco | 3 | No Payload","name_short":"sfo-3","host":"sfo-1.us.uncletopia.com","port":27035,"enabled":true,"region":"us-west","cc":"us","latitude":37.77397,"longitude":-122.4313,"reserved":0,"last_update":"0001-01-01T00:00:00Z","name_a2s":"Uncletopia | San Francisco | 3 | No Payload","protocol":17,"map":"plr_hightower","folder":"tf","game":"Team Fortress","app_id":440,"player_count":0,"max_players":24,"Bots":0,"server_type":"Dedicated","server_os":"Linux","password":true,"vac":true,"version":"7708610","steam_id":85568392924742824,"keywords":["nocrits","nodmgspread","payload","uncletopia"],"game_id":440,"stv_port":27036,"stv_name":"Uncletopia | San Francisco | 3 | No Payload | STV","players":null},{"server_id":20,"name":"Uncletopia | San Francisco | 4 | Community","name_short":"sfo-4","host":"sfo-1.us.uncletopia.com","port":27045,"enabled":true,"region":"us-west","cc":"us","latitude":37.77397,"longitude":-122.4313,"reserved":0,"last_update":"0001-01-01T00:00:00Z","name_a2s":"Uncletopia | San Francisco | 4 | Community","protocol":17,"map":"pl_barnblitz","folder":"tf","game":"Team Fortress","app_id":440,"player_count":0,"max_players":24,"Bots":0,"server_type":"Dedicated","server_os":"Linux","password":true,"vac":true,"version":"7708610","steam_id":85568392924742826,"keywords":["nocrits","nodmgspread","payload","uncletopia"],"game_id":440,"stv_port":0,"stv_name":"","players":null},{"server_id":141,"name":"Uncletopia | Sydney | 1 | All Maps","name_short":"syd-1","host":"syd-1.au.uncletopia.com","port":27015,"enabled":true,"region":"au","cc":"au","latitude":-33.865143,"longitude":151.2099,"reserved":0,"last_update":"0001-01-01T00:00:00Z","name_a2s":"Uncletopia | Sydney | 1 | All Maps","protocol":17,"map":"pl_pier","folder":"tf","game":"Team Fortress","app_id":440,"player_count":0,"max_players":24,"Bots":0,"server_type":"Dedicated","server_os":"Linux","password":true,"vac":true,"version":"7708610","steam_id":85568392924470001,"keywords":["nocrits","nodmgspread","payload","uncletopia"],"game_id":440,"stv_port":0,"stv_name":"","players":null},{"server_id":123,"name":"Uncletopia | Sydney | 2 | All Maps","name_short":"syd-2","host":"syd-1.au.uncletopia.com","port":27025,"enabled":true,"region":"au","cc":"au","latitude":-33.865143,"longitude":151.2099,"reserved":0,"last_update":"0001-01-01T00:00:00Z","name_a2s":"Uncletopia | Sydney | 2 | All Maps","protocol":17,"map":"pl_snowycoast","folder":"tf","game":"Team Fortress","app_id":440,"player_count":0,"max_players":24,"Bots":0,"server_type":"Dedicated","server_os":"Linux","password":true,"vac":true,"version":"7708610","steam_id":85568392924470002,"keywords":["nocrits","nodmgspread","payload","uncletopia"],"game_id":440,"stv_port":0,"stv_name":"","players":null},{"server_id":395,"name":"Uncletopia | Sydney | 3 | All Maps","name_short":"syd-3","host":"syd-1.au.uncletopia.com","port":27035,"enabled":true,"region":"au","cc":"au","latitude":-33.865143,"longitude":151.2099,"reserved":0,"last_update":"0001-01-01T00:00:00Z","name_a2s":"Uncletopia | Sydney | 3 | All Maps","protocol":17,"map":"pl_badwater","folder":"tf","game":"Team Fortress","app_id":440,"player_count":0,"max_players":24,"Bots":0,"server_type":"Dedicated","server_os":"Linux","password":true,"vac":true,"version":"7708610","steam_id":85568392925194467,"keywords":["nocrits","nodmgspread","payload","uncletopia"],"game_id":440,"stv_port":0,"stv_name":"","players":null},{"server_id":396,"name":"Uncletopia | Sydney | 4 | All Maps","name_short":"syd-4","host":"syd-1.au.uncletopia.com","port":27045,"enabled":true,"region":"au","cc":"au","latitude":-33.865143,"longitude":151.2099,"reserved":0,"last_update":"0001-01-01T00:00:00Z","name_a2s":"Uncletopia | Sydney | 4 | All Maps","protocol":17,"map":"koth_lakeside_final","folder":"tf","game":"Team Fortress","app_id":440,"player_count":0,"max_players":24,"Bots":0,"server_type":"Dedicated","server_os":"Linux","password":true,"vac":true,"version":"7708610","steam_id":85568392925397958,"keywords":["cp","nocrits","nodmgspread","uncletopia"],"game_id":440,"stv_port":0,"stv_name":"","players":null},{"server_id":58,"name":"Uncletopia | Sydney | 5 | No Payload","name_short":"syd-5","host":"syd-1.au.uncletopia.com","port":27055,"enabled":true,"region":"au","cc":"au","latitude":-33.865143,"longitude":151.2099,"reserved":0,"last_update":"0001-01-01T00:00:00Z","name_a2s":"Uncletopia | Sydney | 5 | No Payload","protocol":17,"map":"koth_cascade","folder":"tf","game":"Team Fortress","app_id":440,"player_count":0,"max_players":24,"Bots":0,"server_type":"Dedicated","server_os":"Linux","password":true,"vac":true,"version":"7708610","steam_id":85568392925397959,"keywords":["cp","nocrits","nodmgspread","uncletopia"],"game_id":440,"stv_port":0,"stv_name":"","players":null},{"server_id":59,"name":"Uncletopia | Sydney | 6 | Community","name_short":"syd-6","host":"syd-1.au.uncletopia.com","port":27065,"enabled":true,"region":"au","cc":"au","latitude":-33.865143,"longitude":151.2099,"reserved":0,"last_update":"0001-01-01T00:00:00Z","name_a2s":"Uncletopia | Sydney | 6 | Community","protocol":17,"map":"pl_borneo","folder":"tf","game":"Team Fortress","app_id":440,"player_count":0,"max_players":24,"Bots":0,"server_type":"Dedicated","server_os":"Linux","password":true,"vac":true,"version":"7708610","steam_id":85568392925397960,"keywords":["nocrits","nodmgspread","payload","uncletopia"],"game_id":440,"stv_port":0,"stv_name":"","players":null},{"server_id":49,"name":"Uncletopia | Warsaw | 1 | All Maps","name_short":"waw-1","host":"waw-1.pl.uncletopia.com","port":27015,"enabled":true,"region":"eu","cc":"pl","latitude":52.2297,"longitude":21.017532,"reserved":0,"last_update":"0001-01-01T00:00:00Z","name_a2s":"Uncletopia | Warsaw | 1 | All Maps","protocol":17,"map":"cp_process_final","folder":"tf","game":"Team Fortress","app_id":440,"player_count":0,"max_players":24,"Bots":0,"server_type":"Dedicated","server_os":"Linux","password":true,"vac":true,"version":"7708610","steam_id":85568392925397850,"keywords":["cp","nocrits","nodmgspread","uncletopia"],"game_id":440,"stv_port":27016,"stv_name":"Uncletopia | Warsaw | 1 | All Maps | STV","players":null},{"server_id":50,"name":"Uncletopia | Warsaw | 2 | All Maps","name_short":"waw-2","host":"waw-1.pl.uncletopia.com","port":27025,"enabled":true,"region":"eu","cc":"pl","latitude":52.2297,"longitude":21.017532,"reserved":0,"last_update":"0001-01-01T00:00:00Z","name_a2s":"Uncletopia | Warsaw | 2 | All Maps","protocol":17,"map":"koth_highpass","folder":"tf","game":"Team Fortress","app_id":440,"player_count":0,"max_players":24,"Bots":0,"server_type":"Dedicated","server_os":"Linux","password":true,"vac":true,"version":"7708610","steam_id":85568392925397851,"keywords":["cp","nocrits","nodmgspread","uncletopia"],"game_id":440,"stv_port":27026,"stv_name":"Uncletopia | Warsaw | 2 | All Maps | STV","players":null},{"server_id":51,"name":"Uncletopia | Warsaw | 3 | All Maps","name_short":"waw-3","host":"waw-1.pl.uncletopia.com","port":27035,"enabled":true,"region":"eu","cc":"pl","latitude":52.2297,"longitude":21.017532,"reserved":0,"last_update":"0001-01-01T00:00:00Z","name_a2s":"Uncletopia | Warsaw | 3 | All Maps","protocol":17,"map":"koth_cascade","folder":"tf","game":"Team Fortress","app_id":440,"player_count":0,"max_players":24,"Bots":0,"server_type":"Dedicated","server_os":"Linux","password":true,"vac":true,"version":"7708610","steam_id":85568392925397852,"keywords":["cp","nocrits","nodmgspread","uncletopia"],"game_id":440,"stv_port":0,"stv_name":"","players":null},{"server_id":52,"name":"Uncletopia | Warsaw | 4 | All Maps","name_short":"waw-4","host":"waw-1.pl.uncletopia.com","port":27045,"enabled":true,"region":"eu","cc":"pl","latitude":52.2297,"longitude":21.017532,"reserved":0,"last_update":"0001-01-01T00:00:00Z","name_a2s":"Uncletopia | Warsaw | 4 | All Maps","protocol":17,"map":"cp_process_final","folder":"tf","game":"Team Fortress","app_id":440,"player_count":0,"max_players":24,"Bots":0,"server_type":"Dedicated","server_os":"Linux","password":true,"vac":true,"version":"7708610","steam_id":85568392925397853,"keywords":["cp","nocrits","nodmgspread","uncletopia"],"game_id":440,"stv_port":27046,"stv_name":"Uncletopia | Warsaw | 4 | All Maps | STV","players":null},{"server_id":53,"name":"Uncletopia | Warsaw | 5 | No Payload","name_short":"waw-5","host":"waw-1.pl.uncletopia.com","port":27055,"enabled":true,"region":"eu","cc":"pl","latitude":52.2297,"longitude":21.017532,"reserved":0,"last_update":"0001-01-01T00:00:00Z","name_a2s":"Uncletopia | Warsaw | 5 | No Payload","protocol":17,"map":"cp_steel","folder":"tf","game":"Team Fortress","app_id":440,"player_count":0,"max_players":24,"Bots":0,"server_type":"Dedicated","server_os":"Linux","password":true,"vac":true,"version":"7708610","steam_id":85568392925397854,"keywords":["cp","nocrits","nodmgspread","uncletopia"],"game_id":440,"stv_port":27056,"stv_name":"Uncletopia | Warsaw | 5 | No Payload | STV","players":null},{"server_id":54,"name":"Uncletopia | Warsaw | 6 | Community","name_short":"waw-6","host":"waw-1.pl.uncletopia.com","port":27065,"enabled":true,"region":"eu","cc":"pl","latitude":52.2297,"longitude":21.017532,"reserved":0,"last_update":"0001-01-01T00:00:00Z","name_a2s":"Uncletopia | Warsaw | 6 | Community","protocol":17,"map":"koth_highpass","folder":"tf","game":"Team Fortress","app_id":440,"player_count":0,"max_players":24,"Bots":0,"server_type":"Dedicated","server_os":"Linux","password":true,"vac":true,"version":"7708610","steam_id":85568392925397856,"keywords":["cp","nocrits","nodmgspread","uncletopia"],"game_id":440,"stv_port":0,"stv_name":"","players":null}]}