{"status":true,"message":"","result":[{"server_id":9,"name":"Uncletopia | Atlanta | 1 | All Maps","name_short":"atl-1","host":"atl-1.us.uncletopia.com","port":27015,"enabled":true,"region":"us-east","cc":"us","latitude":33.753746,"longitude":-84.38633,"reserved":0,"last_update":"0001-01-01T00:00:00Z","name_a2s":"Uncletopia | Atlanta | 1 | All Maps","protocol":17,"map":"pl_snowycoast","folder":"tf","game":"Team Fortress","app_id":440,"player_count":25,"max_players":24,"Bots":0,"server_type":"Dedicated","server_os":"Linux","password":true,"vac":true,"version":"7757534","steam_id":85568392924469982,"keywords":["nocrits","nodmgspread","payload","uncletopia"],"game_id":440,"stv_port":27016,"stv_name":"Uncletopia | Atlanta | 1 | All Maps | STV","players":[{"user_id":171,"name":"RED1 | nomad","steam_id":76561197998740399,"connected_time":8050000000000,"state":"active","ping":69},{"user_id":243,"name":"2 Chihuahuas in Ohio","steam_id":76561198130772096,"connected_time":1161000000000,"state":"active","ping":52},{"user_id":112,"name":"Dorothy","steam_id":76561198152455316,"connected_time":13051000000000,"state":"active","ping":103},{"user_id":250,"name":"ya doin good lad","steam_id":76561198319442494,"connected_time":418000000000,"state":"active","ping":106},{"user_id":166,"name":"ATL1 | Le4n!!!","steam_id":76561198045522596,"connected_time":8070000000000,"state":"active","ping":68},{"user_id":204,"name":"ATLS1 | SparkStorm","steam_id":76561198095817025,"connected_time":4852000000000,"state":"active","ping":38},{"user_id":245,"name":"ATL1 | Kramer","steam_id":76561198083595936,"connected_time":748000000000,"state":"active","ping":77},{"user_id":227,"name":"bogginwater","steam_id":76561198155547142,"connected_time":2958000000000,"state":"active","ping":66},{"user_id":216,"name":"Oddball","steam_id":76561198040440984,"connected_time":3806000000000,"state":"active","ping":85},{"user_id":236,"name":"Toygar","steam_id":76561198023679830,"connected_time":1430000000000,"state":"active","ping":73},{"user_id":235,"name":"⇌ | ϟtriKeR | ⇋","steam_id":76561199389089862,"connected_time":1636000000000,"state":"active","ping":139},{"user_id":152,"name":"Sigma Spy","steam_id":76561198253181773,"connected_time":8827000000000,"state":"active","ping":59},{"user_id":248,"name":"Some Dumb Werewolf","steam_id":76561198114146739,"connected_time":521000000000,"state":"active","ping":84},{"user_id":223,"name":"chexo4","steam_id":76561198150532531,"connected_time":3260000000000,"state":"active","ping":51},{"user_id":254,"name":"Cherry Coke","steam_id":76561198178233006,"connected_time":366000000000,"state":"active","ping":82},{"user_id":249,"name":"ATL1 | ma0re","steam_id":76561199231971506,"connected_time":517000000000,"state":"active","ping":63},{"user_id":218,"name":"TGPupps","steam_id":76561198281201914,"connected_time":3460000000000,"state":"active","ping":149},{"user_id":247,"name":"floofy","steam_id":76561198389769098,"connected_time":636000000000,"state":"active","ping":89},{"user_id":178,"name":"Zho Biden","steam_id":76561198079224101,"connected_time":7759000000000,"state":"active","ping":44},{"user_id":280,"name":"Decolour","steam_id":76561199045608372,"connected_time":0,"state":"spawning","ping":0},{"user_id":241,"name":"fortnite.jimmy.2014","steam_id":76561199177672325,"connected_time":1390000000000,"state":"active","ping":45},{"user_id":238,"name":"BLU1 | Psionic Box","steam_id":76561198151019322,"connected_time":1420000000000,"state":"active","ping":69},{"user_id":242,"name":"sansa musa","steam_id":76561198163723555,"connected_time":1387000000000,"state":"active","ping":75},{"user_id":234,"name":"Momki","steam_id":76561198072944509,"connected_time":1758000000000,"state":"active","ping":91},{"user_id":225,"name":"deadlypootis (friendly)","steam_id":76561198249206656,"connected_time":3259000000000,"state":"active","ping":88}]},{"server_id":400,"name":"Uncletopia | Atlanta | 3 | Community","name_short":"atl-3","host":"atl-1.us.uncletopia.com","port":27035,"enabled":true,"region":"us-east","cc":"us","latitude":33.753746,"longitude":-84.38633,"reserved":0,"last_update":"0001-01-01T00:00:00Z","name_a2s":"Uncletopia | Atlanta | 3 | Community","protocol":17,"map":"workshop/koth_product_final.ugc454272353","folder":"tf","game":"Team Fortress","app_id":440,"player_count":0,"max_players":32,"Bots":0,"server_type":"Dedicated","server_os":"Linux","password":true,"vac":true,"version":"7757534","steam_id":85568392924515187,"keywords":["cp","increased_maxplayers","nocrits","nodmgspread","uncletopia"],"game_id":440,"stv_port":27036,"stv_name":"Uncletopia | Atlanta | 3 | Community | STV","players":null},{"server_id":401,"name":"Uncletopia | Atlanta | 4 | No Payload","name_short":"atl-4","host":"atl-1.us.uncletopia.com","port":27045,"enabled":true,"region":"us-east","cc":"us","latitude":33.753746,"longitude":-84.38633,"reserved":0,"last_update":"0001-01-01T00:00:00Z","name_a2s":"","protocol":0,"map":"","folder":"","game":"","app_id":0,"player_count":0,"max_players":0,"Bots":0,"server_type":"","server_os":"","password":false,"vac":false,"version":"","steam_id":0,"keywords":null,"game_id":0,"stv_port":0,"stv_name":"","players":null},{"server_id":2,"name":"Uncletopia | Chicago | 1 | All Maps","name_short":"chi-1","host":"chi-1.us.uncletopia.com","port":27015,"enabled":true,"region":"us-central","cc":"us","latitude":41.881832,"longitude":-87.62318,"reserved":0,"last_update":"0001-01-01T00:00:00Z","name_a2s":"Uncletopia | Chicago | 1 | All Maps","protocol":17,"map":"cp_dustbowl","folder":"tf","game":"Team Fortress","app_id":440,"player_count":24,"max_players":24,"Bots":0,"server_type":"Dedicated","server_os":"Linux","password":true,"vac":true,"version":"7757534","steam_id":85568392924469984,"keywords":["cp","nocrits","nodmgspread","uncletopia"],"game_id":440,"stv_port":27016,"stv_name":"Uncletopia | Chicago | 1 | All Maps | STV","players":[{"user_id":413,"name":"Blargg","steam_id":76561199034067640,"connected_time":2950000000000,"state":"active","ping":61},{"user_id":438,"name":"blob","steam_id":76561198122375328,"connected_time":1739000000000,"state":"active","ping":69},{"user_id":404,"name":"Wug","steam_id":76561198084112264,"connected_time":3724000000000,"state":"active","ping":74},{"user_id":381,"name":"Miner2495","steam_id":76561198445904523,"connected_time":5073000000000,"state":"active","ping":61},{"user_id":449,"name":"Cat in Your Backyard","steam_id":76561197979078330,"connected_time":713000000000,"state":"active","ping":60},{"user_id":390,"name":"upside down cat","steam_id":76561198028288349,"connected_time":4172000000000,"state":"active","ping":85},{"user_id":460,"name":"squish","steam_id":76561198097657352,"connected_time":37000000000,"state":"active","ping":238},{"user_id":454,"name":".-.","steam_id":76561198820617005,"connected_time":511000000000,"state":"active","ping":104},{"user_id":452,"name":"Owen","steam_id":76561198025446908,"connected_time":631000000000,"state":"active","ping":60},{"user_id":315,"name":"Sydney","steam_id":76561198797603297,"connected_time":10950000000000,"state":"active","ping":60},{"user_id":456,"name":"Undertime Slopper","steam_id":76561198396789061,"connected_time":436000000000,"state":"active","ping":84},{"user_id":461,"name":"Candy Sparkles","steam_id":76561198126871264,"connected_time":22000000000,"state":"active","ping":79},{"user_id":436,"name":"mepng","steam_id":76561199018758598,"connected_time":1754000000000,"state":"active","ping":87},{"user_id":457,"name":"Spacey","steam_id":76561198127335850,"connected_time":426000000000,"state":"active","ping":78},{"user_id":419,"name":"Metal Man","steam_id":76561198024973008,"connected_time":2625000000000,"state":"active","ping":60},{"user_id":423,"name":"Dr Spaceman","steam_id":76561197969755657,"connected_time":2365000000000,"state":"active","ping":50},{"user_id":417,"name":"\"LET'S GO JUAN!\"","steam_id":76561198978797171,"connected_time":2862000000000,"state":"active","ping":78},{"user_id":402,"name":"pat fusty","steam_id":76561198117181511,"connected_time":3796000000000,"state":"active","ping":51},{"user_id":455,"name":"Fuzzy Toast","steam_id":76561198028067781,"connected_time":508000000000,"state":"active","ping":44},{"user_id":451,"name":"Sone","steam_id":76561198069601032,"connected_time":688000000000,"state":"active","ping":77},{"user_id":446,"name":"Bismofunyuns","steam_id":76561198154206862,"connected_time":1511000000000,"state":"active","ping":100},{"user_id":437,"name":"Eins","steam_id":76561199030343810,"connected_time":1752000000000,"state":"active","ping":64},{"user_id":401,"name":"papa stalin","steam_id":76561198353622863,"connected_time":3808000000000,"state":"active","ping":92},{"user_id":459,"name":"Friendly Robo","steam_id":76561198982369510,"connected_time":394000000000,"state":"active","ping":72}]},{"server_id":106,"name":"Uncletopia | Chicago | 2 | All Maps","name_short":"chi-2","host":"chi-1.us.uncletopia.com","port":27025,"enabled":true,"region":"us-central","cc":"us","latitude":41.881832,"longitude":-87.62318,"reserved":0,"last_update":"0001-01-01T00:00:00Z","name_a2s":"Uncletopia | Chicago | 2 | All Maps","protocol":17,"map":"pl_borneo","folder":"tf","game":"Team Fortress","app_id":440,"player_count":24,"max_players":24,"Bots":0,"server_type":"Dedicated","server_os":"Linux","password":true,"vac":true,"version":"7757534","steam_id":85568392924469985,"keywords":["nocrits","nodmgspread","payload","uncletopia"],"game_id":440,"stv_port":27026,"stv_name":"Uncletopia | Chicago | 2 | All Maps | STV","players":[{"user_id":155,"name":"(derogatory)","steam_id":76561199059257565,"connected_time":1768000000000,"state":"active","ping":94},{"user_id":141,"name":"George","steam_id":76561198020046873,"connected_time":2707000000000,"state":"active","ping":52},{"user_id":145,"name":"Sharper Spoon","steam_id":76561198877130687,"connected_time":2674000000000,"state":"active","ping":67},{"user_id":166,"name":"[chef] iron","steam_id":76561197970888616,"connected_time":358000000000,"state":"active","ping":40},{"user_id":133,"name":"*","steam_id":76561198173047169,"connected_time":3440000000000,"state":"active","ping":56},{"user_id":161,"name":"Phos","steam_id":76561198122339506,"connected_time":1541000000000,"state":"active","ping":75},{"user_id":94,"name":"BLACK MAN FROM JOJO","steam_id":76561198272948471,"connected_time":5935000000000,"state":"active","ping":57},{"user_id":142,"name":"Huevo Frito","steam_id":76561198896811394,"connected_time":2702000000000,"state":"active","ping":48},{"user_id":169,"name":"Cyber Cylon","steam_id":76561198048972781,"connected_time":319000000000,"state":"active","ping":65},{"user_id":170,"name":"Sho","steam_id":76561198267918585,"connected_time":306000000000,"state":"active","ping":75},{"user_id":130,"name":"theancientnut","steam_id":76561199396708880,"connected_time":3541000000000,"state":"active","ping":59},{"user_id":165,"name":"Hooked","steam_id":76561198007302139,"connected_time":456000000000,"state":"active","ping":75},{"user_id":164,"name":"candied mosquito","steam_id":76561199060494678,"connected_time":513000000000,"state":"active","ping":68},{"user_id":135,"name":"Owl Pacino","steam_id":76561197979970666,"connected_time":3278000000000,"state":"active","ping":56},{"user_id":168,"name":"Ping","steam_id":76561199206514106,"connected_time":336000000000,"state":"active","ping":47},{"user_id":171,"name":"The Notorious RBG","steam_id":76561198014275148,"connected_time":304000000000,"state":"active","ping":74},{"user_id":122,"name":"Dude bro","steam_id":76561198249916746,"connected_time":4401000000000,"state":"active","ping":83},{"user_id":159,"name":"Ricky","steam_id":76561199078364552,"connected_time":1738000000000,"state":"active","ping":69},{"user_id":150,"name":"TheConchinator","steam_id":76561199388149092,"connected_time":2222000000000,"state":"active","ping":60},{"user_id":113,"name":"Soul Garg Plushy","steam_id":76561198044480181,"connected_time":5090000000000,"state":"active","ping":54},{"user_id":160,"name":"Koi","steam_id":76561198064411172,"connected_time":1712000000000,"state":"active","ping":59},{"user_id":152,"name":"Cam(era)","steam_id":76561198285054047,"connected_time":2025000000000,"state":"active","ping":68},{"user_id":128,"name":"Young-OG","steam_id":76561198058800479,"connected_time":3937000000000,"state":"active","ping":76},{"user_id":172,"name":"Brian","steam_id":76561198144650969,"connected_time":294000000000,"state":"active","ping":75}]},{"server_id":402,"name":"Uncletopia | Chicago | 3 | All Maps","name_short":"chi-3","host":"chi-1.us.uncletopia.com","port":27035,"enabled":true,"region":"us-central","cc":"us","latitude":41.881832,"longitude":-87.62318,"reserved":0,"last_update":"0001-01-01T00:00:00Z","name_a2s":"Uncletopia | Chicago | 3 | All Maps","protocol":17,"map":"pl_pier","folder":"tf","game":"Team Fortress","app_id":440,"player_count":24,"max_players":24,"Bots":0,"server_type":"Dedicated","server_os":"Linux","password":true,"vac":true,"version":"7757534","steam_id":85568392924515191,"keywords":["nocrits","nodmgspread","payload","uncletopia"],"game_id":440,"stv_port":27036,"stv_name":"Uncletopia | Chicago | 3 | All Maps | STV","players":[{"user_id":408,"name":"Snazzi","steam_id":76561198085208276,"connected_time":13000000000,"state":"active","ping":93},{"user_id":396,"name":"stoic","steam_id":76561198131795416,"connected_time":1075000000000,"state":"active","ping":69},{"user_id":361,"name":"Draconic Ballad","steam_id":76561198027191515,"connected_time":4279000000000,"state":"active","ping":53},{"user_id":390,"name":"ciel","steam_id":76561198025805824,"connected_time":1785000000000,"state":"active","ping":60},{"user_id":305,"name":"Azula's #1 Fan","steam_id":76561198133111058,"connected_time":7870000000000,"state":"active","ping":73},{"user_id":407,"name":"Stew Eater","steam_id":76561198978307159,"connected_time":505000000000,"state":"active","ping":67},{"user_id":400,"name":"a crazy hobo","steam_id":76561198289650060,"connected_time":874000000000,"state":"active","ping":81},{"user_id":369,"name":"gunk","steam_id":76561198165904727,"connected_time":3302000000000,"state":"active","ping":67},{"user_id":370,"name":"Tutorals","steam_id":76561199002374601,"connected_time":3289000000000,"state":"active","ping":73},{"user_id":357,"name":"FreeZy","steam_id":76561198183906287,"connected_time":5319000000000,"state":"active","ping":60},{"user_id":371,"name":"DuckKey","steam_id":76561198904477889,"connected_time":3276000000000,"state":"active","ping":56},{"user_id":392,"name":"MrrPickle","steam_id":76561198122046514,"connected_time":1763000000000,"state":"active","ping":77},{"user_id":401,"name":"Josh","steam_id":76561198055691099,"connected_time":867000000000,"state":"active","ping":75},{"user_id":404,"name":"Holy Fucking Bingle :3","steam_id":76561198964646524,"connected_time":828000000000,"state":"active","ping":67},{"user_id":308,"name":"Waluigi","steam_id":76561198891626233,"connected_time":7669000000000,"state":"active","ping":60},{"user_id":398,"name":"P.C. Baby","steam_id":76561198067011379,"connected_time":917000000000,"state":"active","ping":114},{"user_id":353,"name":"Nodin","steam_id":76561198135757376,"connected_time":5358000000000,"state":"active","ping":52},{"user_id":405,"name":"Desse","steam_id":76561198817390149,"connected_time":795000000000,"state":"active","ping":62},{"user_id":402,"name":"crabapples","steam_id":76561198075818655,"connected_time":847000000000,"state":"active","ping":60},{"user_id":406,"name":"The Horselords and Animal Gods","steam_id":76561197975094050,"connected_time":759000000000,"state":"active","ping":114},{"user_id":403,"name":"huh6750","steam_id":76561199094058555,"connected_time":837000000000,"state":"active","ping":56},{"user_id":344,"name":"Laksbi","steam_id":76561198151205759,"connected_time":5758000000000,"state":"active","ping":101},{"user_id":395,"name":"Loading...","steam_id":76561198124898032,"connected_time":1097000000000,"state":"active","ping":57},{"user_id":347,"name":"Birch","steam_id":76561198316231704,"connected_time":5706000000000,"state":"active","ping":58}]},{"server_id":403,"name":"Uncletopia | Chicago | 4 | All Maps","name_short":"chi-4","host":"chi-1.us.uncletopia.com","port":27045,"enabled":true,"region":"us-central","cc":"us","latitude":41.881832,"longitude":-87.62318,"reserved":0,"last_update":"0001-01-01T00:00:00Z","name_a2s":"Uncletopia | Chicago | 4 | All Maps","protocol":17,"map":"pl_borneo","folder":"tf","game":"Team Fortress","app_id":440,"player_count":17,"max_players":24,"Bots":0,"server_type":"Dedicated","server_os":"Linux","password":true,"vac":true,"version":"7757534","steam_id":85568392924515193,"keywords":["nocrits","nodmgspread","payload","uncletopia"],"game_id":440,"stv_port":27046,"stv_name":"Uncletopia | Chicago | 4 | All Maps | STV","players":[{"user_id":487,"name":"Margaret Thatcher, but moreso","steam_id":76561198121955432,"connected_time":277000000000,"state":"active","ping":46},{"user_id":485,"name":"Ofn I Mi","steam_id":76561199232403503,"connected_time":353000000000,"state":"active","ping":71},{"user_id":488,"name":"Calamant","steam_id":76561198054650483,"connected_time":257000000000,"state":"active","ping":68},{"user_id":483,"name":"GlitchGame","steam_id":76561198935134697,"connected_time":413000000000,"state":"active","ping":44},{"user_id":491,"name":"fudo myoo","steam_id":76561198456258164,"connected_time":201000000000,"state":"active","ping":69},{"user_id":489,"name":"Mythical Lag","steam_id":76561198347031281,"connected_time":249000000000,"state":"active","ping":68},{"user_id":490,"name":"Complex_Divine","steam_id":76561198812369488,"connected_time":246000000000,"state":"active","ping":85},{"user_id":465,"name":"MINILEGOLAS","steam_id":76561198859362058,"connected_time":1185000000000,"state":"active","ping":117},{"user_id":482,"name":"-=Bits=-Dinkleberg","steam_id":76561198080367616,"connected_time":439000000000,"state":"active","ping":72},{"user_id":493,"name":"peeto","steam_id":76561198193013228,"connected_time":184000000000,"state":"active","ping":31},{"user_id":462,"name":"King Col","steam_id":76561198033384990,"connected_time":1259000000000,"state":"active","ping":60},{"user_id":494,"name":"soup","steam_id":76561198099977572,"connected_time":124000000000,"state":"active","ping":48},{"user_id":495,"name":"Milk carton","steam_id":76561198967876347,"connected_time":106000000000,"state":"active","ping":96},{"user_id":497,"name":"Frenemy \u003e:D","steam_id":76561198011363677,"connected_time":53000000000,"state":"active","ping":56},{"user_id":498,"name":"RaPids","steam_id":76561198082496100,"connected_time":42000000000,"state":"active","ping":90},{"user_id":484,"name":"JAke","steam_id":76561198141382684,"connected_time":412000000000,"state":"active","ping":90},{"user_id":469,"name":"sweppy","steam_id":76561198035457667,"connected_time":1012000000000,"state":"active","ping":61}]},{"server_id":36,"name":"Uncletopia | Chicago | 5 | All Maps","name_short":"chi-5","host":"chi-2.us.uncletopia.com","port":27015,"enabled":true,"region":"us-central","cc":"us","latitude":41.881832,"longitude":-87.62318,"reserved":0,"last_update":"0001-01-01T00:00:00Z","name_a2s":"Uncletopia | Chicago | 5 | All Maps","protocol":17,"map":"pl_pier","folder":"tf","game":"Team Fortress","app_id":440,"player_count":24,"max_players":24,"Bots":0,"server_type":"Dedicated","server_os":"Linux","password":true,"vac":true,"version":"7757534","steam_id":85568392924866362,"keywords":["nocrits","nodmgspread","payload","uncletopia"],"game_id":440,"stv_port":27016,"stv_name":"Uncletopia | Chicago | 5 | All Maps | STV","players":[{"user_id":106,"name":"onionbagel4","steam_id":76561199134895220,"connected_time":380000000000,"state":"active","ping":76},{"user_id":110,"name":"Nevalier","steam_id":76561198036327396,"connected_time":334000000000,"state":"active","ping":71},{"user_id":107,"name":"SKIN IS WHERE THE FLAVOR IS","steam_id":76561198115842661,"connected_time":371000000000,"state":"active","ping":78},{"user_id":87,"name":"Gourdian Gang #5","steam_id":76561198063170079,"connected_time":1340000000000,"state":"active","ping":65},{"user_id":108,"name":"John Scheana IV","steam_id":76561198990965682,"connected_time":363000000000,"state":"active","ping":75},{"user_id":24,"name":"banan team fortes","steam_id":76561199073621650,"connected_time":3897000000000,"state":"active","ping":104},{"user_id":25,"name":"sergeant Adderall","steam_id":76561199010296481,"connected_time":3890000000000,"state":"active","ping":87},{"user_id":109,"name":"mineblast99","steam_id":76561199065648954,"connected_time":347000000000,"state":"active","ping":87},{"user_id":101,"name":"FTN | Nice1","steam_id":76561198026969020,"connected_time":782000000000,"state":"active","ping":161},{"user_id":99,"name":"FTN | Shakaman","steam_id":76561198039829758,"connected_time":807000000000,"state":"active","ping":73},{"user_id":102,"name":"Gourdian Gang #8","steam_id":76561198068738250,"connected_time":634000000000,"state":"active","ping":121},{"user_id":112,"name":"Pom","steam_id":76561199193191746,"connected_time":190000000000,"state":"active","ping":127},{"user_id":113,"name":"Mr. Pink","steam_id":76561198065858172,"connected_time":151000000000,"state":"active","ping":62},{"user_id":36,"name":"Gourdian Gang #6","steam_id":76561198045802678,"connected_time":3523000000000,"state":"active","ping":56},{"user_id":98,"name":"Gourdian Gang #2","steam_id":76561198251054454,"connected_time":833000000000,"state":"active","ping":112},{"user_id":93,"name":"god's drunkest boeing 737 pilot","steam_id":76561198354284591,"connected_time":1055000000000,"state":"active","ping":47},{"user_id":40,"name":"Cheesfist","steam_id":76561198065674398,"connected_time":3469000000000,"state":"active","ping":91},{"user_id":41,"name":"Plz Don't Uber I'm Shit","steam_id":76561198344624703,"connected_time":3462000000000,"state":"active","ping":93},{"user_id":86,"name":"SLAMMIN","steam_id":76561197961299302,"connected_time":1457000000000,"state":"active","ping":53},{"user_id":82,"name":"jazaniac","steam_id":76561198059955588,"connected_time":1799000000000,"state":"active","ping":86},{"user_id":72,"name":"Goofy Goober","steam_id":76561198065361279,"connected_time":2272000000000,"state":"active","ping":87},{"user_id":114,"name":"Crystallixed","steam_id":76561198072263515,"connected_time":148000000000,"state":"active","ping":85},{"user_id":103,"name":"Cyathie","steam_id":76561198846998485,"connected_time":424000000000,"state":"active","ping":73},{"user_id":104,"name":"Gourdian Gang #10","steam_id":76561199010542612,"connected_time":424000000000,"state":"active","ping":46}]},{"server_id":37,"name":"Uncletopia | Chicago | 6 | All Maps","name_short":"chi-6","host":"chi-2.us.uncletopia.com","port":27025,"enabled":true,"region":"us-central","cc":"us","latitude":41.881832,"longitude":-87.62318,"reserved":0,"last_update":"0001-01-01T00:00:00Z","name_a2s":"Uncletopia | Chicago | 6 | All Maps","protocol":17,"map":"koth_cascade","folder":"tf","game":"Team Fortress","app_id":440,"player_count":0,"max_players":24,"Bots":0,"server_type":"Dedicated","server_os":"Linux","password":true,"vac":true,"version":"7757534","steam_id":85568392924866363,"keywords":["cp","nocrits","nodmgspread","uncletopia"],"game_id":440,"stv_port":27026,"stv_name":"Uncletopia | Chicago | 6 | All Maps | STV","players":null},{"server_id":38,"name":"Uncletopia | Chicago | 7 | Stopwatch Beta","name_short":"chi-7","host":"chi-2.us.uncletopia.com","port":27035,"enabled":true,"region":"us-central","cc":"us","latitude":41.881832,"longitude":-87.62318,"reserved":0,"last_update":"0001-01-01T00:00:00Z","name_a2s":"Uncletopia | Chicago | 7 | Stopwatch Beta","protocol":17,"map":"workshop/koth_ramjam_rc1.ugc459778887","folder":"tf","game":"Team Fortress","app_id":440,"player_count":0,"max_players":24,"Bots":0,"server_type":"Dedicated","server_os":"Linux","password":true,"vac":true,"version":"7757534","steam_id":85568392924866364,"keywords":["cp","nocrits","nodmgspread","uncletopia"],"game_id":440,"stv_port":27036,"stv_name":"Uncletopia | Chicago | 7 | Stopwatch Beta | STV","players":null},{"server_id":39,"name":"Uncletopia | Chicago | 8 | Community","name_short":"chi-8","host":"chi-2.us.uncletopia.com","port":27045,"enabled":true,"region":"us-central","cc":"us","latitude":41.881832,"longitude":-87.62318,"reserved":0,"last_update":"0001-01-01T00:00:00Z","name_a2s":"Uncletopia | Chicago | 8 | Community","protocol":17,"map":"workshop/cp_propaganda_b18.ugc1603743849","folder":"tf","game":"Team Fortress","app_id":440,"player_count":0,"max_players":24,"Bots":0,"server_type":"Dedicated","server_os":"Linux","password":true,"vac":true,"version":"7757534","steam_id":85568392924866365,"keywords":["cp","nocrits","nodmgspread","uncletopia"],"game_id":440,"stv_port":27046,"stv_name":"Uncletopia | Chicago | 8 | Community | STV","players":null},{"server_id":8,"name":"Uncletopia | Dallas | 1 | All Maps","name_short":"dal-1","host":"dal-1.us.uncletopia.com","port":27015,"enabled":true,"region":"us-central","cc":"us","latitude":32.779167,"longitude":-96.80889,"reserved":0,"last_update":"0001-01-01T00:00:00Z","name_a2s":"Uncletopia | Dallas | 1 | All Maps","protocol":17,"map":"pl_upward","folder":"tf","game":"Team Fortress","app_id":440,"player_count":24,"max_players":24,"Bots":0,"server_type":"Dedicated","server_os":"Linux","password":true,"vac":true,"version":"7757534","steam_id":85568392924469986,"keywords":["nocrits","nodmgspread","payload","uncletopia"],"game_id":440,"stv_port":27016,"stv_name":"Uncletopia | Dallas | 1 | All Maps | STV","players":[{"user_id":367,"name":"MR. MODE","steam_id":76561198046775352,"connected_time":306000000000,"state":"active","ping":79},{"user_id":285,"name":"Brass beast heavy","steam_id":76561198274197623,"connected_time":4810000000000,"state":"active","ping":165},{"user_id":368,"name":"craxyt","steam_id":76561198050192689,"connected_time":240000000000,"state":"active","ping":76},{"user_id":359,"name":"Painkiller","steam_id":76561198049787400,"connected_time":987000000000,"state":"active","ping":87},{"user_id":320,"name":"iluvtoust","steam_id":76561198869269207,"connected_time":3213000000000,"state":"active","ping":40},{"user_id":331,"name":"Can You Feel It Mr.Krabs","steam_id":76561198128302414,"connected_time":2053000000000,"state":"active","ping":66},{"user_id":356,"name":"wizorb","steam_id":76561198002172674,"connected_time":1112000000000,"state":"active","ping":70},{"user_id":348,"name":"Wolf with a needle","steam_id":76561197999816472,"connected_time":1255000000000,"state":"active","ping":71},{"user_id":364,"name":"rustyorion","steam_id":76561198439186347,"connected_time":531000000000,"state":"active","ping":112},{"user_id":352,"name":"Void","steam_id":76561198308290211,"connected_time":1239000000000,"state":"active","ping":94},{"user_id":317,"name":"DrCoeloCephalo","steam_id":76561198102666293,"connected_time":3404000000000,"state":"active","ping":43},{"user_id":323,"name":"CherryPieRed2023","steam_id":76561198998007496,"connected_time":3090000000000,"state":"active","ping":97},{"user_id":343,"name":"Jared In Target","steam_id":76561198372449718,"connected_time":1368000000000,"state":"active","ping":52},{"user_id":365,"name":"blamo","steam_id":76561198044769147,"connected_time":516000000000,"state":"active","ping":62},{"user_id":335,"name":"Flyingcat9000","steam_id":76561198179561797,"connected_time":1750000000000,"state":"active","ping":75},{"user_id":360,"name":"James","steam_id":76561198066723311,"connected_time":968000000000,"state":"active","ping":71},{"user_id":366,"name":"Ama","steam_id":76561198077883218,"connected_time":506000000000,"state":"active","ping":61},{"user_id":353,"name":"BLAKESTER","steam_id":76561198076370493,"connected_time":1219000000000,"state":"active","ping":86},{"user_id":299,"name":"Kumatora","steam_id":76561198137748378,"connected_time":4541000000000,"state":"active","ping":72},{"user_id":350,"name":"Dragus","steam_id":76561198032967285,"connected_time":1248000000000,"state":"active","ping":74},{"user_id":329,"name":"Ping","steam_id":76561198072947773,"connected_time":2681000000000,"state":"active","ping":76},{"user_id":351,"name":"BRODYDIDUMOM","steam_id":76561198086284169,"connected_time":1248000000000,"state":"active","ping":104},{"user_id":355,"name":"claire","steam_id":76561198127525888,"connected_time":1165000000000,"state":"active","ping":49},{"user_id":358,"name":"Ari","steam_id":76561198183269215,"connected_time":1055000000000,"state":"active","ping":103}]},{"server_id":108,"name":"Uncletopia | Dallas | 2 | All Maps","name_short":"dal-2","host":"dal-1.us.uncletopia.com","port":27025,"enabled":true,"region":"us-central","cc":"us","latitude":32.779167,"longitude":-96.80889,"reserved":0,"last_update":"0001-01-01T00:00:00Z","name_a2s":"Uncletopia | Dallas | 2 | All Maps","protocol":17,"map":"pl_pier","folder":"tf","game":"Team Fortress","app_id":440,"player_count":23,"max_players":24,"Bots":0,"server_type":"Dedicated","server_os":"Linux","password":true,"vac":true,"version":"7757534","steam_id":85568392924469988,"keywords":["nocrits","nodmgspread","payload","uncletopia"],"game_id":440,"stv_port":27026,"stv_name":"Uncletopia | Dallas | 2 | All Maps | STV","players":[{"user_id":10,"name":"pepsoi","steam_id":76561198361818082,"connected_time":5353000000000,"state":"active","ping":74},{"user_id":11,"name":"Dr. Sawbones","steam_id":76561198426930604,"connected_time":5312000000000,"state":"active","ping":94},{"user_id":44,"name":"Ben Ben","steam_id":76561198307247913,"connected_time":3013000000000,"state":"active","ping":75},{"user_id":76,"name":"SUPREME CHAMPION","steam_id":76561198072112905,"connected_time":1012000000000,"state":"active","ping":77},{"user_id":58,"name":"trans rights","steam_id":76561198066270313,"connected_time":2549000000000,"state":"active","ping":90},{"user_id":65,"name":"Varius","steam_id":76561198384409154,"connected_time":1916000000000,"state":"active","ping":43},{"user_id":74,"name":"NeutrinoCarrot","steam_id":76561199064279851,"connected_time":1031000000000,"state":"active","ping":50},{"user_id":81,"name":"Final_MarioXD","steam_id":76561199184862419,"connected_time":380000000000,"state":"active","ping":81},{"user_id":51,"name":"teatimesukka","steam_id":76561198978749594,"connected_time":2758000000000,"state":"active","ping":39},{"user_id":64,"name":"Zero","steam_id":76561199383267408,"connected_time":1930000000000,"state":"active","ping":50},{"user_id":80,"name":"evan_is_sauce","steam_id":76561199086802383,"connected_time":703000000000,"state":"active","ping":65},{"user_id":77,"name":"Zigadox","steam_id":76561198079813479,"connected_time":1001000000000,"state":"active","ping":89},{"user_id":82,"name":"Jelpo","steam_id":76561198406920072,"connected_time":253000000000,"state":"active","ping":68},{"user_id":83,"name":"MrButter","steam_id":76561198845773528,"connected_time":88000000000,"state":"active","ping":90},{"user_id":48,"name":"dog","steam_id":76561198263873491,"connected_time":2919000000000,"state":"active","ping":67},{"user_id":53,"name":"DIYspaceship17","steam_id":76561199042640810,"connected_time":2746000000000,"state":"active","ping":99},{"user_id":84,"name":"Huggle","steam_id":76561198141491662,"connected_time":79000000000,"state":"active","ping":47},{"user_id":61,"name":"inzang","steam_id":76561198088318074,"connected_time":2232000000000,"state":"active","ping":56},{"user_id":54,"name":"Fermenting Kiwi","steam_id":76561198253303497,"connected_time":2646000000000,"state":"active","ping":73},{"user_id":36,"name":"Potassium_","steam_id":76561199085021046,"connected_time":3583000000000,"state":"active","ping":54},{"user_id":69,"name":"WillDeBuilder","steam_id":76561198084092564,"connected_time":1662000000000,"state":"active","ping":45},{"user_id":55,"name":"Matt.jpg","steam_id":76561198132469465,"connected_time":2643000000000,"state":"active","ping":50},{"user_id":85,"name":"Herr Texas","steam_id":76561198300069355,"connected_time":38000000000,"state":"active","ping":143}]},{"server_id":5,"name":"Uncletopia | Frankfurt | 1 | All Maps","name_short":"frk-1","host":"frk-1.de.uncletopia.com","port":27015,"enabled":true,"region":"eu","cc":"de","latitude":50.110924,"longitude":8.682127,"reserved":0,"last_update":"0001-01-01T00:00:00Z","name_a2s":"Uncletopia | Frankfurt | 1 | All Maps","protocol":17,"map":"koth_highpass","folder":"tf","game":"Team Fortress","app_id":440,"player_count":0,"max_players":24,"Bots":0,"server_type":"Dedicated","server_os":"Linux","password":true,"vac":true,"version":"7757534","steam_id":85568392924469989,"keywords":["cp","nocrits","nodmgspread","uncletopia"],"game_id":440,"stv_port":27016,"stv_name":"Uncletopia | Frankfurt | 1 | All Maps | STV","players":null},{"server_id":110,"name":"Uncletopia | Frankfurt | 2 | All Maps","name_short":"frk-2","host":"frk-1.de.uncletopia.com","port":27025,"enabled":true,"region":"eu","cc":"de","latitude":50.110924,"longitude":8.682127,"reserved":0,"last_update":"0001-01-01T00:00:00Z","name_a2s":"Uncletopia | Frankfurt | 2 | All Maps","protocol":17,"map":"cp_altitude","folder":"tf","game":"Team Fortress","app_id":440,"player_count":0,"max_players":24,"Bots":0,"server_type":"Dedicated","server_os":"Linux","password":true,"vac":true,"version":"7757534","steam_id":85568392924469990,"keywords":["cp","nocrits","nodmgspread","uncletopia"],"game_id":440,"stv_port":27026,"stv_name":"Uncletopia | Frankfurt | 2 | All Maps | STV","players":null},{"server_id":308,"name":"Uncletopia | Frankfurt | 3 | All Maps","name_short":"frk-3","host":"frk-1.de.uncletopia.com","port":27035,"enabled":true,"region":"eu","cc":"de","latitude":50.110924,"longitude":8.682127,"reserved":0,"last_update":"0001-01-01T00:00:00Z","name_a2s":"Uncletopia | Frankfurt | 3 | All Maps","protocol":17,"map":"koth_viaduct","folder":"tf","game":"Team Fortress","app_id":440,"player_count":0,"max_players":24,"Bots":0,"server_type":"Dedicated","server_os":"Linux","password":true,"vac":true,"version":"7757534","steam_id":85568392924504274,"keywords":["cp","nocrits","nodmgspread","uncletopia"],"game_id":440,"stv_port":27036,"stv_name":"Uncletopia | Frankfurt | 3 | All Maps | STV","players":null},{"server_id":309,"name":"Uncletopia | Frankfurt | 4 | All Maps","name_short":"frk-4","host":"frk-1.de.uncletopia.com","port":27045,"enabled":true,"region":"eu","cc":"de","latitude":50.110924,"longitude":8.682127,"reserved":0,"last_update":"0001-01-01T00:00:00Z","name_a2s":"Uncletopia | Frankfurt | 4 | All Maps","protocol":17,"map":"cp_dustbowl","folder":"tf","game":"Team Fortress","app_id":440,"player_count":0,"max_players":24,"Bots":0,"server_type":"Dedicated","server_os":"Linux","password":true,"vac":true,"version":"7757534","steam_id":85568392924504275,"keywords":["cp","nocrits","nodmgspread","uncletopia"],"game_id":440,"stv_port":27046,"stv_name":"Uncletopia | Frankfurt | 4 | All Maps | STV","players":null},{"server_id":310,"name":"Uncletopia | Frankfurt | 5 | All Maps","name_short":"frk-5","host":"frk-1.de.uncletopia.com","port":27055,"enabled":true,"region":"eu","cc":"de","latitude":50.110924,"longitude":8.682127,"reserved":0,"last_update":"0001-01-01T00:00:00Z","name_a2s":"Uncletopia | Frankfurt | 5 | All Maps","protocol":17,"map":"koth_cascade","folder":"tf","game":"Team Fortress","app_id":440,"player_count":2,"max_players":24,"Bots":0,"server_type":"Dedicated","server_os":"Linux","password":true,"vac":true,"version":"7757534","steam_id":85568392924504277,"keywords":["cp","nocrits","nodmgspread","uncletopia"],"game_id":440,"stv_port":27056,"stv_name":"Uncletopia | Frankfurt | 5 | All Maps | STV","players":[{"user_id":399,"name":"Fish","steam_id":76561198182278770,"connected_time":2388000000000,"state":"active","ping":72},{"user_id":402,"name":"Topme","steam_id":76561198091734693,"connected_time":2027000000000,"state":"active","ping":77}]},{"server_id":311,"name":"Uncletopia | Frankfurt | 6 | All Maps","name_short":"frk-6","host":"frk-1.de.uncletopia.com","port":27065,"enabled":true,"region":"eu","cc":"de","latitude":50.110924,"longitude":8.682127,"reserved":0,"last_update":"0001-01-01T00:00:00Z","name_a2s":"Uncletopia | Frankfurt | 6 | All Maps","protocol":17,"map":"koth_viaduct","folder":"tf","game":"Team Fortress","app_id":440,"player_count":0,"max_players":24,"Bots":0,"server_type":"Dedicated","server_os":"Linux","password":true,"vac":true,"version":"7757534","steam_id":85568392924504278,"keywords":["cp","nocrits","nodmgspread","uncletopia"],"game_id":440,"stv_port":27066,"stv_name":"Uncletopia | Frankfurt | 6 | All Maps | STV","players":null},{"server_id":23,"name":"Uncletopia | Frankfurt | 7 | Stopwatch Beta","name_short":"frk-7","host":"frk-1.de.uncletopia.com","port":27075,"enabled":true,"region":"eu","cc":"de","latitude":50.110924,"longitude":8.682127,"reserved":0,"last_update":"0001-01-01T00:00:00Z","name_a2s":"Uncletopia | Frankfurt | 7 | Stopwatch Beta","protocol":17,"map":"pl_frontier_final","folder":"tf","game":"Team Fortress","app_id":440,"player_count":0,"max_players":24,"Bots":0,"server_type":"Dedicated","server_os":"Linux","password":true,"vac":true,"version":"7757534","steam_id":85568392924742827,"keywords":["nocrits","nodmgspread","payload","uncletopia"],"game_id":440,"stv_port":27076,"stv_name":"Uncletopia | Frankfurt | 7 | Stopwatch Beta | STV","players":null},{"server_id":24,"name":"Uncletopia | Frankfurt | 8 | Community","name_short":"frk-8","host":"frk-1.de.uncletopia.com","port":27085,"enabled":true,"region":"eu","cc":"de","latitude":50.110924,"longitude":8.682127,"reserved":0,"last_update":"0001-01-01T00:00:00Z","name_a2s":"Uncletopia | Frankfurt | 8 | Community","protocol":17,"map":"workshop/cp_logjam_rc12.ugc454812035","folder":"tf","game":"Team Fortress","app_id":440,"player_count":0,"max_players":24,"Bots":0,"server_type":"Dedicated","server_os":"Linux","password":true,"vac":true,"version":"7757534","steam_id":85568392924742828,"keywords":["cp","nocrits","nodmgspread","uncletopia"],"game_id":440,"stv_port":27086,"stv_name":"Uncletopia | Frankfurt | 8 | Community | STV","players":null},{"server_id":202,"name":"Uncletopia | Hong Kong | 1 | All Maps","name_short":"hgk-1","host":"hgk-1.hk.uncletopia.com","port":27015,"enabled":true,"region":"asia","cc":"hk","latitude":22.302711,"longitude":114.177216,"reserved":0,"last_update":"0001-01-01T00:00:00Z","name_a2s":"Uncletopia | Hong Kong | 1 | All Maps","protocol":17,"map":"pl_pier","folder":"tf","game":"Team Fortress","app_id":440,"player_count":0,"max_players":24,"Bots":0,"server_type":"Dedicated","server_os":"Linux","password":true,"vac":true,"version":"7757534","steam_id":85568392924494504,"keywords":["nocrits","nodmgspread","payload","uncletopia"],"game_id":440,"stv_port":27016,"stv_name":"Uncletopia | Hong Kong | 1 | All Maps | STV","players":null},{"server_id":1,"name":"Uncletopia | Los Angeles | 1 | All Maps","name_short":"lax-1","host":"lax-1.us.uncletopia.com","port":27015,"enabled":true,"region":"us-west","cc":"us","latitude":33.94279,"longitude":-118.41004,"reserved":0,"last_update":"0001-01-01T00:00:00Z","name_a2s":"Uncletopia | Los Angeles | 1 | All Maps","protocol":17,"map":"cp_sunshine","folder":"tf","game":"Team Fortress","app_id":440,"player_count":24,"max_players":24,"Bots":0,"server_type":"Dedicated","server_os":"Linux","password":true,"vac":true,"version":"7757534","steam_id":85568392924469991,"keywords":["cp","nocrits","nodmgspread","uncletopia"],"game_id":440,"stv_port":27016,"stv_name":"Uncletopia | Los Angeles | 1 | All Maps | STV","players":[{"user_id":43,"name":"wheres my drink?","steam_id":76561198031675881,"connected_time":4594000000000,"state":"active","ping":105},{"user_id":74,"name":"WeebContent","steam_id":76561199473529822,"connected_time":2308000000000,"state":"active","ping":109},{"user_id":65,"name":"innocent wittle boy","steam_id":76561199472047496,"connected_time":2770000000000,"state":"active","ping":118},{"user_id":58,"name":"Schnitz","steam_id":76561198265484253,"connected_time":3426000000000,"state":"active","ping":50},{"user_id":85,"name":"Dawn","steam_id":76561198113246795,"connected_time":1157000000000,"state":"active","ping":71},{"user_id":15,"name":"Kopenich","steam_id":76561198066205245,"connected_time":6362000000000,"state":"active","ping":52},{"user_id":82,"name":"stones","steam_id":76561198206922028,"connected_time":1628000000000,"state":"active","ping":50},{"user_id":20,"name":"StrikcZ 父","steam_id":76561198976507691,"connected_time":5738000000000,"state":"active","ping":29},{"user_id":19,"name":"fulices","steam_id":76561198420163702,"connected_time":6084000000000,"state":"active","ping":31},{"user_id":64,"name":"Frazzer","steam_id":76561198088679707,"connected_time":2803000000000,"state":"active","ping":45},{"user_id":79,"name":"Dreamzapp","steam_id":76561199084936632,"connected_time":1681000000000,"state":"active","ping":66},{"user_id":77,"name":"Tmiracle","steam_id":76561198052375275,"connected_time":1947000000000,"state":"active","ping":57},{"user_id":84,"name":"GoGo's Hungry Bussy","steam_id":76561198023080645,"connected_time":1316000000000,"state":"active","ping":122},{"user_id":76,"name":"♥love my medic gf♥","steam_id":76561198052177917,"connected_time":2031000000000,"state":"active","ping":78},{"user_id":61,"name":"hoopswoop9","steam_id":76561199203050556,"connected_time":3009000000000,"state":"active","ping":64},{"user_id":80,"name":"Spike Bones","steam_id":76561198234926120,"connected_time":1677000000000,"state":"active","ping":124},{"user_id":66,"name":"Delimeat","steam_id":76561198043824595,"connected_time":2758000000000,"state":"active","ping":46},{"user_id":59,"name":"arsenic","steam_id":76561198176391550,"connected_time":3329000000000,"state":"active","ping":106},{"user_id":51,"name":"TheBrocklobster","steam_id":76561198039682984,"connected_time":4010000000000,"state":"active","ping":59},{"user_id":81,"name":"HetchHetchy","steam_id":76561198128125728,"connected_time":1659000000000,"state":"active","ping":53},{"user_id":86,"name":"Uprightmoss7528","steam_id":76561199200138486,"connected_time":866000000000,"state":"active","ping":60},{"user_id":38,"name":"LX-24","steam_id":76561198016168993,"connected_time":4966000000000,"state":"active","ping":81},{"user_id":73,"name":"Shalom","steam_id":76561198410005222,"connected_time":2362000000000,"state":"active","ping":70},{"user_id":40,"name":"FROYO b4nny","steam_id":76561197970669109,"connected_time":4776000000000,"state":"active","ping":51}]},{"server_id":112,"name":"Uncletopia | Los Angeles | 2 | All Maps","name_short":"lax-2","host":"lax-1.us.uncletopia.com","port":27025,"enabled":true,"region":"us-west","cc":"us","latitude":33.94279,"longitude":-118.41004,"reserved":0,"last_update":"0001-01-01T00:00:00Z","name_a2s":"Uncletopia | Los Angeles | 2 | All Maps","protocol":17,"map":"koth_cascade","folder":"tf","game":"Team Fortress","app_id":440,"player_count":0,"max_players":24,"Bots":0,"server_type":"Dedicated","server_os":"Linux","password":true,"vac":true,"version":"7757534","steam_id":85568392924469992,"keywords":["cp","nocrits","nodmgspread","uncletopia"],"game_id":440,"stv_port":27026,"stv_name":"Uncletopia | Los Angeles | 2 | All Maps | STV","players":null},{"server_id":324,"name":"Uncletopia | Los Angeles | 3 | All Maps","name_short":"lax-3","host":"lax-1.us.uncletopia.com","port":27035,"enabled":true,"region":"us-west","cc":"us","latitude":33.94279,"longitude":-118.41004,"reserved":0,"last_update":"0001-01-01T00:00:00Z","name_a2s":"Uncletopia | Los Angeles | 3 | All Maps","protocol":17,"map":"koth_cascade","folder":"tf","game":"Team Fortress","app_id":440,"player_count":0,"max_players":24,"Bots":0,"server_type":"Dedicated","server_os":"Linux","password":true,"vac":true,"version":"7757534","steam_id":85568392924510198,"keywords":["cp","nocrits","nodmgspread","uncletopia"],"game_id":440,"stv_port":27036,"stv_name":"Uncletopia | Los Angeles | 3 | All Maps | STV","players":null},{"server_id":25,"name":"Uncletopia | Los Angeles | 4 | Stopwatch Beta","name_short":"lax-4","host":"lax-1.us.uncletopia.com","port":27045,"enabled":true,"region":"us-west","cc":"us","latitude":33.94279,"longitude":-118.41004,"reserved":0,"last_update":"0001-01-01T00:00:00Z","name_a2s":"Uncletopia | Los Angeles | 4 | Stopwatch Beta","protocol":17,"map":"pl_frontier_final","folder":"tf","game":"Team Fortress","app_id":440,"player_count":0,"max_players":24,"Bots":0,"server_type":"Dedicated","server_os":"Linux","password":true,"vac":true,"version":"7757534","steam_id":85568392924510199,"keywords":["nocrits","nodmgspread","payload","uncletopia"],"game_id":440,"stv_port":27046,"stv_name":"Uncletopia | Los Angeles | 4 | Stopwatch Beta | STV","players":null},{"server_id":11,"name":"Uncletopia | London | 1 | All Maps","name_short":"lon-1","host":"lon-1.uk.uncletopia.com","port":27015,"enabled":true,"region":"eu","cc":"gb","latitude":51.509865,"longitude":-0.118092,"reserved":0,"last_update":"0001-01-01T00:00:00Z","name_a2s":"Uncletopia | London | 1 | All Maps","protocol":17,"map":"pl_badwater","folder":"tf","game":"Team Fortress","app_id":440,"player_count":24,"max_players":24,"Bots":0,"server_type":"Dedicated","server_os":"Linux","password":true,"vac":true,"version":"7757534","steam_id":85568392924367362,"keywords":["nocrits","nodmgspread","payload","uncletopia"],"game_id":440,"stv_port":27016,"stv_name":"Uncletopia | London | 1 | All Maps | STV","players":[{"user_id":902,"name":"JIT SLID ON ME","steam_id":76561198048250715,"connected_time":419000000000,"state":"active","ping":63},{"user_id":895,"name":"Cabbch","steam_id":76561198045955679,"connected_time":2179000000000,"state":"active","ping":44},{"user_id":860,"name":"Kurage","steam_id":76561198021221288,"connected_time":4340000000000,"state":"active","ping":67},{"user_id":874,"name":"Valen","steam_id":76561198049614521,"connected_time":3551000000000,"state":"active","ping":75},{"user_id":885,"name":"cinny","steam_id":76561198832112629,"connected_time":2488000000000,"state":"active","ping":82},{"user_id":724,"name":"nedilya","steam_id":76561198039692077,"connected_time":10248000000000,"state":"active","ping":63},{"user_id":892,"name":"teddy","steam_id":76561198007436837,"connected_time":2233000000000,"state":"active","ping":30},{"user_id":864,"name":"MS","steam_id":76561198037560108,"connected_time":4205000000000,"state":"active","ping":41},{"user_id":887,"name":"cat","steam_id":76561198305304708,"connected_time":2483000000000,"state":"active","ping":45},{"user_id":897,"name":"ICEBORN GAUNTLET","steam_id":76561198051283300,"connected_time":1743000000000,"state":"active","ping":74},{"user_id":739,"name":"Yakub","steam_id":76561198014279521,"connected_time":9087000000000,"state":"active","ping":86},{"user_id":889,"name":"BuzzBees ❤","steam_id":76561198101502273,"connected_time":2451000000000,"state":"active","ping":45},{"user_id":888,"name":"beebo","steam_id":76561199120277007,"connected_time":2481000000000,"state":"active","ping":49},{"user_id":890,"name":"smelter demon","steam_id":76561198038748489,"connected_time":2448000000000,"state":"active","ping":67},{"user_id":831,"name":"slappi","steam_id":76561198072892783,"connected_time":5099000000000,"state":"active","ping":67},{"user_id":865,"name":"tm`","steam_id":76561197993580412,"connected_time":4200000000000,"state":"active","ping":74},{"user_id":906,"name":"Lusa","steam_id":76561199435564731,"connected_time":122000000000,"state":"active","ping":100},{"user_id":904,"name":"mespe","steam_id":76561198121530649,"connected_time":335000000000,"state":"active","ping":76},{"user_id":903,"name":"Volcyy","steam_id":76561198063979124,"connected_time":396000000000,"state":"active","ping":46},{"user_id":905,"name":"tone' (real)","steam_id":76561198055552635,"connected_time":266000000000,"state":"active","ping":59},{"user_id":881,"name":"Archie","steam_id":76561199073056124,"connected_time":2908000000000,"state":"active","ping":56},{"user_id":882,"name":"KittyKate ❤","steam_id":76561198116340817,"connected_time":2752000000000,"state":"active","ping":64},{"user_id":884,"name":"NOM","steam_id":76561198062033234,"connected_time":2596000000000,"state":"active","ping":71},{"user_id":901,"name":"GogsCrunchyNuts","steam_id":76561198150599213,"connected_time":429000000000,"state":"active","ping":111}]},{"server_id":114,"name":"Uncletopia | London | 2 | All Maps","name_short":"lon-2","host":"lon-1.uk.uncletopia.com","port":27025,"enabled":true,"region":"eu","cc":"gb","latitude":51.509865,"longitude":-0.118092,"reserved":0,"last_update":"0001-01-01T00:00:00Z","name_a2s":"Uncletopia | London | 2 | All Maps","protocol":17,"map":"cp_badlands","folder":"tf","game":"Team Fortress","app_id":440,"player_count":24,"max_players":24,"Bots":0,"server_type":"Dedicated","server_os":"Linux","password":true,"vac":true,"version":"7757534","steam_id":85568392924470941,"keywords":["cp","nocrits","nodmgspread","uncletopia"],"game_id":440,"stv_port":27026,"stv_name":"Uncletopia | London | 2 | All Maps | STV","players":[{"user_id":412,"name":"Aratron","steam_id":76561198077141377,"connected_time":416000000000,"state":"active","ping":115},{"user_id":366,"name":"Limenurgle","steam_id":76561198839259306,"connected_time":3235000000000,"state":"active","ping":78},{"user_id":414,"name":"Charon","steam_id":76561198061714753,"connected_time":388000000000,"state":"active","ping":85},{"user_id":416,"name":"OrGaZMaSTeRlol","steam_id":76561198821430316,"connected_time":375000000000,"state":"active","ping":106},{"user_id":426,"name":"Edla","steam_id":76561198062815315,"connected_time":71000000000,"state":"active","ping":99},{"user_id":247,"name":"Mario3ghj","steam_id":76561198069804561,"connected_time":8602000000000,"state":"active","ping":84},{"user_id":328,"name":"Arturias","steam_id":76561198188720263,"connected_time":4538000000000,"state":"active","ping":59},{"user_id":425,"name":"travis","steam_id":76561198138119811,"connected_time":192000000000,"state":"active","ping":44},{"user_id":418,"name":"Silverkeys","steam_id":76561197986012496,"connected_time":343000000000,"state":"active","ping":123},{"user_id":421,"name":"Drunk russian with pyromania","steam_id":76561198195527328,"connected_time":308000000000,"state":"active","ping":45},{"user_id":408,"name":"Ze","steam_id":76561198314901652,"connected_time":1180000000000,"state":"active","ping":105},{"user_id":419,"name":"☞LaZe☜","steam_id":76561198202191400,"connected_time":324000000000,"state":"active","ping":47},{"user_id":399,"name":"MuZe","steam_id":76561198096212604,"connected_time":1530000000000,"state":"active","ping":159},{"user_id":379,"name":"Bilbo Ballbaggins","steam_id":76561198070593514,"connected_time":2575000000000,"state":"active","ping":51},{"user_id":422,"name":"Bohelor","steam_id":76561198135329948,"connected_time":283000000000,"state":"active","ping":93},{"user_id":420,"name":"1 Gourmand World","steam_id":76561197970114051,"connected_time":318000000000,"state":"active","ping":45},{"user_id":423,"name":"snuppy","steam_id":76561199157666657,"connected_time":251000000000,"state":"active","ping":176},{"user_id":389,"name":"tobi ^︿^","steam_id":76561198023388785,"connected_time":1885000000000,"state":"active","ping":59},{"user_id":424,"name":"hoos","steam_id":76561198045985910,"connected_time":222000000000,"state":"active","ping":137},{"user_id":410,"name":"Mafew","steam_id":76561198119993886,"connected_time":1114000000000,"state":"active","ping":57},{"user_id":394,"name":"darktheif54","steam_id":76561198043650119,"connected_time":1661000000000,"state":"active","ping":52},{"user_id":427,"name":"Backup","steam_id":76561197999557567,"connected_time":57000000000,"state":"active","ping":60},{"user_id":401,"name":"DerpFamous","steam_id":76561198046167888,"connected_time":1515000000000,"state":"active","ping":131},{"user_id":403,"name":"SoupER","steam_id":76561198063056668,"connected_time":1407000000000,"state":"active","ping":42}]},{"server_id":320,"name":"Uncletopia | London | 3 | All Maps","name_short":"lon-3","host":"lon-1.uk.uncletopia.com","port":27035,"enabled":true,"region":"eu","cc":"gb","latitude":51.509865,"longitude":-0.118092,"reserved":0,"last_update":"0001-01-01T00:00:00Z","name_a2s":"Uncletopia | London | 3 | All Maps","protocol":17,"map":"koth_viaduct","folder":"tf","game":"Team Fortress","app_id":440,"player_count":0,"max_players":24,"Bots":0,"server_type":"Dedicated","server_os":"Linux","password":true,"vac":true,"version":"7757534","steam_id":85568392924510192,"keywords":["cp","nocrits","nodmgspread","uncletopia"],"game_id":440,"stv_port":27036,"stv_name":"Uncletopia | London | 3 | All Maps | STV","players":null},{"server_id":321,"name":"Uncletopia | London | 4 | All Maps","name_short":"lon-4","host":"lon-1.uk.uncletopia.com","port":27045,"enabled":true,"region":"eu","cc":"gb","latitude":51.509865,"longitude":-0.118092,"reserved":0,"last_update":"0001-01-01T00:00:00Z","name_a2s":"Uncletopia | London | 4 | All Maps","protocol":17,"map":"koth_viaduct","folder":"tf","game":"Team Fortress","app_id":440,"player_count":0,"max_players":24,"Bots":0,"server_type":"Dedicated","server_os":"Linux","password":true,"vac":true,"version":"7757534","steam_id":85568392924510193,"keywords":["cp","nocrits","nodmgspread","uncletopia"],"game_id":440,"stv_port":27046,"stv_name":"Uncletopia | London | 4 | All Maps | STV","players":null},{"server_id":21,"name":"Uncletopia | London | 5 | All Maps","name_short":"lon-5","host":"lon-1.uk.uncletopia.com","port":27055,"enabled":true,"region":"eu","cc":"gb","latitude":51.509865,"longitude":-0.118092,"reserved":0,"last_update":"0001-01-01T00:00:00Z","name_a2s":"Uncletopia | London | 5 | All Maps","protocol":17,"map":"pl_pier","folder":"tf","game":"Team Fortress","app_id":440,"player_count":9,"max_players":24,"Bots":0,"server_type":"Dedicated","server_os":"Linux","password":true,"vac":true,"version":"7757534","steam_id":85568392924742829,"keywords":["nocrits","nodmgspread","payload","uncletopia"],"game_id":440,"stv_port":27056,"stv_name":"Uncletopia | London | 5 | All Maps | STV","players":[{"user_id":376,"name":"Journey to Badwater","steam_id":76561198531978435,"connected_time":6829000000000,"state":"active","ping":64},{"user_id":779,"name":"Penis Contortionist","steam_id":76561198073663784,"connected_time":26000000000,"state":"active","ping":38},{"user_id":780,"name":"OG Zeus","steam_id":76561198306050135,"connected_time":24000000000,"state":"active","ping":67},{"user_id":718,"name":"Samus","steam_id":76561198045943019,"connected_time":5896000000000,"state":"active","ping":60},{"user_id":753,"name":"GunGuy","steam_id":76561198124510978,"connected_time":2810000000000,"state":"active","ping":39},{"user_id":760,"name":"snki","steam_id":76561198324048855,"connected_time":1878000000000,"state":"active","ping":44},{"user_id":771,"name":"TurboTabs","steam_id":76561198009785131,"connected_time":1407000000000,"state":"active","ping":45},{"user_id":727,"name":"New","steam_id":76561198402195911,"connected_time":5592000000000,"state":"active","ping":111},{"user_id":776,"name":"triangle","steam_id":76561198046838168,"connected_time":845000000000,"state":"active","ping":60}]},{"server_id":22,"name":"Uncletopia | London | 6 | All Maps","name_short":"lon-6","host":"lon-1.uk.uncletopia.com","port":27065,"enabled":true,"region":"eu","cc":"gb","latitude":51.509865,"longitude":-0.118092,"reserved":0,"last_update":"0001-01-01T00:00:00Z","name_a2s":"Uncletopia | London | 6 | All Maps","protocol":17,"map":"koth_cascade","folder":"tf","game":"Team Fortress","app_id":440,"player_count":0,"max_players":24,"Bots":0,"server_type":"Dedicated","server_os":"Linux","password":true,"vac":true,"version":"7757534","steam_id":85568392924742830,"keywords":["cp","nocrits","nodmgspread","uncletopia"],"game_id":440,"stv_port":27066,"stv_name":"Uncletopia | London | 6 | All Maps | STV","players":null},{"server_id":40,"name":"Uncletopia | London | 7 | No Payload","name_short":"lon-7","host":"lon-1.uk.uncletopia.com","port":27075,"enabled":true,"region":"eu","cc":"gb","latitude":51.509865,"longitude":-0.118092,"reserved":0,"last_update":"0001-01-01T00:00:00Z","name_a2s":"Uncletopia | London | 7 | No Payload","protocol":17,"map":"cp_sunshine","folder":"tf","game":"Team Fortress","app_id":440,"player_count":0,"max_players":24,"Bots":0,"server_type":"Dedicated","server_os":"Linux","password":true,"vac":true,"version":"7757534","steam_id":85568392924964314,"keywords":["cp","nocrits","nodmgspread","uncletopia"],"game_id":440,"stv_port":27076,"stv_name":"Uncletopia | London | 7 | No Payload | STV","players":null},{"server_id":41,"name":"Uncletopia | London | 8 | Community","name_short":"lon-8","host":"lon-1.uk.uncletopia.com","port":27085,"enabled":true,"region":"eu","cc":"gb","latitude":51.509865,"longitude":-0.118092,"reserved":0,"last_update":"0001-01-01T00:00:00Z","name_a2s":"Uncletopia | London | 8 | Community","protocol":17,"map":"workshop/koth_ashville_final.ugc2130459942","folder":"tf","game":"Team Fortress","app_id":440,"player_count":0,"max_players":24,"Bots":0,"server_type":"Dedicated","server_os":"Linux","password":true,"vac":true,"version":"7757534","steam_id":85568392924964315,"keywords":["cp","nocrits","nodmgspread","uncletopia"],"game_id":440,"stv_port":27086,"stv_name":"Uncletopia | London | 8 | Community | STV","players":null},{"server_id":300,"name":"Uncletopia | Montréal | 1 | All Maps","name_short":"mtl-1","host":"mtl-1.ca.uncletopia.com","port":27015,"enabled":true,"region":"us-east","cc":"ca","latitude":45.50889,"longitude":-73.56167,"reserved":0,"last_update":"0001-01-01T00:00:00Z","name_a2s":"Uncletopia | Montréal | 1 | All Maps","protocol":17,"map":"pl_swiftwater_final1","folder":"tf","game":"Team Fortress","app_id":440,"player_count":0,"max_players":24,"Bots":0,"server_type":"Dedicated","server_os":"Linux","password":true,"vac":true,"version":"7757534","steam_id":85568392924500087,"keywords":["nocrits","nodmgspread","payload","uncletopia"],"game_id":440,"stv_port":27016,"stv_name":"Uncletopia | Montréal | 1 | All Maps | STV","players":null},{"server_id":301,"name":"Uncletopia | Montréal | 2 | All Maps","name_short":"mtl-2","host":"mtl-1.ca.uncletopia.com","port":27025,"enabled":true,"region":"us-east","cc":"ca","latitude":45.50889,"longitude":-73.56167,"reserved":0,"last_update":"0001-01-01T00:00:00Z","name_a2s":"Uncletopia | Montréal | 2 | All Maps","protocol":17,"map":"koth_viaduct","folder":"tf","game":"Team Fortress","app_id":440,"player_count":0,"max_players":24,"Bots":0,"server_type":"Dedicated","server_os":"Linux","password":true,"vac":true,"version":"7757534","steam_id":85568392924500088,"keywords":["cp","nocrits","nodmgspread","uncletopia"],"game_id":440,"stv_port":27026,"stv_name":"Uncletopia | Montréal | 2 | All Maps | STV","players":null},{"server_id":302,"name":"Uncletopia | Montréal | 3 | All Maps","name_short":"mtl-3","host":"mtl-1.ca.uncletopia.com","port":27035,"enabled":true,"region":"us-east","cc":"ca","latitude":45.50889,"longitude":-73.56167,"reserved":0,"last_update":"0001-01-01T00:00:00Z","name_a2s":"Uncletopia | Montréal | 3 | All Maps","protocol":17,"map":"cp_dustbowl","folder":"tf","game":"Team Fortress","app_id":440,"player_count":0,"max_players":24,"Bots":0,"server_type":"Dedicated","server_os":"Linux","password":true,"vac":true,"version":"7757534","steam_id":85568392924500089,"keywords":["cp","nocrits","nodmgspread","uncletopia"],"game_id":440,"stv_port":27036,"stv_name":"Uncletopia | Montréal | 3 | All Maps | STV","players":null},{"server_id":303,"name":"Uncletopia | Montréal | 4 | No Payload","name_short":"mtl-4","host":"mtl-1.ca.uncletopia.com","port":27045,"enabled":true,"region":"us-east","cc":"ca","latitude":45.50889,"longitude":-73.56167,"reserved":0,"last_update":"0001-01-01T00:00:00Z","name_a2s":"Uncletopia | Montréal | 4 | No Payload","protocol":17,"map":"ctf_doublecross","folder":"tf","game":"Team Fortress","app_id":440,"player_count":0,"max_players":24,"Bots":0,"server_type":"Dedicated","server_os":"Linux","password":true,"vac":true,"version":"7757534","steam_id":85568392924500090,"keywords":["ctf","nocrits","nodmgspread","uncletopia"],"game_id":440,"stv_port":27046,"stv_name":"Uncletopia | Montréal | 4 | No Payload | STV","players":null},{"server_id":13,"name":"Uncletopia | New York City | 1 | All Maps","name_short":"nyc-1","host":"nyc-1.us.uncletopia.com","port":27015,"enabled":true,"region":"us-east","cc":"us","latitude":40.73061,"longitude":-73.93524,"reserved":0,"last_update":"0001-01-01T00:00:00Z","name_a2s":"Uncletopia | New York City | 1 | All Maps","protocol":17,"map":"pl_swiftwater_final1","folder":"tf","game":"Team Fortress","app_id":440,"player_count":23,"max_players":24,"Bots":0,"server_type":"Dedicated","server_os":"Linux","password":true,"vac":true,"version":"7757534","steam_id":85568392924469993,"keywords":["nocrits","nodmgspread","payload","uncletopia"],"game_id":440,"stv_port":27016,"stv_name":"Uncletopia | New York City | 1 | All Maps | STV","players":[{"user_id":448,"name":"A Puppy","steam_id":76561198828184456,"connected_time":5259000000000,"state":"active","ping":48},{"user_id":519,"name":"Amogus The Sussy Baka ඞ","steam_id":76561198008577961,"connected_time":1343000000000,"state":"active","ping":52},{"user_id":491,"name":"Xx_PR3TTY_R4VE_G!R1_xX","steam_id":76561199059016425,"connected_time":3350000000000,"state":"active","ping":62},{"user_id":530,"name":"muzikelretifhbr","steam_id":76561198445169719,"connected_time":294000000000,"state":"active","ping":118},{"user_id":485,"name":"Bali","steam_id":76561198038693845,"connected_time":3650000000000,"state":"active","ping":96},{"user_id":526,"name":"JuJu The Human","steam_id":76561198152895619,"connected_time":802000000000,"state":"active","ping":40},{"user_id":531,"name":"Slashes","steam_id":76561197968573499,"connected_time":288000000000,"state":"active","ping":43},{"user_id":468,"name":"Aggressive Goat","steam_id":76561197989465672,"connected_time":4578000000000,"state":"active","ping":75},{"user_id":513,"name":"Squirt City DJs","steam_id":76561198085755375,"connected_time":2047000000000,"state":"active","ping":105},{"user_id":522,"name":"tapewyrm","steam_id":76561198072632696,"connected_time":1073000000000,"state":"active","ping":90},{"user_id":506,"name":"LunarrD","steam_id":76561198811220107,"connected_time":2623000000000,"state":"active","ping":70},{"user_id":508,"name":"kametro4","steam_id":76561198835430429,"connected_time":2401000000000,"state":"active","ping":98},{"user_id":494,"name":"Chaotic Rushu","steam_id":76561198170054407,"connected_time":3088000000000,"state":"active","ping":71},{"user_id":524,"name":"blythe","steam_id":76561198066812433,"connected_time":1043000000000,"state":"active","ping":60},{"user_id":520,"name":"grind","steam_id":76561198801214349,"connected_time":1237000000000,"state":"active","ping":66},{"user_id":481,"name":"sam!!! :)","steam_id":76561198217362968,"connected_time":3952000000000,"state":"active","ping":66},{"user_id":483,"name":"Xavibite","steam_id":76561198209380493,"connected_time":3835000000000,"state":"active","ping":43},{"user_id":512,"name":"party pooper","steam_id":76561198068760559,"connected_time":2159000000000,"state":"active","ping":48},{"user_id":473,"name":"sans the skeletal","steam_id":76561198799286228,"connected_time":4327000000000,"state":"active","ping":58},{"user_id":495,"name":"dr nefario gaming","steam_id":76561198311704368,"connected_time":3054000000000,"state":"active","ping":65},{"user_id":517,"name":"ExoTheFlyingFish","steam_id":76561198034388243,"connected_time":1761000000000,"state":"active","ping":45},{"user_id":529,"name":"Fake Uncle","steam_id":76561198880227689,"connected_time":391000000000,"state":"active","ping":55},{"user_id":515,"name":"fatcat","steam_id":76561197993786013,"connected_time":1818000000000,"state":"active","ping":59}]},{"server_id":14,"name":"Uncletopia | New York City | 2 | All Maps","name_short":"nyc-2","host":"nyc-1.us.uncletopia.com","port":27025,"enabled":true,"region":"us-east","cc":"us","latitude":40.73061,"longitude":-73.93524,"reserved":0,"last_update":"0001-01-01T00:00:00Z","name_a2s":"Uncletopia | New York City | 2 | All Maps","protocol":17,"map":"pl_badwater","folder":"tf","game":"Team Fortress","app_id":440,"player_count":24,"max_players":24,"Bots":0,"server_type":"Dedicated","server_os":"Linux","password":true,"vac":true,"version":"7757534","steam_id":85568392924469994,"keywords":["nocrits","nodmgspread","payload","uncletopia"],"game_id":440,"stv_port":27026,"stv_name":"Uncletopia | New York City | 2 | All Maps | STV","players":[{"user_id":326,"name":"Meurik","steam_id":76561198078032795,"connected_time":1162000000000,"state":"active","ping":151},{"user_id":336,"name":"Kritzburgh","steam_id":76561198149466938,"connected_time":515000000000,"state":"active","ping":50},{"user_id":221,"name":"tony fantano 2","steam_id":76561197997139225,"connected_time":8902000000000,"state":"active","ping":50},{"user_id":324,"name":"Discourse","steam_id":76561198984286678,"connected_time":1174000000000,"state":"active","ping":72},{"user_id":323,"name":"the entire cast of shrek 2","steam_id":76561198367019006,"connected_time":1185000000000,"state":"active","ping":54},{"user_id":247,"name":"Snorty","steam_id":76561198114304454,"connected_time":6907000000000,"state":"active","ping":84},{"user_id":341,"name":"Model CHP-3Y","steam_id":76561198107806145,"connected_time":321000000000,"state":"active","ping":50},{"user_id":337,"name":"Nexusuxen","steam_id":76561198117547131,"connected_time":508000000000,"state":"active","ping":73},{"user_id":327,"name":"$200 Shirt","steam_id":76561197977329534,"connected_time":1141000000000,"state":"active","ping":56},{"user_id":345,"name":"Gibusize","steam_id":76561198081758770,"connected_time":245000000000,"state":"active","ping":55},{"user_id":344,"name":"Benjamin Cockenshire","steam_id":76561198327703300,"connected_time":252000000000,"state":"active","ping":51},{"user_id":318,"name":"The Horse from Horsin' Around","steam_id":76561198332887086,"connected_time":2108000000000,"state":"active","ping":44},{"user_id":331,"name":"Antknee","steam_id":76561198263793809,"connected_time":1030000000000,"state":"active","ping":79},{"user_id":332,"name":"Jeffery Jitterson","steam_id":76561199021400714,"connected_time":1027000000000,"state":"active","ping":56},{"user_id":346,"name":"shibaba bababool","steam_id":76561197972601902,"connected_time":175000000000,"state":"active","ping":103},{"user_id":258,"name":"spherewithahat","steam_id":76561199122192660,"connected_time":6072000000000,"state":"active","ping":48},{"user_id":322,"name":"Red Physical","steam_id":76561198151864382,"connected_time":1462000000000,"state":"active","ping":149},{"user_id":260,"name":"Weerk","steam_id":76561199209543551,"connected_time":6053000000000,"state":"active","ping":73},{"user_id":268,"name":"Elixir","steam_id":76561198166786809,"connected_time":5679000000000,"state":"active","ping":55},{"user_id":333,"name":"Agro | KritzKast","steam_id":76561197970498549,"connected_time":1012000000000,"state":"active","ping":132},{"user_id":325,"name":"Cecil","steam_id":76561199309028776,"connected_time":1173000000000,"state":"active","ping":46},{"user_id":317,"name":"Wique","steam_id":76561198071217597,"connected_time":2149000000000,"state":"active","ping":73},{"user_id":304,"name":"Lost CS player","steam_id":76561198892387723,"connected_time":2689000000000,"state":"active","ping":61}]},{"server_id":15,"name":"Uncletopia | New York City | 3 | Stopwatch Beta","name_short":"nyc-3","host":"nyc-1.us.uncletopia.com","port":27035,"enabled":true,"region":"us-east","cc":"us","latitude":40.73061,"longitude":-73.93524,"reserved":0,"last_update":"0001-01-01T00:00:00Z","name_a2s":"Uncletopia | New York City | 3 | Stopwatch Beta","protocol":17,"map":"koth_highpass","folder":"tf","game":"Team Fortress","app_id":440,"player_count":0,"max_players":24,"Bots":0,"server_type":"Dedicated","server_os":"Linux","password":true,"vac":true,"version":"7757534","steam_id":85568392924742820,"keywords":["cp","nocrits","nodmgspread","uncletopia"],"game_id":440,"stv_port":27036,"stv_name":"Uncletopia | New York City | 3 | Stopwatch Beta | STV","players":null},{"server_id":16,"name":"Uncletopia | New York City | 4 | Community","name_short":"nyc-4","host":"nyc-1.us.uncletopia.com","port":27045,"enabled":true,"region":"us-east","cc":"us","latitude":40.73061,"longitude":-73.93524,"reserved":0,"last_update":"0001-01-01T00:00:00Z","name_a2s":"Uncletopia | New York City | 4 | Community","protocol":17,"map":"workshop/koth_ashville_final.ugc2130459942","folder":"tf","game":"Team Fortress","app_id":440,"player_count":0,"max_players":24,"Bots":0,"server_type":"Dedicated","server_os":"Linux","password":true,"vac":true,"version":"7757534","steam_id":85568392924742821,"keywords":["cp","nocrits","nodmgspread","uncletopia"],"game_id":440,"stv_port":27046,"stv_name":"Uncletopia | New York City | 4 | Community | STV","players":null},{"server_id":142,"name":"Uncletopia | São Paulo | 1 | All Maps","name_short":"sao-1","host":"sao-1.br.uncletopia.com","port":27015,"enabled":true,"region":"sa","cc":"br","latitude":-23.533773,"longitude":-46.62529,"reserved":0,"last_update":"0001-01-01T00:00:00Z","name_a2s":"Uncletopia | São Paulo | 1 | All Maps","protocol":17,"map":"koth_cascade","folder":"tf","game":"Team Fortress","app_id":440,"player_count":0,"max_players":24,"Bots":0,"server_type":"Dedicated","server_os":"Linux","password":true,"vac":true,"version":"7757534","steam_id":85568392924469996,"keywords":["cp","nocrits","nodmgspread","uncletopia"],"game_id":440,"stv_port":27016,"stv_name":"Uncletopia | São Paulo | 1 | All Maps | STV","players":null},{"server_id":143,"name":"Uncletopia | São Paulo | 2 | All Maps","name_short":"sao-2","host":"sao-2.br.uncletopia.com","port":27015,"enabled":true,"region":"sa","cc":"br","latitude":-23.533773,"longitude":-46.62529,"reserved":0,"last_update":"0001-01-01T00:00:00Z","name_a2s":"Uncletopia | São Paulo | 2 | All Maps","protocol":17,"map":"koth_highpass","folder":"tf","game":"Team Fortress","app_id":440,"player_count":1,"max_players":24,"Bots":0,"server_type":"Dedicated","server_os":"Linux","password":true,"vac":true,"version":"7757534","steam_id":85568392924485349,"keywords":["cp","nocrits","nodmgspread","uncletopia"],"game_id":440,"stv_port":27016,"stv_name":"Uncletopia | São Paulo | 2 | All Maps | STV","players":[{"user_id":29,"name":"mel","steam_id":76561199304706896,"connected_time":40000000000,"state":"connecting","ping":0}]},{"server_id":7,"name":"Uncletopia | Seattle | 1 | All Maps","name_short":"sea-1","host":"sea-1.us.uncletopia.com","port":27015,"enabled":true,"region":"us-west","cc":"us","latitude":47.608013,"longitude":-122.33517,"reserved":0,"last_update":"0001-01-01T00:00:00Z","name_a2s":"Uncletopia | Seattle | 1 | All Maps","protocol":17,"map":"pl_borneo","folder":"tf","game":"Team Fortress","app_id":440,"player_count":24,"max_players":24,"Bots":0,"server_type":"Dedicated","server_os":"Linux","password":true,"vac":true,"version":"7757534","steam_id":85568392924469997,"keywords":["nocrits","nodmgspread","payload","uncletopia"],"game_id":440,"stv_port":27016,"stv_name":"Uncletopia | Seattle | 1 | All Maps | STV","players":[{"user_id":495,"name":"Scraps","steam_id":76561198872252075,"connected_time":315000000000,"state":"active","ping":130},{"user_id":440,"name":"Hassium","steam_id":76561198162541373,"connected_time":4334000000000,"state":"active","ping":54},{"user_id":500,"name":"Mico (Goblin Mode)","steam_id":76561198125462953,"connected_time":190000000000,"state":"active","ping":55},{"user_id":494,"name":"maniacalparagraph","steam_id":76561198094123992,"connected_time":441000000000,"state":"active","ping":150},{"user_id":419,"name":"una.mov","steam_id":76561198079765273,"connected_time":6513000000000,"state":"active","ping":104},{"user_id":491,"name":"JacripspyVulcano","steam_id":76561198966980576,"connected_time":1018000000000,"state":"active","ping":113},{"user_id":487,"name":"Robert E.T.","steam_id":76561197986439371,"connected_time":1249000000000,"state":"active","ping":55},{"user_id":432,"name":"Kit Carson","steam_id":76561198115691546,"connected_time":4890000000000,"state":"active","ping":85},{"user_id":476,"name":"The Foolish Samurai","steam_id":76561198094494945,"connected_time":2388000000000,"state":"active","ping":103},{"user_id":485,"name":"THAT CAT","steam_id":76561198010828625,"connected_time":1425000000000,"state":"active","ping":32},{"user_id":465,"name":"S Q U I S H E  T H A T  C A T","steam_id":76561198293865429,"connected_time":3111000000000,"state":"active","ping":40},{"user_id":501,"name":"Ash40000","steam_id":76561198092841526,"connected_time":170000000000,"state":"active","ping":100},{"user_id":502,"name":"Tibetan Pop Star","steam_id":76561198844903984,"connected_time":68000000000,"state":"active","ping":86},{"user_id":474,"name":"El Toreador","steam_id":76561198093147468,"connected_time":2721000000000,"state":"active","ping":115},{"user_id":499,"name":"Ostin","steam_id":76561197993726444,"connected_time":202000000000,"state":"active","ping":103},{"user_id":488,"name":"O","steam_id":76561198450073779,"connected_time":1164000000000,"state":"active","ping":44},{"user_id":480,"name":"Luca","steam_id":76561198125087140,"connected_time":2157000000000,"state":"active","ping":45},{"user_id":493,"name":"will smith","steam_id":76561198335942249,"connected_time":535000000000,"state":"active","ping":59},{"user_id":453,"name":"Mason","steam_id":76561198040333724,"connected_time":3662000000000,"state":"active","ping":83},{"user_id":456,"name":"Randy","steam_id":76561198106785174,"connected_time":3549000000000,"state":"active","ping":114},{"user_id":497,"name":"DeckardCain","steam_id":76561198054875139,"connected_time":217000000000,"state":"active","ping":120},{"user_id":489,"name":"oh god i'm gonna CHUM","steam_id":76561198019210187,"connected_time":1150000000000,"state":"active","ping":106},{"user_id":484,"name":"ORANGE","steam_id":76561198000401769,"connected_time":1488000000000,"state":"active","ping":48},{"user_id":498,"name":"RedMustrd","steam_id":76561199246218857,"connected_time":213000000000,"state":"active","ping":139}]},{"server_id":119,"name":"Uncletopia | Seattle | 2 | All Maps","name_short":"sea-2","host":"sea-1.us.uncletopia.com","port":27025,"enabled":true,"region":"us-west","cc":"us","latitude":47.608013,"longitude":-122.33517,"reserved":0,"last_update":"0001-01-01T00:00:00Z","name_a2s":"Uncletopia | Seattle | 2 | All Maps","protocol":17,"map":"pl_badwater","folder":"tf","game":"Team Fortress","app_id":440,"player_count":24,"max_players":24,"Bots":0,"server_type":"Dedicated","server_os":"Linux","password":true,"vac":true,"version":"7757534","steam_id":85568392924469998,"keywords":["nocrits","nodmgspread","payload","uncletopia"],"game_id":440,"stv_port":27026,"stv_name":"Uncletopia | Seattle | 2 | All Maps | STV","players":[{"user_id":289,"name":"gun spy gaming","steam_id":76561198880739963,"connected_time":32000000000,"state":"active","ping":59},{"user_id":247,"name":"1dk","steam_id":76561198135104742,"connected_time":2900000000000,"state":"active","ping":46},{"user_id":228,"name":"ulysses","steam_id":76561198059313367,"connected_time":3787000000000,"state":"active","ping":38},{"user_id":170,"name":"lili.winters","steam_id":76561199391478575,"connected_time":7311000000000,"state":"active","ping":70},{"user_id":222,"name":"Flores","steam_id":76561198106938500,"connected_time":4210000000000,"state":"active","ping":75},{"user_id":283,"name":"Shinako","steam_id":76561198301826800,"connected_time":511000000000,"state":"active","ping":56},{"user_id":272,"name":"NovaScotianDuckRetriever","steam_id":76561198061867269,"connected_time":931000000000,"state":"active","ping":33},{"user_id":230,"name":"krootonitron","steam_id":76561198114113037,"connected_time":3706000000000,"state":"active","ping":53},{"user_id":193,"name":"Nottawink","steam_id":76561198071248705,"connected_time":6221000000000,"state":"active","ping":102},{"user_id":273,"name":"Nuts","steam_id":76561199258535559,"connected_time":908000000000,"state":"active","ping":86},{"user_id":267,"name":"catgirl giantess in heat","steam_id":76561198439042583,"connected_time":1533000000000,"state":"active","ping":115},{"user_id":198,"name":"jordan (the country btw)","steam_id":76561198118212742,"connected_time":5905000000000,"state":"active","ping":133},{"user_id":287,"name":"big fish","steam_id":76561198186479818,"connected_time":157000000000,"state":"active","ping":89},{"user_id":275,"name":"sTAPler","steam_id":76561198394008714,"connected_time":812000000000,"state":"active","ping":93},{"user_id":276,"name":"iQ-Nekomata","steam_id":76561198191536489,"connected_time":803000000000,"state":"active","ping":96},{"user_id":244,"name":"irishfire5","steam_id":76561198825553326,"connected_time":3206000000000,"state":"active","ping":147},{"user_id":268,"name":"Google","steam_id":76561198857237473,"connected_time":1220000000000,"state":"active","ping":52},{"user_id":285,"name":"oil","steam_id":76561198099980149,"connected_time":344000000000,"state":"active","ping":75},{"user_id":282,"name":"Eris","steam_id":76561199471434875,"connected_time":594000000000,"state":"active","ping":44},{"user_id":288,"name":"acceleяator","steam_id":76561198046842513,"connected_time":43000000000,"state":"active","ping":101},{"user_id":279,"name":"Harold Manshaft, CEO","steam_id":76561198046563712,"connected_time":770000000000,"state":"active","ping":129},{"user_id":263,"name":"Village","steam_id":76561198402089732,"connected_time":1876000000000,"state":"active","ping":79},{"user_id":280,"name":"Ricelover","steam_id":76561198064631164,"connected_time":751000000000,"state":"active","ping":64},{"user_id":257,"name":"Trans Femtress 2","steam_id":76561198272676760,"connected_time":2228000000000,"state":"active","ping":69}]},{"server_id":406,"name":"Uncletopia | Seattle | 3 | Stopwatch Beta","name_short":"sea-3","host":"sea-1.us.uncletopia.com","port":27035,"enabled":true,"region":"us-west","cc":"us","latitude":47.608013,"longitude":-122.33517,"reserved":0,"last_update":"0001-01-01T00:00:00Z","name_a2s":"Uncletopia | Seattle | 3 | Stopwatch Beta","protocol":17,"map":"workshop/pl_badwater_pro_v12.ugc2142942074","folder":"tf","game":"Team Fortress","app_id":440,"player_count":0,"max_players":24,"Bots":0,"server_type":"Dedicated","server_os":"Linux","password":true,"vac":true,"version":"7757534","steam_id":85568392924515217,"keywords":["nocrits","nodmgspread","payload","uncletopia"],"game_id":440,"stv_port":27036,"stv_name":"Uncletopia | Seattle | 3 | Stopwatch Beta | STV","players":null},{"server_id":17,"name":"Uncletopia | San Francisco | 1 | All Maps","name_short":"sfo-1","host":"sfo-1.us.uncletopia.com","port":27015,"enabled":true,"region":"us-west","cc":"us","latitude":37.77397,"longitude":-122.4313,"reserved":0,"last_update":"0001-01-01T00:00:00Z","name_a2s":"Uncletopia | San Francisco | 1 | All Maps","protocol":17,"map":"pl_goldrush","folder":"tf","game":"Team Fortress","app_id":440,"player_count":24,"max_players":24,"Bots":0,"server_type":"Dedicated","server_os":"Linux","password":true,"vac":true,"version":"7757534","steam_id":85568392924469999,"keywords":["nocrits","nodmgspread","payload","uncletopia"],"game_id":440,"stv_port":27016,"stv_name":"Uncletopia | San Francisco | 1 | All Maps | STV","players":[{"user_id":183,"name":"Sinn","steam_id":76561199013434543,"connected_time":992000000000,"state":"active","ping":64},{"user_id":179,"name":"Twilz","steam_id":76561198180927529,"connected_time":1305000000000,"state":"active","ping":102},{"user_id":180,"name":"Poomanchu","steam_id":76561198070071631,"connected_time":1227000000000,"state":"active","ping":70},{"user_id":132,"name":"domky","steam_id":76561198066114874,"connected_time":4230000000000,"state":"active","ping":69},{"user_id":135,"name":"EAT SPIT!","steam_id":76561198096836451,"connected_time":4136000000000,"state":"active","ping":47},{"user_id":184,"name":"Smiley_R5","steam_id":76561198113083770,"connected_time":944000000000,"state":"active","ping":103},{"user_id":121,"name":"Dietrich","steam_id":76561198028163840,"connected_time":4581000000000,"state":"active","ping":64},{"user_id":186,"name":"corbenis","steam_id":76561199012442511,"connected_time":567000000000,"state":"active","ping":72},{"user_id":195,"name":"BackToSchoolAds","steam_id":76561198870281128,"connected_time":230000000000,"state":"active","ping":75},{"user_id":189,"name":"Klip","steam_id":76561198316254429,"connected_time":401000000000,"state":"active","ping":104},{"user_id":168,"name":"NitroNick","steam_id":76561198045728022,"connected_time":1830000000000,"state":"active","ping":111},{"user_id":169,"name":"sora","steam_id":76561198094256973,"connected_time":1821000000000,"state":"active","ping":54},{"user_id":153,"name":"engi","steam_id":76561199193020423,"connected_time":2984000000000,"state":"active","ping":64},{"user_id":188,"name":"Sprucelass","steam_id":76561197998391724,"connected_time":459000000000,"state":"active","ping":105},{"user_id":138,"name":":bunnyinablanket:","steam_id":76561198149443710,"connected_time":4095000000000,"state":"active","ping":60},{"user_id":93,"name":"Bandicam Recording Software","steam_id":76561199122281764,"connected_time":6030000000000,"state":"active","ping":86},{"user_id":171,"name":"♥ memegamer23123 ♥","steam_id":76561198048478450,"connected_time":1816000000000,"state":"active","ping":121},{"user_id":194,"name":"The Super Mario Bros. Movie","steam_id":76561198871692156,"connected_time":274000000000,"state":"active","ping":69},{"user_id":112,"name":"YahYeeterson","steam_id":76561198120480906,"connected_time":5209000000000,"state":"active","ping":80},{"user_id":193,"name":"zedisgone","steam_id":76561199174794563,"connected_time":314000000000,"state":"active","ping":60},{"user_id":162,"name":"Cooki","steam_id":76561198051705314,"connected_time":2192000000000,"state":"active","ping":136},{"user_id":141,"name":"daring","steam_id":76561198066270405,"connected_time":4046000000000,"state":"active","ping":45},{"user_id":160,"name":"Zoot","steam_id":76561198004398296,"connected_time":2353000000000,"state":"active","ping":120},{"user_id":182,"name":"noraneko","steam_id":76561198025418738,"connected_time":1030000000000,"state":"active","ping":52}]},{"server_id":18,"name":"Uncletopia | San Francisco | 2 | All Maps","name_short":"sfo-2","host":"sfo-1.us.uncletopia.com","port":27025,"enabled":true,"region":"us-west","cc":"us","latitude":37.77397,"longitude":-122.4313,"reserved":0,"last_update":"0001-01-01T00:00:00Z","name_a2s":"Uncletopia | San Francisco | 2 | All Maps","protocol":17,"map":"pl_pier","folder":"tf","game":"Team Fortress","app_id":440,"player_count":0,"max_players":24,"Bots":0,"server_type":"Dedicated","server_os":"Linux","password":true,"vac":true,"version":"7757534","steam_id":85568392924470000,"keywords":["nocrits","nodmgspread","payload","uncletopia"],"game_id":440,"stv_port":27026,"stv_name":"Uncletopia | San Francisco | 2 | All Maps | STV","players":null},{"server_id":19,"name":"Uncletopia | San Francisco | 3 | Stopwatch Beta","name_short":"sfo-3","host":"sfo-1.us.uncletopia.com","port":27035,"enabled":true,"region":"us-west","cc":"us","latitude":37.77397,"longitude":-122.4313,"reserved":0,"last_update":"0001-01-01T00:00:00Z","name_a2s":"Uncletopia | San Francisco | 3 | Stopwatch Beta","protocol":17,"map":"pl_borneo","folder":"tf","game":"Team Fortress","app_id":440,"player_count":0,"max_players":24,"Bots":0,"server_type":"Dedicated","server_os":"Linux","password":true,"vac":true,"version":"7757534","steam_id":85568392924742824,"keywords":["nocrits","nodmgspread","payload","uncletopia"],"game_id":440,"stv_port":27036,"stv_name":"Uncletopia | San Francisco | 3 | Stopwatch Beta | STV","players":null},{"server_id":20,"name":"Uncletopia | San Francisco | 4 | Community","name_short":"sfo-4","host":"sfo-1.us.uncletopia.com","port":27045,"enabled":true,"region":"us-west","cc":"us","latitude":37.77397,"longitude":-122.4313,"reserved":0,"last_update":"0001-01-01T00:00:00Z","name_a2s":"Uncletopia | San Francisco | 4 | Community","protocol":17,"map":"koth_highpass","folder":"tf","game":"Team Fortress","app_id":440,"player_count":4,"max_players":24,"Bots":0,"server_type":"Dedicated","server_os":"Linux","password":true,"vac":true,"version":"7757534","steam_id":85568392924742826,"keywords":["cp","nocrits","nodmgspread","uncletopia"],"game_id":440,"stv_port":27046,"stv_name":"Uncletopia | San Francisco | 4 | Community | STV","players":[{"user_id":6,"name":"Blu\u003c3","steam_id":76561198216877208,"connected_time":472000000000,"state":"active","ping":65},{"user_id":7,"name":"MEATSLUSHIE","steam_id":76561198216723177,"connected_time":466000000000,"state":"active","ping":82},{"user_id":8,"name":"Needs McTherapy","steam_id":76561198168876878,"connected_time":394000000000,"state":"active","ping":104},{"user_id":9,"name":"OH JIMMY I'M HOME #SaveTf2","steam_id":76561198396658806,"connected_time":124000000000,"state":"spawning","ping":65}]},{"server_id":141,"name":"Uncletopia | Sydney | 1 | All Maps","name_short":"syd-1","host":"syd-1.au.uncletopia.com","port":27015,"enabled":true,"region":"au","cc":"au","latitude":-33.865143,"longitude":151.2099,"reserved":0,"last_update":"0001-01-01T00:00:00Z","name_a2s":"Uncletopia | Sydney | 1 | All Maps","protocol":17,"map":"koth_highpass","folder":"tf","game":"Team Fortress","app_id":440,"player_count":10,"max_players":24,"Bots":0,"server_type":"Dedicated","server_os":"Linux","password":true,"vac":true,"version":"7757534","steam_id":85568392924470001,"keywords":["cp","nocrits","nodmgspread","uncletopia"],"game_id":440,"stv_port":27016,"stv_name":"Uncletopia | Sydney | 1 | All Maps | STV","players":[{"user_id":40,"name":"stupid_cow","steam_id":76561198241303512,"connected_time":554000000000,"state":"active","ping":51},{"user_id":35,"name":"Rhysand4rch","steam_id":76561199065212827,"connected_time":803000000000,"state":"active","ping":52},{"user_id":41,"name":"yeetingbaby","steam_id":76561199011454860,"connected_time":277000000000,"state":"active","ping":53},{"user_id":33,"name":"toucan","steam_id":76561199229260149,"connected_time":1344000000000,"state":"active","ping":70},{"user_id":42,"name":"B1RDN3ST","steam_id":76561199031653187,"connected_time":180000000000,"state":"active","ping":58},{"user_id":38,"name":"G_Force 1410","steam_id":76561198286439265,"connected_time":659000000000,"state":"active","ping":264},{"user_id":39,"name":"the rot doesn't consume","steam_id":76561198866538028,"connected_time":656000000000,"state":"active","ping":82},{"user_id":45,"name":"λlex","steam_id":76561198181194862,"connected_time":19000000000,"state":"spawning","ping":63},{"user_id":44,"name":"electro599","steam_id":76561198058148858,"connected_time":159000000000,"state":"active","ping":57},{"user_id":46,"name":"Lord Oink","steam_id":76561198125237921,"connected_time":16000000000,"state":"spawning","ping":41}]},{"server_id":123,"name":"Uncletopia | Sydney | 2 | All Maps","name_short":"syd-2","host":"syd-1.au.uncletopia.com","port":27025,"enabled":true,"region":"au","cc":"au","latitude":-33.865143,"longitude":151.2099,"reserved":0,"last_update":"0001-01-01T00:00:00Z","name_a2s":"Uncletopia | Sydney | 2 | All Maps","protocol":17,"map":"koth_cascade","folder":"tf","game":"Team Fortress","app_id":440,"player_count":0,"max_players":24,"Bots":0,"server_type":"Dedicated","server_os":"Linux","password":true,"vac":true,"version":"7757534","steam_id":85568392924470002,"keywords":["cp","nocrits","nodmgspread","uncletopia"],"game_id":440,"stv_port":27026,"stv_name":"Uncletopia | Sydney | 2 | All Maps | STV","players":null},{"server_id":395,"name":"Uncletopia | Sydney | 3 | All Maps","name_short":"syd-3","host":"syd-1.au.uncletopia.com","port":27035,"enabled":true,"region":"au","cc":"au","latitude":-33.865143,"longitude":151.2099,"reserved":0,"last_update":"0001-01-01T00:00:00Z","name_a2s":"Uncletopia | Sydney | 3 | All Maps","protocol":17,"map":"pl_upward","folder":"tf","game":"Team Fortress","app_id":440,"player_count":0,"max_players":24,"Bots":0,"server_type":"Dedicated","server_os":"Linux","password":true,"vac":true,"version":"7757534","steam_id":85568392925194467,"keywords":["nocrits","nodmgspread","payload","uncletopia"],"game_id":440,"stv_port":27036,"stv_name":"Uncletopia | Sydney | 3 | All Maps | STV","players":null},{"server_id":396,"name":"Uncletopia | Sydney | 4 | All Maps","name_short":"syd-4","host":"syd-1.au.uncletopia.com","port":27045,"enabled":true,"region":"au","cc":"au","latitude":-33.865143,"longitude":151.2099,"reserved":0,"last_update":"0001-01-01T00:00:00Z","name_a2s":"Uncletopia | Sydney | 4 | All Maps","protocol":17,"map":"koth_lakeside_final","folder":"tf","game":"Team Fortress","app_id":440,"player_count":0,"max_players":24,"Bots":0,"server_type":"Dedicated","server_os":"Linux","password":true,"vac":true,"version":"7757534","steam_id":85568392925397958,"keywords":["cp","nocrits","nodmgspread","uncletopia"],"game_id":440,"stv_port":27046,"stv_name":"Uncletopia | Sydney | 4 | All Maps | STV","players":null},{"server_id":58,"name":"Uncletopia | Sydney | 5 | Stopwatch Beta","name_short":"syd-5","host":"syd-1.au.uncletopia.com","port":27055,"enabled":true,"region":"au","cc":"au","latitude":-33.865143,"longitude":151.2099,"reserved":0,"last_update":"0001-01-01T00:00:00Z","name_a2s":"Uncletopia | Sydney | 5 | Stopwatch Beta","protocol":17,"map":"koth_highpass","folder":"tf","game":"Team Fortress","app_id":440,"player_count":0,"max_players":24,"Bots":0,"server_type":"Dedicated","server_os":"Linux","password":true,"vac":true,"version":"7757534","steam_id":85568392925397959,"keywords":["cp","nocrits","nodmgspread","uncletopia"],"game_id":440,"stv_port":27056,"stv_name":"Uncletopia | Sydney | 5 | Stopwatch Beta | STV","players":null},{"server_id":59,"name":"Uncletopia | Sydney | 6 | Community","name_short":"syd-6","host":"syd-1.au.uncletopia.com","port":27065,"enabled":true,"region":"au","cc":"au","latitude":-33.865143,"longitude":151.2099,"reserved":0,"last_update":"0001-01-01T00:00:00Z","name_a2s":"Uncletopia | Sydney | 6 | Community","protocol":17,"map":"workshop/koth_slaughter_rc1.ugc1712845210","folder":"tf","game":"Team Fortress","app_id":440,"player_count":0,"max_players":24,"Bots":0,"server_type":"Dedicated","server_os":"Linux","password":true,"vac":true,"version":"7757534","steam_id":85568392925397960,"keywords":["cp","nocrits","nodmgspread","uncletopia"],"game_id":440,"stv_port":27066,"stv_name":"Uncletopia | Sydney | 6 | Community | STV","players":null},{"server_id":49,"name":"Uncletopia | Warsaw | 1 | All Maps","name_short":"waw-1","host":"waw-1.pl.uncletopia.com","port":27015,"enabled":true,"region":"eu","cc":"pl","latitude":52.2297,"longitude":21.017532,"reserved":0,"last_update":"0001-01-01T00:00:00Z","name_a2s":"","protocol":0,"map":"","folder":"","game":"","app_id":0,"player_count":0,"max_players":0,"Bots":0,"server_type":"","server_os":"","password":false,"vac":false,"version":"","steam_id":0,"keywords":null,"game_id":0,"stv_port":0,"stv_name":"","players":null},{"server_id":50,"name":"Uncletopia | Warsaw | 2 | All Maps","name_short":"waw-2","host":"waw-1.pl.uncletopia.com","port":27025,"enabled":true,"region":"eu","cc":"pl","latitude":52.2297,"longitude":21.017532,"reserved":0,"last_update":"0001-01-01T00:00:00Z","name_a2s":"Uncletopia | Warsaw | 2 | All Maps","protocol":17,"map":"koth_highpass","folder":"tf","game":"Team Fortress","app_id":440,"player_count":0,"max_players":24,"Bots":0,"server_type":"Dedicated","server_os":"Linux","password":true,"vac":true,"version":"7757534","steam_id":85568392925397851,"keywords":["cp","nocrits","nodmgspread","uncletopia"],"game_id":440,"stv_port":27026,"stv_name":"Uncletopia | Warsaw | 2 | All Maps | STV","players":null},{"server_id":51,"name":"Uncletopia | Warsaw | 3 | All Maps","name_short":"waw-3","host":"waw-1.pl.uncletopia.com","port":27035,"enabled":true,"region":"eu","cc":"pl","latitude":52.2297,"longitude":21.017532,"reserved":0,"last_update":"0001-01-01T00:00:00Z","name_a2s":"Uncletopia | Warsaw | 3 | All Maps","protocol":17,"map":"koth_cascade","folder":"tf","game":"Team Fortress","app_id":440,"player_count":0,"max_players":24,"Bots":0,"server_type":"Dedicated","server_os":"Linux","password":true,"vac":true,"version":"7757534","steam_id":85568392925397852,"keywords":["cp","nocrits","nodmgspread","uncletopia"],"game_id":440,"stv_port":27036,"stv_name":"Uncletopia | Warsaw | 3 | All Maps | STV","players":null},{"server_id":52,"name":"Uncletopia | Warsaw | 4 | All Maps","name_short":"waw-4","host":"waw-1.pl.uncletopia.com","port":27045,"enabled":true,"region":"eu","cc":"pl","latitude":52.2297,"longitude":21.017532,"reserved":0,"last_update":"0001-01-01T00:00:00Z","name_a2s":"Uncletopia | Warsaw | 4 | All Maps","protocol":17,"map":"koth_lakeside_final","folder":"tf","game":"Team Fortress","app_id":440,"player_count":0,"max_players":24,"Bots":0,"server_type":"Dedicated","server_os":"Linux","password":true,"vac":true,"version":"7757534","steam_id":85568392925397853,"keywords":["cp","nocrits","nodmgspread","uncletopia"],"game_id":440,"stv_port":27046,"stv_name":"Uncletopia | Warsaw | 4 | All Maps | STV","players":null},{"server_id":53,"name":"Uncletopia | Warsaw | 5 | Stopwatch Beta","name_short":"waw-5","host":"waw-1.pl.uncletopia.com","port":27055,"enabled":true,"region":"eu","cc":"pl","latitude":52.2297,"longitude":21.017532,"reserved":0,"last_update":"0001-01-01T00:00:00Z","name_a2s":"Uncletopia | Warsaw | 5 | Stopwatch Beta","protocol":17,"map":"pl_barnblitz","folder":"tf","game":"Team Fortress","app_id":440,"player_count":0,"max_players":24,"Bots":0,"server_type":"Dedicated","server_os":"Linux","password":true,"vac":true,"version":"7757534","steam_id":85568392925397854,"keywords":["nocrits","nodmgspread","payload","uncletopia"],"game_id":440,"stv_port":27056,"stv_name":"Uncletopia | Warsaw | 5 | Stopwatch Beta | STV","players":null},{"server_id":54,"name":"Uncletopia | Warsaw | 6 | Community","name_short":"waw-6","host":"waw-1.pl.uncletopia.com","port":27065,"enabled":true,"region":"eu","cc":"pl","latitude":52.2297,"longitude":21.017532,"reserved":0,"last_update":"0001-01-01T00:00:00Z","name_a2s":"Uncletopia | Warsaw | 6 | Community","protocol":17,"map":"workshop/rd_asteroid_redux_b1.ugc2154902912","folder":"tf","game":"Team Fortress","app_id":440,"player_count":0,"max_players":24,"Bots":0,"server_type":"Dedicated","server_os":"Linux","password":true,"vac":true,"version":"7757534","steam_id":85568392925397856,"keywords":["beta","nocrits","nodmgspread","rd","uncletopia"],"game_id":440,"stv_port":27066,"stv_name":"Uncletopia | Warsaw | 6 | Community | STV","players":null}]}