{"status":true,"message":"","result":[{"server_id":9,"name":"Uncletopia | Atlanta | 1 | All Maps","name_short":"atl-1","host":"atl-1.us.uncletopia.com","port":27015,"enabled":true,"region":"us-east","cc":"us","latitude":33.753746,"longitude":-84.38633,"reserved":0,"last_update":"0001-01-01T00:00:00Z","name_a2s":"Uncletopia | Atlanta | 1 | All Maps","protocol":17,"map":"pl_pier","folder":"tf","game":"Team Fortress","app_id":440,"player_count":24,"max_players":24,"Bots":0,"server_type":"Dedicated","server_os":"Linux","password":true,"vac":true,"version":"7961495","steam_id":85568392924469982,"keywords":["nocrits","nodmgspread","payload","uncletopia"],"game_id":440,"stv_port":27016,"stv_name":"Uncletopia | Atlanta | 1 | All Maps | STV","players":null},{"server_id":104,"name":"Uncletopia | Atlanta | 2 | All Maps","name_short":"atl-2","host":"atl-1.us.uncletopia.com","port":27025,"enabled":true,"region":"us-east","cc":"us","latitude":33.753746,"longitude":-84.38633,"reserved":0,"last_update":"0001-01-01T00:00:00Z","name_a2s":"Uncletopia | Atlanta | 2 | All Maps","protocol":17,"map":"pl_pier","folder":"tf","game":"Team Fortress","app_id":440,"player_count":22,"max_players":24,"Bots":0,"server_type":"Dedicated","server_os":"Linux","password":true,"vac":true,"version":"7961495","steam_id":85568392924469983,"keywords":["nocrits","nodmgspread","payload","uncletopia"],"game_id":440,"stv_port":27026,"stv_name":"Uncletopia | Atlanta | 2 | All Maps | STV","players":null},{"server_id":400,"name":"Uncletopia | Atlanta | 3 | Stopwatch","name_short":"atl-3","host":"atl-1.us.uncletopia.com","port":27035,"enabled":true,"region":"us-east","cc":"us","latitude":33.753746,"longitude":-84.38633,"reserved":0,"last_update":"0001-01-01T00:00:00Z","name_a2s":"Uncletopia | Atlanta | 3 | Stopwatch","protocol":17,"map":"koth_clearcut_b15","folder":"tf","game":"Team Fortress","app_id":440,"player_count":0,"max_players":24,"Bots":0,"server_type":"Dedicated","server_os":"Linux","password":true,"vac":true,"version":"7961495","steam_id":85568392924515187,"keywords":["cp","nocrits","nodmgspread","uncletopia"],"game_id":440,"stv_port":27036,"stv_name":"Uncletopia | Atlanta | 3 | Stopwatch | STV","players":null},{"server_id":401,"name":"Uncletopia | Atlanta | 4 | Community","name_short":"atl-4","host":"atl-1.us.uncletopia.com","port":27045,"enabled":true,"region":"us-east","cc":"us","latitude":33.753746,"longitude":-84.38633,"reserved":0,"last_update":"0001-01-01T00:00:00Z","name_a2s":"Uncletopia | Atlanta | 4 | Community","protocol":17,"map":"cp_logjam_rc12","folder":"tf","game":"Team Fortress","app_id":440,"player_count":0,"max_players":24,"Bots":0,"server_type":"Dedicated","server_os":"Linux","password":true,"vac":true,"version":"7961495","steam_id":85568392924515188,"keywords":["cp","nocrits","nodmgspread","uncletopia"],"game_id":440,"stv_port":27046,"stv_name":"Uncletopia | Atlanta | 4 | Community | STV","players":null},{"server_id":2,"name":"Uncletopia | Chicago | 1 | All Maps","name_short":"chi-1","host":"chi-1.us.uncletopia.com","port":27015,"enabled":true,"region":"us-central","cc":"us","latitude":41.881832,"longitude":-87.62318,"reserved":0,"last_update":"0001-01-01T00:00:00Z","name_a2s":"Uncletopia | Chicago | 1 | All Maps","protocol":17,"map":"pl_borneo","folder":"tf","game":"Team Fortress","app_id":440,"player_count":24,"max_players":24,"Bots":0,"server_type":"Dedicated","server_os":"Linux","password":true,"vac":true,"version":"7961495","steam_id":85568392924469984,"keywords":["nocrits","nodmgspread","payload","uncletopia"],"game_id":440,"stv_port":27016,"stv_name":"Uncletopia | Chicago | 1 | All Maps | STV","players":[{"user_id":579,"name":"START PRAYIN BOY","steam_id":76561198089173996,"connected_time":540000000000,"state":"active","ping":77},{"user_id":572,"name":"stockhack","steam_id":76561198050220225,"connected_time":664000000000,"state":"active","ping":67},{"user_id":569,"name":"Ace Chromatica","steam_id":76561198042211131,"connected_time":712000000000,"state":"active","ping":65},{"user_id":573,"name":"Sky!","steam_id":76561198141953747,"connected_time":632000000000,"state":"active","ping":62},{"user_id":532,"name":"loser","steam_id":76561198259380127,"connected_time":2761000000000,"state":"active","ping":55},{"user_id":563,"name":"Goose","steam_id":76561198328998533,"connected_time":1452000000000,"state":"active","ping":46},{"user_id":580,"name":"Owencr","steam_id":76561198121386522,"connected_time":538000000000,"state":"active","ping":52},{"user_id":570,"name":"foxheadwaffle","steam_id":76561198097170461,"connected_time":707000000000,"state":"active","ping":114},{"user_id":552,"name":"The Piss Warrior","steam_id":76561198151927029,"connected_time":2045000000000,"state":"active","ping":122},{"user_id":584,"name":"GhostBerb","steam_id":76561198087908151,"connected_time":147000000000,"state":"active","ping":85},{"user_id":583,"name":"rf","steam_id":76561198195359229,"connected_time":389000000000,"state":"active","ping":86},{"user_id":575,"name":"on that zaza?","steam_id":76561198038713198,"connected_time":619000000000,"state":"active","ping":69},{"user_id":505,"name":"WitheringLeo","steam_id":76561198046722918,"connected_time":4962000000000,"state":"active","ping":95},{"user_id":576,"name":"Quirinus","steam_id":76561198011516889,"connected_time":577000000000,"state":"active","ping":47},{"user_id":562,"name":"richard clock","steam_id":76561198048455671,"connected_time":1531000000000,"state":"active","ping":60},{"user_id":558,"name":"NataKilar","steam_id":76561198041274441,"connected_time":1698000000000,"state":"active","ping":63},{"user_id":534,"name":"Ryan Lewis truther","steam_id":76561198050505826,"connected_time":2746000000000,"state":"active","ping":84},{"user_id":547,"name":"vepis","steam_id":76561198015884720,"connected_time":2300000000000,"state":"active","ping":62},{"user_id":541,"name":"Shopkeeper","steam_id":76561198105888756,"connected_time":2436000000000,"state":"active","ping":97},{"user_id":564,"name":"GreekGoat_Coffee","steam_id":76561198129331088,"connected_time":931000000000,"state":"active","ping":47},{"user_id":568,"name":"RocketRabbit","steam_id":76561198803062131,"connected_time":729000000000,"state":"active","ping":77},{"user_id":582,"name":"Bodhi (she/they)","steam_id":76561198103230995,"connected_time":426000000000,"state":"active","ping":81},{"user_id":581,"name":"_Miniature_","steam_id":76561199075378102,"connected_time":526000000000,"state":"active","ping":91},{"user_id":561,"name":"lazyhead","steam_id":76561198044358804,"connected_time":1558000000000,"state":"active","ping":51}]},{"server_id":106,"name":"Uncletopia | Chicago | 2 | All Maps","name_short":"chi-2","host":"chi-1.us.uncletopia.com","port":27025,"enabled":true,"region":"us-central","cc":"us","latitude":41.881832,"longitude":-87.62318,"reserved":0,"last_update":"0001-01-01T00:00:00Z","name_a2s":"Uncletopia | Chicago | 2 | All Maps","protocol":17,"map":"ctf_2fort","folder":"tf","game":"Team Fortress","app_id":440,"player_count":14,"max_players":24,"Bots":0,"server_type":"Dedicated","server_os":"Linux","password":true,"vac":true,"version":"7961495","steam_id":85568392924469985,"keywords":["ctf","nocrits","nodmgspread","uncletopia"],"game_id":440,"stv_port":27026,"stv_name":"Uncletopia | Chicago | 2 | All Maps | STV","players":[{"user_id":807,"name":"Thumbs","steam_id":76561199065890132,"connected_time":236000000000,"state":"active","ping":57},{"user_id":762,"name":"ToroKe","steam_id":76561198078873266,"connected_time":4689000000000,"state":"active","ping":80},{"user_id":808,"name":"Squiliam","steam_id":76561198025278006,"connected_time":207000000000,"state":"active","ping":67},{"user_id":730,"name":"Raccoon Wizard","steam_id":76561198072562591,"connected_time":7066000000000,"state":"active","ping":75},{"user_id":810,"name":"Green Guy","steam_id":76561198152052195,"connected_time":57000000000,"state":"active","ping":56},{"user_id":809,"name":"Pipnirsian","steam_id":76561198380976416,"connected_time":179000000000,"state":"active","ping":72},{"user_id":806,"name":"drujnk falloyuj","steam_id":76561198066068001,"connected_time":356000000000,"state":"active","ping":69},{"user_id":777,"name":"Ping","steam_id":76561198072947773,"connected_time":3799000000000,"state":"active","ping":60},{"user_id":776,"name":"bee","steam_id":76561198025553902,"connected_time":3913000000000,"state":"active","ping":45},{"user_id":768,"name":"chickenburger","steam_id":76561198052576801,"connected_time":4117000000000,"state":"active","ping":54},{"user_id":786,"name":"slowdance","steam_id":76561198097427947,"connected_time":3030000000000,"state":"active","ping":147},{"user_id":782,"name":"Faye (she/her)","steam_id":76561198112184924,"connected_time":3139000000000,"state":"active","ping":65},{"user_id":789,"name":"IMM0RTAL","steam_id":76561198013747901,"connected_time":3018000000000,"state":"active","ping":65},{"user_id":766,"name":"never knows best","steam_id":76561197989933601,"connected_time":4234000000000,"state":"active","ping":96}]},{"server_id":402,"name":"Uncletopia | Chicago | 3 | All Maps","name_short":"chi-3","host":"chi-1.us.uncletopia.com","port":27035,"enabled":true,"region":"us-central","cc":"us","latitude":41.881832,"longitude":-87.62318,"reserved":0,"last_update":"0001-01-01T00:00:00Z","name_a2s":"Uncletopia | Chicago | 3 | All Maps","protocol":17,"map":"koth_suijin","folder":"tf","game":"Team Fortress","app_id":440,"player_count":24,"max_players":24,"Bots":0,"server_type":"Dedicated","server_os":"Linux","password":true,"vac":true,"version":"7961495","steam_id":85568392924515191,"keywords":["cp","nocrits","nodmgspread","uncletopia"],"game_id":440,"stv_port":27036,"stv_name":"Uncletopia | Chicago | 3 | All Maps | STV","players":[{"user_id":366,"name":"Greasy Guavas","steam_id":76561198089650428,"connected_time":1083000000000,"state":"active","ping":87},{"user_id":353,"name":"Neytir","steam_id":76561198124555175,"connected_time":1835000000000,"state":"active","ping":89},{"user_id":383,"name":"thug shaker mind control","steam_id":76561198984612489,"connected_time":326000000000,"state":"active","ping":92},{"user_id":375,"name":"WAKEUP!","steam_id":76561198254479725,"connected_time":484000000000,"state":"active","ping":45},{"user_id":387,"name":"Brobespierre","steam_id":76561198022225667,"connected_time":198000000000,"state":"active","ping":85},{"user_id":382,"name":"mild","steam_id":76561198082470182,"connected_time":331000000000,"state":"active","ping":91},{"user_id":388,"name":"cowboy","steam_id":76561198154393230,"connected_time":172000000000,"state":"active","ping":59},{"user_id":324,"name":"pnut","steam_id":76561198043862737,"connected_time":3084000000000,"state":"active","ping":58},{"user_id":291,"name":"vv","steam_id":76561198134813102,"connected_time":5534000000000,"state":"active","ping":53},{"user_id":390,"name":"(¬¥ÔΩ°‚Ä¢ œâ ‚Ä¢ÔΩ°`) ‚ô°","steam_id":76561198120326983,"connected_time":123000000000,"state":"active","ping":85},{"user_id":386,"name":"Dot.","steam_id":76561198149463984,"connected_time":249000000000,"state":"active","ping":47},{"user_id":379,"name":"The Juice","steam_id":76561198065307144,"connected_time":470000000000,"state":"active","ping":72},{"user_id":391,"name":"moonboy","steam_id":76561198172113657,"connected_time":92000000000,"state":"active","ping":92},{"user_id":359,"name":"cilvia demo listener 86","steam_id":76561198017539604,"connected_time":1521000000000,"state":"active","ping":74},{"user_id":378,"name":"ShadowBolt","steam_id":76561198061610985,"connected_time":476000000000,"state":"active","ping":98},{"user_id":380,"name":"KysonJack","steam_id":76561198024092248,"connected_time":438000000000,"state":"active","ping":104},{"user_id":392,"name":"sloth (be nice im cringe)","steam_id":76561198047098172,"connected_time":75000000000,"state":"active","ping":68},{"user_id":385,"name":"Poyo Boyo","steam_id":76561198010201227,"connected_time":285000000000,"state":"active","ping":77},{"user_id":393,"name":"HooHay","steam_id":76561199350870177,"connected_time":49000000000,"state":"active","ping":58},{"user_id":394,"name":":3","steam_id":76561198077449460,"connected_time":48000000000,"state":"active","ping":63},{"user_id":395,"name":"hounschellxd","steam_id":76561198165243870,"connected_time":40000000000,"state":"active","ping":71},{"user_id":354,"name":"Saul Goodman","steam_id":76561198157305426,"connected_time":1760000000000,"state":"active","ping":62},{"user_id":333,"name":"Kim Wexler","steam_id":76561198964107245,"connected_time":2619000000000,"state":"active","ping":92},{"user_id":396,"name":"PEPSIMAN","steam_id":76561198045143630,"connected_time":31000000000,"state":"active","ping":90}]},{"server_id":403,"name":"Uncletopia | Chicago | 4 | All Maps","name_short":"chi-4","host":"chi-1.us.uncletopia.com","port":27045,"enabled":true,"region":"us-central","cc":"us","latitude":41.881832,"longitude":-87.62318,"reserved":0,"last_update":"0001-01-01T00:00:00Z","name_a2s":"Uncletopia | Chicago | 4 | All Maps","protocol":17,"map":"koth_harvest_final","folder":"tf","game":"Team Fortress","app_id":440,"player_count":24,"max_players":24,"Bots":0,"server_type":"Dedicated","server_os":"Linux","password":true,"vac":true,"version":"7961495","steam_id":85568392924515193,"keywords":["cp","nocrits","nodmgspread","uncletopia"],"game_id":440,"stv_port":27046,"stv_name":"Uncletopia | Chicago | 4 | All Maps | STV","players":[{"user_id":325,"name":"reymundo","steam_id":76561197989412830,"connected_time":1409000000000,"state":"active","ping":115},{"user_id":323,"name":"Iron","steam_id":76561198247918478,"connected_time":1475000000000,"state":"active","ping":90},{"user_id":350,"name":"when the","steam_id":76561198091875604,"connected_time":362000000000,"state":"active","ping":117},{"user_id":341,"name":"Aspxts","steam_id":76561199125254746,"connected_time":768000000000,"state":"active","ping":59},{"user_id":344,"name":"Kered13","steam_id":76561197985666167,"connected_time":638000000000,"state":"active","ping":55},{"user_id":266,"name":"zpalmtree","steam_id":76561198134307620,"connected_time":6896000000000,"state":"active","ping":69},{"user_id":339,"name":"BIG LION","steam_id":76561198091880358,"connected_time":833000000000,"state":"active","ping":44},{"user_id":326,"name":"caandnnzan","steam_id":76561198103496593,"connected_time":1388000000000,"state":"active","ping":61},{"user_id":345,"name":"+","steam_id":76561198262422184,"connected_time":469000000000,"state":"active","ping":76},{"user_id":329,"name":"D r e a d ‚ò¢üíØ","steam_id":76561198059216451,"connected_time":1310000000000,"state":"active","ping":78},{"user_id":303,"name":"golbat","steam_id":76561198041601161,"connected_time":3607000000000,"state":"active","ping":59},{"user_id":346,"name":"beef taquito","steam_id":76561198074722858,"connected_time":458000000000,"state":"active","ping":79},{"user_id":292,"name":"wunkem","steam_id":76561198055948497,"connected_time":4597000000000,"state":"active","ping":64},{"user_id":330,"name":"üÖúüÖîüÖîüÖöüÖ¢üÖ£üÖî\ufffd\ufffd\ufffd","steam_id":76561197999748343,"connected_time":1308000000000,"state":"active","ping":61},{"user_id":343,"name":"Amish Robot","steam_id":76561198041156065,"connected_time":693000000000,"state":"active","ping":81},{"user_id":331,"name":"mistib7","steam_id":76561198219911404,"connected_time":1292000000000,"state":"active","ping":80},{"user_id":347,"name":"uppercut","steam_id":76561198059164438,"connected_time":447000000000,"state":"active","ping":66},{"user_id":352,"name":"Tommy Pickles (Very Cool)","steam_id":76561198391261463,"connected_time":130000000000,"state":"active","ping":69},{"user_id":349,"name":"_4ce","steam_id":76561198109077451,"connected_time":406000000000,"state":"active","ping":57},{"user_id":334,"name":"Wiggle Wiggle","steam_id":76561199053447896,"connected_time":1207000000000,"state":"active","ping":83},{"user_id":316,"name":"WalrusNyetheBonkGuy","steam_id":76561197995626774,"connected_time":2229000000000,"state":"active","ping":115},{"user_id":336,"name":"The_Swan101","steam_id":76561198255629546,"connected_time":1197000000000,"state":"active","ping":72},{"user_id":300,"name":"Six Piece Chicken McNobody","steam_id":76561198129848222,"connected_time":4471000000000,"state":"active","ping":66},{"user_id":351,"name":"frank","steam_id":76561198045436159,"connected_time":332000000000,"state":"active","ping":75}]},{"server_id":36,"name":"Uncletopia | Chicago | 5 | All Maps","name_short":"chi-5","host":"chi-2.us.uncletopia.com","port":27015,"enabled":true,"region":"us-central","cc":"us","latitude":41.881832,"longitude":-87.62318,"reserved":0,"last_update":"0001-01-01T00:00:00Z","name_a2s":"Uncletopia | Chicago | 5 | All Maps","protocol":17,"map":"pl_barnblitz","folder":"tf","game":"Team Fortress","app_id":440,"player_count":24,"max_players":24,"Bots":0,"server_type":"Dedicated","server_os":"Linux","password":true,"vac":true,"version":"7961495","steam_id":85568392924866362,"keywords":["nocrits","nodmgspread","payload","uncletopia"],"game_id":440,"stv_port":27016,"stv_name":"Uncletopia | Chicago | 5 | All Maps | STV","players":[{"user_id":287,"name":"dax","steam_id":76561198045335319,"connected_time":2666000000000,"state":"active","ping":97},{"user_id":314,"name":"Fiftystorm","steam_id":76561198296894704,"connected_time":381000000000,"state":"active","ping":53},{"user_id":261,"name":"SkeletonMeat","steam_id":76561198880490366,"connected_time":5131000000000,"state":"active","ping":77},{"user_id":309,"name":"big boobs","steam_id":76561198151150175,"connected_time":917000000000,"state":"active","ping":66},{"user_id":275,"name":"Weaponized autism","steam_id":76561198935994194,"connected_time":3497000000000,"state":"active","ping":115},{"user_id":247,"name":"ThiccyBoi","steam_id":76561198836540230,"connected_time":5916000000000,"state":"active","ping":49},{"user_id":297,"name":"StudioMania (#SAVETF2)","steam_id":76561198211315795,"connected_time":1787000000000,"state":"active","ping":67},{"user_id":172,"name":"MR SKELTAL","steam_id":76561198031089598,"connected_time":12105000000000,"state":"active","ping":71},{"user_id":276,"name":"Egg","steam_id":76561198097560878,"connected_time":3486000000000,"state":"active","ping":122},{"user_id":272,"name":"kim wexler","steam_id":76561199199795741,"connected_time":4077000000000,"state":"active","ping":68},{"user_id":299,"name":"Acorn","steam_id":76561198353480153,"connected_time":1665000000000,"state":"active","ping":57},{"user_id":311,"name":"CoffeeZombee","steam_id":76561198172708053,"connected_time":770000000000,"state":"active","ping":88},{"user_id":259,"name":"Jimmy McGill","steam_id":76561198135137213,"connected_time":5326000000000,"state":"active","ping":52},{"user_id":270,"name":"MONKEY | videogamer1002","steam_id":76561198157110599,"connected_time":4693000000000,"state":"active","ping":119},{"user_id":277,"name":"Mc Chicken","steam_id":76561199086138633,"connected_time":3485000000000,"state":"active","ping":118},{"user_id":264,"name":"Kazul","steam_id":76561198014925555,"connected_time":5088000000000,"state":"active","ping":51},{"user_id":282,"name":"smetc","steam_id":76561198240696986,"connected_time":3291000000000,"state":"active","ping":66},{"user_id":308,"name":"Yucky","steam_id":76561198077358516,"connected_time":1060000000000,"state":"active","ping":61},{"user_id":310,"name":"carne asada","steam_id":76561198108398751,"connected_time":884000000000,"state":"active","ping":61},{"user_id":290,"name":"frank","steam_id":76561198137777483,"connected_time":2464000000000,"state":"active","ping":61},{"user_id":285,"name":"aversa","steam_id":76561198840460101,"connected_time":3051000000000,"state":"active","ping":70},{"user_id":302,"name":"HUMBY","steam_id":76561198065045867,"connected_time":1552000000000,"state":"active","ping":87},{"user_id":295,"name":"rudy","steam_id":76561198088712799,"connected_time":1854000000000,"state":"active","ping":77},{"user_id":304,"name":"Waesel","steam_id":76561198069188177,"connected_time":1373000000000,"state":"active","ping":78}]},{"server_id":37,"name":"Uncletopia | Chicago | 6 | All Maps","name_short":"chi-6","host":"chi-2.us.uncletopia.com","port":27025,"enabled":true,"region":"us-central","cc":"us","latitude":41.881832,"longitude":-87.62318,"reserved":0,"last_update":"0001-01-01T00:00:00Z","name_a2s":"Uncletopia | Chicago | 6 | All Maps","protocol":17,"map":"koth_badlands","folder":"tf","game":"Team Fortress","app_id":440,"player_count":24,"max_players":24,"Bots":0,"server_type":"Dedicated","server_os":"Linux","password":true,"vac":true,"version":"7961495","steam_id":85568392924866363,"keywords":["cp","nocrits","nodmgspread","uncletopia"],"game_id":440,"stv_port":27026,"stv_name":"Uncletopia | Chicago | 6 | All Maps | STV","players":[{"user_id":470,"name":"Toxic Ron","steam_id":76561198089302972,"connected_time":4647000000000,"state":"active","ping":61},{"user_id":503,"name":"Kuber_Streamz","steam_id":76561198046008453,"connected_time":1802000000000,"state":"active","ping":47},{"user_id":514,"name":"crashymicsplody","steam_id":76561198213916765,"connected_time":738000000000,"state":"active","ping":67},{"user_id":497,"name":"Cl(here)?","steam_id":76561198069735882,"connected_time":2830000000000,"state":"active","ping":76},{"user_id":515,"name":"02vg3","steam_id":76561198404320154,"connected_time":664000000000,"state":"active","ping":114},{"user_id":504,"name":"Juri Han","steam_id":76561198041678517,"connected_time":1781000000000,"state":"active","ping":103},{"user_id":523,"name":"Joculatrix","steam_id":76561198012795457,"connected_time":23000000000,"state":"spawning","ping":70},{"user_id":451,"name":"Career","steam_id":76561198028542212,"connected_time":5775000000000,"state":"active","ping":75},{"user_id":406,"name":"TransPuppygirlUp4Adoption","steam_id":76561198085813708,"connected_time":10413000000000,"state":"active","ping":68},{"user_id":487,"name":"Keegs","steam_id":76561198346917831,"connected_time":3420000000000,"state":"active","ping":54},{"user_id":512,"name":"skegeton","steam_id":76561198095581099,"connected_time":1263000000000,"state":"active","ping":80},{"user_id":506,"name":"dunk","steam_id":76561198132476501,"connected_time":1757000000000,"state":"active","ping":53},{"user_id":463,"name":"a little guy","steam_id":76561198085888959,"connected_time":5141000000000,"state":"active","ping":56},{"user_id":517,"name":"bocaJ","steam_id":76561198374535092,"connected_time":509000000000,"state":"active","ping":81},{"user_id":499,"name":"existential trans philosopher","steam_id":76561199328635967,"connected_time":2185000000000,"state":"active","ping":67},{"user_id":519,"name":"Smog","steam_id":76561198043705383,"connected_time":373000000000,"state":"active","ping":75},{"user_id":498,"name":"austinsmith","steam_id":76561198167838540,"connected_time":2607000000000,"state":"active","ping":76},{"user_id":509,"name":"wintersalamander","steam_id":76561198067261793,"connected_time":1446000000000,"state":"active","ping":64},{"user_id":494,"name":"Artemisia (She/They)","steam_id":76561198265616793,"connected_time":3337000000000,"state":"active","ping":75},{"user_id":513,"name":"Bug","steam_id":76561198279239047,"connected_time":1220000000000,"state":"active","ping":82},{"user_id":495,"name":"Junipyre","steam_id":76561198044819364,"connected_time":3332000000000,"state":"active","ping":78},{"user_id":474,"name":"I'm a Fungi","steam_id":76561198061507741,"connected_time":4486000000000,"state":"active","ping":67},{"user_id":518,"name":"Ca$hman","steam_id":76561198153671643,"connected_time":483000000000,"state":"active","ping":60},{"user_id":484,"name":"Marcuso","steam_id":76561198117206414,"connected_time":3482000000000,"state":"active","ping":75}]},{"server_id":38,"name":"Uncletopia | Chicago | 7 | Stopwatch","name_short":"chi-7","host":"chi-2.us.uncletopia.com","port":27035,"enabled":true,"region":"us-central","cc":"us","latitude":41.881832,"longitude":-87.62318,"reserved":0,"last_update":"0001-01-01T00:00:00Z","name_a2s":"Uncletopia | Chicago | 7 | Stopwatch","protocol":17,"map":"koth_lakeside_final","folder":"tf","game":"Team Fortress","app_id":440,"player_count":0,"max_players":24,"Bots":0,"server_type":"Dedicated","server_os":"Linux","password":true,"vac":true,"version":"7961495","steam_id":85568392924866364,"keywords":["cp","nocrits","nodmgspread","uncletopia"],"game_id":440,"stv_port":27036,"stv_name":"Uncletopia | Chicago | 7 | Stopwatch | STV","players":null},{"server_id":39,"name":"Uncletopia | Chicago | 8 | Community","name_short":"chi-8","host":"chi-2.us.uncletopia.com","port":27045,"enabled":true,"region":"us-central","cc":"us","latitude":41.881832,"longitude":-87.62318,"reserved":0,"last_update":"0001-01-01T00:00:00Z","name_a2s":"Uncletopia | Chicago | 8 | Community","protocol":17,"map":"workshop/koth_ashville_final.ugc2130459942","folder":"tf","game":"Team Fortress","app_id":440,"player_count":0,"max_players":24,"Bots":0,"server_type":"Dedicated","server_os":"Linux","password":true,"vac":true,"version":"7961495","steam_id":85568392924866365,"keywords":["cp","nocrits","nodmgspread","uncletopia"],"game_id":440,"stv_port":27046,"stv_name":"Uncletopia | Chicago | 8 | Community | STV","players":null},{"server_id":8,"name":"Uncletopia | Dallas | 1 | All Maps","name_short":"dal-1","host":"dal-1.us.uncletopia.com","port":27015,"enabled":true,"region":"us-central","cc":"us","latitude":32.779167,"longitude":-96.80889,"reserved":0,"last_update":"0001-01-01T00:00:00Z","name_a2s":"Uncletopia | Dallas | 1 | All Maps","protocol":17,"map":"pl_swiftwater_final1","folder":"tf","game":"Team Fortress","app_id":440,"player_count":24,"max_players":24,"Bots":0,"server_type":"Dedicated","server_os":"Linux","password":true,"vac":true,"version":"7961495","steam_id":85568392924469986,"keywords":["nocrits","nodmgspread","payload","uncletopia"],"game_id":440,"stv_port":27016,"stv_name":"Uncletopia | Dallas | 1 | All Maps | STV","players":[{"user_id":504,"name":"H2OBourne","steam_id":76561198396293109,"connected_time":4709000000000,"state":"active","ping":64},{"user_id":519,"name":"meggie","steam_id":76561198038291026,"connected_time":3452000000000,"state":"active","ping":39},{"user_id":514,"name":"U œâ U","steam_id":76561198118802562,"connected_time":3786000000000,"state":"active","ping":84},{"user_id":538,"name":"Plant Enthusiast","steam_id":76561198045718960,"connected_time":2412000000000,"state":"active","ping":74},{"user_id":567,"name":"tsz","steam_id":76561199246231090,"connected_time":24000000000,"state":"active","ping":86},{"user_id":551,"name":"5yt LFB","steam_id":76561198041643833,"connected_time":1247000000000,"state":"active","ping":60},{"user_id":465,"name":"Rob","steam_id":76561199187786660,"connected_time":7960000000000,"state":"active","ping":50},{"user_id":555,"name":"Gamerfan64","steam_id":76561198801410962,"connected_time":739000000000,"state":"active","ping":126},{"user_id":506,"name":"BADWOLF42","steam_id":76561198055447523,"connected_time":4552000000000,"state":"active","ping":60},{"user_id":554,"name":"Hart","steam_id":76561199118241286,"connected_time":884000000000,"state":"active","ping":70},{"user_id":556,"name":"dick lovers rise up","steam_id":76561198095121758,"connected_time":736000000000,"state":"active","ping":76},{"user_id":563,"name":"FatSweatyBlackMan","steam_id":76561199020244051,"connected_time":77000000000,"state":"active","ping":98},{"user_id":568,"name":"cheetaz","steam_id":76561198224614084,"connected_time":15000000000,"state":"active","ping":73},{"user_id":565,"name":"Á¥ÖÈ¨çÂ≠ê","steam_id":76561198072410042,"connected_time":68000000000,"state":"active","ping":80},{"user_id":566,"name":"Laveza","steam_id":76561198337783651,"connected_time":51000000000,"state":"active","ping":49},{"user_id":550,"name":"Casual Jeff","steam_id":76561198040960580,"connected_time":1336000000000,"state":"active","ping":77},{"user_id":524,"name":"SubZeroDestruction","steam_id":76561198145082209,"connected_time":3174000000000,"state":"active","ping":80},{"user_id":552,"name":"Battle Bug","steam_id":76561198005793034,"connected_time":1226000000000,"state":"active","ping":102},{"user_id":535,"name":"cringeass nae-nae girl","steam_id":76561198108753857,"connected_time":2670000000000,"state":"active","ping":89},{"user_id":540,"name":"troubless","steam_id":76561198335431391,"connected_time":2256000000000,"state":"active","ping":64},{"user_id":557,"name":"I'mWillow","steam_id":76561198229691912,"connected_time":633000000000,"state":"active","ping":88},{"user_id":569,"name":"spaceboots","steam_id":76561197977322319,"connected_time":10000000000,"state":"spawning","ping":58},{"user_id":562,"name":"mos","steam_id":76561197995777973,"connected_time":394000000000,"state":"active","ping":95},{"user_id":561,"name":"a festive sooley","steam_id":76561198134500189,"connected_time":491000000000,"state":"active","ping":61}]},{"server_id":108,"name":"Uncletopia | Dallas | 2 | All Maps","name_short":"dal-2","host":"dal-1.us.uncletopia.com","port":27025,"enabled":true,"region":"us-central","cc":"us","latitude":32.779167,"longitude":-96.80889,"reserved":0,"last_update":"0001-01-01T00:00:00Z","name_a2s":"Uncletopia | Dallas | 2 | All Maps","protocol":17,"map":"pl_barnblitz","folder":"tf","game":"Team Fortress","app_id":440,"player_count":24,"max_players":24,"Bots":0,"server_type":"Dedicated","server_os":"Linux","password":true,"vac":true,"version":"7961495","steam_id":85568392924469988,"keywords":["nocrits","nodmgspread","payload","uncletopia"],"game_id":440,"stv_port":27026,"stv_name":"Uncletopia | Dallas | 2 | All Maps | STV","players":[{"user_id":865,"name":"„Äå E A S Y  G A M E ! ! ! „Äç","steam_id":76561198014847059,"connected_time":5164000000000,"state":"active","ping":119},{"user_id":917,"name":"The Pencil Cunts","steam_id":76561198272606252,"connected_time":1070000000000,"state":"active","ping":38},{"user_id":908,"name":"Plains Phoenix","steam_id":76561198817161299,"connected_time":1818000000000,"state":"active","ping":51},{"user_id":904,"name":"Greyline","steam_id":76561198019651823,"connected_time":1862000000000,"state":"active","ping":48},{"user_id":889,"name":"Dakota","steam_id":76561198134092308,"connected_time":2698000000000,"state":"active","ping":60},{"user_id":925,"name":"SleepyScotoplanesTTV","steam_id":76561198968140914,"connected_time":308000000000,"state":"active","ping":71},{"user_id":926,"name":"head in the ceiling fan","steam_id":76561198420237035,"connected_time":35000000000,"state":"active","ping":104},{"user_id":878,"name":"Soldier TF2","steam_id":76561198414675183,"connected_time":3102000000000,"state":"active","ping":64},{"user_id":906,"name":"Krackman","steam_id":76561198868818762,"connected_time":1851000000000,"state":"active","ping":44},{"user_id":909,"name":"The Horselords and Animal Gods","steam_id":76561197975094050,"connected_time":1804000000000,"state":"active","ping":94},{"user_id":910,"name":"Dreamy Sweat from 2hu","steam_id":76561198094602446,"connected_time":1793000000000,"state":"active","ping":96},{"user_id":923,"name":"Abacus","steam_id":76561197999447991,"connected_time":717000000000,"state":"active","ping":72},{"user_id":918,"name":"webaline  =Ôºæ‚óè ‚ãè ‚óèÔºæ=","steam_id":76561199052450127,"connected_time":1028000000000,"state":"active","ping":79},{"user_id":911,"name":"Ok then","steam_id":76561198891914787,"connected_time":1793000000000,"state":"active","ping":85},{"user_id":903,"name":"Iron Tankris","steam_id":76561198002008540,"connected_time":2040000000000,"state":"active","ping":63},{"user_id":920,"name":"Woozy","steam_id":76561198008220735,"connected_time":782000000000,"state":"active","ping":64},{"user_id":912,"name":"Thiodag","steam_id":76561198088165991,"connected_time":1781000000000,"state":"active","ping":100},{"user_id":913,"name":"The Senate","steam_id":76561198143882626,"connected_time":1775000000000,"state":"active","ping":116},{"user_id":902,"name":"basilberry","steam_id":76561198145275937,"connected_time":2241000000000,"state":"active","ping":69},{"user_id":895,"name":"Donnie","steam_id":76561198837857545,"connected_time":2656000000000,"state":"active","ping":165},{"user_id":919,"name":"LazySushi","steam_id":76561198043802202,"connected_time":947000000000,"state":"active","ping":77},{"user_id":897,"name":"robloxscream","steam_id":76561199048027781,"connected_time":2616000000000,"state":"active","ping":118},{"user_id":863,"name":"Doper","steam_id":76561198880448336,"connected_time":5351000000000,"state":"active","ping":68},{"user_id":817,"name":"Soviet Potato","steam_id":76561198068546113,"connected_time":8311000000000,"state":"active","ping":81}]},{"server_id":404,"name":"Uncletopia | Dallas | 3 | All Maps","name_short":"dal-3","host":"dal-1.us.uncletopia.com","port":27035,"enabled":true,"region":"us-central","cc":"us","latitude":32.779167,"longitude":-96.80889,"reserved":0,"last_update":"0001-01-01T00:00:00Z","name_a2s":"Uncletopia | Dallas | 3 | All Maps","protocol":17,"map":"pl_pier","folder":"tf","game":"Team Fortress","app_id":440,"player_count":24,"max_players":24,"Bots":0,"server_type":"Dedicated","server_os":"Linux","password":true,"vac":true,"version":"7961495","steam_id":85568392924515219,"keywords":["nocrits","nodmgspread","payload","uncletopia"],"game_id":440,"stv_port":27036,"stv_name":"Uncletopia | Dallas | 3 | All Maps | STV","players":[{"user_id":324,"name":"Legit_Jaxer","steam_id":76561198172234053,"connected_time":1399000000000,"state":"active","ping":111},{"user_id":306,"name":"Chemzo","steam_id":76561199092858118,"connected_time":2374000000000,"state":"active","ping":76},{"user_id":293,"name":"R3S0LVE_","steam_id":76561198389201130,"connected_time":3338000000000,"state":"active","ping":87},{"user_id":325,"name":"Fatass Hennessy Sargent","steam_id":76561198363267009,"connected_time":1358000000000,"state":"active","ping":45},{"user_id":285,"name":"Cataphract","steam_id":76561198006995041,"connected_time":3732000000000,"state":"active","ping":106},{"user_id":311,"name":"Sir_Mr_The_3rd_Esq","steam_id":76561198354417220,"connected_time":2166000000000,"state":"active","ping":61},{"user_id":317,"name":"Snowyyyyyyy","steam_id":76561199008683465,"connected_time":2040000000000,"state":"active","ping":110},{"user_id":302,"name":"xLeoparrd","steam_id":76561198940657194,"connected_time":2835000000000,"state":"active","ping":60},{"user_id":313,"name":"radiantlight123","steam_id":76561198161638571,"connected_time":2120000000000,"state":"active","ping":71},{"user_id":335,"name":"Moth Beam","steam_id":76561198005069202,"connected_time":420000000000,"state":"active","ping":50},{"user_id":331,"name":"Fyr","steam_id":76561198048507556,"connected_time":885000000000,"state":"active","ping":46},{"user_id":333,"name":"nascarfan1966@hotmail.com","steam_id":76561198046972750,"connected_time":749000000000,"state":"active","ping":84},{"user_id":287,"name":"BMX Tyler Marine to Fujoshi","steam_id":76561198117294436,"connected_time":3698000000000,"state":"active","ping":99},{"user_id":288,"name":"toilet water sommelier","steam_id":76561198023740285,"connected_time":3693000000000,"state":"active","ping":85},{"user_id":334,"name":"KATSURB","steam_id":76561199172118456,"connected_time":727000000000,"state":"active","ping":67},{"user_id":290,"name":"dog","steam_id":76561198263873491,"connected_time":3671000000000,"state":"active","ping":60},{"user_id":336,"name":"Kramer's Apology (Full Video)","steam_id":76561198009339435,"connected_time":380000000000,"state":"active","ping":55},{"user_id":315,"name":"Refreshments, anyone?","steam_id":76561198011675372,"connected_time":2077000000000,"state":"active","ping":112},{"user_id":316,"name":"Element 38","steam_id":76561198112056276,"connected_time":2076000000000,"state":"active","ping":112},{"user_id":267,"name":"Bubtit","steam_id":76561199138751788,"connected_time":4763000000000,"state":"active","ping":67},{"user_id":327,"name":"goooot","steam_id":76561198155591052,"connected_time":1290000000000,"state":"active","ping":57},{"user_id":330,"name":"ellby","steam_id":76561198304585963,"connected_time":1164000000000,"state":"active","ping":73},{"user_id":300,"name":"Soju","steam_id":76561198044130442,"connected_time":2973000000000,"state":"active","ping":59}]},{"server_id":405,"name":"Uncletopia | Dallas | 4 | Community","name_short":"dal-4","host":"dal-1.us.uncletopia.com","port":27045,"enabled":true,"region":"us-central","cc":"us","latitude":32.779167,"longitude":-96.80889,"reserved":0,"last_update":"0001-01-01T00:00:00Z","name_a2s":"Uncletopia | Dallas | 4 | Community","protocol":17,"map":"workshop/pl_barnblitz_pro7.ugc582280235","folder":"tf","game":"Team Fortress","app_id":440,"player_count":0,"max_players":24,"Bots":0,"server_type":"Dedicated","server_os":"Linux","password":true,"vac":true,"version":"7961495","steam_id":85568392924515220,"keywords":["nocrits","nodmgspread","payload","uncletopia"],"game_id":440,"stv_port":27046,"stv_name":"Uncletopia | Dallas | 4 | Community | STV","players":null},{"server_id":5,"name":"Uncletopia | Frankfurt | 1 | All Maps","name_short":"frk-1","host":"frk-1.de.uncletopia.com","port":27015,"enabled":true,"region":"eu","cc":"de","latitude":50.110924,"longitude":8.682127,"reserved":0,"last_update":"0001-01-01T00:00:00Z","name_a2s":"Uncletopia | Frankfurt | 1 | All Maps","protocol":17,"map":"koth_highpass","folder":"tf","game":"Team Fortress","app_id":440,"player_count":0,"max_players":24,"Bots":0,"server_type":"Dedicated","server_os":"Linux","password":true,"vac":true,"version":"7961495","steam_id":85568392924469989,"keywords":["cp","nocrits","nodmgspread","uncletopia"],"game_id":440,"stv_port":27016,"stv_name":"Uncletopia | Frankfurt | 1 | All Maps | STV","players":null},{"server_id":110,"name":"Uncletopia | Frankfurt | 2 | All Maps","name_short":"frk-2","host":"frk-1.de.uncletopia.com","port":27025,"enabled":true,"region":"eu","cc":"de","latitude":50.110924,"longitude":8.682127,"reserved":0,"last_update":"0001-01-01T00:00:00Z","name_a2s":"Uncletopia | Frankfurt | 2 | All Maps","protocol":17,"map":"cp_dustbowl","folder":"tf","game":"Team Fortress","app_id":440,"player_count":0,"max_players":24,"Bots":0,"server_type":"Dedicated","server_os":"Linux","password":true,"vac":true,"version":"7961495","steam_id":85568392924469990,"keywords":["cp","nocrits","nodmgspread","uncletopia"],"game_id":440,"stv_port":27026,"stv_name":"Uncletopia | Frankfurt | 2 | All Maps | STV","players":null},{"server_id":308,"name":"Uncletopia | Frankfurt | 3 | All Maps","name_short":"frk-3","host":"frk-1.de.uncletopia.com","port":27035,"enabled":true,"region":"eu","cc":"de","latitude":50.110924,"longitude":8.682127,"reserved":0,"last_update":"0001-01-01T00:00:00Z","name_a2s":"Uncletopia | Frankfurt | 3 | All Maps","protocol":17,"map":"pl_barnblitz","folder":"tf","game":"Team Fortress","app_id":440,"player_count":0,"max_players":24,"Bots":0,"server_type":"Dedicated","server_os":"Linux","password":true,"vac":true,"version":"7961495","steam_id":85568392924504274,"keywords":["nocrits","nodmgspread","payload","uncletopia"],"game_id":440,"stv_port":27036,"stv_name":"Uncletopia | Frankfurt | 3 | All Maps | STV","players":null},{"server_id":309,"name":"Uncletopia | Frankfurt | 4 | All Maps","name_short":"frk-4","host":"frk-1.de.uncletopia.com","port":27045,"enabled":true,"region":"eu","cc":"de","latitude":50.110924,"longitude":8.682127,"reserved":0,"last_update":"0001-01-01T00:00:00Z","name_a2s":"Uncletopia | Frankfurt | 4 | All Maps","protocol":17,"map":"koth_highpass","folder":"tf","game":"Team Fortress","app_id":440,"player_count":0,"max_players":24,"Bots":0,"server_type":"Dedicated","server_os":"Linux","password":true,"vac":true,"version":"7961495","steam_id":85568392924504275,"keywords":["cp","nocrits","nodmgspread","uncletopia"],"game_id":440,"stv_port":27046,"stv_name":"Uncletopia | Frankfurt | 4 | All Maps | STV","players":null},{"server_id":310,"name":"Uncletopia | Frankfurt | 5 | All Maps","name_short":"frk-5","host":"frk-1.de.uncletopia.com","port":27055,"enabled":true,"region":"eu","cc":"de","latitude":50.110924,"longitude":8.682127,"reserved":0,"last_update":"0001-01-01T00:00:00Z","name_a2s":"Uncletopia | Frankfurt | 5 | All Maps","protocol":17,"map":"pl_badwater","folder":"tf","game":"Team Fortress","app_id":440,"player_count":0,"max_players":24,"Bots":0,"server_type":"Dedicated","server_os":"Linux","password":true,"vac":true,"version":"7961495","steam_id":85568392924504277,"keywords":["nocrits","nodmgspread","payload","uncletopia"],"game_id":440,"stv_port":27056,"stv_name":"Uncletopia | Frankfurt | 5 | All Maps | STV","players":null},{"server_id":311,"name":"Uncletopia | Frankfurt | 6 | All Maps","name_short":"frk-6","host":"frk-1.de.uncletopia.com","port":27065,"enabled":true,"region":"eu","cc":"de","latitude":50.110924,"longitude":8.682127,"reserved":0,"last_update":"0001-01-01T00:00:00Z","name_a2s":"Uncletopia | Frankfurt | 6 | All Maps","protocol":17,"map":"cp_altitude","folder":"tf","game":"Team Fortress","app_id":440,"player_count":0,"max_players":24,"Bots":0,"server_type":"Dedicated","server_os":"Linux","password":true,"vac":true,"version":"7961495","steam_id":85568392924504278,"keywords":["cp","nocrits","nodmgspread","uncletopia"],"game_id":440,"stv_port":27066,"stv_name":"Uncletopia | Frankfurt | 6 | All Maps | STV","players":null},{"server_id":23,"name":"Uncletopia | Frankfurt | 7 | Stopwatch","name_short":"frk-7","host":"frk-1.de.uncletopia.com","port":27075,"enabled":true,"region":"eu","cc":"de","latitude":50.110924,"longitude":8.682127,"reserved":0,"last_update":"0001-01-01T00:00:00Z","name_a2s":"Uncletopia | Frankfurt | 7 | Stopwatch","protocol":17,"map":"pl_frontier_final","folder":"tf","game":"Team Fortress","app_id":440,"player_count":0,"max_players":24,"Bots":0,"server_type":"Dedicated","server_os":"Linux","password":true,"vac":true,"version":"7961495","steam_id":85568392924742827,"keywords":["nocrits","nodmgspread","payload","uncletopia"],"game_id":440,"stv_port":27076,"stv_name":"Uncletopia | Frankfurt | 7 | Stopwatch | STV","players":null},{"server_id":24,"name":"Uncletopia | Frankfurt | 8 | Community","name_short":"frk-8","host":"frk-1.de.uncletopia.com","port":27085,"enabled":true,"region":"eu","cc":"de","latitude":50.110924,"longitude":8.682127,"reserved":0,"last_update":"0001-01-01T00:00:00Z","name_a2s":"Uncletopia | Frankfurt | 8 | Community","protocol":17,"map":"cp_mountainlab","folder":"tf","game":"Team Fortress","app_id":440,"player_count":0,"max_players":24,"Bots":0,"server_type":"Dedicated","server_os":"Linux","password":true,"vac":true,"version":"7961495","steam_id":85568392924742828,"keywords":["cp","nocrits","nodmgspread","uncletopia"],"game_id":440,"stv_port":27086,"stv_name":"Uncletopia | Frankfurt | 8 | Community | STV","players":null},{"server_id":202,"name":"Uncletopia | Hong Kong | 1 | All Maps","name_short":"hgk-1","host":"hgk-1.hk.uncletopia.com","port":27015,"enabled":true,"region":"asia","cc":"hk","latitude":22.302711,"longitude":114.177216,"reserved":0,"last_update":"0001-01-01T00:00:00Z","name_a2s":"Uncletopia | Hong Kong | 1 | All Maps","protocol":17,"map":"pl_borneo","folder":"tf","game":"Team Fortress","app_id":440,"player_count":1,"max_players":24,"Bots":0,"server_type":"Dedicated","server_os":"Linux","password":true,"vac":true,"version":"7961495","steam_id":85568392924494504,"keywords":["nocrits","nodmgspread","payload","uncletopia"],"game_id":440,"stv_port":27016,"stv_name":"Uncletopia | Hong Kong | 1 | All Maps | STV","players":[{"user_id":9,"name":"Shades on Goggles","steam_id":76561198406067629,"connected_time":163000000000,"state":"active","ping":54}]},{"server_id":1,"name":"Uncletopia | Los Angeles | 1 | All Maps","name_short":"lax-1","host":"lax-1.us.uncletopia.com","port":27015,"enabled":true,"region":"us-west","cc":"us","latitude":33.94279,"longitude":-118.41004,"reserved":0,"last_update":"0001-01-01T00:00:00Z","name_a2s":"Uncletopia | Los Angeles | 1 | All Maps","protocol":17,"map":"pl_borneo","folder":"tf","game":"Team Fortress","app_id":440,"player_count":24,"max_players":24,"Bots":0,"server_type":"Dedicated","server_os":"Linux","password":true,"vac":true,"version":"7961495","steam_id":85568392924469991,"keywords":["nocrits","nodmgspread","payload","uncletopia"],"game_id":440,"stv_port":27016,"stv_name":"Uncletopia | Los Angeles | 1 | All Maps | STV","players":[{"user_id":255,"name":"Eric4bz","steam_id":76561198054439606,"connected_time":133000000000,"state":"active","ping":99},{"user_id":249,"name":"Pah-Wraith Gul Dukat","steam_id":76561198033918106,"connected_time":478000000000,"state":"active","ping":53},{"user_id":252,"name":"wireless xbox 360 controller","steam_id":76561198451812135,"connected_time":268000000000,"state":"active","ping":110},{"user_id":214,"name":"bong fellow","steam_id":76561198334044006,"connected_time":3504000000000,"state":"active","ping":43},{"user_id":216,"name":"sobaka","steam_id":76561198116008934,"connected_time":3339000000000,"state":"active","ping":58},{"user_id":231,"name":"gugcat","steam_id":76561198129822860,"connected_time":2113000000000,"state":"active","ping":91},{"user_id":242,"name":"Mighty Morphin Flower Arrangers","steam_id":76561198133158032,"connected_time":1024000000000,"state":"active","ping":78},{"user_id":186,"name":"Bloodgoat","steam_id":76561198047407295,"connected_time":5650000000000,"state":"active","ping":70},{"user_id":248,"name":"ShadowDragon0125","steam_id":76561198343849022,"connected_time":651000000000,"state":"active","ping":83},{"user_id":253,"name":"soltuno","steam_id":76561198074430565,"connected_time":212000000000,"state":"active","ping":65},{"user_id":221,"name":"Dr. Kaine","steam_id":76561197982183984,"connected_time":2900000000000,"state":"active","ping":122},{"user_id":254,"name":"Ray","steam_id":76561198015119575,"connected_time":208000000000,"state":"active","ping":84},{"user_id":256,"name":"crankshaft","steam_id":76561197992798282,"connected_time":38000000000,"state":"active","ping":45},{"user_id":210,"name":"Canned Bread","steam_id":76561198354916213,"connected_time":3686000000000,"state":"active","ping":70},{"user_id":211,"name":"triph","steam_id":76561198067196509,"connected_time":3616000000000,"state":"active","ping":37},{"user_id":246,"name":"Jest","steam_id":76561198170173062,"connected_time":755000000000,"state":"active","ping":54},{"user_id":250,"name":"SHADOW","steam_id":76561198207768148,"connected_time":418000000000,"state":"active","ping":60},{"user_id":243,"name":"Danny Fentanyl","steam_id":76561197970791798,"connected_time":1010000000000,"state":"active","ping":62},{"user_id":190,"name":"Captain Frank","steam_id":76561198802143478,"connected_time":5585000000000,"state":"active","ping":108},{"user_id":244,"name":"Atomic Waffles","steam_id":76561197970935570,"connected_time":988000000000,"state":"active","ping":112},{"user_id":198,"name":"dewey","steam_id":76561198132791511,"connected_time":4719000000000,"state":"active","ping":57},{"user_id":234,"name":"bird enthusiast","steam_id":76561198087661713,"connected_time":2095000000000,"state":"active","ping":108},{"user_id":236,"name":"Droozlex","steam_id":76561198157221366,"connected_time":1366000000000,"state":"active","ping":72},{"user_id":199,"name":"Silvermace","steam_id":76561198090696843,"connected_time":4719000000000,"state":"active","ping":44}]},{"server_id":112,"name":"Uncletopia | Los Angeles | 2 | All Maps","name_short":"lax-2","host":"lax-1.us.uncletopia.com","port":27025,"enabled":true,"region":"us-west","cc":"us","latitude":33.94279,"longitude":-118.41004,"reserved":0,"last_update":"0001-01-01T00:00:00Z","name_a2s":"Uncletopia | Los Angeles | 2 | All Maps","protocol":17,"map":"cp_sunshine","folder":"tf","game":"Team Fortress","app_id":440,"player_count":24,"max_players":24,"Bots":0,"server_type":"Dedicated","server_os":"Linux","password":true,"vac":true,"version":"7961495","steam_id":85568392924469992,"keywords":["cp","nocrits","nodmgspread","uncletopia"],"game_id":440,"stv_port":27026,"stv_name":"Uncletopia | Los Angeles | 2 | All Maps | STV","players":[{"user_id":389,"name":"All Tomorrow's Parties","steam_id":76561197995936212,"connected_time":1478000000000,"state":"active","ping":75},{"user_id":338,"name":"Pile of Spinach","steam_id":76561198043068841,"connected_time":5532000000000,"state":"active","ping":64},{"user_id":401,"name":"Bottom Fragger","steam_id":76561198044071055,"connected_time":68000000000,"state":"active","ping":88},{"user_id":374,"name":"CartoonTheToon","steam_id":76561198359882855,"connected_time":2391000000000,"state":"active","ping":68},{"user_id":384,"name":"Re:Zero (SEASON 3 BABY!!!!)","steam_id":76561198171821345,"connected_time":1753000000000,"state":"active","ping":55},{"user_id":397,"name":"shadowstorm","steam_id":76561198059643795,"connected_time":963000000000,"state":"active","ping":92},{"user_id":388,"name":"Future Tusk","steam_id":76561198199635217,"connected_time":1631000000000,"state":"active","ping":57},{"user_id":365,"name":"Crazy Hungarian","steam_id":76561198025498172,"connected_time":3489000000000,"state":"active","ping":88},{"user_id":371,"name":"lime creator","steam_id":76561198074047574,"connected_time":2487000000000,"state":"active","ping":74},{"user_id":366,"name":"glue","steam_id":76561198382076026,"connected_time":3488000000000,"state":"active","ping":53},{"user_id":390,"name":"Bcuz","steam_id":76561197981318027,"connected_time":1430000000000,"state":"active","ping":69},{"user_id":347,"name":"Gerbias","steam_id":76561198001002427,"connected_time":4971000000000,"state":"active","ping":68},{"user_id":394,"name":"Amogous Supreme","steam_id":76561198025476774,"connected_time":1183000000000,"state":"active","ping":69},{"user_id":334,"name":"tum","steam_id":76561198084712019,"connected_time":6029000000000,"state":"active","ping":55},{"user_id":379,"name":"CatLike Pigeon","steam_id":76561198171716030,"connected_time":1953000000000,"state":"active","ping":84},{"user_id":400,"name":"CaptainPikachu","steam_id":76561198075667401,"connected_time":368000000000,"state":"active","ping":85},{"user_id":283,"name":"I GOT LAID AT SHEN YUN 2023","steam_id":76561198844003641,"connected_time":9567000000000,"state":"active","ping":63},{"user_id":392,"name":"Bocchi the Rock Johnson","steam_id":76561198216017952,"connected_time":1397000000000,"state":"active","ping":152},{"user_id":350,"name":"tkeati","steam_id":76561198056356574,"connected_time":4887000000000,"state":"active","ping":75},{"user_id":395,"name":"Rock Kickass","steam_id":76561198450510841,"connected_time":1152000000000,"state":"active","ping":89},{"user_id":342,"name":"Steejans","steam_id":76561198053211279,"connected_time":5057000000000,"state":"active","ping":81},{"user_id":387,"name":"californjoe","steam_id":76561197965047795,"connected_time":1748000000000,"state":"active","ping":55},{"user_id":359,"name":"Pie","steam_id":76561198054721133,"connected_time":4374000000000,"state":"active","ping":58},{"user_id":393,"name":"Groovy??","steam_id":76561198125447760,"connected_time":1389000000000,"state":"active","ping":59}]},{"server_id":324,"name":"Uncletopia | Los Angeles | 3 | All Maps","name_short":"lax-3","host":"lax-1.us.uncletopia.com","port":27035,"enabled":true,"region":"us-west","cc":"us","latitude":33.94279,"longitude":-118.41004,"reserved":0,"last_update":"0001-01-01T00:00:00Z","name_a2s":"Uncletopia | Los Angeles | 3 | All Maps","protocol":17,"map":"pl_upward","folder":"tf","game":"Team Fortress","app_id":440,"player_count":19,"max_players":24,"Bots":0,"server_type":"Dedicated","server_os":"Linux","password":true,"vac":true,"version":"7961495","steam_id":85568392924510198,"keywords":["cp","nocrits","nodmgspread","uncletopia"],"game_id":440,"stv_port":27036,"stv_name":"Uncletopia | Los Angeles | 3 | All Maps | STV","players":[{"user_id":203,"name":"Moe Fugga","steam_id":76561198102044366,"connected_time":1404000000000,"state":"connecting","ping":87},{"user_id":212,"name":"Gallus Domesticus","steam_id":76561198137242703,"connected_time":1215000000000,"state":"connecting","ping":80},{"user_id":218,"name":"litroolay","steam_id":76561197995226856,"connected_time":1028000000000,"state":"connecting","ping":76},{"user_id":211,"name":"Macal Media","steam_id":76561199107755177,"connected_time":1304000000000,"state":"connecting","ping":62},{"user_id":213,"name":"Gourmet Swain","steam_id":76561198046942967,"connected_time":1161000000000,"state":"connecting","ping":77},{"user_id":204,"name":"Kidney_Tickler","steam_id":76561199221125824,"connected_time":1371000000000,"state":"connecting","ping":63},{"user_id":214,"name":"LeadButterTF2","steam_id":76561198260530863,"connected_time":1145000000000,"state":"connecting","ping":54},{"user_id":215,"name":"FI LO","steam_id":76561198976530881,"connected_time":1137000000000,"state":"connecting","ping":39},{"user_id":217,"name":"celestia ludenberg","steam_id":76561199196437823,"connected_time":1084000000000,"state":"connecting","ping":73},{"user_id":219,"name":"aBigPoo","steam_id":76561198425027856,"connected_time":1014000000000,"state":"connecting","ping":69},{"user_id":190,"name":"LesserAce","steam_id":76561198153258132,"connected_time":2210000000000,"state":"connecting","ping":122},{"user_id":225,"name":"PinguEnjoyer6","steam_id":76561199186723516,"connected_time":622000000000,"state":"connecting","ping":60},{"user_id":199,"name":"Evelyn!","steam_id":76561198881145760,"connected_time":1595000000000,"state":"connecting","ping":57},{"user_id":226,"name":"mentos14","steam_id":76561198097993629,"connected_time":601000000000,"state":"connecting","ping":51},{"user_id":228,"name":"luigiclub","steam_id":76561198180548194,"connected_time":150000000000,"state":"connecting","ping":127},{"user_id":160,"name":"vvitch","steam_id":76561198279661941,"connected_time":5190000000000,"state":"connecting","ping":59},{"user_id":227,"name":"Firedust19","steam_id":76561198153238631,"connected_time":410000000000,"state":"connecting","ping":65},{"user_id":222,"name":"Ectremar","steam_id":76561198045917706,"connected_time":969000000000,"state":"connecting","ping":74},{"user_id":229,"name":"megaroboleg","steam_id":76561198844644993,"connected_time":49000000000,"state":"connecting","ping":57}]},{"server_id":25,"name":"Uncletopia | Los Angeles | 4 | Stopwatch","name_short":"lax-4","host":"lax-1.us.uncletopia.com","port":27045,"enabled":true,"region":"us-west","cc":"us","latitude":33.94279,"longitude":-118.41004,"reserved":0,"last_update":"0001-01-01T00:00:00Z","name_a2s":"Uncletopia | Los Angeles | 4 | Stopwatch","protocol":17,"map":"workshop/koth_ashville_final.ugc2130459942","folder":"tf","game":"Team Fortress","app_id":440,"player_count":0,"max_players":24,"Bots":0,"server_type":"Dedicated","server_os":"Linux","password":true,"vac":true,"version":"7961495","steam_id":85568392924510199,"keywords":["cp","nocrits","nodmgspread","uncletopia"],"game_id":440,"stv_port":27046,"stv_name":"Uncletopia | Los Angeles | 4 | Stopwatch | STV","players":null},{"server_id":11,"name":"Uncletopia | London | 1 | All Maps","name_short":"lon-1","host":"lon-1.uk.uncletopia.com","port":27015,"enabled":true,"region":"eu","cc":"gb","latitude":51.509865,"longitude":-0.118092,"reserved":0,"last_update":"0001-01-01T00:00:00Z","name_a2s":"Uncletopia | London | 1 | All Maps","protocol":17,"map":"cp_mountainlab","folder":"tf","game":"Team Fortress","app_id":440,"player_count":7,"max_players":24,"Bots":0,"server_type":"Dedicated","server_os":"Linux","password":true,"vac":true,"version":"7961495","steam_id":85568392924367362,"keywords":["cp","nocrits","nodmgspread","uncletopia"],"game_id":440,"stv_port":27016,"stv_name":"Uncletopia | London | 1 | All Maps | STV","players":[{"user_id":903,"name":"MrPhoton","steam_id":76561198080416050,"connected_time":2354000000000,"state":"active","ping":128},{"user_id":914,"name":"jcometa08","steam_id":76561199231413504,"connected_time":13000000000,"state":"active","ping":271},{"user_id":902,"name":"saskberrypie","steam_id":76561199213965613,"connected_time":2437000000000,"state":"active","ping":131},{"user_id":908,"name":"–µ–±—É—á–∏–π —Å–ª—É—á–∞–π","steam_id":76561199087920612,"connected_time":591000000000,"state":"active","ping":126},{"user_id":904,"name":"Zero Sleep Gaming","steam_id":76561198982674420,"connected_time":2323000000000,"state":"active","ping":39},{"user_id":911,"name":"Deemask√©","steam_id":76561199225833593,"connected_time":301000000000,"state":"active","ping":47},{"user_id":913,"name":"Eirnix","steam_id":76561198353799435,"connected_time":42000000000,"state":"active","ping":105}]},{"server_id":114,"name":"Uncletopia | London | 2 | All Maps","name_short":"lon-2","host":"lon-1.uk.uncletopia.com","port":27025,"enabled":true,"region":"eu","cc":"gb","latitude":51.509865,"longitude":-0.118092,"reserved":0,"last_update":"0001-01-01T00:00:00Z","name_a2s":"Uncletopia | London | 2 | All Maps","protocol":17,"map":"pl_borneo","folder":"tf","game":"Team Fortress","app_id":440,"player_count":0,"max_players":24,"Bots":0,"server_type":"Dedicated","server_os":"Linux","password":true,"vac":true,"version":"7961495","steam_id":85568392924470941,"keywords":["nocrits","nodmgspread","payload","uncletopia"],"game_id":440,"stv_port":27026,"stv_name":"Uncletopia | London | 2 | All Maps | STV","players":null},{"server_id":320,"name":"Uncletopia | London | 3 | All Maps","name_short":"lon-3","host":"lon-1.uk.uncletopia.com","port":27035,"enabled":true,"region":"eu","cc":"gb","latitude":51.509865,"longitude":-0.118092,"reserved":0,"last_update":"0001-01-01T00:00:00Z","name_a2s":"Uncletopia | London | 3 | All Maps","protocol":17,"map":"pl_borneo","folder":"tf","game":"Team Fortress","app_id":440,"player_count":0,"max_players":24,"Bots":0,"server_type":"Dedicated","server_os":"Linux","password":true,"vac":true,"version":"7961495","steam_id":85568392924510192,"keywords":["nocrits","nodmgspread","payload","uncletopia"],"game_id":440,"stv_port":27036,"stv_name":"Uncletopia | London | 3 | All Maps | STV","players":null},{"server_id":321,"name":"Uncletopia | London | 4 | All Maps","name_short":"lon-4","host":"lon-1.uk.uncletopia.com","port":27045,"enabled":true,"region":"eu","cc":"gb","latitude":51.509865,"longitude":-0.118092,"reserved":0,"last_update":"0001-01-01T00:00:00Z","name_a2s":"Uncletopia | London | 4 | All Maps","protocol":17,"map":"pl_borneo","folder":"tf","game":"Team Fortress","app_id":440,"player_count":0,"max_players":24,"Bots":0,"server_type":"Dedicated","server_os":"Linux","password":true,"vac":true,"version":"7961495","steam_id":85568392924510193,"keywords":["nocrits","nodmgspread","payload","uncletopia"],"game_id":440,"stv_port":27046,"stv_name":"Uncletopia | London | 4 | All Maps | STV","players":null},{"server_id":21,"name":"Uncletopia | London | 5 | All Maps","name_short":"lon-5","host":"lon-1.uk.uncletopia.com","port":27055,"enabled":true,"region":"eu","cc":"gb","latitude":51.509865,"longitude":-0.118092,"reserved":0,"last_update":"0001-01-01T00:00:00Z","name_a2s":"Uncletopia | London | 5 | All Maps","protocol":17,"map":"pl_frontier_final","folder":"tf","game":"Team Fortress","app_id":440,"player_count":21,"max_players":24,"Bots":0,"server_type":"Dedicated","server_os":"Linux","password":true,"vac":true,"version":"7961495","steam_id":85568392924742829,"keywords":["nocrits","nodmgspread","payload","uncletopia"],"game_id":440,"stv_port":27056,"stv_name":"Uncletopia | London | 5 | All Maps | STV","players":[{"user_id":582,"name":"bouncyhousin","steam_id":76561198852902827,"connected_time":478000000000,"state":"active","ping":137},{"user_id":573,"name":"stoppen","steam_id":76561197960281482,"connected_time":1284000000000,"state":"active","ping":70},{"user_id":581,"name":"jonbob","steam_id":76561197963506620,"connected_time":627000000000,"state":"active","ping":48},{"user_id":511,"name":"Bobirulez","steam_id":76561198009125458,"connected_time":6576000000000,"state":"active","ping":66},{"user_id":520,"name":"Deer ‚ù§","steam_id":76561198325775413,"connected_time":6152000000000,"state":"active","ping":55},{"user_id":563,"name":"Nome","steam_id":76561198867982828,"connected_time":1727000000000,"state":"active","ping":123},{"user_id":580,"name":"Virgil","steam_id":76561198248786778,"connected_time":696000000000,"state":"active","ping":108},{"user_id":575,"name":"–ú–ï–î–ò–ö!","steam_id":76561198803488036,"connected_time":1027000000000,"state":"active","ping":129},{"user_id":576,"name":"MrRedHat","steam_id":76561199218165706,"connected_time":985000000000,"state":"active","ping":81},{"user_id":583,"name":"Kraack","steam_id":76561198093232307,"connected_time":461000000000,"state":"active","ping":76},{"user_id":584,"name":"RottenFrots","steam_id":76561198411801670,"connected_time":435000000000,"state":"active","ping":62},{"user_id":564,"name":"BlitzKreig","steam_id":76561199003417737,"connected_time":1661000000000,"state":"active","ping":61},{"user_id":565,"name":"Ran33","steam_id":76561197991474499,"connected_time":1628000000000,"state":"active","ping":86},{"user_id":588,"name":"Real?","steam_id":76561199032762251,"connected_time":94000000000,"state":"active","ping":107},{"user_id":549,"name":"Fialure5","steam_id":76561199204629124,"connected_time":3425000000000,"state":"active","ping":163},{"user_id":585,"name":"PavelTDT","steam_id":76561198445579776,"connected_time":373000000000,"state":"active","ping":114},{"user_id":551,"name":"QtazeQ","steam_id":76561198183634667,"connected_time":3025000000000,"state":"active","ping":90},{"user_id":579,"name":"M√©bh √ìg MacT√≠re","steam_id":76561198346399624,"connected_time":809000000000,"state":"active","ping":84},{"user_id":589,"name":"king k rool","steam_id":76561199179040672,"connected_time":90000000000,"state":"active","ping":43},{"user_id":587,"name":"Zenixic","steam_id":76561198085232233,"connected_time":250000000000,"state":"active","ping":98},{"user_id":590,"name":"Luxotrics","steam_id":76561198053455161,"connected_time":3000000000,"state":"spawning","ping":78}]},{"server_id":22,"name":"Uncletopia | London | 6 | All Maps","name_short":"lon-6","host":"lon-1.uk.uncletopia.com","port":27065,"enabled":true,"region":"eu","cc":"gb","latitude":51.509865,"longitude":-0.118092,"reserved":0,"last_update":"0001-01-01T00:00:00Z","name_a2s":"Uncletopia | London | 6 | All Maps","protocol":17,"map":"koth_highpass","folder":"tf","game":"Team Fortress","app_id":440,"player_count":0,"max_players":24,"Bots":0,"server_type":"Dedicated","server_os":"Linux","password":true,"vac":true,"version":"7961495","steam_id":85568392924742830,"keywords":["cp","nocrits","nodmgspread","uncletopia"],"game_id":440,"stv_port":27066,"stv_name":"Uncletopia | London | 6 | All Maps | STV","players":null},{"server_id":40,"name":"Uncletopia | London | 7 | Stopwatch","name_short":"lon-7","host":"lon-1.uk.uncletopia.com","port":27075,"enabled":true,"region":"eu","cc":"gb","latitude":51.509865,"longitude":-0.118092,"reserved":0,"last_update":"0001-01-01T00:00:00Z","name_a2s":"Uncletopia | London | 7 | Stopwatch","protocol":17,"map":"cp_gullywash_final1","folder":"tf","game":"Team Fortress","app_id":440,"player_count":0,"max_players":24,"Bots":0,"server_type":"Dedicated","server_os":"Linux","password":true,"vac":true,"version":"7961495","steam_id":85568392924964314,"keywords":["cp","nocrits","nodmgspread","uncletopia"],"game_id":440,"stv_port":27076,"stv_name":"Uncletopia | London | 7 | Stopwatch | STV","players":null},{"server_id":41,"name":"Uncletopia | London | 8 | Community","name_short":"lon-8","host":"lon-1.uk.uncletopia.com","port":27085,"enabled":true,"region":"eu","cc":"gb","latitude":51.509865,"longitude":-0.118092,"reserved":0,"last_update":"0001-01-01T00:00:00Z","name_a2s":"Uncletopia | London | 8 | Community","protocol":17,"map":"workshop/koth_ashville_final.ugc2130459942","folder":"tf","game":"Team Fortress","app_id":440,"player_count":0,"max_players":24,"Bots":0,"server_type":"Dedicated","server_os":"Linux","password":true,"vac":true,"version":"7961495","steam_id":85568392924964315,"keywords":["cp","nocrits","nodmgspread","uncletopia"],"game_id":440,"stv_port":27086,"stv_name":"Uncletopia | London | 8 | Community | STV","players":null},{"server_id":300,"name":"Uncletopia | Montr√©al | 1 | One Thousand Uncles","name_short":"mtl-1","host":"mtl-1.ca.uncletopia.com","port":27015,"enabled":true,"region":"us-east","cc":"ca","latitude":45.50889,"longitude":-73.56167,"reserved":0,"last_update":"0001-01-01T00:00:00Z","name_a2s":"","protocol":0,"map":"","folder":"","game":"","app_id":0,"player_count":8,"max_players":0,"Bots":0,"server_type":"","server_os":"","password":false,"vac":false,"version":"","steam_id":0,"keywords":null,"game_id":0,"stv_port":0,"stv_name":"","players":[{"user_id":463,"name":"concrete_car","steam_id":76561198388207363,"connected_time":10203000000000,"state":"active","ping":57},{"user_id":565,"name":"Walla","steam_id":76561198103379757,"connected_time":1395000000000,"state":"active","ping":60},{"user_id":361,"name":"schnedwob","steam_id":76561197999146588,"connected_time":17037000000000,"state":"active","ping":87},{"user_id":583,"name":"swooce","steam_id":76561198156232484,"connected_time":36000000000,"state":"active","ping":54},{"user_id":584,"name":"complete idiot","steam_id":76561199229528500,"connected_time":2000000000,"state":"spawning","ping":172},{"user_id":477,"name":"Hexy Witch","steam_id":76561198034515581,"connected_time":6716000000000,"state":"active","ping":46},{"user_id":514,"name":"NightEmerald","steam_id":76561198878856805,"connected_time":4777000000000,"state":"active","ping":52},{"user_id":486,"name":"Nebula Core","steam_id":76561198424878809,"connected_time":6040000000000,"state":"active","ping":127}]},{"server_id":301,"name":"Uncletopia | Montr√©al | 2 | One Thousand Uncles","name_short":"mtl-2","host":"mtl-1.ca.uncletopia.com","port":27025,"enabled":true,"region":"us-east","cc":"ca","latitude":45.50889,"longitude":-73.56167,"reserved":0,"last_update":"0001-01-01T00:00:00Z","name_a2s":"","protocol":0,"map":"","folder":"","game":"","app_id":0,"player_count":2,"max_players":0,"Bots":0,"server_type":"","server_os":"","password":false,"vac":false,"version":"","steam_id":0,"keywords":null,"game_id":0,"stv_port":0,"stv_name":"","players":[{"user_id":240,"name":"Anthid","steam_id":76561198074493797,"connected_time":2038000000000,"state":"active","ping":79},{"user_id":258,"name":"Holiday Fartcruise","steam_id":76561198043851584,"connected_time":90000000000,"state":"active","ping":122}]},{"server_id":302,"name":"Uncletopia | Montr√©al | 3 | One Thousand Uncles","name_short":"mtl-3","host":"mtl-1.ca.uncletopia.com","port":27035,"enabled":true,"region":"us-east","cc":"ca","latitude":45.50889,"longitude":-73.56167,"reserved":0,"last_update":"0001-01-01T00:00:00Z","name_a2s":"","protocol":0,"map":"","folder":"","game":"","app_id":0,"player_count":4,"max_players":0,"Bots":0,"server_type":"","server_os":"","password":false,"vac":false,"version":"","steam_id":0,"keywords":null,"game_id":0,"stv_port":0,"stv_name":"","players":[{"user_id":154,"name":"\"Doors and Corners\"","steam_id":76561199431280503,"connected_time":3473000000000,"state":"active","ping":56},{"user_id":159,"name":"kreeper700","steam_id":76561199495556056,"connected_time":823000000000,"state":"active","ping":121},{"user_id":63,"name":"Swash","steam_id":76561197969421355,"connected_time":14518000000000,"state":"active","ping":57},{"user_id":122,"name":"Dennis Reynolds","steam_id":76561197960371259,"connected_time":9549000000000,"state":"active","ping":85}]},{"server_id":13,"name":"Uncletopia | New York City | 1 | All Maps","name_short":"nyc-1","host":"nyc-1.us.uncletopia.com","port":27015,"enabled":true,"region":"us-east","cc":"us","latitude":40.73061,"longitude":-73.93524,"reserved":0,"last_update":"0001-01-01T00:00:00Z","name_a2s":"Uncletopia | New York City | 1 | All Maps","protocol":17,"map":"cp_dustbowl","folder":"tf","game":"Team Fortress","app_id":440,"player_count":23,"max_players":24,"Bots":0,"server_type":"Dedicated","server_os":"Linux","password":true,"vac":true,"version":"7961495","steam_id":85568392924469993,"keywords":["cp","nocrits","nodmgspread","uncletopia"],"game_id":440,"stv_port":27016,"stv_name":"Uncletopia | New York City | 1 | All Maps | STV","players":[{"user_id":600,"name":"Slauvy","steam_id":76561198001479663,"connected_time":1389000000000,"state":"active","ping":88},{"user_id":621,"name":"Bronze Age Furvert","steam_id":76561198859118263,"connected_time":79000000000,"state":"active","ping":79},{"user_id":597,"name":"Rira","steam_id":76561197995224164,"connected_time":1681000000000,"state":"active","ping":63},{"user_id":618,"name":"GreenApples","steam_id":76561198120559543,"connected_time":392000000000,"state":"active","ping":115},{"user_id":602,"name":"Canadian","steam_id":76561199104281653,"connected_time":1146000000000,"state":"active","ping":59},{"user_id":595,"name":"Ripping Heads","steam_id":76561198006146062,"connected_time":1972000000000,"state":"active","ping":61},{"user_id":599,"name":"Freddy fazballs","steam_id":76561198310677935,"connected_time":1481000000000,"state":"active","ping":75},{"user_id":608,"name":"√û√∫ l√Ωsir upp allan geiminn","steam_id":76561197999657118,"connected_time":1025000000000,"state":"active","ping":69},{"user_id":619,"name":"Nova","steam_id":76561198279824615,"connected_time":285000000000,"state":"active","ping":147},{"user_id":607,"name":"Dullahan","steam_id":76561198119668908,"connected_time":1066000000000,"state":"active","ping":114},{"user_id":620,"name":"Captain Emerald The Changeling","steam_id":76561198320651177,"connected_time":205000000000,"state":"active","ping":62},{"user_id":610,"name":"Fedora The Explorer","steam_id":76561198124999997,"connected_time":825000000000,"state":"active","ping":69},{"user_id":611,"name":"Red","steam_id":76561198253200155,"connected_time":767000000000,"state":"active","ping":111},{"user_id":575,"name":"Shwartzy","steam_id":76561198073927139,"connected_time":4100000000000,"state":"active","ping":59},{"user_id":579,"name":"pea ttv/peabeanz","steam_id":76561198119551968,"connected_time":4004000000000,"state":"active","ping":67},{"user_id":613,"name":"sawrik","steam_id":76561198018808213,"connected_time":666000000000,"state":"active","ping":75},{"user_id":542,"name":"Bee_Pirate","steam_id":76561199000599111,"connected_time":7092000000000,"state":"active","ping":63},{"user_id":589,"name":"Chanddy","steam_id":76561198058949058,"connected_time":2811000000000,"state":"active","ping":60},{"user_id":622,"name":"BooshBuster","steam_id":76561198237192090,"connected_time":76000000000,"state":"active","ping":61},{"user_id":623,"name":"alfoam","steam_id":76561198353067162,"connected_time":75000000000,"state":"active","ping":66},{"user_id":615,"name":"–Ω–µ –±–µ—Ä–∏ –≤ –≥–æ–ª–æ–≤—É","steam_id":76561198066716670,"connected_time":537000000000,"state":"active","ping":70},{"user_id":616,"name":"Bat \u003cCashing Out\u003e","steam_id":76561198110449520,"connected_time":475000000000,"state":"active","ping":70},{"user_id":617,"name":"Scrux","steam_id":76561198129763115,"connected_time":424000000000,"state":"active","ping":126}]},{"server_id":14,"name":"Uncletopia | New York City | 2 | All Maps","name_short":"nyc-2","host":"nyc-1.us.uncletopia.com","port":27025,"enabled":true,"region":"us-east","cc":"us","latitude":40.73061,"longitude":-73.93524,"reserved":0,"last_update":"0001-01-01T00:00:00Z","name_a2s":"Uncletopia | New York City | 2 | All Maps","protocol":17,"map":"pl_borneo","folder":"tf","game":"Team Fortress","app_id":440,"player_count":24,"max_players":24,"Bots":0,"server_type":"Dedicated","server_os":"Linux","password":true,"vac":true,"version":"7961495","steam_id":85568392924469994,"keywords":["nocrits","nodmgspread","payload","uncletopia"],"game_id":440,"stv_port":27026,"stv_name":"Uncletopia | New York City | 2 | All Maps | STV","players":[{"user_id":555,"name":"S√¥l","steam_id":76561199082309685,"connected_time":372000000000,"state":"active","ping":162},{"user_id":517,"name":"Polar","steam_id":76561198271964253,"connected_time":3034000000000,"state":"active","ping":99},{"user_id":543,"name":"Great","steam_id":76561198895516433,"connected_time":1342000000000,"state":"active","ping":107},{"user_id":556,"name":"DRUMMY GRAMMY","steam_id":76561198047642540,"connected_time":356000000000,"state":"active","ping":87},{"user_id":518,"name":"quiet game contestant","steam_id":76561198380018244,"connected_time":3031000000000,"state":"active","ping":94},{"user_id":552,"name":"donn","steam_id":76561198113080083,"connected_time":526000000000,"state":"active","ping":63},{"user_id":553,"name":"Stepdad","steam_id":76561198117184553,"connected_time":505000000000,"state":"active","ping":77},{"user_id":557,"name":"Drapph","steam_id":76561199384213314,"connected_time":321000000000,"state":"active","ping":85},{"user_id":531,"name":"albert581_gaming","steam_id":76561198219209367,"connected_time":2611000000000,"state":"active","ping":96},{"user_id":541,"name":"non professional nouns.","steam_id":76561198294013916,"connected_time":1608000000000,"state":"active","ping":47},{"user_id":535,"name":"LWebb","steam_id":76561199162936929,"connected_time":2161000000000,"state":"active","ping":125},{"user_id":546,"name":"tell me your favorite dinosaur","steam_id":76561198080310253,"connected_time":1295000000000,"state":"active","ping":106},{"user_id":558,"name":"A Shiny Meat Bicycle","steam_id":76561198358757709,"connected_time":296000000000,"state":"active","ping":92},{"user_id":559,"name":"INFINITE","steam_id":76561197971285557,"connected_time":236000000000,"state":"active","ping":57},{"user_id":547,"name":"BELIEVE","steam_id":76561198118331232,"connected_time":1285000000000,"state":"active","ping":56},{"user_id":527,"name":"Kiradias777","steam_id":76561198067176309,"connected_time":2689000000000,"state":"active","ping":77},{"user_id":524,"name":"Cringe420","steam_id":76561199039425623,"connected_time":2883000000000,"state":"active","ping":91},{"user_id":525,"name":"ChaoticAngel","steam_id":76561198293528217,"connected_time":2882000000000,"state":"active","ping":50},{"user_id":548,"name":"Lorenz Hellman Gloucester","steam_id":76561198100982549,"connected_time":1279000000000,"state":"active","ping":55},{"user_id":528,"name":"Jacknerik","steam_id":76561198041365662,"connected_time":2687000000000,"state":"active","ping":67},{"user_id":534,"name":"snub","steam_id":76561198312106312,"connected_time":2269000000000,"state":"active","ping":125},{"user_id":530,"name":"Ludcmorais","steam_id":76561198359217809,"connected_time":2654000000000,"state":"active","ping":173},{"user_id":550,"name":"Overdrive","steam_id":76561198040632616,"connected_time":1237000000000,"state":"active","ping":60},{"user_id":542,"name":"Two-Teste Tommy","steam_id":76561198064308936,"connected_time":1580000000000,"state":"active","ping":60}]},{"server_id":15,"name":"Uncletopia | New York City | 3 | Stopwatch","name_short":"nyc-3","host":"nyc-1.us.uncletopia.com","port":27035,"enabled":true,"region":"us-east","cc":"us","latitude":40.73061,"longitude":-73.93524,"reserved":0,"last_update":"0001-01-01T00:00:00Z","name_a2s":"Uncletopia | New York City | 3 | Stopwatch","protocol":17,"map":"workshop/koth_ramjam_rc1.ugc459778887","folder":"tf","game":"Team Fortress","app_id":440,"player_count":0,"max_players":24,"Bots":0,"server_type":"Dedicated","server_os":"Linux","password":true,"vac":true,"version":"7961495","steam_id":85568392924742820,"keywords":["cp","nocrits","nodmgspread","uncletopia"],"game_id":440,"stv_port":27036,"stv_name":"Uncletopia | New York City | 3 | Stopwatch | STV","players":null},{"server_id":16,"name":"Uncletopia | New York City | 4 | Community","name_short":"nyc-4","host":"nyc-1.us.uncletopia.com","port":27045,"enabled":true,"region":"us-east","cc":"us","latitude":40.73061,"longitude":-73.93524,"reserved":0,"last_update":"0001-01-01T00:00:00Z","name_a2s":"Uncletopia | New York City | 4 | Community","protocol":17,"map":"workshop/koth_trenchfoot_b1a.ugc731436616","folder":"tf","game":"Team Fortress","app_id":440,"player_count":0,"max_players":24,"Bots":0,"server_type":"Dedicated","server_os":"Linux","password":true,"vac":true,"version":"7961495","steam_id":85568392924742821,"keywords":["cp","nocrits","nodmgspread","uncletopia"],"game_id":440,"stv_port":27046,"stv_name":"Uncletopia | New York City | 4 | Community | STV","players":null},{"server_id":142,"name":"Uncletopia | S√£o Paulo | 1 | All Maps","name_short":"sao-1","host":"sao-1.br.uncletopia.com","port":27015,"enabled":true,"region":"sa","cc":"br","latitude":-23.533773,"longitude":-46.62529,"reserved":0,"last_update":"0001-01-01T00:00:00Z","name_a2s":"Uncletopia | S√£o Paulo | 1 | All Maps","protocol":17,"map":"pl_barnblitz","folder":"tf","game":"Team Fortress","app_id":440,"player_count":0,"max_players":24,"Bots":0,"server_type":"Dedicated","server_os":"Linux","password":true,"vac":true,"version":"7961495","steam_id":85568392924469996,"keywords":["nocrits","nodmgspread","payload","uncletopia"],"game_id":440,"stv_port":27016,"stv_name":"Uncletopia | S√£o Paulo | 1 | All Maps | STV","players":null},{"server_id":143,"name":"Uncletopia | S√£o Paulo | 2 | Community","name_short":"sao-2","host":"sao-2.br.uncletopia.com","port":27015,"enabled":true,"region":"sa","cc":"br","latitude":-23.533773,"longitude":-46.62529,"reserved":0,"last_update":"0001-01-01T00:00:00Z","name_a2s":"Uncletopia | S√£o Paulo | 2 | Community","protocol":17,"map":"workshop/koth_ashville_final.ugc2130459942","folder":"tf","game":"Team Fortress","app_id":440,"player_count":0,"max_players":24,"Bots":0,"server_type":"Dedicated","server_os":"Linux","password":true,"vac":true,"version":"7961495","steam_id":85568392924485349,"keywords":["cp","nocrits","nodmgspread","uncletopia"],"game_id":440,"stv_port":27016,"stv_name":"Uncletopia | S√£o Paulo | 2 | Community | STV","players":null},{"server_id":7,"name":"Uncletopia | Seattle | 1 | All Maps","name_short":"sea-1","host":"sea-1.us.uncletopia.com","port":27015,"enabled":true,"region":"us-west","cc":"us","latitude":47.608013,"longitude":-122.33517,"reserved":0,"last_update":"0001-01-01T00:00:00Z","name_a2s":"Uncletopia | Seattle | 1 | All Maps","protocol":17,"map":"pl_badwater","folder":"tf","game":"Team Fortress","app_id":440,"player_count":24,"max_players":24,"Bots":0,"server_type":"Dedicated","server_os":"Linux","password":true,"vac":true,"version":"7961495","steam_id":85568392924469997,"keywords":["nocrits","nodmgspread","payload","uncletopia"],"game_id":440,"stv_port":27016,"stv_name":"Uncletopia | Seattle | 1 | All Maps | STV","players":[{"user_id":541,"name":"a group of rats in a cage","steam_id":76561198272327629,"connected_time":1583000000000,"state":"active","ping":520},{"user_id":516,"name":"Karg","steam_id":76561198091387866,"connected_time":4033000000000,"state":"active","ping":78},{"user_id":510,"name":"ShiningForce","steam_id":76561198026039048,"connected_time":4581000000000,"state":"active","ping":75},{"user_id":538,"name":"chocky","steam_id":76561198057491296,"connected_time":1671000000000,"state":"active","ping":45},{"user_id":529,"name":"Toaster (Hamilton Beach)","steam_id":76561198039891934,"connected_time":2359000000000,"state":"active","ping":60},{"user_id":495,"name":"Eraser cat","steam_id":76561199045570463,"connected_time":6237000000000,"state":"active","ping":48},{"user_id":524,"name":"Ayayayayayahuasca","steam_id":76561199002906056,"connected_time":3301000000000,"state":"active","ping":51},{"user_id":549,"name":"lasky","steam_id":76561198017030029,"connected_time":689000000000,"state":"active","ping":72},{"user_id":499,"name":"DubiousDodo","steam_id":76561198828172686,"connected_time":5703000000000,"state":"active","ping":108},{"user_id":523,"name":"Sneezety","steam_id":76561198062451648,"connected_time":3405000000000,"state":"active","ping":92},{"user_id":550,"name":"Lentil Soup","steam_id":76561198051834684,"connected_time":577000000000,"state":"active","ping":48},{"user_id":545,"name":"Spruce","steam_id":76561198081684676,"connected_time":1419000000000,"state":"active","ping":69},{"user_id":500,"name":"Nom Skirrett","steam_id":76561198014600788,"connected_time":5693000000000,"state":"active","ping":67},{"user_id":552,"name":"morgan","steam_id":76561199012126174,"connected_time":417000000000,"state":"active","ping":78},{"user_id":533,"name":"hazel","steam_id":76561198037292232,"connected_time":2247000000000,"state":"active","ping":120},{"user_id":548,"name":"dark108","steam_id":76561198030052475,"connected_time":1251000000000,"state":"active","ping":75},{"user_id":528,"name":"Angry_p3nguin","steam_id":76561198086275722,"connected_time":2945000000000,"state":"active","ping":36},{"user_id":540,"name":"Spicy Chicken","steam_id":76561198074209737,"connected_time":1613000000000,"state":"active","ping":92},{"user_id":546,"name":"Henchie!","steam_id":76561198047567464,"connected_time":1357000000000,"state":"active","ping":87},{"user_id":551,"name":"R5-D4","steam_id":76561198025196439,"connected_time":448000000000,"state":"active","ping":60},{"user_id":534,"name":"spenca","steam_id":76561198025371154,"connected_time":2123000000000,"state":"active","ping":70},{"user_id":520,"name":"[COS]SonneyDonkeh","steam_id":76561198091284496,"connected_time":3591000000000,"state":"active","ping":78},{"user_id":553,"name":"Fargo","steam_id":76561198044703931,"connected_time":134000000000,"state":"active","ping":75},{"user_id":509,"name":"Turkeyman5","steam_id":76561198058178808,"connected_time":4848000000000,"state":"active","ping":99}]},{"server_id":119,"name":"Uncletopia | Seattle | 2 | All Maps","name_short":"sea-2","host":"sea-1.us.uncletopia.com","port":27025,"enabled":true,"region":"us-west","cc":"us","latitude":47.608013,"longitude":-122.33517,"reserved":0,"last_update":"0001-01-01T00:00:00Z","name_a2s":"Uncletopia | Seattle | 2 | All Maps","protocol":17,"map":"plr_bananabay","folder":"tf","game":"Team Fortress","app_id":440,"player_count":24,"max_players":24,"Bots":0,"server_type":"Dedicated","server_os":"Linux","password":true,"vac":true,"version":"7961495","steam_id":85568392924469998,"keywords":["nocrits","nodmgspread","payload","uncletopia"],"game_id":440,"stv_port":27026,"stv_name":"Uncletopia | Seattle | 2 | All Maps | STV","players":[{"user_id":632,"name":"‚ò¢‚ò£ ButteryVengeance ‚ò£‚ò¢","steam_id":76561198063074367,"connected_time":979000000000,"state":"active","ping":47},{"user_id":629,"name":"Joe","steam_id":76561198290315229,"connected_time":1254000000000,"state":"active","ping":66},{"user_id":634,"name":"Kendomo","steam_id":76561198025748304,"connected_time":883000000000,"state":"active","ping":44},{"user_id":646,"name":"Calico Jolteon","steam_id":76561198283758322,"connected_time":453000000000,"state":"active","ping":72},{"user_id":641,"name":"Joseph","steam_id":76561198056950963,"connected_time":607000000000,"state":"active","ping":58},{"user_id":630,"name":"Schmupp","steam_id":76561198150928115,"connected_time":1018000000000,"state":"active","ping":70},{"user_id":580,"name":"SkobeBeef","steam_id":76561198078638948,"connected_time":6717000000000,"state":"active","ping":60},{"user_id":647,"name":"Geesemans","steam_id":76561199478892816,"connected_time":381000000000,"state":"active","ping":216},{"user_id":645,"name":"transbian disaster","steam_id":76561198407600762,"connected_time":462000000000,"state":"active","ping":45},{"user_id":635,"name":"NightGhost1400","steam_id":76561198810730471,"connected_time":879000000000,"state":"active","ping":66},{"user_id":636,"name":"diamondskyir","steam_id":76561199223952268,"connected_time":863000000000,"state":"active","ping":33},{"user_id":642,"name":"Moon_Man","steam_id":76561199028500370,"connected_time":572000000000,"state":"active","ping":51},{"user_id":637,"name":"Irritated Duck","steam_id":76561198247792076,"connected_time":800000000000,"state":"active","ping":56},{"user_id":653,"name":"Sly Marbo","steam_id":76561198135271741,"connected_time":71000000000,"state":"active","ping":52},{"user_id":639,"name":"The Roto Grip Exotic Gem","steam_id":76561197961141994,"connected_time":742000000000,"state":"active","ping":119},{"user_id":625,"name":"MyMonkeyBaby","steam_id":76561198046896670,"connected_time":1649000000000,"state":"active","ping":45},{"user_id":640,"name":"Dred","steam_id":76561198062692119,"connected_time":641000000000,"state":"active","ping":45},{"user_id":612,"name":"And The Radio Up","steam_id":76561198405865400,"connected_time":2402000000000,"state":"active","ping":60},{"user_id":648,"name":"gamorkat_fr","steam_id":76561199416798597,"connected_time":364000000000,"state":"active","ping":89},{"user_id":649,"name":"Meatball Obsessed Demoman","steam_id":76561198253325844,"connected_time":352000000000,"state":"active","ping":48},{"user_id":598,"name":"Poundcake","steam_id":76561198042196918,"connected_time":5320000000000,"state":"active","ping":46},{"user_id":650,"name":"Din√∂bro","steam_id":76561198065597770,"connected_time":338000000000,"state":"active","ping":76},{"user_id":651,"name":"peter griffin","steam_id":76561198054205874,"connected_time":290000000000,"state":"active","ping":101},{"user_id":619,"name":"weed boner","steam_id":76561198034131572,"connected_time":2151000000000,"state":"active","ping":37}]},{"server_id":406,"name":"Uncletopia | Seattle | 3 | Stopwatch","name_short":"sea-3","host":"sea-1.us.uncletopia.com","port":27035,"enabled":true,"region":"us-west","cc":"us","latitude":47.608013,"longitude":-122.33517,"reserved":0,"last_update":"0001-01-01T00:00:00Z","name_a2s":"Uncletopia | Seattle | 3 | Stopwatch","protocol":17,"map":"workshop/koth_clearcut_b15.ugc2107050255","folder":"tf","game":"Team Fortress","app_id":440,"player_count":0,"max_players":24,"Bots":0,"server_type":"Dedicated","server_os":"Linux","password":true,"vac":true,"version":"7961495","steam_id":85568392924515217,"keywords":["cp","nocrits","nodmgspread","uncletopia"],"game_id":440,"stv_port":27036,"stv_name":"Uncletopia | Seattle | 3 | Stopwatch | STV","players":null},{"server_id":17,"name":"Uncletopia | San Francisco | 1 | All Maps","name_short":"sfo-1","host":"sfo-1.us.uncletopia.com","port":27015,"enabled":true,"region":"us-west","cc":"us","latitude":37.77397,"longitude":-122.4313,"reserved":0,"last_update":"0001-01-01T00:00:00Z","name_a2s":"Uncletopia | San Francisco | 1 | All Maps","protocol":17,"map":"koth_viaduct","folder":"tf","game":"Team Fortress","app_id":440,"player_count":0,"max_players":24,"Bots":0,"server_type":"Dedicated","server_os":"Linux","password":true,"vac":true,"version":"7961495","steam_id":85568392924469999,"keywords":["cp","nocrits","nodmgspread","uncletopia"],"game_id":440,"stv_port":27016,"stv_name":"Uncletopia | San Francisco | 1 | All Maps | STV","players":null},{"server_id":18,"name":"Uncletopia | San Francisco | 2 | All Maps","name_short":"sfo-2","host":"sfo-1.us.uncletopia.com","port":27025,"enabled":true,"region":"us-west","cc":"us","latitude":37.77397,"longitude":-122.4313,"reserved":0,"last_update":"0001-01-01T00:00:00Z","name_a2s":"Uncletopia | San Francisco | 2 | All Maps","protocol":17,"map":"pl_badwater","folder":"tf","game":"Team Fortress","app_id":440,"player_count":24,"max_players":24,"Bots":0,"server_type":"Dedicated","server_os":"Linux","password":true,"vac":true,"version":"7961495","steam_id":85568392924470000,"keywords":["nocrits","nodmgspread","payload","uncletopia"],"game_id":440,"stv_port":27026,"stv_name":"Uncletopia | San Francisco | 2 | All Maps | STV","players":[{"user_id":248,"name":"LordGaBe64","steam_id":76561199395143624,"connected_time":176000000000,"state":"active","ping":70},{"user_id":241,"name":"Headshots Se7en","steam_id":76561198020464802,"connected_time":801000000000,"state":"active","ping":111},{"user_id":222,"name":"jon pickle water","steam_id":76561199036212135,"connected_time":2842000000000,"state":"active","ping":78},{"user_id":172,"name":"Thermo","steam_id":76561198978967412,"connected_time":7483000000000,"state":"active","ping":59},{"user_id":237,"name":"Ralph Kramden (Slim Charles)","steam_id":76561197981687895,"connected_time":1028000000000,"state":"active","ping":66},{"user_id":194,"name":"Whiskey","steam_id":76561198858154667,"connected_time":5477000000000,"state":"active","ping":48},{"user_id":226,"name":"HungryHippo","steam_id":76561198047615363,"connected_time":2277000000000,"state":"active","ping":45},{"user_id":227,"name":"Lambchop","steam_id":76561198043900363,"connected_time":2217000000000,"state":"active","ping":60},{"user_id":126,"name":"LiMa","steam_id":76561198872798792,"connected_time":11231000000000,"state":"active","ping":78},{"user_id":156,"name":"jerma watcher to femboy pipelin","steam_id":76561198065662025,"connected_time":8765000000000,"state":"active","ping":48},{"user_id":224,"name":"Brando","steam_id":76561198078306678,"connected_time":2349000000000,"state":"active","ping":82},{"user_id":238,"name":"Lily Thorn","steam_id":76561198305488625,"connected_time":909000000000,"state":"active","ping":80},{"user_id":232,"name":"Catfish Jimmy","steam_id":76561198106429468,"connected_time":1952000000000,"state":"active","ping":73},{"user_id":160,"name":"Grassman (Cc)","steam_id":76561198026488532,"connected_time":8607000000000,"state":"active","ping":43},{"user_id":216,"name":"SolarusD","steam_id":76561198029279861,"connected_time":3771000000000,"state":"active","ping":50},{"user_id":244,"name":"DerpMan","steam_id":76561198341191324,"connected_time":610000000000,"state":"active","ping":62},{"user_id":246,"name":"Convenient Strip Mall","steam_id":76561198164678062,"connected_time":411000000000,"state":"active","ping":64},{"user_id":234,"name":"Skye","steam_id":76561198026733122,"connected_time":1594000000000,"state":"active","ping":66},{"user_id":223,"name":"podge","steam_id":76561198858474714,"connected_time":2351000000000,"state":"active","ping":73},{"user_id":245,"name":"Glorified Toaster","steam_id":76561198969136257,"connected_time":607000000000,"state":"active","ping":60},{"user_id":242,"name":"Quigi","steam_id":76561198144645874,"connected_time":790000000000,"state":"active","ping":78},{"user_id":247,"name":"Iron Argus","steam_id":76561198181088245,"connected_time":389000000000,"state":"active","ping":116},{"user_id":243,"name":"DonoC","steam_id":76561198274473338,"connected_time":776000000000,"state":"active","ping":88},{"user_id":152,"name":"Paint Huffing Yoshi Player","steam_id":76561198028969023,"connected_time":8961000000000,"state":"active","ping":82}]},{"server_id":19,"name":"Uncletopia | San Francisco | 3 | Stopwatch","name_short":"sfo-3","host":"sfo-1.us.uncletopia.com","port":27035,"enabled":true,"region":"us-west","cc":"us","latitude":37.77397,"longitude":-122.4313,"reserved":0,"last_update":"0001-01-01T00:00:00Z","name_a2s":"Uncletopia | San Francisco | 3 | Stopwatch","protocol":17,"map":"workshop/koth_clearcut_b15.ugc2107050255","folder":"tf","game":"Team Fortress","app_id":440,"player_count":0,"max_players":24,"Bots":0,"server_type":"Dedicated","server_os":"Linux","password":true,"vac":true,"version":"7961495","steam_id":85568392924742824,"keywords":["cp","nocrits","nodmgspread","uncletopia"],"game_id":440,"stv_port":27036,"stv_name":"Uncletopia | San Francisco | 3 | Stopwatch | STV","players":null},{"server_id":20,"name":"Uncletopia | San Francisco | 4 | Community","name_short":"sfo-4","host":"sfo-1.us.uncletopia.com","port":27045,"enabled":true,"region":"us-west","cc":"us","latitude":37.77397,"longitude":-122.4313,"reserved":0,"last_update":"0001-01-01T00:00:00Z","name_a2s":"Uncletopia | San Francisco | 4 | Community","protocol":17,"map":"workshop/pl_boundary_final1.ugc456799153","folder":"tf","game":"Team Fortress","app_id":440,"player_count":1,"max_players":24,"Bots":0,"server_type":"Dedicated","server_os":"Linux","password":true,"vac":true,"version":"7961495","steam_id":85568392924742826,"keywords":["nocrits","nodmgspread","payload","uncletopia"],"game_id":440,"stv_port":27046,"stv_name":"Uncletopia | San Francisco | 4 | Community | STV","players":[{"user_id":11,"name":"Mr. Ottomatic","steam_id":76561199053337926,"connected_time":132000000000,"state":"active","ping":35}]},{"server_id":141,"name":"Uncletopia | Sydney | 1 | All Maps","name_short":"syd-1","host":"syd-1.au.uncletopia.com","port":27015,"enabled":true,"region":"au","cc":"au","latitude":-33.865143,"longitude":151.2099,"reserved":0,"last_update":"0001-01-01T00:00:00Z","name_a2s":"Uncletopia | Sydney | 1 | All Maps","protocol":17,"map":"pl_frontier_final","folder":"tf","game":"Team Fortress","app_id":440,"player_count":24,"max_players":24,"Bots":0,"server_type":"Dedicated","server_os":"Linux","password":true,"vac":true,"version":"7961495","steam_id":85568392924470001,"keywords":["nocrits","nodmgspread","payload","uncletopia"],"game_id":440,"stv_port":27016,"stv_name":"Uncletopia | Sydney | 1 | All Maps | STV","players":[{"user_id":297,"name":"MrTrollTheMadGamer","steam_id":76561198095862889,"connected_time":722000000000,"state":"active","ping":71},{"user_id":268,"name":"Almighty Tuna","steam_id":76561198010173027,"connected_time":2479000000000,"state":"active","ping":75},{"user_id":284,"name":"Massira","steam_id":76561199445907962,"connected_time":1318000000000,"state":"active","ping":46},{"user_id":212,"name":"Medieval Cucumber Sorcerer","steam_id":76561198972095766,"connected_time":6788000000000,"state":"active","ping":40},{"user_id":301,"name":"Courage.","steam_id":76561198026058177,"connected_time":160000000000,"state":"active","ping":46},{"user_id":303,"name":"Crispy","steam_id":76561198081760160,"connected_time":140000000000,"state":"active","ping":66},{"user_id":283,"name":"DEx","steam_id":76561198057511457,"connected_time":1349000000000,"state":"active","ping":71},{"user_id":256,"name":"EarlyElite4199","steam_id":76561198432308585,"connected_time":3208000000000,"state":"active","ping":46},{"user_id":296,"name":"P4NDA_HABIB","steam_id":76561198072527148,"connected_time":779000000000,"state":"active","ping":69},{"user_id":276,"name":"\u003e:FrozenDragon:\u003c","steam_id":76561198227960928,"connected_time":2164000000000,"state":"active","ping":104},{"user_id":295,"name":"DonkeyKing","steam_id":76561199380484053,"connected_time":847000000000,"state":"active","ping":69},{"user_id":277,"name":"Vessdl","steam_id":76561199230681890,"connected_time":1913000000000,"state":"active","ping":64},{"user_id":172,"name":"P. Ness","steam_id":76561198037664265,"connected_time":9072000000000,"state":"active","ping":59},{"user_id":270,"name":"LeoJoeD","steam_id":76561198161848749,"connected_time":2374000000000,"state":"active","ping":41},{"user_id":241,"name":"SUCC MY DUCC","steam_id":76561198127068703,"connected_time":4840000000000,"state":"active","ping":61},{"user_id":267,"name":"fart Official","steam_id":76561198144237864,"connected_time":2498000000000,"state":"active","ping":52},{"user_id":300,"name":"swag messiah","steam_id":76561198387274195,"connected_time":162000000000,"state":"active","ping":107},{"user_id":290,"name":"LOLLYGAG","steam_id":76561199085941614,"connected_time":997000000000,"state":"active","ping":58},{"user_id":293,"name":"Gibbzy","steam_id":76561198118647707,"connected_time":937000000000,"state":"active","ping":68},{"user_id":289,"name":"Zeppy","steam_id":76561198074766231,"connected_time":1037000000000,"state":"active","ping":72},{"user_id":171,"name":"fun haver","steam_id":76561197996866578,"connected_time":9138000000000,"state":"active","ping":60},{"user_id":302,"name":"Walter under the bridge","steam_id":76561198301282416,"connected_time":150000000000,"state":"active","ping":60},{"user_id":281,"name":"Mushroom","steam_id":76561198102176576,"connected_time":1369000000000,"state":"active","ping":67},{"user_id":280,"name":"Dave","steam_id":76561197994203216,"connected_time":1418000000000,"state":"active","ping":68}]},{"server_id":123,"name":"Uncletopia | Sydney | 2 | All Maps","name_short":"syd-2","host":"syd-1.au.uncletopia.com","port":27025,"enabled":true,"region":"au","cc":"au","latitude":-33.865143,"longitude":151.2099,"reserved":0,"last_update":"0001-01-01T00:00:00Z","name_a2s":"Uncletopia | Sydney | 2 | All Maps","protocol":17,"map":"koth_lakeside_final","folder":"tf","game":"Team Fortress","app_id":440,"player_count":2,"max_players":24,"Bots":0,"server_type":"Dedicated","server_os":"Linux","password":true,"vac":true,"version":"7961495","steam_id":85568392924470002,"keywords":["cp","nocrits","nodmgspread","uncletopia"],"game_id":440,"stv_port":27026,"stv_name":"Uncletopia | Sydney | 2 | All Maps | STV","players":[{"user_id":12,"name":"Preemt (purposely misspelled)","steam_id":76561199216819073,"connected_time":2072000000000,"state":"active","ping":58},{"user_id":20,"name":"Beangodhiann","steam_id":76561198189663681,"connected_time":319000000000,"state":"active","ping":53}]},{"server_id":395,"name":"Uncletopia | Sydney | 3 | All Maps","name_short":"syd-3","host":"syd-1.au.uncletopia.com","port":27035,"enabled":true,"region":"au","cc":"au","latitude":-33.865143,"longitude":151.2099,"reserved":0,"last_update":"0001-01-01T00:00:00Z","name_a2s":"Uncletopia | Sydney | 3 | All Maps","protocol":17,"map":"koth_cascade","folder":"tf","game":"Team Fortress","app_id":440,"player_count":0,"max_players":24,"Bots":0,"server_type":"Dedicated","server_os":"Linux","password":true,"vac":true,"version":"7961495","steam_id":85568392925194467,"keywords":["cp","nocrits","nodmgspread","uncletopia"],"game_id":440,"stv_port":27036,"stv_name":"Uncletopia | Sydney | 3 | All Maps | STV","players":null},{"server_id":396,"name":"Uncletopia | Sydney | 4 | All Maps","name_short":"syd-4","host":"syd-1.au.uncletopia.com","port":27045,"enabled":true,"region":"au","cc":"au","latitude":-33.865143,"longitude":151.2099,"reserved":0,"last_update":"0001-01-01T00:00:00Z","name_a2s":"Uncletopia | Sydney | 4 | All Maps","protocol":17,"map":"koth_lakeside_final","folder":"tf","game":"Team Fortress","app_id":440,"player_count":0,"max_players":24,"Bots":0,"server_type":"Dedicated","server_os":"Linux","password":true,"vac":true,"version":"7961495","steam_id":85568392925397958,"keywords":["cp","nocrits","nodmgspread","uncletopia"],"game_id":440,"stv_port":27046,"stv_name":"Uncletopia | Sydney | 4 | All Maps | STV","players":null},{"server_id":58,"name":"Uncletopia | Sydney | 5 | Stopwatch","name_short":"syd-5","host":"syd-1.au.uncletopia.com","port":27055,"enabled":true,"region":"au","cc":"au","latitude":-33.865143,"longitude":151.2099,"reserved":0,"last_update":"0001-01-01T00:00:00Z","name_a2s":"Uncletopia | Sydney | 5 | Stopwatch","protocol":17,"map":"workshop/koth_bagel_rc6.ugc2514036946","folder":"tf","game":"Team Fortress","app_id":440,"player_count":0,"max_players":24,"Bots":0,"server_type":"Dedicated","server_os":"Linux","password":true,"vac":true,"version":"7961495","steam_id":85568392925397959,"keywords":["cp","nocrits","nodmgspread","uncletopia"],"game_id":440,"stv_port":27056,"stv_name":"Uncletopia | Sydney | 5 | Stopwatch | STV","players":null},{"server_id":59,"name":"Uncletopia | Sydney | 6 | Community","name_short":"syd-6","host":"syd-1.au.uncletopia.com","port":27065,"enabled":true,"region":"au","cc":"au","latitude":-33.865143,"longitude":151.2099,"reserved":0,"last_update":"0001-01-01T00:00:00Z","name_a2s":"Uncletopia | Sydney | 6 | Community","protocol":17,"map":"workshop/koth_kemptown_rc1.ugc767410655","folder":"tf","game":"Team Fortress","app_id":440,"player_count":0,"max_players":24,"Bots":0,"server_type":"Dedicated","server_os":"Linux","password":true,"vac":true,"version":"7961495","steam_id":85568392925397960,"keywords":["cp","nocrits","nodmgspread","uncletopia"],"game_id":440,"stv_port":27066,"stv_name":"Uncletopia | Sydney | 6 | Community | STV","players":null},{"server_id":49,"name":"Uncletopia | Warsaw | 1 | One Thousand Uncles","name_short":"waw-1","host":"waw-1.pl.uncletopia.com","port":27015,"enabled":true,"region":"eu","cc":"pl","latitude":52.2297,"longitude":21.017532,"reserved":0,"last_update":"0001-01-01T00:00:00Z","name_a2s":"Uncletopia | Warsaw | 1 | One Thousand Uncles","protocol":17,"map":"koth_highpass","folder":"tf","game":"Team Fortress","app_id":440,"player_count":0,"max_players":32,"Bots":0,"server_type":"Dedicated","server_os":"Linux","password":true,"vac":true,"version":"7961495","steam_id":85568392925397850,"keywords":["alltalk","cp","danepve","increased_maxplayers","nocrits","norespawntime","uncletopia"],"game_id":440,"stv_port":0,"stv_name":"","players":null},{"server_id":50,"name":"Uncletopia | Warsaw | 2 | One Thousand Uncles","name_short":"waw-2","host":"waw-1.pl.uncletopia.com","port":27025,"enabled":true,"region":"eu","cc":"pl","latitude":52.2297,"longitude":21.017532,"reserved":0,"last_update":"0001-01-01T00:00:00Z","name_a2s":"Uncletopia | Warsaw | 2 | One Thousand Uncles","protocol":17,"map":"pl_goldrush","folder":"tf","game":"Team Fortress","app_id":440,"player_count":0,"max_players":32,"Bots":0,"server_type":"Dedicated","server_os":"Linux","password":true,"vac":true,"version":"7961495","steam_id":85568392925397851,"keywords":["alltalk","danepve","increased_maxplayers","nocrits","norespawntime","payload","uncletopia"],"game_id":440,"stv_port":0,"stv_name":"","players":null},{"server_id":51,"name":"Uncletopia | Warsaw | 3 | All Maps","name_short":"waw-3","host":"waw-1.pl.uncletopia.com","port":27035,"enabled":true,"region":"eu","cc":"pl","latitude":52.2297,"longitude":21.017532,"reserved":0,"last_update":"0001-01-01T00:00:00Z","name_a2s":"Uncletopia | Warsaw | 3 | All Maps","protocol":17,"map":"plr_pipeline","folder":"tf","game":"Team Fortress","app_id":440,"player_count":0,"max_players":24,"Bots":0,"server_type":"Dedicated","server_os":"Linux","password":true,"vac":true,"version":"7961495","steam_id":85568392925397852,"keywords":["nocrits","nodmgspread","payload","uncletopia"],"game_id":440,"stv_port":27036,"stv_name":"Uncletopia | Warsaw | 3 | All Maps | STV","players":null},{"server_id":52,"name":"Uncletopia | Warsaw | 4 | All Maps","name_short":"waw-4","host":"waw-1.pl.uncletopia.com","port":27045,"enabled":true,"region":"eu","cc":"pl","latitude":52.2297,"longitude":21.017532,"reserved":0,"last_update":"0001-01-01T00:00:00Z","name_a2s":"Uncletopia | Warsaw | 4 | All Maps","protocol":17,"map":"cp_coldfront","folder":"tf","game":"Team Fortress","app_id":440,"player_count":0,"max_players":24,"Bots":0,"server_type":"Dedicated","server_os":"Linux","password":true,"vac":true,"version":"7961495","steam_id":85568392925397853,"keywords":["cp","nocrits","nodmgspread","uncletopia"],"game_id":440,"stv_port":27046,"stv_name":"Uncletopia | Warsaw | 4 | All Maps | STV","players":null},{"server_id":53,"name":"Uncletopia | Warsaw | 5 | Stopwatch","name_short":"waw-5","host":"waw-1.pl.uncletopia.com","port":27055,"enabled":true,"region":"eu","cc":"pl","latitude":52.2297,"longitude":21.017532,"reserved":0,"last_update":"0001-01-01T00:00:00Z","name_a2s":"Uncletopia | Warsaw | 5 | Stopwatch","protocol":17,"map":"workshop/koth_bagel_rc6.ugc2514036946","folder":"tf","game":"Team Fortress","app_id":440,"player_count":0,"max_players":24,"Bots":0,"server_type":"Dedicated","server_os":"Linux","password":true,"vac":true,"version":"7961495","steam_id":85568392925397854,"keywords":["cp","nocrits","nodmgspread","uncletopia"],"game_id":440,"stv_port":27056,"stv_name":"Uncletopia | Warsaw | 5 | Stopwatch | STV","players":null},{"server_id":54,"name":"Uncletopia | Warsaw | 6 | Community","name_short":"waw-6","host":"waw-1.pl.uncletopia.com","port":27065,"enabled":true,"region":"eu","cc":"pl","latitude":52.2297,"longitude":21.017532,"reserved":0,"last_update":"0001-01-01T00:00:00Z","name_a2s":"Uncletopia | Warsaw | 6 | Community","protocol":17,"map":"workshop/pl_badwater_pro_v12.ugc2142942074","folder":"tf","game":"Team Fortress","app_id":440,"player_count":0,"max_players":24,"Bots":0,"server_type":"Dedicated","server_os":"Linux","password":true,"vac":true,"version":"7961495","steam_id":85568392925397856,"keywords":["nocrits","nodmgspread","payload","uncletopia"],"game_id":440,"stv_port":27066,"stv_name":"Uncletopia | Warsaw | 6 | Community | STV","players":null}]}