{"status":true,"message":"","result":[{"server_id":9,"name":"Uncletopia | Atlanta | 1 | All Maps","name_short":"atl-1","host":"atl-1.us.uncletopia.com","port":27015,"enabled":true,"region":"us-east","cc":"us","latitude":33.753746,"longitude":-84.38633,"reserved":0,"last_update":"0001-01-01T00:00:00Z","name_a2s":"Uncletopia | Atlanta | 1 | All Maps","protocol":17,"map":"koth_highpass","folder":"tf","game":"Team Fortress","app_id":440,"player_count":22,"max_players":24,"Bots":0,"server_type":"Dedicated","server_os":"Linux","password":true,"vac":true,"version":"7932396","steam_id":85568392924469982,"keywords":["cp","nocrits","nodmgspread","uncletopia"],"game_id":440,"stv_port":27016,"stv_name":"Uncletopia | Atlanta | 1 | All Maps | STV","players":[{"user_id":381,"name":"big time geeky member","steam_id":76561198143132686,"connected_time":388000000000,"state":"active","ping":107},{"user_id":385,"name":"desk","steam_id":76561199115711719,"connected_time":331000000000,"state":"active","ping":100},{"user_id":398,"name":"Testiclees Peesaschmidt","steam_id":76561198050582941,"connected_time":175000000000,"state":"active","ping":99},{"user_id":406,"name":"Zachcost","steam_id":76561199053195458,"connected_time":108000000000,"state":"active","ping":156},{"user_id":409,"name":"Bingo Bongo","steam_id":76561198300707464,"connected_time":61000000000,"state":"active","ping":117},{"user_id":366,"name":"Tockbird","steam_id":76561199437964594,"connected_time":580000000000,"state":"active","ping":137},{"user_id":386,"name":"Mongkoot","steam_id":76561198033125093,"connected_time":327000000000,"state":"active","ping":76},{"user_id":412,"name":"Etoilelun","steam_id":76561198106568214,"connected_time":17000000000,"state":"active","ping":137},{"user_id":395,"name":"Asolator0","steam_id":76561198095809798,"connected_time":200000000000,"state":"active","ping":109},{"user_id":380,"name":"Shinies","steam_id":76561198169459631,"connected_time":396000000000,"state":"active","ping":79},{"user_id":388,"name":"Dreadnaught","steam_id":76561198029232533,"connected_time":302000000000,"state":"active","ping":98},{"user_id":377,"name":"IceBreaker","steam_id":76561198056881701,"connected_time":440000000000,"state":"active","ping":99},{"user_id":384,"name":"Miramar","steam_id":76561198022057653,"connected_time":352000000000,"state":"active","ping":102},{"user_id":369,"name":"FOOL","steam_id":76561198370866973,"connected_time":542000000000,"state":"active","ping":138},{"user_id":389,"name":"Cipherlock | YT","steam_id":76561198075994493,"connected_time":286000000000,"state":"active","ping":96},{"user_id":390,"name":"victus","steam_id":76561197993153889,"connected_time":273000000000,"state":"active","ping":140},{"user_id":401,"name":"BigBangBoom","steam_id":76561198049599817,"connected_time":161000000000,"state":"active","ping":142},{"user_id":410,"name":"Dev","steam_id":76561198388276870,"connected_time":28000000000,"state":"spawning","ping":129},{"user_id":373,"name":"Bald Jersey","steam_id":76561199140335277,"connected_time":498000000000,"state":"active","ping":84},{"user_id":413,"name":"Lumina","steam_id":76561198089227368,"connected_time":15000000000,"state":"spawning","ping":244},{"user_id":411,"name":"Kamaton","steam_id":76561198074975208,"connected_time":22000000000,"state":"active","ping":82},{"user_id":408,"name":"PaPÃ¡ Soulzuneãƒ…","steam_id":76561198139615052,"connected_time":101000000000,"state":"active","ping":111}]},{"server_id":104,"name":"Uncletopia | Atlanta | 2 | All Maps","name_short":"atl-2","host":"atl-1.us.uncletopia.com","port":27025,"enabled":true,"region":"us-east","cc":"us","latitude":33.753746,"longitude":-84.38633,"reserved":0,"last_update":"0001-01-01T00:00:00Z","name_a2s":"Uncletopia | Atlanta | 2 | All Maps","protocol":17,"map":"koth_lakeside_final","folder":"tf","game":"Team Fortress","app_id":440,"player_count":8,"max_players":24,"Bots":0,"server_type":"Dedicated","server_os":"Linux","password":true,"vac":true,"version":"7932396","steam_id":85568392924469983,"keywords":["cp","nocrits","nodmgspread","uncletopia"],"game_id":440,"stv_port":27026,"stv_name":"Uncletopia | Atlanta | 2 | All Maps | STV","players":[{"user_id":1110,"name":"Capybara Enjoyer","steam_id":76561199147114434,"connected_time":797000000000,"state":"active","ping":100},{"user_id":1112,"name":"Dr. Fritz Ludwig","steam_id":76561198355949229,"connected_time":236000000000,"state":"active","ping":69},{"user_id":1109,"name":"grillbyssisoloeso","steam_id":76561199105132740,"connected_time":1080000000000,"state":"active","ping":114},{"user_id":1111,"name":"winterxs","steam_id":76561199261885080,"connected_time":768000000000,"state":"active","ping":121},{"user_id":1113,"name":"-W3E- grim10465","steam_id":76561198045698581,"connected_time":216000000000,"state":"active","ping":58},{"user_id":1114,"name":"Waaaaz","steam_id":76561198029754301,"connected_time":207000000000,"state":"active","ping":117},{"user_id":1115,"name":"Rose","steam_id":76561198955581861,"connected_time":110000000000,"state":"active","ping":107},{"user_id":1026,"name":"Armer_Doggo73","steam_id":76561198872424903,"connected_time":3316000000000,"state":"active","ping":288}]},{"server_id":400,"name":"Uncletopia | Atlanta | 3 | Community","name_short":"atl-3","host":"atl-1.us.uncletopia.com","port":27035,"enabled":true,"region":"us-east","cc":"us","latitude":33.753746,"longitude":-84.38633,"reserved":0,"last_update":"0001-01-01T00:00:00Z","name_a2s":"Uncletopia | Atlanta | 3 | Community","protocol":17,"map":"workshop/koth_product_final.ugc454272353","folder":"tf","game":"Team Fortress","app_id":440,"player_count":2,"max_players":24,"Bots":0,"server_type":"Dedicated","server_os":"Linux","password":true,"vac":true,"version":"7932396","steam_id":85568392924515187,"keywords":["cp","nocrits","nodmgspread","uncletopia"],"game_id":440,"stv_port":27036,"stv_name":"Uncletopia | Atlanta | 3 | Community | STV","players":[{"user_id":27,"name":"monqueer","steam_id":76561199125615716,"connected_time":755000000000,"state":"active","ping":88},{"user_id":28,"name":"Kelvin","steam_id":76561198966990448,"connected_time":213000000000,"state":"active","ping":86}]},{"server_id":401,"name":"Uncletopia | Atlanta | 4 | No Payload","name_short":"atl-4","host":"atl-1.us.uncletopia.com","port":27045,"enabled":true,"region":"us-east","cc":"us","latitude":33.753746,"longitude":-84.38633,"reserved":0,"last_update":"0001-01-01T00:00:00Z","name_a2s":"","protocol":0,"map":"","folder":"","game":"","app_id":0,"player_count":0,"max_players":0,"Bots":0,"server_type":"","server_os":"","password":false,"vac":false,"version":"","steam_id":0,"keywords":null,"game_id":0,"stv_port":0,"stv_name":"","players":null},{"server_id":2,"name":"Uncletopia | Chicago | 1 | All Maps","name_short":"chi-1","host":"chi-1.us.uncletopia.com","port":27015,"enabled":true,"region":"us-central","cc":"us","latitude":41.881832,"longitude":-87.62318,"reserved":0,"last_update":"0001-01-01T00:00:00Z","name_a2s":"Uncletopia | Chicago | 1 | All Maps","protocol":17,"map":"pl_frontier_final","folder":"tf","game":"Team Fortress","app_id":440,"player_count":24,"max_players":24,"Bots":0,"server_type":"Dedicated","server_os":"Linux","password":true,"vac":true,"version":"7932396","steam_id":85568392924469984,"keywords":["nocrits","nodmgspread","payload","uncletopia"],"game_id":440,"stv_port":27016,"stv_name":"Uncletopia | Chicago | 1 | All Maps | STV","players":[{"user_id":402,"name":"Kilphax","steam_id":76561198107320072,"connected_time":3727000000000,"state":"active","ping":58},{"user_id":412,"name":"Ziath","steam_id":76561198094009164,"connected_time":3258000000000,"state":"active","ping":62},{"user_id":425,"name":"Lore","steam_id":76561198098407538,"connected_time":2459000000000,"state":"active","ping":57},{"user_id":411,"name":"Dr Oshawott","steam_id":76561198042021629,"connected_time":3305000000000,"state":"active","ping":67},{"user_id":419,"name":"Filthy Acts at Reasonable Price","steam_id":76561198354615890,"connected_time":2594000000000,"state":"active","ping":56},{"user_id":433,"name":":)","steam_id":76561198093921290,"connected_time":671000000000,"state":"active","ping":49},{"user_id":436,"name":"SmallShwarma","steam_id":76561198259380127,"connected_time":653000000000,"state":"active","ping":58},{"user_id":431,"name":"TheSnipersHat","steam_id":76561198057684066,"connected_time":1589000000000,"state":"active","ping":51},{"user_id":395,"name":"Praise_to_the_Flashlight!","steam_id":76561199001728789,"connected_time":4305000000000,"state":"active","ping":66},{"user_id":409,"name":"Drewp","steam_id":76561198856700517,"connected_time":3376000000000,"state":"active","ping":72},{"user_id":401,"name":"fudge lord","steam_id":76561198118318422,"connected_time":4149000000000,"state":"active","ping":94},{"user_id":437,"name":"hoot.","steam_id":76561198066876703,"connected_time":470000000000,"state":"active","ping":57},{"user_id":393,"name":"Meme Foreskin II","steam_id":76561198028157625,"connected_time":4838000000000,"state":"active","ping":89},{"user_id":421,"name":"Rigby","steam_id":76561198131652100,"connected_time":2573000000000,"state":"active","ping":79},{"user_id":430,"name":"car","steam_id":76561198999217575,"connected_time":1930000000000,"state":"active","ping":66},{"user_id":417,"name":"Yoshimelon","steam_id":76561198253054325,"connected_time":2772000000000,"state":"active","ping":65},{"user_id":397,"name":"thecal","steam_id":76561198307893384,"connected_time":4290000000000,"state":"active","ping":55},{"user_id":396,"name":"Thundermonkey (SMOKE)","steam_id":76561198017631728,"connected_time":4303000000000,"state":"active","ping":66},{"user_id":413,"name":"Snom","steam_id":76561198333827920,"connected_time":3133000000000,"state":"active","ping":96},{"user_id":432,"name":"Astoriae!","steam_id":76561199090168858,"connected_time":1575000000000,"state":"active","ping":74},{"user_id":422,"name":"Lord TriM","steam_id":76561198048332533,"connected_time":2569000000000,"state":"active","ping":56},{"user_id":440,"name":"ash","steam_id":76561198127890645,"connected_time":53000000000,"state":"active","ping":89},{"user_id":384,"name":"Mank","steam_id":76561198189421005,"connected_time":5391000000000,"state":"active","ping":58},{"user_id":428,"name":"Rukks","steam_id":76561197993918954,"connected_time":2127000000000,"state":"active","ping":90}]},{"server_id":106,"name":"Uncletopia | Chicago | 2 | All Maps","name_short":"chi-2","host":"chi-1.us.uncletopia.com","port":27025,"enabled":true,"region":"us-central","cc":"us","latitude":41.881832,"longitude":-87.62318,"reserved":0,"last_update":"0001-01-01T00:00:00Z","name_a2s":"Uncletopia | Chicago | 2 | All Maps","protocol":17,"map":"pl_frontier_final","folder":"tf","game":"Team Fortress","app_id":440,"player_count":24,"max_players":24,"Bots":0,"server_type":"Dedicated","server_os":"Linux","password":true,"vac":true,"version":"7932396","steam_id":85568392924469985,"keywords":["nocrits","nodmgspread","payload","uncletopia"],"game_id":440,"stv_port":27026,"stv_name":"Uncletopia | Chicago | 2 | All Maps | STV","players":[{"user_id":646,"name":"Steve Buscemi's Left Nut","steam_id":76561198047845399,"connected_time":3082000000000,"state":"active","ping":78},{"user_id":694,"name":"your mom calls me princess too","steam_id":76561198020400899,"connected_time":78000000000,"state":"active","ping":63},{"user_id":668,"name":"Dojojo","steam_id":76561198035654543,"connected_time":2104000000000,"state":"active","ping":55},{"user_id":695,"name":"Poopie Babie","steam_id":76561198047500494,"connected_time":69000000000,"state":"active","ping":63},{"user_id":689,"name":"Bonchiko","steam_id":76561198065133470,"connected_time":261000000000,"state":"active","ping":64},{"user_id":670,"name":"Lemony Lilly (She/Her)","steam_id":76561198042479066,"connected_time":2049000000000,"state":"active","ping":79},{"user_id":696,"name":"Big Yoshi","steam_id":76561199160576376,"connected_time":67000000000,"state":"active","ping":106},{"user_id":632,"name":"zee","steam_id":76561197994492154,"connected_time":3427000000000,"state":"active","ping":170},{"user_id":685,"name":"Trash Man","steam_id":76561198874518834,"connected_time":401000000000,"state":"active","ping":86},{"user_id":677,"name":"AJTarcza","steam_id":76561198070800190,"connected_time":1178000000000,"state":"active","ping":79},{"user_id":697,"name":"Wallet","steam_id":76561198081067377,"connected_time":60000000000,"state":"active","ping":60},{"user_id":672,"name":"Dead_Stranger","steam_id":76561198120804563,"connected_time":2029000000000,"state":"active","ping":103},{"user_id":691,"name":"CLapz1111","steam_id":76561199246946561,"connected_time":116000000000,"state":"active","ping":118},{"user_id":692,"name":"leumas","steam_id":76561198240408540,"connected_time":109000000000,"state":"active","ping":83},{"user_id":693,"name":"Grand","steam_id":76561198290143399,"connected_time":108000000000,"state":"active","ping":66},{"user_id":652,"name":"basil","steam_id":76561198075758026,"connected_time":2898000000000,"state":"active","ping":89},{"user_id":684,"name":"OldManHenderson1976","steam_id":76561198148713751,"connected_time":459000000000,"state":"active","ping":100},{"user_id":587,"name":"do you like my sowrd sword sowr","steam_id":76561198079416036,"connected_time":5900000000000,"state":"active","ping":44},{"user_id":698,"name":"bouzelouf","steam_id":76561198095000722,"connected_time":48000000000,"state":"active","ping":59},{"user_id":701,"name":"ShellBug","steam_id":76561198144187527,"connected_time":40000000000,"state":"active","ping":91},{"user_id":673,"name":"Flowers","steam_id":76561198031669899,"connected_time":2001000000000,"state":"active","ping":76},{"user_id":700,"name":"rainingmudkips","steam_id":76561198018010854,"connected_time":44000000000,"state":"active","ping":91},{"user_id":585,"name":"freyja","steam_id":76561198249206656,"connected_time":6092000000000,"state":"active","ping":77},{"user_id":687,"name":"Harry Dongle","steam_id":76561198013805774,"connected_time":341000000000,"state":"active","ping":89}]},{"server_id":402,"name":"Uncletopia | Chicago | 3 | All Maps","name_short":"chi-3","host":"chi-1.us.uncletopia.com","port":27035,"enabled":true,"region":"us-central","cc":"us","latitude":41.881832,"longitude":-87.62318,"reserved":0,"last_update":"0001-01-01T00:00:00Z","name_a2s":"Uncletopia | Chicago | 3 | All Maps","protocol":17,"map":"pl_swiftwater_final1","folder":"tf","game":"Team Fortress","app_id":440,"player_count":22,"max_players":24,"Bots":0,"server_type":"Dedicated","server_os":"Linux","password":true,"vac":true,"version":"7932396","steam_id":85568392924515191,"keywords":["nocrits","nodmgspread","payload","uncletopia"],"game_id":440,"stv_port":27036,"stv_name":"Uncletopia | Chicago | 3 | All Maps | STV","players":[{"user_id":461,"name":"JlMMY","steam_id":76561198196762079,"connected_time":2342000000000,"state":"spawning","ping":63},{"user_id":432,"name":"liquid bread","steam_id":76561198012441419,"connected_time":4990000000000,"state":"spawning","ping":51},{"user_id":467,"name":"JDM Street Cred","steam_id":76561198033035560,"connected_time":1369000000000,"state":"spawning","ping":65},{"user_id":482,"name":"Inkmix(donkey kong enjoyer)","steam_id":76561198854070384,"connected_time":58000000000,"state":"spawning","ping":158},{"user_id":447,"name":"ATL 1 | Save your wifi","steam_id":76561198286147372,"connected_time":3639000000000,"state":"spawning","ping":64},{"user_id":475,"name":"Bread Baker","steam_id":76561198185335103,"connected_time":940000000000,"state":"spawning","ping":53},{"user_id":465,"name":"FitzyBear","steam_id":76561198409189585,"connected_time":2160000000000,"state":"spawning","ping":74},{"user_id":480,"name":"beheeyem","steam_id":76561198042867745,"connected_time":412000000000,"state":"spawning","ping":94},{"user_id":420,"name":"Ichthyology Enthusiast","steam_id":76561198854662187,"connected_time":6123000000000,"state":"spawning","ping":49},{"user_id":458,"name":"TheRealMud","steam_id":76561198138312993,"connected_time":2745000000000,"state":"spawning","ping":65},{"user_id":454,"name":"Rhea","steam_id":76561198066626240,"connected_time":3117000000000,"state":"spawning","ping":83},{"user_id":474,"name":"Person","steam_id":76561198093244204,"connected_time":1075000000000,"state":"spawning","ping":65},{"user_id":466,"name":"Alkivo","steam_id":76561198315999766,"connected_time":1751000000000,"state":"spawning","ping":83},{"user_id":459,"name":"aleksei","steam_id":76561199061380038,"connected_time":2423000000000,"state":"spawning","ping":77},{"user_id":473,"name":"MrVegasAguitar","steam_id":76561198084466946,"connected_time":1120000000000,"state":"spawning","ping":80},{"user_id":404,"name":"riSygneD","steam_id":76561198331618687,"connected_time":7613000000000,"state":"spawning","ping":92},{"user_id":472,"name":"Prog Rug","steam_id":76561197998665860,"connected_time":1176000000000,"state":"spawning","ping":53},{"user_id":483,"name":"Townze","steam_id":76561198081827165,"connected_time":20000000000,"state":"spawning","ping":46},{"user_id":455,"name":"CozTheloreGuy","steam_id":76561199125915099,"connected_time":3075000000000,"state":"spawning","ping":167},{"user_id":464,"name":"YaGirlVann","steam_id":76561199257900151,"connected_time":2255000000000,"state":"spawning","ping":85},{"user_id":476,"name":"OpenDown","steam_id":76561198064132688,"connected_time":933000000000,"state":"spawning","ping":48},{"user_id":457,"name":"spoiler alert everyone dies","steam_id":76561199100342013,"connected_time":3040000000000,"state":"spawning","ping":94}]},{"server_id":403,"name":"Uncletopia | Chicago | 4 | All Maps","name_short":"chi-4","host":"chi-1.us.uncletopia.com","port":27045,"enabled":true,"region":"us-central","cc":"us","latitude":41.881832,"longitude":-87.62318,"reserved":0,"last_update":"0001-01-01T00:00:00Z","name_a2s":"Uncletopia | Chicago | 4 | All Maps","protocol":17,"map":"koth_viaduct","folder":"tf","game":"Team Fortress","app_id":440,"player_count":22,"max_players":24,"Bots":0,"server_type":"Dedicated","server_os":"Linux","password":true,"vac":true,"version":"7932396","steam_id":85568392924515193,"keywords":["cp","nocrits","nodmgspread","uncletopia"],"game_id":440,"stv_port":27046,"stv_name":"Uncletopia | Chicago | 4 | All Maps | STV","players":[{"user_id":543,"name":"if i miss I WILL KILL MYSELF!!!","steam_id":76561198253747839,"connected_time":810000000000,"state":"active","ping":45},{"user_id":496,"name":"checkswing","steam_id":76561198999816132,"connected_time":4952000000000,"state":"active","ping":79},{"user_id":502,"name":"Norman","steam_id":76561198154715990,"connected_time":3731000000000,"state":"active","ping":90},{"user_id":510,"name":"wunkem","steam_id":76561198055948497,"connected_time":2410000000000,"state":"active","ping":69},{"user_id":505,"name":"gorf?","steam_id":76561198142286417,"connected_time":2834000000000,"state":"active","ping":56},{"user_id":556,"name":"sc67","steam_id":76561199302471485,"connected_time":121000000000,"state":"active","ping":44},{"user_id":528,"name":"sonikro","steam_id":76561197989428692,"connected_time":1357000000000,"state":"active","ping":59},{"user_id":557,"name":"punaise","steam_id":76561198095105411,"connected_time":113000000000,"state":"active","ping":70},{"user_id":552,"name":"basilberry","steam_id":76561198145275937,"connected_time":166000000000,"state":"active","ping":88},{"user_id":547,"name":"jpuzza","steam_id":76561198035535731,"connected_time":653000000000,"state":"active","ping":52},{"user_id":546,"name":"TheFriendlyPybro","steam_id":76561198119425604,"connected_time":742000000000,"state":"active","ping":69},{"user_id":535,"name":"catnap","steam_id":76561199128135362,"connected_time":1048000000000,"state":"active","ping":78},{"user_id":375,"name":"Bag","steam_id":76561198012395490,"connected_time":13293000000000,"state":"active","ping":60},{"user_id":554,"name":"Angry Crab","steam_id":76561198055350230,"connected_time":164000000000,"state":"active","ping":69},{"user_id":559,"name":"eryn ðŸ—º","steam_id":76561198004433070,"connected_time":28000000000,"state":"active","ping":80},{"user_id":560,"name":"oOoOoOh sPo0Ky GhOst!!","steam_id":76561198397009880,"connected_time":11000000000,"state":"active","ping":144},{"user_id":529,"name":"AlbinoRhino","steam_id":76561199192140783,"connected_time":1336000000000,"state":"active","ping":78},{"user_id":544,"name":"troll","steam_id":76561198040890252,"connected_time":790000000000,"state":"active","ping":69},{"user_id":550,"name":"Ballfondler","steam_id":76561198796712940,"connected_time":429000000000,"state":"active","ping":54},{"user_id":534,"name":"abcdefghijklmnopqrstuvwxyz","steam_id":76561198175741741,"connected_time":1082000000000,"state":"active","ping":72},{"user_id":531,"name":"Solivisor","steam_id":76561198846866721,"connected_time":1271000000000,"state":"active","ping":96},{"user_id":551,"name":"robo gushy","steam_id":76561198060334743,"connected_time":185000000000,"state":"active","ping":45}]},{"server_id":36,"name":"Uncletopia | Chicago | 5 | All Maps","name_short":"chi-5","host":"chi-2.us.uncletopia.com","port":27015,"enabled":true,"region":"us-central","cc":"us","latitude":41.881832,"longitude":-87.62318,"reserved":0,"last_update":"0001-01-01T00:00:00Z","name_a2s":"Uncletopia | Chicago | 5 | All Maps","protocol":17,"map":"pl_badwater","folder":"tf","game":"Team Fortress","app_id":440,"player_count":24,"max_players":24,"Bots":0,"server_type":"Dedicated","server_os":"Linux","password":true,"vac":true,"version":"7932396","steam_id":85568392924866362,"keywords":["nocrits","nodmgspread","payload","uncletopia"],"game_id":440,"stv_port":27016,"stv_name":"Uncletopia | Chicago | 5 | All Maps | STV","players":[{"user_id":752,"name":"saggysage","steam_id":76561198249808678,"connected_time":14000000000,"state":"active","ping":101},{"user_id":749,"name":"scrapheap","steam_id":76561198202407087,"connected_time":451000000000,"state":"active","ping":70},{"user_id":703,"name":"Wet Deer","steam_id":76561198145045927,"connected_time":3259000000000,"state":"active","ping":69},{"user_id":742,"name":"bubby626","steam_id":76561198183438069,"connected_time":991000000000,"state":"active","ping":82},{"user_id":697,"name":"dweamy","steam_id":76561198119181880,"connected_time":4530000000000,"state":"active","ping":78},{"user_id":745,"name":"Real Azure #SaveTF2","steam_id":76561198095912284,"connected_time":635000000000,"state":"active","ping":99},{"user_id":704,"name":"Jar Jar Kinks","steam_id":76561199087748803,"connected_time":2884000000000,"state":"active","ping":93},{"user_id":743,"name":"RailRunner66","steam_id":76561198053779091,"connected_time":986000000000,"state":"active","ping":89},{"user_id":741,"name":"Mining_green_beans","steam_id":76561199372371397,"connected_time":1275000000000,"state":"active","ping":103},{"user_id":707,"name":"Xitea","steam_id":76561198086511399,"connected_time":2821000000000,"state":"active","ping":87},{"user_id":732,"name":"FizzleWizard","steam_id":76561198045990868,"connected_time":1404000000000,"state":"active","ping":68},{"user_id":708,"name":"stalkif","steam_id":76561198143991889,"connected_time":2808000000000,"state":"active","ping":77},{"user_id":716,"name":"King of the Bretons","steam_id":76561198314851421,"connected_time":2162000000000,"state":"active","ping":180},{"user_id":751,"name":"Burt Macklin","steam_id":76561198038080028,"connected_time":225000000000,"state":"active","ping":90},{"user_id":746,"name":"the private","steam_id":76561198232500756,"connected_time":555000000000,"state":"active","ping":84},{"user_id":747,"name":"Big Oil","steam_id":76561199238964574,"connected_time":549000000000,"state":"active","ping":73},{"user_id":709,"name":"Captain_Opossum","steam_id":76561198250813500,"connected_time":2800000000000,"state":"active","ping":76},{"user_id":734,"name":"Kravixx","steam_id":76561197995777255,"connected_time":1394000000000,"state":"active","ping":62},{"user_id":735,"name":"American Dad","steam_id":76561198059711448,"connected_time":1394000000000,"state":"active","ping":83},{"user_id":748,"name":"NonfatYeti","steam_id":76561198200074882,"connected_time":522000000000,"state":"active","ping":69},{"user_id":736,"name":"Freewave","steam_id":76561198156282541,"connected_time":1388000000000,"state":"active","ping":56},{"user_id":694,"name":"Tri-Dot","steam_id":76561199075186597,"connected_time":4660000000000,"state":"active","ping":76},{"user_id":738,"name":"SirKnight5067","steam_id":76561198377306047,"connected_time":1372000000000,"state":"active","ping":69},{"user_id":715,"name":"Samitch","steam_id":76561198038247982,"connected_time":2185000000000,"state":"active","ping":64}]},{"server_id":37,"name":"Uncletopia | Chicago | 6 | All Maps","name_short":"chi-6","host":"chi-2.us.uncletopia.com","port":27025,"enabled":true,"region":"us-central","cc":"us","latitude":41.881832,"longitude":-87.62318,"reserved":0,"last_update":"0001-01-01T00:00:00Z","name_a2s":"Uncletopia | Chicago | 6 | All Maps","protocol":17,"map":"pl_badwater","folder":"tf","game":"Team Fortress","app_id":440,"player_count":23,"max_players":24,"Bots":0,"server_type":"Dedicated","server_os":"Linux","password":true,"vac":true,"version":"7932396","steam_id":85568392924866363,"keywords":["nocrits","nodmgspread","payload","uncletopia"],"game_id":440,"stv_port":27026,"stv_name":"Uncletopia | Chicago | 6 | All Maps | STV","players":[{"user_id":823,"name":"Stupid Monkey =3","steam_id":76561198024580166,"connected_time":1069000000000,"state":"active","ping":102},{"user_id":824,"name":"Shaunt","steam_id":76561198171551057,"connected_time":1061000000000,"state":"active","ping":54},{"user_id":833,"name":"Hyp3r","steam_id":76561198190188630,"connected_time":298000000000,"state":"active","ping":83},{"user_id":835,"name":"Turnip","steam_id":76561198066309458,"connected_time":267000000000,"state":"active","ping":73},{"user_id":805,"name":"DelfinX","steam_id":76561197992847579,"connected_time":2431000000000,"state":"active","ping":98},{"user_id":804,"name":"Bheem","steam_id":76561198170453459,"connected_time":2459000000000,"state":"active","ping":79},{"user_id":784,"name":"God","steam_id":76561198131089513,"connected_time":3685000000000,"state":"active","ping":59},{"user_id":825,"name":"Acidasaur","steam_id":76561198424179969,"connected_time":1051000000000,"state":"active","ping":54},{"user_id":787,"name":"Lucerneâ˜…Flower","steam_id":76561198264105406,"connected_time":3568000000000,"state":"active","ping":160},{"user_id":821,"name":"Ê•â€¢á´¥â€¢Ê” the bear","steam_id":76561197989591976,"connected_time":1196000000000,"state":"active","ping":80},{"user_id":836,"name":"Wingsaber","steam_id":76561198045010390,"connected_time":101000000000,"state":"active","ping":62},{"user_id":796,"name":"your wickedness is cringe","steam_id":76561198016826181,"connected_time":2807000000000,"state":"active","ping":74},{"user_id":799,"name":"Johnny Rocket","steam_id":76561198169306531,"connected_time":2778000000000,"state":"active","ping":89},{"user_id":832,"name":"Sergeant Radovan [T.H.W.U]","steam_id":76561198287779085,"connected_time":465000000000,"state":"active","ping":89},{"user_id":816,"name":"bee","steam_id":76561198178015361,"connected_time":1855000000000,"state":"active","ping":57},{"user_id":813,"name":"Sage","steam_id":76561198143101697,"connected_time":2085000000000,"state":"active","ping":104},{"user_id":837,"name":"Rudy","steam_id":76561198013456828,"connected_time":83000000000,"state":"active","ping":64},{"user_id":827,"name":"flootsmcdoots","steam_id":76561198124744765,"connected_time":1032000000000,"state":"active","ping":75},{"user_id":838,"name":"bagel sandwich","steam_id":76561198087971968,"connected_time":43000000000,"state":"active","ping":59},{"user_id":831,"name":"PDF File","steam_id":76561198128936049,"connected_time":840000000000,"state":"active","ping":62},{"user_id":807,"name":"Honeybunch","steam_id":76561198014850580,"connected_time":2412000000000,"state":"active","ping":92},{"user_id":830,"name":"birr","steam_id":76561198896091253,"connected_time":990000000000,"state":"active","ping":89},{"user_id":789,"name":"mendokusai","steam_id":76561197965022076,"connected_time":3170000000000,"state":"active","ping":60}]},{"server_id":38,"name":"Uncletopia | Chicago | 7 | Stopwatch Beta","name_short":"chi-7","host":"chi-2.us.uncletopia.com","port":27035,"enabled":true,"region":"us-central","cc":"us","latitude":41.881832,"longitude":-87.62318,"reserved":0,"last_update":"0001-01-01T00:00:00Z","name_a2s":"Uncletopia | Chicago | 7 | Stopwatch Beta","protocol":17,"map":"pl_swiftwater_final1","folder":"tf","game":"Team Fortress","app_id":440,"player_count":0,"max_players":24,"Bots":0,"server_type":"Dedicated","server_os":"Linux","password":true,"vac":true,"version":"7932396","steam_id":85568392924866364,"keywords":["nocrits","nodmgspread","payload","uncletopia"],"game_id":440,"stv_port":27036,"stv_name":"Uncletopia | Chicago | 7 | Stopwatch Beta | STV","players":null},{"server_id":39,"name":"Uncletopia | Chicago | 8 | Community","name_short":"chi-8","host":"chi-2.us.uncletopia.com","port":27045,"enabled":true,"region":"us-central","cc":"us","latitude":41.881832,"longitude":-87.62318,"reserved":0,"last_update":"0001-01-01T00:00:00Z","name_a2s":"Uncletopia | Chicago | 8 | Community","protocol":17,"map":"workshop/koth_ashville_final.ugc2130459942","folder":"tf","game":"Team Fortress","app_id":440,"player_count":23,"max_players":24,"Bots":0,"server_type":"Dedicated","server_os":"Linux","password":true,"vac":true,"version":"7932396","steam_id":85568392924866365,"keywords":["cp","nocrits","nodmgspread","uncletopia"],"game_id":440,"stv_port":27046,"stv_name":"Uncletopia | Chicago | 8 | Community | STV","players":[{"user_id":144,"name":"Ohio Survivor","steam_id":76561198031675881,"connected_time":5770000000000,"state":"active","ping":44},{"user_id":214,"name":"brian eno","steam_id":76561198109901138,"connected_time":898000000000,"state":"active","ping":72},{"user_id":197,"name":"PostBASH","steam_id":76561199194134673,"connected_time":1439000000000,"state":"active","ping":78},{"user_id":151,"name":"bone(r)","steam_id":76561198053237404,"connected_time":5214000000000,"state":"active","ping":100},{"user_id":206,"name":"Zixzs","steam_id":76561198055504126,"connected_time":1023000000000,"state":"active","ping":67},{"user_id":224,"name":"GeekyNerd54","steam_id":76561198314982395,"connected_time":399000000000,"state":"active","ping":52},{"user_id":207,"name":"seigfried","steam_id":76561198047260133,"connected_time":1020000000000,"state":"active","ping":163},{"user_id":131,"name":"Little Shuriken","steam_id":76561199020477560,"connected_time":6572000000000,"state":"active","ping":100},{"user_id":199,"name":"Likeia #Savetf2","steam_id":76561198005214207,"connected_time":1324000000000,"state":"active","ping":60},{"user_id":177,"name":"euphoricfilth","steam_id":76561198100160865,"connected_time":2925000000000,"state":"active","ping":149},{"user_id":208,"name":"green dragon","steam_id":76561198308336837,"connected_time":1016000000000,"state":"active","ping":118},{"user_id":222,"name":"Junko","steam_id":76561198146089003,"connected_time":655000000000,"state":"active","ping":55},{"user_id":225,"name":"Piyono","steam_id":76561197962188504,"connected_time":317000000000,"state":"active","ping":79},{"user_id":182,"name":"KuwagamonGaming","steam_id":76561199400190741,"connected_time":2668000000000,"state":"active","ping":86},{"user_id":227,"name":"awesomebrololo","steam_id":76561198374283489,"connected_time":92000000000,"state":"active","ping":132},{"user_id":218,"name":"the piss boiling machine","steam_id":76561198113716047,"connected_time":846000000000,"state":"active","ping":78},{"user_id":194,"name":"Sgt.Sprinkles","steam_id":76561197967457834,"connected_time":1619000000000,"state":"active","ping":62},{"user_id":201,"name":"dulg","steam_id":76561198127640309,"connected_time":1295000000000,"state":"active","ping":88},{"user_id":112,"name":"cum dried in your armpit","steam_id":76561198013483349,"connected_time":8020000000000,"state":"active","ping":95},{"user_id":195,"name":"drwwby","steam_id":76561198067741339,"connected_time":1577000000000,"state":"active","ping":59},{"user_id":221,"name":"Big Soup","steam_id":76561198045609958,"connected_time":751000000000,"state":"active","ping":82},{"user_id":219,"name":"Kingpin","steam_id":76561198362916241,"connected_time":843000000000,"state":"active","ping":56},{"user_id":212,"name":"Robert","steam_id":76561198133200895,"connected_time":977000000000,"state":"active","ping":61}]},{"server_id":8,"name":"Uncletopia | Dallas | 1 | All Maps","name_short":"dal-1","host":"dal-1.us.uncletopia.com","port":27015,"enabled":true,"region":"us-central","cc":"us","latitude":32.779167,"longitude":-96.80889,"reserved":0,"last_update":"0001-01-01T00:00:00Z","name_a2s":"Uncletopia | Dallas | 1 | All Maps","protocol":17,"map":"pl_pier","folder":"tf","game":"Team Fortress","app_id":440,"player_count":24,"max_players":24,"Bots":0,"server_type":"Dedicated","server_os":"Linux","password":true,"vac":true,"version":"7932396","steam_id":85568392924469986,"keywords":["nocrits","nodmgspread","payload","uncletopia"],"game_id":440,"stv_port":27016,"stv_name":"Uncletopia | Dallas | 1 | All Maps | STV","players":[{"user_id":453,"name":"Frog","steam_id":76561198170199881,"connected_time":517000000000,"state":"active","ping":71},{"user_id":455,"name":"I am a mooshroom","steam_id":76561198104198295,"connected_time":345000000000,"state":"active","ping":60},{"user_id":395,"name":"Moonflower âœ¦","steam_id":76561198191782483,"connected_time":6059000000000,"state":"active","ping":50},{"user_id":370,"name":"DocDankDandy","steam_id":76561197999440195,"connected_time":8325000000000,"state":"active","ping":75},{"user_id":419,"name":"mkl","steam_id":76561197986401685,"connected_time":4194000000000,"state":"active","ping":61},{"user_id":446,"name":"Flubdy_","steam_id":76561198073338521,"connected_time":620000000000,"state":"active","ping":59},{"user_id":454,"name":"GoiDimLi","steam_id":76561198053286433,"connected_time":492000000000,"state":"active","ping":150},{"user_id":447,"name":"fishburger","steam_id":76561198142586591,"connected_time":612000000000,"state":"active","ping":60},{"user_id":406,"name":"DragonHeart","steam_id":76561198013245625,"connected_time":4939000000000,"state":"active","ping":74},{"user_id":432,"name":"Mando","steam_id":76561198139662905,"connected_time":2903000000000,"state":"active","ping":70},{"user_id":444,"name":"Globglogabgalab","steam_id":76561199072597789,"connected_time":1053000000000,"state":"active","ping":63},{"user_id":452,"name":"seriousbirb","steam_id":76561199047851076,"connected_time":525000000000,"state":"active","ping":118},{"user_id":425,"name":"Minlit","steam_id":76561198205832799,"connected_time":3251000000000,"state":"active","ping":58},{"user_id":448,"name":"NOT Susie Deltarune (not real)","steam_id":76561199007365488,"connected_time":599000000000,"state":"active","ping":70},{"user_id":427,"name":"X P X","steam_id":76561198372411760,"connected_time":3231000000000,"state":"active","ping":96},{"user_id":441,"name":"Billy McWilly","steam_id":76561198002882318,"connected_time":1377000000000,"state":"active","ping":69},{"user_id":450,"name":"Seller of Waffles","steam_id":76561198296018138,"connected_time":591000000000,"state":"active","ping":72},{"user_id":433,"name":"Sagertooth","steam_id":76561198060863894,"connected_time":2572000000000,"state":"active","ping":46},{"user_id":439,"name":"texasscorpio007","steam_id":76561198973916515,"connected_time":2083000000000,"state":"active","ping":74},{"user_id":442,"name":"Drilly22","steam_id":76561198068838338,"connected_time":1321000000000,"state":"active","ping":66},{"user_id":457,"name":"RUF","steam_id":76561198062315805,"connected_time":134000000000,"state":"active","ping":86},{"user_id":387,"name":"helen keller","steam_id":76561197979870540,"connected_time":7152000000000,"state":"active","ping":89},{"user_id":451,"name":"Cleverless Biped","steam_id":76561198045984856,"connected_time":584000000000,"state":"active","ping":92},{"user_id":409,"name":"white woman","steam_id":76561199116679777,"connected_time":4787000000000,"state":"active","ping":83}]},{"server_id":108,"name":"Uncletopia | Dallas | 2 | All Maps","name_short":"dal-2","host":"dal-1.us.uncletopia.com","port":27025,"enabled":true,"region":"us-central","cc":"us","latitude":32.779167,"longitude":-96.80889,"reserved":0,"last_update":"0001-01-01T00:00:00Z","name_a2s":"Uncletopia | Dallas | 2 | All Maps","protocol":17,"map":"pl_badwater","folder":"tf","game":"Team Fortress","app_id":440,"player_count":24,"max_players":24,"Bots":0,"server_type":"Dedicated","server_os":"Linux","password":true,"vac":true,"version":"7932396","steam_id":85568392924469988,"keywords":["nocrits","nodmgspread","payload","uncletopia"],"game_id":440,"stv_port":27026,"stv_name":"Uncletopia | Dallas | 2 | All Maps | STV","players":[{"user_id":376,"name":"Canned TNT","steam_id":76561199075358962,"connected_time":562000000000,"state":"active","ping":63},{"user_id":382,"name":"how to fly?","steam_id":76561198064255155,"connected_time":79000000000,"state":"active","ping":65},{"user_id":348,"name":"SlÃ¡va Bohu","steam_id":76561198021227843,"connected_time":1201000000000,"state":"active","ping":67},{"user_id":336,"name":"Marc Antony","steam_id":76561198011366517,"connected_time":2054000000000,"state":"active","ping":75},{"user_id":365,"name":"0of64","steam_id":76561198376708545,"connected_time":859000000000,"state":"active","ping":74},{"user_id":371,"name":"Propaniac Gaming â˜‘","steam_id":76561198133963270,"connected_time":636000000000,"state":"active","ping":57},{"user_id":327,"name":"errant","steam_id":76561197961758410,"connected_time":2901000000000,"state":"active","ping":31},{"user_id":298,"name":"cypherzero","steam_id":76561199182960322,"connected_time":4841000000000,"state":"active","ping":46},{"user_id":338,"name":"taylor swift","steam_id":76561198151135298,"connected_time":1986000000000,"state":"active","ping":69},{"user_id":355,"name":"redkingbright","steam_id":76561198297514625,"connected_time":1115000000000,"state":"active","ping":100},{"user_id":377,"name":"G2 DamDam","steam_id":76561198173095997,"connected_time":557000000000,"state":"active","ping":89},{"user_id":374,"name":"t2h","steam_id":76561198057944303,"connected_time":597000000000,"state":"active","ping":95},{"user_id":353,"name":"Some Stupid Name","steam_id":76561198065575548,"connected_time":1160000000000,"state":"active","ping":84},{"user_id":354,"name":"munch","steam_id":76561198820480684,"connected_time":1158000000000,"state":"active","ping":61},{"user_id":380,"name":"fliggoo giggoo","steam_id":76561198986534519,"connected_time":148000000000,"state":"active","ping":93},{"user_id":373,"name":"dave","steam_id":76561198135961731,"connected_time":621000000000,"state":"active","ping":62},{"user_id":375,"name":"Model of a Modern Major General","steam_id":76561198237304364,"connected_time":589000000000,"state":"active","ping":139},{"user_id":357,"name":"FemFem","steam_id":76561198100162199,"connected_time":1098000000000,"state":"active","ping":57},{"user_id":360,"name":"trackin ops like NORAD","steam_id":76561198040675606,"connected_time":1045000000000,"state":"active","ping":47},{"user_id":345,"name":"i'm in the house like carpet","steam_id":76561198046111695,"connected_time":1343000000000,"state":"active","ping":46},{"user_id":378,"name":"Ù†ØµÙ„ÙŠ Ù…Ù† Ø£Ø¬Ù„ Ø³Ù‚ÙˆØ·Ù‡","steam_id":76561198021308963,"connected_time":273000000000,"state":"active","ping":63},{"user_id":346,"name":"EthlynRoyal","steam_id":76561198810749787,"connected_time":1309000000000,"state":"active","ping":77},{"user_id":381,"name":"UNATCO","steam_id":76561198167585268,"connected_time":136000000000,"state":"active","ping":93},{"user_id":362,"name":"shmarky","steam_id":76561198052104281,"connected_time":985000000000,"state":"active","ping":89}]},{"server_id":5,"name":"Uncletopia | Frankfurt | 1 | All Maps","name_short":"frk-1","host":"frk-1.de.uncletopia.com","port":27015,"enabled":true,"region":"eu","cc":"de","latitude":50.110924,"longitude":8.682127,"reserved":0,"last_update":"0001-01-01T00:00:00Z","name_a2s":"Uncletopia | Frankfurt | 1 | All Maps","protocol":17,"map":"pl_snowycoast","folder":"tf","game":"Team Fortress","app_id":440,"player_count":0,"max_players":24,"Bots":0,"server_type":"Dedicated","server_os":"Linux","password":true,"vac":true,"version":"7932396","steam_id":85568392924469989,"keywords":["nocrits","nodmgspread","payload","uncletopia"],"game_id":440,"stv_port":27016,"stv_name":"Uncletopia | Frankfurt | 1 | All Maps | STV","players":null},{"server_id":110,"name":"Uncletopia | Frankfurt | 2 | All Maps","name_short":"frk-2","host":"frk-1.de.uncletopia.com","port":27025,"enabled":true,"region":"eu","cc":"de","latitude":50.110924,"longitude":8.682127,"reserved":0,"last_update":"0001-01-01T00:00:00Z","name_a2s":"Uncletopia | Frankfurt | 2 | All Maps","protocol":17,"map":"koth_cascade","folder":"tf","game":"Team Fortress","app_id":440,"player_count":0,"max_players":24,"Bots":0,"server_type":"Dedicated","server_os":"Linux","password":true,"vac":true,"version":"7932396","steam_id":85568392924469990,"keywords":["cp","nocrits","nodmgspread","uncletopia"],"game_id":440,"stv_port":27026,"stv_name":"Uncletopia | Frankfurt | 2 | All Maps | STV","players":null},{"server_id":308,"name":"Uncletopia | Frankfurt | 3 | All Maps","name_short":"frk-3","host":"frk-1.de.uncletopia.com","port":27035,"enabled":true,"region":"eu","cc":"de","latitude":50.110924,"longitude":8.682127,"reserved":0,"last_update":"0001-01-01T00:00:00Z","name_a2s":"Uncletopia | Frankfurt | 3 | All Maps","protocol":17,"map":"koth_viaduct","folder":"tf","game":"Team Fortress","app_id":440,"player_count":0,"max_players":24,"Bots":0,"server_type":"Dedicated","server_os":"Linux","password":true,"vac":true,"version":"7932396","steam_id":85568392924504274,"keywords":["cp","nocrits","nodmgspread","uncletopia"],"game_id":440,"stv_port":27036,"stv_name":"Uncletopia | Frankfurt | 3 | All Maps | STV","players":null},{"server_id":309,"name":"Uncletopia | Frankfurt | 4 | All Maps","name_short":"frk-4","host":"frk-1.de.uncletopia.com","port":27045,"enabled":true,"region":"eu","cc":"de","latitude":50.110924,"longitude":8.682127,"reserved":0,"last_update":"0001-01-01T00:00:00Z","name_a2s":"Uncletopia | Frankfurt | 4 | All Maps","protocol":17,"map":"koth_highpass","folder":"tf","game":"Team Fortress","app_id":440,"player_count":7,"max_players":24,"Bots":0,"server_type":"Dedicated","server_os":"Linux","password":true,"vac":true,"version":"7932396","steam_id":85568392924504275,"keywords":["cp","nocrits","nodmgspread","uncletopia"],"game_id":440,"stv_port":27046,"stv_name":"Uncletopia | Frankfurt | 4 | All Maps | STV","players":[{"user_id":482,"name":"Squishie","steam_id":76561198321025400,"connected_time":6621000000000,"state":"active","ping":55},{"user_id":552,"name":"ó €¡ó €¡","steam_id":76561198399390201,"connected_time":663000000000,"state":"active","ping":76},{"user_id":550,"name":"Xx_EpicGaymer_xX","steam_id":76561198846784757,"connected_time":893000000000,"state":"active","ping":58},{"user_id":553,"name":"ShizzNick","steam_id":76561198155295320,"connected_time":223000000000,"state":"active","ping":148},{"user_id":543,"name":"63756d","steam_id":76561198808699024,"connected_time":2519000000000,"state":"active","ping":57},{"user_id":504,"name":"fb","steam_id":76561197988802856,"connected_time":6029000000000,"state":"active","ping":44},{"user_id":529,"name":"Truegr","steam_id":76561198811912339,"connected_time":5011000000000,"state":"active","ping":57}]},{"server_id":310,"name":"Uncletopia | Frankfurt | 5 | All Maps","name_short":"frk-5","host":"frk-1.de.uncletopia.com","port":27055,"enabled":true,"region":"eu","cc":"de","latitude":50.110924,"longitude":8.682127,"reserved":0,"last_update":"0001-01-01T00:00:00Z","name_a2s":"Uncletopia | Frankfurt | 5 | All Maps","protocol":17,"map":"koth_lakeside_final","folder":"tf","game":"Team Fortress","app_id":440,"player_count":0,"max_players":24,"Bots":0,"server_type":"Dedicated","server_os":"Linux","password":true,"vac":true,"version":"7932396","steam_id":85568392924504277,"keywords":["cp","nocrits","nodmgspread","uncletopia"],"game_id":440,"stv_port":27056,"stv_name":"Uncletopia | Frankfurt | 5 | All Maps | STV","players":null},{"server_id":311,"name":"Uncletopia | Frankfurt | 6 | All Maps","name_short":"frk-6","host":"frk-1.de.uncletopia.com","port":27065,"enabled":true,"region":"eu","cc":"de","latitude":50.110924,"longitude":8.682127,"reserved":0,"last_update":"0001-01-01T00:00:00Z","name_a2s":"Uncletopia | Frankfurt | 6 | All Maps","protocol":17,"map":"pl_frontier_final","folder":"tf","game":"Team Fortress","app_id":440,"player_count":0,"max_players":24,"Bots":0,"server_type":"Dedicated","server_os":"Linux","password":true,"vac":true,"version":"7932396","steam_id":85568392924504278,"keywords":["nocrits","nodmgspread","payload","uncletopia"],"game_id":440,"stv_port":27066,"stv_name":"Uncletopia | Frankfurt | 6 | All Maps | STV","players":null},{"server_id":23,"name":"Uncletopia | Frankfurt | 7 | Stopwatch Beta","name_short":"frk-7","host":"frk-1.de.uncletopia.com","port":27075,"enabled":true,"region":"eu","cc":"de","latitude":50.110924,"longitude":8.682127,"reserved":0,"last_update":"0001-01-01T00:00:00Z","name_a2s":"Uncletopia | Frankfurt | 7 | Stopwatch Beta","protocol":17,"map":"workshop/koth_product_final.ugc454272353","folder":"tf","game":"Team Fortress","app_id":440,"player_count":0,"max_players":24,"Bots":0,"server_type":"Dedicated","server_os":"Linux","password":true,"vac":true,"version":"7932396","steam_id":85568392924742827,"keywords":["cp","nocrits","nodmgspread","uncletopia"],"game_id":440,"stv_port":27076,"stv_name":"Uncletopia | Frankfurt | 7 | Stopwatch Beta | STV","players":null},{"server_id":24,"name":"Uncletopia | Frankfurt | 8 | Community","name_short":"frk-8","host":"frk-1.de.uncletopia.com","port":27085,"enabled":true,"region":"eu","cc":"de","latitude":50.110924,"longitude":8.682127,"reserved":0,"last_update":"0001-01-01T00:00:00Z","name_a2s":"Uncletopia | Frankfurt | 8 | Community","protocol":17,"map":"workshop/koth_slaughter_rc1.ugc1712845210","folder":"tf","game":"Team Fortress","app_id":440,"player_count":0,"max_players":24,"Bots":0,"server_type":"Dedicated","server_os":"Linux","password":true,"vac":true,"version":"7932396","steam_id":85568392924742828,"keywords":["cp","nocrits","nodmgspread","uncletopia"],"game_id":440,"stv_port":27086,"stv_name":"Uncletopia | Frankfurt | 8 | Community | STV","players":null},{"server_id":202,"name":"Uncletopia | Hong Kong | 1 | All Maps","name_short":"hgk-1","host":"hgk-1.hk.uncletopia.com","port":27015,"enabled":true,"region":"asia","cc":"hk","latitude":22.302711,"longitude":114.177216,"reserved":0,"last_update":"0001-01-01T00:00:00Z","name_a2s":"Uncletopia | Hong Kong | 1 | All Maps","protocol":17,"map":"pl_badwater","folder":"tf","game":"Team Fortress","app_id":440,"player_count":0,"max_players":24,"Bots":0,"server_type":"Dedicated","server_os":"Linux","password":true,"vac":true,"version":"7932396","steam_id":85568392924494504,"keywords":["nocrits","nodmgspread","payload","uncletopia"],"game_id":440,"stv_port":27016,"stv_name":"Uncletopia | Hong Kong | 1 | All Maps | STV","players":null},{"server_id":1,"name":"Uncletopia | Los Angeles | 1 | All Maps","name_short":"lax-1","host":"lax-1.us.uncletopia.com","port":27015,"enabled":true,"region":"us-west","cc":"us","latitude":33.94279,"longitude":-118.41004,"reserved":0,"last_update":"0001-01-01T00:00:00Z","name_a2s":"Uncletopia | Los Angeles | 1 | All Maps","protocol":17,"map":"pl_upward","folder":"tf","game":"Team Fortress","app_id":440,"player_count":24,"max_players":24,"Bots":0,"server_type":"Dedicated","server_os":"Linux","password":true,"vac":true,"version":"7932396","steam_id":85568392924469991,"keywords":["nocrits","nodmgspread","payload","uncletopia"],"game_id":440,"stv_port":27016,"stv_name":"Uncletopia | Los Angeles | 1 | All Maps | STV","players":[{"user_id":389,"name":"samvaluez","steam_id":76561199213743808,"connected_time":1584000000000,"state":"active","ping":81},{"user_id":391,"name":"Fiestaknight","steam_id":76561198037847385,"connected_time":1507000000000,"state":"active","ping":91},{"user_id":400,"name":"TheRealChizz","steam_id":76561198016055769,"connected_time":363000000000,"state":"active","ping":70},{"user_id":397,"name":"Pakimari","steam_id":76561199103296453,"connected_time":816000000000,"state":"active","ping":60},{"user_id":405,"name":"Huh?","steam_id":76561198054866271,"connected_time":117000000000,"state":"active","ping":74},{"user_id":380,"name":"HeinzRichter","steam_id":76561198854966161,"connected_time":2354000000000,"state":"active","ping":60},{"user_id":390,"name":"Its Dr.Stoned","steam_id":76561198079622791,"connected_time":1570000000000,"state":"active","ping":107},{"user_id":403,"name":"pearl","steam_id":76561198858474714,"connected_time":135000000000,"state":"active","ping":74},{"user_id":344,"name":"Altruisticailuridae","steam_id":76561198335295596,"connected_time":4588000000000,"state":"active","ping":55},{"user_id":396,"name":"Sus Face","steam_id":76561198303160527,"connected_time":1165000000000,"state":"active","ping":71},{"user_id":298,"name":"werolat","steam_id":76561197960544784,"connected_time":8893000000000,"state":"active","ping":58},{"user_id":363,"name":"jayzak24","steam_id":76561198354267509,"connected_time":3341000000000,"state":"active","ping":55},{"user_id":308,"name":"thebaconnator2016","steam_id":76561199100270424,"connected_time":8058000000000,"state":"active","ping":80},{"user_id":358,"name":"bean drinker","steam_id":76561198044004639,"connected_time":3869000000000,"state":"active","ping":78},{"user_id":365,"name":"vuldrin","steam_id":76561198383695069,"connected_time":2728000000000,"state":"active","ping":90},{"user_id":406,"name":"LordKirby","steam_id":76561198006938286,"connected_time":113000000000,"state":"active","ping":72},{"user_id":402,"name":"Juan M. Maldacena","steam_id":76561198066883814,"connected_time":147000000000,"state":"active","ping":58},{"user_id":342,"name":"flamingcookies","steam_id":76561198280864779,"connected_time":5209000000000,"state":"active","ping":121},{"user_id":374,"name":"d4ngerd4n","steam_id":76561198043758735,"connected_time":2439000000000,"state":"active","ping":63},{"user_id":383,"name":"Adam Levine (Real)","steam_id":76561199199257149,"connected_time":1906000000000,"state":"active","ping":55},{"user_id":395,"name":"imby","steam_id":76561198103642134,"connected_time":1220000000000,"state":"active","ping":77},{"user_id":399,"name":"Bombastic Pasta","steam_id":76561198189910235,"connected_time":706000000000,"state":"active","ping":59},{"user_id":388,"name":"bladees saddest, realest verse","steam_id":76561198098099826,"connected_time":1620000000000,"state":"active","ping":58},{"user_id":401,"name":"wuddles","steam_id":76561198025782349,"connected_time":236000000000,"state":"active","ping":47}]},{"server_id":112,"name":"Uncletopia | Los Angeles | 2 | All Maps","name_short":"lax-2","host":"lax-1.us.uncletopia.com","port":27025,"enabled":true,"region":"us-west","cc":"us","latitude":33.94279,"longitude":-118.41004,"reserved":0,"last_update":"0001-01-01T00:00:00Z","name_a2s":"Uncletopia | Los Angeles | 2 | All Maps","protocol":17,"map":"cp_steel","folder":"tf","game":"Team Fortress","app_id":440,"player_count":24,"max_players":24,"Bots":0,"server_type":"Dedicated","server_os":"Linux","password":true,"vac":true,"version":"7932396","steam_id":85568392924469992,"keywords":["cp","nocrits","nodmgspread","uncletopia"],"game_id":440,"stv_port":27026,"stv_name":"Uncletopia | Los Angeles | 2 | All Maps | STV","players":[{"user_id":169,"name":"Puny Punny","steam_id":76561198060143203,"connected_time":1066000000000,"state":"active","ping":57},{"user_id":106,"name":"beblonski","steam_id":76561198067053408,"connected_time":4877000000000,"state":"active","ping":49},{"user_id":78,"name":"sloth","steam_id":76561198318126190,"connected_time":6096000000000,"state":"active","ping":145},{"user_id":129,"name":"what da dog doin","steam_id":76561198090573639,"connected_time":3129000000000,"state":"active","ping":49},{"user_id":192,"name":"SCUD missile up your ass","steam_id":76561198066452726,"connected_time":115000000000,"state":"active","ping":53},{"user_id":193,"name":"Orion","steam_id":76561198000418837,"connected_time":111000000000,"state":"active","ping":85},{"user_id":173,"name":"Marz","steam_id":76561198799364911,"connected_time":606000000000,"state":"active","ping":73},{"user_id":180,"name":"I_amgeneric","steam_id":76561198058605649,"connected_time":488000000000,"state":"active","ping":74},{"user_id":176,"name":"Geek monster","steam_id":76561198084422657,"connected_time":570000000000,"state":"active","ping":46},{"user_id":158,"name":"HeHedron","steam_id":76561199199667164,"connected_time":1986000000000,"state":"active","ping":73},{"user_id":177,"name":"Dogg wader","steam_id":76561199090314340,"connected_time":549000000000,"state":"active","ping":98},{"user_id":167,"name":"30-50 feral hogs","steam_id":76561198073587145,"connected_time":1170000000000,"state":"active","ping":81},{"user_id":194,"name":"MayKaye","steam_id":76561199016092265,"connected_time":79000000000,"state":"active","ping":63},{"user_id":172,"name":"Imitation Caucasian","steam_id":76561198320536166,"connected_time":773000000000,"state":"active","ping":79},{"user_id":126,"name":"LatinRhythms - 4 ref","steam_id":76561198025110751,"connected_time":3411000000000,"state":"active","ping":107},{"user_id":171,"name":"STILLZ","steam_id":76561198131892406,"connected_time":970000000000,"state":"active","ping":114},{"user_id":184,"name":"ButtSaggy","steam_id":76561199095437960,"connected_time":431000000000,"state":"active","ping":125},{"user_id":159,"name":"MP64","steam_id":76561198869253648,"connected_time":1940000000000,"state":"active","ping":55},{"user_id":163,"name":"i a m t h e w i z u r d","steam_id":76561197992727789,"connected_time":1597000000000,"state":"active","ping":78},{"user_id":128,"name":"kr1tsurf3r","steam_id":76561198076402476,"connected_time":3185000000000,"state":"active","ping":73},{"user_id":170,"name":"EskiM0JOJ0","steam_id":76561199130877402,"connected_time":1010000000000,"state":"active","ping":90},{"user_id":182,"name":"CrackedSanity","steam_id":76561198279841251,"connected_time":458000000000,"state":"active","ping":46},{"user_id":150,"name":"Maid Knight","steam_id":76561198214370515,"connected_time":2370000000000,"state":"active","ping":111},{"user_id":191,"name":"Raygun0601","steam_id":76561198124939077,"connected_time":132000000000,"state":"active","ping":140}]},{"server_id":324,"name":"Uncletopia | Los Angeles | 3 | All Maps","name_short":"lax-3","host":"lax-1.us.uncletopia.com","port":27035,"enabled":true,"region":"us-west","cc":"us","latitude":33.94279,"longitude":-118.41004,"reserved":0,"last_update":"0001-01-01T00:00:00Z","name_a2s":"Uncletopia | Los Angeles | 3 | All Maps","protocol":17,"map":"koth_viaduct","folder":"tf","game":"Team Fortress","app_id":440,"player_count":24,"max_players":24,"Bots":0,"server_type":"Dedicated","server_os":"Linux","password":true,"vac":true,"version":"7932396","steam_id":85568392924510198,"keywords":["cp","nocrits","nodmgspread","uncletopia"],"game_id":440,"stv_port":27036,"stv_name":"Uncletopia | Los Angeles | 3 | All Maps | STV","players":[{"user_id":105,"name":"viciousbeatmaker","steam_id":76561198086876652,"connected_time":86000000000,"state":"active","ping":60},{"user_id":20,"name":"california jew","steam_id":76561198914032112,"connected_time":4267000000000,"state":"active","ping":45},{"user_id":90,"name":"FiddyFoMike","steam_id":76561198057072581,"connected_time":1267000000000,"state":"active","ping":56},{"user_id":100,"name":"J21","steam_id":76561198066590783,"connected_time":207000000000,"state":"active","ping":109},{"user_id":79,"name":"Flomnp","steam_id":76561199206749843,"connected_time":1602000000000,"state":"active","ping":78},{"user_id":80,"name":"SUPANERD360","steam_id":76561198195526843,"connected_time":1545000000000,"state":"active","ping":97},{"user_id":86,"name":"[loser] mpawn","steam_id":76561198115611066,"connected_time":1396000000000,"state":"active","ping":93},{"user_id":58,"name":"OmniMoto","steam_id":76561198091298557,"connected_time":2769000000000,"state":"active","ping":73},{"user_id":60,"name":"Messiah of Vibe","steam_id":76561198873411211,"connected_time":2681000000000,"state":"active","ping":116},{"user_id":61,"name":"mythics","steam_id":76561199179957944,"connected_time":2668000000000,"state":"active","ping":147},{"user_id":101,"name":"Canadian Caber Gaming","steam_id":76561198043115724,"connected_time":194000000000,"state":"active","ping":94},{"user_id":102,"name":"James","steam_id":76561198077251918,"connected_time":164000000000,"state":"active","ping":55},{"user_id":51,"name":"Joe Biden TF2","steam_id":76561198837570484,"connected_time":3268000000000,"state":"active","ping":53},{"user_id":78,"name":"FI LO","steam_id":76561198976530881,"connected_time":1678000000000,"state":"active","ping":30},{"user_id":84,"name":"boof","steam_id":76561198053901968,"connected_time":1425000000000,"state":"active","ping":92},{"user_id":103,"name":"vioxynteris","steam_id":76561198161428666,"connected_time":155000000000,"state":"active","ping":32},{"user_id":93,"name":"kill 5 people in 1 life 3x","steam_id":76561199131359874,"connected_time":949000000000,"state":"active","ping":70},{"user_id":104,"name":"ibu","steam_id":76561197968084065,"connected_time":152000000000,"state":"active","ping":84},{"user_id":95,"name":"danger","steam_id":76561198000459165,"connected_time":778000000000,"state":"active","ping":86},{"user_id":77,"name":"too old to order","steam_id":76561198874629405,"connected_time":1791000000000,"state":"active","ping":51},{"user_id":50,"name":"lasagnalarry12","steam_id":76561198162688146,"connected_time":3275000000000,"state":"active","ping":48},{"user_id":88,"name":"Buakaw","steam_id":76561199067143694,"connected_time":1364000000000,"state":"active","ping":75},{"user_id":94,"name":"SethMan","steam_id":76561198004402532,"connected_time":915000000000,"state":"active","ping":99},{"user_id":107,"name":"Nediah101","steam_id":76561198129458849,"connected_time":53000000000,"state":"active","ping":71}]},{"server_id":25,"name":"Uncletopia | Los Angeles | 4 | Stopwatch Beta","name_short":"lax-4","host":"lax-1.us.uncletopia.com","port":27045,"enabled":true,"region":"us-west","cc":"us","latitude":33.94279,"longitude":-118.41004,"reserved":0,"last_update":"0001-01-01T00:00:00Z","name_a2s":"Uncletopia | Los Angeles | 4 | Stopwatch Beta","protocol":17,"map":"workshop/cp_reckoner_rc6.ugc674719999","folder":"tf","game":"Team Fortress","app_id":440,"player_count":0,"max_players":24,"Bots":0,"server_type":"Dedicated","server_os":"Linux","password":true,"vac":true,"version":"7932396","steam_id":85568392924510199,"keywords":["cp","nocrits","nodmgspread","uncletopia"],"game_id":440,"stv_port":27046,"stv_name":"Uncletopia | Los Angeles | 4 | Stopwatch Beta | STV","players":null},{"server_id":11,"name":"Uncletopia | London | 1 | All Maps","name_short":"lon-1","host":"lon-1.uk.uncletopia.com","port":27015,"enabled":true,"region":"eu","cc":"gb","latitude":51.509865,"longitude":-0.118092,"reserved":0,"last_update":"0001-01-01T00:00:00Z","name_a2s":"Uncletopia | London | 1 | All Maps","protocol":17,"map":"koth_lakeside_final","folder":"tf","game":"Team Fortress","app_id":440,"player_count":23,"max_players":24,"Bots":0,"server_type":"Dedicated","server_os":"Linux","password":true,"vac":true,"version":"7932396","steam_id":85568392924367362,"keywords":["cp","nocrits","nodmgspread","uncletopia"],"game_id":440,"stv_port":27016,"stv_name":"Uncletopia | London | 1 | All Maps | STV","players":[{"user_id":818,"name":"noided","steam_id":76561199480942903,"connected_time":1010000000000,"state":"active","ping":85},{"user_id":813,"name":"VideoJames","steam_id":76561197970114051,"connected_time":1399000000000,"state":"active","ping":39},{"user_id":815,"name":"Liko","steam_id":76561197994660517,"connected_time":1167000000000,"state":"active","ping":79},{"user_id":824,"name":"wG Domo","steam_id":76561198056790920,"connected_time":28000000000,"state":"active","ping":51},{"user_id":811,"name":"puck_panzer","steam_id":76561198121260981,"connected_time":1497000000000,"state":"active","ping":37},{"user_id":819,"name":"Bobo","steam_id":76561198052308399,"connected_time":651000000000,"state":"active","ping":66},{"user_id":809,"name":"Glitch","steam_id":76561198801335846,"connected_time":1502000000000,"state":"active","ping":38},{"user_id":817,"name":"Qdarks","steam_id":76561198013391340,"connected_time":1043000000000,"state":"active","ping":123},{"user_id":826,"name":"Shagrat","steam_id":76561198056734734,"connected_time":12000000000,"state":"spawning","ping":65},{"user_id":827,"name":"REN","steam_id":76561198000596385,"connected_time":12000000000,"state":"active","ping":72},{"user_id":769,"name":"Guppy","steam_id":76561198135398757,"connected_time":5156000000000,"state":"active","ping":47},{"user_id":805,"name":"sokige","steam_id":76561198167112371,"connected_time":1522000000000,"state":"active","ping":106},{"user_id":812,"name":"volkiano","steam_id":76561198319802031,"connected_time":1493000000000,"state":"active","ping":46},{"user_id":825,"name":"DR. CHUMBLE","steam_id":76561198083505031,"connected_time":26000000000,"state":"active","ping":34},{"user_id":787,"name":"Herb","steam_id":76561198205266944,"connected_time":3099000000000,"state":"active","ping":32},{"user_id":821,"name":"Gordon Ramsay","steam_id":76561199272072187,"connected_time":438000000000,"state":"active","ping":170},{"user_id":822,"name":"LuckLuster","steam_id":76561198092986647,"connected_time":394000000000,"state":"active","ping":98},{"user_id":789,"name":"Bill Carr","steam_id":76561198110033943,"connected_time":3073000000000,"state":"active","ping":30},{"user_id":804,"name":"KittyKate â¤","steam_id":76561198116340817,"connected_time":1534000000000,"state":"active","ping":60},{"user_id":721,"name":"TheMasterOfTheZaZa","steam_id":76561197994310420,"connected_time":10024000000000,"state":"active","ping":55},{"user_id":796,"name":"Krovavaya Vanya","steam_id":76561197970914594,"connected_time":2682000000000,"state":"active","ping":68},{"user_id":791,"name":"Hammock","steam_id":76561197979206279,"connected_time":2879000000000,"state":"active","ping":45},{"user_id":808,"name":"Wytchboy","steam_id":76561198342787966,"connected_time":1521000000000,"state":"active","ping":51}]},{"server_id":114,"name":"Uncletopia | London | 2 | All Maps","name_short":"lon-2","host":"lon-1.uk.uncletopia.com","port":27025,"enabled":true,"region":"eu","cc":"gb","latitude":51.509865,"longitude":-0.118092,"reserved":0,"last_update":"0001-01-01T00:00:00Z","name_a2s":"Uncletopia | London | 2 | All Maps","protocol":17,"map":"koth_viaduct","folder":"tf","game":"Team Fortress","app_id":440,"player_count":0,"max_players":24,"Bots":0,"server_type":"Dedicated","server_os":"Linux","password":true,"vac":true,"version":"7932396","steam_id":85568392924470941,"keywords":["cp","nocrits","nodmgspread","uncletopia"],"game_id":440,"stv_port":27026,"stv_name":"Uncletopia | London | 2 | All Maps | STV","players":null},{"server_id":320,"name":"Uncletopia | London | 3 | All Maps","name_short":"lon-3","host":"lon-1.uk.uncletopia.com","port":27035,"enabled":true,"region":"eu","cc":"gb","latitude":51.509865,"longitude":-0.118092,"reserved":0,"last_update":"0001-01-01T00:00:00Z","name_a2s":"Uncletopia | London | 3 | All Maps","protocol":17,"map":"koth_lakeside_final","folder":"tf","game":"Team Fortress","app_id":440,"player_count":0,"max_players":24,"Bots":0,"server_type":"Dedicated","server_os":"Linux","password":true,"vac":true,"version":"7932396","steam_id":85568392924510192,"keywords":["cp","nocrits","nodmgspread","uncletopia"],"game_id":440,"stv_port":27036,"stv_name":"Uncletopia | London | 3 | All Maps | STV","players":null},{"server_id":321,"name":"Uncletopia | London | 4 | All Maps","name_short":"lon-4","host":"lon-1.uk.uncletopia.com","port":27045,"enabled":true,"region":"eu","cc":"gb","latitude":51.509865,"longitude":-0.118092,"reserved":0,"last_update":"0001-01-01T00:00:00Z","name_a2s":"Uncletopia | London | 4 | All Maps","protocol":17,"map":"koth_viaduct","folder":"tf","game":"Team Fortress","app_id":440,"player_count":0,"max_players":24,"Bots":0,"server_type":"Dedicated","server_os":"Linux","password":true,"vac":true,"version":"7932396","steam_id":85568392924510193,"keywords":["cp","nocrits","nodmgspread","uncletopia"],"game_id":440,"stv_port":27046,"stv_name":"Uncletopia | London | 4 | All Maps | STV","players":null},{"server_id":21,"name":"Uncletopia | London | 5 | All Maps","name_short":"lon-5","host":"lon-1.uk.uncletopia.com","port":27055,"enabled":true,"region":"eu","cc":"gb","latitude":51.509865,"longitude":-0.118092,"reserved":0,"last_update":"0001-01-01T00:00:00Z","name_a2s":"Uncletopia | London | 5 | All Maps","protocol":17,"map":"koth_lakeside_final","folder":"tf","game":"Team Fortress","app_id":440,"player_count":0,"max_players":24,"Bots":0,"server_type":"Dedicated","server_os":"Linux","password":true,"vac":true,"version":"7932396","steam_id":85568392924742829,"keywords":["cp","nocrits","nodmgspread","uncletopia"],"game_id":440,"stv_port":27056,"stv_name":"Uncletopia | London | 5 | All Maps | STV","players":null},{"server_id":22,"name":"Uncletopia | London | 6 | All Maps","name_short":"lon-6","host":"lon-1.uk.uncletopia.com","port":27065,"enabled":true,"region":"eu","cc":"gb","latitude":51.509865,"longitude":-0.118092,"reserved":0,"last_update":"0001-01-01T00:00:00Z","name_a2s":"Uncletopia | London | 6 | All Maps","protocol":17,"map":"koth_highpass","folder":"tf","game":"Team Fortress","app_id":440,"player_count":0,"max_players":24,"Bots":0,"server_type":"Dedicated","server_os":"Linux","password":true,"vac":true,"version":"7932396","steam_id":85568392924742830,"keywords":["cp","nocrits","nodmgspread","uncletopia"],"game_id":440,"stv_port":27066,"stv_name":"Uncletopia | London | 6 | All Maps | STV","players":null},{"server_id":40,"name":"Uncletopia | London | 7 | No Payload","name_short":"lon-7","host":"lon-1.uk.uncletopia.com","port":27075,"enabled":true,"region":"eu","cc":"gb","latitude":51.509865,"longitude":-0.118092,"reserved":0,"last_update":"0001-01-01T00:00:00Z","name_a2s":"Uncletopia | London | 7 | No Payload","protocol":17,"map":"koth_highpass","folder":"tf","game":"Team Fortress","app_id":440,"player_count":0,"max_players":24,"Bots":0,"server_type":"Dedicated","server_os":"Linux","password":true,"vac":true,"version":"7932396","steam_id":85568392924964314,"keywords":["cp","nocrits","nodmgspread","uncletopia"],"game_id":440,"stv_port":27076,"stv_name":"Uncletopia | London | 7 | No Payload | STV","players":null},{"server_id":41,"name":"Uncletopia | London | 8 | Community","name_short":"lon-8","host":"lon-1.uk.uncletopia.com","port":27085,"enabled":true,"region":"eu","cc":"gb","latitude":51.509865,"longitude":-0.118092,"reserved":0,"last_update":"0001-01-01T00:00:00Z","name_a2s":"Uncletopia | London | 8 | Community","protocol":17,"map":"workshop/pl_eruption_b9a.ugc2807898013","folder":"tf","game":"Team Fortress","app_id":440,"player_count":0,"max_players":24,"Bots":0,"server_type":"Dedicated","server_os":"Linux","password":true,"vac":true,"version":"7932396","steam_id":85568392924964315,"keywords":["nocrits","nodmgspread","payload","uncletopia"],"game_id":440,"stv_port":27086,"stv_name":"Uncletopia | London | 8 | Community | STV","players":null},{"server_id":300,"name":"Uncletopia | MontrÃ©al | 1 | All Maps","name_short":"mtl-1","host":"mtl-1.ca.uncletopia.com","port":27015,"enabled":true,"region":"us-east","cc":"ca","latitude":45.50889,"longitude":-73.56167,"reserved":0,"last_update":"0001-01-01T00:00:00Z","name_a2s":"Uncletopia | MontrÃ©al | 1 | All Maps","protocol":17,"map":"cp_dustbowl","folder":"tf","game":"Team Fortress","app_id":440,"player_count":24,"max_players":24,"Bots":0,"server_type":"Dedicated","server_os":"Linux","password":true,"vac":true,"version":"7932396","steam_id":85568392924500087,"keywords":["cp","nocrits","nodmgspread","uncletopia"],"game_id":440,"stv_port":27016,"stv_name":"Uncletopia | MontrÃ©al | 1 | All Maps | STV","players":[{"user_id":54,"name":"farfalle","steam_id":76561198882758067,"connected_time":611000000000,"state":"active","ping":127},{"user_id":12,"name":"TheQwertyGuy","steam_id":76561198041646396,"connected_time":5446000000000,"state":"active","ping":80},{"user_id":50,"name":"Homosexual Warmachine","steam_id":76561198040425096,"connected_time":741000000000,"state":"active","ping":79},{"user_id":70,"name":"igotswag.com","steam_id":76561198083851689,"connected_time":80000000000,"state":"active","ping":74},{"user_id":56,"name":"k1eran","steam_id":76561198064600737,"connected_time":458000000000,"state":"active","ping":55},{"user_id":57,"name":"Mrs.Frizzle","steam_id":76561198117157085,"connected_time":452000000000,"state":"active","ping":60},{"user_id":44,"name":"bear","steam_id":76561198909415646,"connected_time":1565000000000,"state":"active","ping":93},{"user_id":71,"name":"Aeront","steam_id":76561198072032723,"connected_time":8000000000,"state":"spawning","ping":89},{"user_id":24,"name":"CivilWarMike","steam_id":76561198141188839,"connected_time":3424000000000,"state":"active","ping":74},{"user_id":22,"name":"peace and love","steam_id":76561199059257565,"connected_time":3738000000000,"state":"active","ping":102},{"user_id":25,"name":"averagesoldiermain","steam_id":76561198158447466,"connected_time":3418000000000,"state":"active","ping":88},{"user_id":26,"name":"Bip","steam_id":76561199022962204,"connected_time":3415000000000,"state":"active","ping":88},{"user_id":52,"name":"warp","steam_id":76561198190417719,"connected_time":669000000000,"state":"active","ping":54},{"user_id":53,"name":"RipHunter77","steam_id":76561198272973014,"connected_time":664000000000,"state":"active","ping":107},{"user_id":58,"name":"Demonica","steam_id":76561198841858340,"connected_time":435000000000,"state":"active","ping":106},{"user_id":46,"name":"xLeoparrd","steam_id":76561198940657194,"connected_time":1207000000000,"state":"active","ping":90},{"user_id":67,"name":"Tyler Fortnite","steam_id":76561198259131021,"connected_time":221000000000,"state":"active","ping":41},{"user_id":60,"name":"Lots0","steam_id":76561198043143145,"connected_time":381000000000,"state":"active","ping":100},{"user_id":39,"name":"Racer X","steam_id":76561198073613932,"connected_time":2505000000000,"state":"active","ping":86},{"user_id":61,"name":"1001NinjaDucks","steam_id":76561198058169660,"connected_time":362000000000,"state":"active","ping":53},{"user_id":62,"name":"Green_GarBear","steam_id":76561199468912415,"connected_time":336000000000,"state":"active","ping":122},{"user_id":64,"name":"blue_tristan03","steam_id":76561199468377688,"connected_time":308000000000,"state":"active","ping":120},{"user_id":38,"name":"(TTV) The_Astrum_Guardian","steam_id":76561198130134103,"connected_time":2587000000000,"state":"active","ping":68},{"user_id":69,"name":"Monkey D. Management","steam_id":76561198400603422,"connected_time":191000000000,"state":"active","ping":92}]},{"server_id":301,"name":"Uncletopia | MontrÃ©al | 2 | All Maps","name_short":"mtl-2","host":"mtl-1.ca.uncletopia.com","port":27025,"enabled":true,"region":"us-east","cc":"ca","latitude":45.50889,"longitude":-73.56167,"reserved":0,"last_update":"0001-01-01T00:00:00Z","name_a2s":"Uncletopia | MontrÃ©al | 2 | All Maps","protocol":17,"map":"cp_mountainlab","folder":"tf","game":"Team Fortress","app_id":440,"player_count":0,"max_players":24,"Bots":0,"server_type":"Dedicated","server_os":"Linux","password":true,"vac":true,"version":"7932396","steam_id":85568392924500088,"keywords":["cp","nocrits","nodmgspread","uncletopia"],"game_id":440,"stv_port":27026,"stv_name":"Uncletopia | MontrÃ©al | 2 | All Maps | STV","players":null},{"server_id":302,"name":"Uncletopia | MontrÃ©al | 3 | All Maps","name_short":"mtl-3","host":"mtl-1.ca.uncletopia.com","port":27035,"enabled":true,"region":"us-east","cc":"ca","latitude":45.50889,"longitude":-73.56167,"reserved":0,"last_update":"0001-01-01T00:00:00Z","name_a2s":"Uncletopia | MontrÃ©al | 3 | All Maps","protocol":17,"map":"pl_badwater","folder":"tf","game":"Team Fortress","app_id":440,"player_count":0,"max_players":24,"Bots":0,"server_type":"Dedicated","server_os":"Linux","password":true,"vac":true,"version":"7932396","steam_id":85568392924500089,"keywords":["nocrits","nodmgspread","payload","uncletopia"],"game_id":440,"stv_port":27036,"stv_name":"Uncletopia | MontrÃ©al | 3 | All Maps | STV","players":null},{"server_id":303,"name":"Uncletopia | MontrÃ©al | 4 | No Payload","name_short":"mtl-4","host":"mtl-1.ca.uncletopia.com","port":27045,"enabled":true,"region":"us-east","cc":"ca","latitude":45.50889,"longitude":-73.56167,"reserved":0,"last_update":"0001-01-01T00:00:00Z","name_a2s":"Uncletopia | MontrÃ©al | 4 | No Payload","protocol":17,"map":"koth_harvest_final","folder":"tf","game":"Team Fortress","app_id":440,"player_count":0,"max_players":24,"Bots":0,"server_type":"Dedicated","server_os":"Linux","password":true,"vac":true,"version":"7932396","steam_id":85568392924500090,"keywords":["cp","nocrits","nodmgspread","uncletopia"],"game_id":440,"stv_port":27046,"stv_name":"Uncletopia | MontrÃ©al | 4 | No Payload | STV","players":null},{"server_id":13,"name":"Uncletopia | New York City | 1 | All Maps","name_short":"nyc-1","host":"nyc-1.us.uncletopia.com","port":27015,"enabled":true,"region":"us-east","cc":"us","latitude":40.73061,"longitude":-73.93524,"reserved":0,"last_update":"0001-01-01T00:00:00Z","name_a2s":"Uncletopia | New York City | 1 | All Maps","protocol":17,"map":"pl_barnblitz","folder":"tf","game":"Team Fortress","app_id":440,"player_count":24,"max_players":24,"Bots":0,"server_type":"Dedicated","server_os":"Linux","password":true,"vac":true,"version":"7932396","steam_id":85568392924469993,"keywords":["nocrits","nodmgspread","payload","uncletopia"],"game_id":440,"stv_port":27016,"stv_name":"Uncletopia | New York City | 1 | All Maps | STV","players":[{"user_id":360,"name":"Horrizan","steam_id":76561197965028480,"connected_time":670000000000,"state":"active","ping":86},{"user_id":340,"name":"Saristan","steam_id":76561198093346048,"connected_time":1308000000000,"state":"active","ping":41},{"user_id":341,"name":"witnessgem250","steam_id":76561199013489754,"connected_time":1127000000000,"state":"active","ping":61},{"user_id":342,"name":"Shlong_Slinger","steam_id":76561198408052386,"connected_time":1120000000000,"state":"active","ping":51},{"user_id":343,"name":"bubbles","steam_id":76561198974276335,"connected_time":1106000000000,"state":"active","ping":72},{"user_id":333,"name":"Frajer","steam_id":76561198059129680,"connected_time":2318000000000,"state":"active","ping":75},{"user_id":362,"name":"Dinosaur","steam_id":76561198854695804,"connected_time":627000000000,"state":"active","ping":55},{"user_id":344,"name":"E4Estrogen","steam_id":76561198085813708,"connected_time":1081000000000,"state":"active","ping":65},{"user_id":363,"name":"xeltre","steam_id":76561198271960976,"connected_time":188000000000,"state":"active","ping":82},{"user_id":345,"name":"Leaf","steam_id":76561198348965524,"connected_time":1061000000000,"state":"active","ping":60},{"user_id":364,"name":"Herdez Hot Salsa","steam_id":76561197991740906,"connected_time":174000000000,"state":"active","ping":71},{"user_id":347,"name":"CorvusCrome","steam_id":76561198241986368,"connected_time":1000000000000,"state":"active","ping":60},{"user_id":348,"name":"Dylanxp300","steam_id":76561198271974937,"connected_time":880000000000,"state":"active","ping":60},{"user_id":349,"name":"Meh","steam_id":76561198078187920,"connected_time":877000000000,"state":"active","ping":87},{"user_id":292,"name":"Megalon Enjoyer","steam_id":76561198140691887,"connected_time":5624000000000,"state":"active","ping":60},{"user_id":329,"name":"Crisp","steam_id":76561198132644084,"connected_time":2558000000000,"state":"active","ping":51},{"user_id":353,"name":"Comelord Obama","steam_id":76561198091179025,"connected_time":736000000000,"state":"active","ping":70},{"user_id":352,"name":"Long Iron","steam_id":76561199383266546,"connected_time":743000000000,"state":"active","ping":87},{"user_id":354,"name":"KennytheHedgehog","steam_id":76561198094607721,"connected_time":731000000000,"state":"active","ping":89},{"user_id":355,"name":"Cahootles","steam_id":76561198056407485,"connected_time":727000000000,"state":"active","ping":98},{"user_id":356,"name":"SharkBearGator","steam_id":76561198071233739,"connected_time":712000000000,"state":"active","ping":75},{"user_id":357,"name":"lilmanband","steam_id":76561198082460728,"connected_time":707000000000,"state":"active","ping":79},{"user_id":361,"name":"phlog roach catgirl","steam_id":76561198400058665,"connected_time":666000000000,"state":"active","ping":67},{"user_id":274,"name":"Ghost Modern Warfare 2 (2022)","steam_id":76561198116295334,"connected_time":7407000000000,"state":"active","ping":58}]},{"server_id":14,"name":"Uncletopia | New York City | 2 | All Maps","name_short":"nyc-2","host":"nyc-1.us.uncletopia.com","port":27025,"enabled":true,"region":"us-east","cc":"us","latitude":40.73061,"longitude":-73.93524,"reserved":0,"last_update":"0001-01-01T00:00:00Z","name_a2s":"Uncletopia | New York City | 2 | All Maps","protocol":17,"map":"pl_borneo","folder":"tf","game":"Team Fortress","app_id":440,"player_count":24,"max_players":24,"Bots":0,"server_type":"Dedicated","server_os":"Linux","password":true,"vac":true,"version":"7932396","steam_id":85568392924469994,"keywords":["nocrits","nodmgspread","payload","uncletopia"],"game_id":440,"stv_port":27026,"stv_name":"Uncletopia | New York City | 2 | All Maps | STV","players":[{"user_id":273,"name":"Raccoon.Of.Waffle.House","steam_id":76561199018770554,"connected_time":1734000000000,"state":"active","ping":99},{"user_id":296,"name":"Gentoo Linux Gaming","steam_id":76561197999657118,"connected_time":702000000000,"state":"active","ping":62},{"user_id":262,"name":"KooKooKachue","steam_id":76561198391195262,"connected_time":2049000000000,"state":"active","ping":97},{"user_id":283,"name":"Plutia","steam_id":76561197996787193,"connected_time":1353000000000,"state":"active","ping":74},{"user_id":289,"name":"YoshiBobby","steam_id":76561198069600171,"connected_time":1195000000000,"state":"active","ping":46},{"user_id":295,"name":"agleeps","steam_id":76561198810128404,"connected_time":741000000000,"state":"active","ping":57},{"user_id":224,"name":"hashmap","steam_id":76561198043794014,"connected_time":4400000000000,"state":"active","ping":58},{"user_id":268,"name":"SHADY SWEATER SALESMAN","steam_id":76561198014616865,"connected_time":1925000000000,"state":"active","ping":46},{"user_id":297,"name":"richarven","steam_id":76561198189429665,"connected_time":447000000000,"state":"active","ping":76},{"user_id":263,"name":"Sableye","steam_id":76561198061247147,"connected_time":2040000000000,"state":"active","ping":74},{"user_id":290,"name":"Purplesphere","steam_id":76561198202786833,"connected_time":984000000000,"state":"active","ping":178},{"user_id":249,"name":"lker","steam_id":76561197976975075,"connected_time":2961000000000,"state":"active","ping":60},{"user_id":298,"name":"Antoshka","steam_id":76561198056235391,"connected_time":296000000000,"state":"active","ping":46},{"user_id":276,"name":"lxzvrdwxzvrd","steam_id":76561198111975583,"connected_time":1669000000000,"state":"active","ping":99},{"user_id":302,"name":"Wigl","steam_id":76561198019324464,"connected_time":93000000000,"state":"active","ping":52},{"user_id":248,"name":"Nrub","steam_id":76561199486344810,"connected_time":3193000000000,"state":"active","ping":74},{"user_id":277,"name":"xyzophone","steam_id":76561199038045517,"connected_time":1667000000000,"state":"active","ping":81},{"user_id":291,"name":"Cpt.Rex","steam_id":76561199104175331,"connected_time":948000000000,"state":"active","ping":53},{"user_id":269,"name":"IMM0RTAL","steam_id":76561198013747901,"connected_time":1886000000000,"state":"active","ping":72},{"user_id":278,"name":"le batteur","steam_id":76561199078138661,"connected_time":1659000000000,"state":"active","ping":84},{"user_id":282,"name":"The Pan Man From Slavic Land","steam_id":76561198401875841,"connected_time":1370000000000,"state":"active","ping":64},{"user_id":301,"name":"Thespikedballofdoom","steam_id":76561198128793141,"connected_time":121000000000,"state":"active","ping":53},{"user_id":294,"name":"james_bondage","steam_id":76561199476062624,"connected_time":810000000000,"state":"active","ping":85},{"user_id":293,"name":"Dr Nefario","steam_id":76561198254646194,"connected_time":873000000000,"state":"active","ping":47}]},{"server_id":15,"name":"Uncletopia | New York City | 3 | Stopwatch Beta","name_short":"nyc-3","host":"nyc-1.us.uncletopia.com","port":27035,"enabled":true,"region":"us-east","cc":"us","latitude":40.73061,"longitude":-73.93524,"reserved":0,"last_update":"0001-01-01T00:00:00Z","name_a2s":"Uncletopia | New York City | 3 | Stopwatch Beta","protocol":17,"map":"workshop/pl_barnblitz_pro7.ugc582280235","folder":"tf","game":"Team Fortress","app_id":440,"player_count":0,"max_players":24,"Bots":0,"server_type":"Dedicated","server_os":"Linux","password":true,"vac":true,"version":"7932396","steam_id":85568392924742820,"keywords":["nocrits","nodmgspread","payload","uncletopia"],"game_id":440,"stv_port":27036,"stv_name":"Uncletopia | New York City | 3 | Stopwatch Beta | STV","players":null},{"server_id":16,"name":"Uncletopia | New York City | 4 | Community","name_short":"nyc-4","host":"nyc-1.us.uncletopia.com","port":27045,"enabled":true,"region":"us-east","cc":"us","latitude":40.73061,"longitude":-73.93524,"reserved":0,"last_update":"0001-01-01T00:00:00Z","name_a2s":"Uncletopia | New York City | 4 | Community","protocol":17,"map":"workshop/koth_ramjam_rc1.ugc459778887","folder":"tf","game":"Team Fortress","app_id":440,"player_count":0,"max_players":24,"Bots":0,"server_type":"Dedicated","server_os":"Linux","password":true,"vac":true,"version":"7932396","steam_id":85568392924742821,"keywords":["cp","nocrits","nodmgspread","uncletopia"],"game_id":440,"stv_port":27046,"stv_name":"Uncletopia | New York City | 4 | Community | STV","players":null},{"server_id":142,"name":"Uncletopia | SÃ£o Paulo | 1 | All Maps","name_short":"sao-1","host":"sao-1.br.uncletopia.com","port":27015,"enabled":true,"region":"sa","cc":"br","latitude":-23.533773,"longitude":-46.62529,"reserved":0,"last_update":"0001-01-01T00:00:00Z","name_a2s":"Uncletopia | SÃ£o Paulo | 1 | All Maps","protocol":17,"map":"koth_highpass","folder":"tf","game":"Team Fortress","app_id":440,"player_count":0,"max_players":24,"Bots":0,"server_type":"Dedicated","server_os":"Linux","password":true,"vac":true,"version":"7932396","steam_id":85568392924469996,"keywords":["cp","nocrits","nodmgspread","uncletopia"],"game_id":440,"stv_port":27016,"stv_name":"Uncletopia | SÃ£o Paulo | 1 | All Maps | STV","players":null},{"server_id":143,"name":"Uncletopia | SÃ£o Paulo | 2 | All Maps","name_short":"sao-2","host":"sao-2.br.uncletopia.com","port":27015,"enabled":true,"region":"sa","cc":"br","latitude":-23.533773,"longitude":-46.62529,"reserved":0,"last_update":"0001-01-01T00:00:00Z","name_a2s":"Uncletopia | SÃ£o Paulo | 2 | All Maps","protocol":17,"map":"koth_cascade","folder":"tf","game":"Team Fortress","app_id":440,"player_count":0,"max_players":24,"Bots":0,"server_type":"Dedicated","server_os":"Linux","password":true,"vac":true,"version":"7932396","steam_id":85568392924485349,"keywords":["cp","nocrits","nodmgspread","uncletopia"],"game_id":440,"stv_port":27016,"stv_name":"Uncletopia | SÃ£o Paulo | 2 | All Maps | STV","players":null},{"server_id":7,"name":"Uncletopia | Seattle | 1 | All Maps","name_short":"sea-1","host":"sea-1.us.uncletopia.com","port":27015,"enabled":true,"region":"us-west","cc":"us","latitude":47.608013,"longitude":-122.33517,"reserved":0,"last_update":"0001-01-01T00:00:00Z","name_a2s":"Uncletopia | Seattle | 1 | All Maps","protocol":17,"map":"ctf_2fort","folder":"tf","game":"Team Fortress","app_id":440,"player_count":24,"max_players":24,"Bots":0,"server_type":"Dedicated","server_os":"Linux","password":true,"vac":true,"version":"7932396","steam_id":85568392924469997,"keywords":["ctf","nocrits","nodmgspread","uncletopia"],"game_id":440,"stv_port":27016,"stv_name":"Uncletopia | Seattle | 1 | All Maps | STV","players":[{"user_id":472,"name":"dust | she/it","steam_id":76561198045218909,"connected_time":1974000000000,"state":"active","ping":44},{"user_id":420,"name":"Ymiir","steam_id":76561198118284271,"connected_time":7612000000000,"state":"active","ping":84},{"user_id":441,"name":"Infuzion4","steam_id":76561198119664203,"connected_time":5546000000000,"state":"active","ping":87},{"user_id":455,"name":"forest (minecraft npc)","steam_id":76561198157960257,"connected_time":4590000000000,"state":"active","ping":44},{"user_id":478,"name":"toilet thief","steam_id":76561198057486874,"connected_time":1904000000000,"state":"active","ping":76},{"user_id":454,"name":"Â°Creamy Gilligan","steam_id":76561198001569384,"connected_time":4828000000000,"state":"active","ping":120},{"user_id":489,"name":"jayeskae","steam_id":76561198144220801,"connected_time":265000000000,"state":"active","ping":45},{"user_id":402,"name":"Lord Hater","steam_id":76561199158148782,"connected_time":9323000000000,"state":"active","ping":50},{"user_id":480,"name":"purpleâ„¢ | they/she","steam_id":76561198057459725,"connected_time":1713000000000,"state":"active","ping":53},{"user_id":482,"name":"PopcornBucketGames","steam_id":76561199089562026,"connected_time":1333000000000,"state":"active","ping":53},{"user_id":481,"name":"louie, (winni)peggin'","steam_id":76561198168084763,"connected_time":1700000000000,"state":"active","ping":44},{"user_id":488,"name":"lusty","steam_id":76561198138478947,"connected_time":348000000000,"state":"active","ping":30},{"user_id":484,"name":"Licensed Rizzicist","steam_id":76561199019693549,"connected_time":862000000000,"state":"active","ping":56},{"user_id":431,"name":"lili","steam_id":76561199391478575,"connected_time":6616000000000,"state":"active","ping":63},{"user_id":453,"name":"Dusken","steam_id":76561198357667080,"connected_time":4951000000000,"state":"active","ping":84},{"user_id":490,"name":"johnman gooberguy","steam_id":76561199014859764,"connected_time":251000000000,"state":"active","ping":80},{"user_id":439,"name":"Ayayayayayahuasca","steam_id":76561199002906056,"connected_time":5710000000000,"state":"active","ping":46},{"user_id":465,"name":"shiadyne","steam_id":76561198271939793,"connected_time":3128000000000,"state":"active","ping":44},{"user_id":452,"name":"Loading...","steam_id":76561198075555396,"connected_time":4976000000000,"state":"active","ping":54},{"user_id":474,"name":"lasky","steam_id":76561198017030029,"connected_time":1974000000000,"state":"active","ping":77},{"user_id":419,"name":"SibilantSerpent","steam_id":76561198154488754,"connected_time":7621000000000,"state":"active","ping":57},{"user_id":492,"name":"rat gets the cheese","steam_id":76561198031234032,"connected_time":54000000000,"state":"active","ping":98},{"user_id":461,"name":"Saint Pablo","steam_id":76561198083300159,"connected_time":3438000000000,"state":"active","ping":65},{"user_id":462,"name":"Nea","steam_id":76561198408792773,"connected_time":3436000000000,"state":"active","ping":46}]},{"server_id":119,"name":"Uncletopia | Seattle | 2 | All Maps","name_short":"sea-2","host":"sea-1.us.uncletopia.com","port":27025,"enabled":true,"region":"us-west","cc":"us","latitude":47.608013,"longitude":-122.33517,"reserved":0,"last_update":"0001-01-01T00:00:00Z","name_a2s":"Uncletopia | Seattle | 2 | All Maps","protocol":17,"map":"cp_steel","folder":"tf","game":"Team Fortress","app_id":440,"player_count":24,"max_players":24,"Bots":0,"server_type":"Dedicated","server_os":"Linux","password":true,"vac":true,"version":"7932396","steam_id":85568392924469998,"keywords":["cp","nocrits","nodmgspread","uncletopia"],"game_id":440,"stv_port":27026,"stv_name":"Uncletopia | Seattle | 2 | All Maps | STV","players":[{"user_id":325,"name":"Keamy","steam_id":76561199471434875,"connected_time":1050000000000,"state":"active","ping":44},{"user_id":322,"name":"weegeebad","steam_id":76561198280841437,"connected_time":1589000000000,"state":"active","ping":106},{"user_id":327,"name":"rat obliterater","steam_id":76561199147385953,"connected_time":987000000000,"state":"active","ping":56},{"user_id":339,"name":"brhm","steam_id":76561198199604767,"connected_time":17000000000,"state":"spawning","ping":45},{"user_id":274,"name":"CashGordon","steam_id":76561197975594096,"connected_time":4127000000000,"state":"active","ping":36},{"user_id":342,"name":"Deathkillsme","steam_id":76561198059468746,"connected_time":1000000000,"state":"spawning","ping":24},{"user_id":317,"name":"arsenic","steam_id":76561198176391550,"connected_time":1741000000000,"state":"active","ping":64},{"user_id":246,"name":"A UsedNom","steam_id":76561198402832756,"connected_time":4942000000000,"state":"active","ping":64},{"user_id":295,"name":"CockDick69","steam_id":76561198051882744,"connected_time":2842000000000,"state":"active","ping":74},{"user_id":341,"name":"rhusni480","steam_id":76561199258780555,"connected_time":10000000000,"state":"spawning","ping":263},{"user_id":306,"name":"Landlord","steam_id":76561198987913057,"connected_time":2236000000000,"state":"active","ping":100},{"user_id":309,"name":"2013 lebron","steam_id":76561198217229039,"connected_time":2108000000000,"state":"active","ping":45},{"user_id":338,"name":"Greskrendtregk","steam_id":76561197969553142,"connected_time":27000000000,"state":"active","ping":70},{"user_id":340,"name":"DesertFroggo","steam_id":76561198015607829,"connected_time":11000000000,"state":"spawning","ping":94},{"user_id":337,"name":"mooney","steam_id":76561199110622484,"connected_time":272000000000,"state":"active","ping":68},{"user_id":315,"name":"goldhed","steam_id":76561198051751133,"connected_time":1825000000000,"state":"active","ping":56},{"user_id":334,"name":"Fivan","steam_id":76561198097145922,"connected_time":761000000000,"state":"active","ping":121},{"user_id":305,"name":"momus","steam_id":76561198966979196,"connected_time":2395000000000,"state":"active","ping":72},{"user_id":313,"name":"\u003c3Elise\u003c3","steam_id":76561198146435005,"connected_time":2072000000000,"state":"active","ping":70},{"user_id":290,"name":"ZOOMERGROOMER69","steam_id":76561198027102212,"connected_time":3381000000000,"state":"active","ping":78},{"user_id":331,"name":"gadisboss","steam_id":76561198301704975,"connected_time":853000000000,"state":"active","ping":88},{"user_id":332,"name":"Ira","steam_id":76561198855586261,"connected_time":842000000000,"state":"active","ping":78},{"user_id":312,"name":"rad killl raccoon","steam_id":76561198980975595,"connected_time":2095000000000,"state":"active","ping":64},{"user_id":343,"name":"General Fisticuffs","steam_id":76561198255721392,"connected_time":0,"state":"spawning","ping":0}]},{"server_id":406,"name":"Uncletopia | Seattle | 3 | Stopwatch Beta","name_short":"sea-3","host":"sea-1.us.uncletopia.com","port":27035,"enabled":true,"region":"us-west","cc":"us","latitude":47.608013,"longitude":-122.33517,"reserved":0,"last_update":"0001-01-01T00:00:00Z","name_a2s":"Uncletopia | Seattle | 3 | Stopwatch Beta","protocol":17,"map":"workshop/koth_bagel_rc6.ugc2514036946","folder":"tf","game":"Team Fortress","app_id":440,"player_count":0,"max_players":24,"Bots":0,"server_type":"Dedicated","server_os":"Linux","password":true,"vac":true,"version":"7932396","steam_id":85568392924515217,"keywords":["cp","nocrits","nodmgspread","uncletopia"],"game_id":440,"stv_port":27036,"stv_name":"Uncletopia | Seattle | 3 | Stopwatch Beta | STV","players":null},{"server_id":17,"name":"Uncletopia | San Francisco | 1 | All Maps","name_short":"sfo-1","host":"sfo-1.us.uncletopia.com","port":27015,"enabled":true,"region":"us-west","cc":"us","latitude":37.77397,"longitude":-122.4313,"reserved":0,"last_update":"0001-01-01T00:00:00Z","name_a2s":"Uncletopia | San Francisco | 1 | All Maps","protocol":17,"map":"cp_dustbowl","folder":"tf","game":"Team Fortress","app_id":440,"player_count":24,"max_players":24,"Bots":0,"server_type":"Dedicated","server_os":"Linux","password":true,"vac":true,"version":"7932396","steam_id":85568392924469999,"keywords":["cp","nocrits","nodmgspread","uncletopia"],"game_id":440,"stv_port":27016,"stv_name":"Uncletopia | San Francisco | 1 | All Maps | STV","players":[{"user_id":286,"name":"Shashta Sintashta","steam_id":76561198067436825,"connected_time":217000000000,"state":"active","ping":106},{"user_id":277,"name":"Gomba","steam_id":76561198186115035,"connected_time":730000000000,"state":"active","ping":100},{"user_id":266,"name":"Bolty","steam_id":76561198084199165,"connected_time":1334000000000,"state":"active","ping":77},{"user_id":278,"name":"TORN RETINAS","steam_id":76561198033822457,"connected_time":723000000000,"state":"active","ping":70},{"user_id":273,"name":"TheXDoctor","steam_id":76561198196014379,"connected_time":777000000000,"state":"active","ping":54},{"user_id":251,"name":"Genius Meme","steam_id":76561198162911254,"connected_time":2246000000000,"state":"active","ping":76},{"user_id":252,"name":"NGsterson","steam_id":76561198162108154,"connected_time":2237000000000,"state":"active","ping":64},{"user_id":263,"name":"Wallem","steam_id":76561198052361822,"connected_time":1819000000000,"state":"active","ping":126},{"user_id":284,"name":"Ciaphas Cain","steam_id":76561198067029049,"connected_time":626000000000,"state":"active","ping":64},{"user_id":267,"name":"FAKE uncletopia server","steam_id":76561198065662025,"connected_time":1251000000000,"state":"active","ping":51},{"user_id":285,"name":"mumblety","steam_id":76561199168642914,"connected_time":305000000000,"state":"active","ping":161},{"user_id":239,"name":"Capitalism","steam_id":76561198068677316,"connected_time":2877000000000,"state":"active","ping":74},{"user_id":226,"name":"Warfarin","steam_id":76561198348354629,"connected_time":3791000000000,"state":"active","ping":54},{"user_id":243,"name":"Rafl","steam_id":76561198055222756,"connected_time":2717000000000,"state":"active","ping":77},{"user_id":255,"name":"Apetometrist","steam_id":76561198045391635,"connected_time":2228000000000,"state":"active","ping":117},{"user_id":288,"name":"Contender","steam_id":76561198074607715,"connected_time":45000000000,"state":"active","ping":131},{"user_id":289,"name":"BlancaLamb","steam_id":76561198025646073,"connected_time":0,"state":"spawning","ping":67},{"user_id":275,"name":"DIGGY","steam_id":76561198991238982,"connected_time":769000000000,"state":"active","ping":62},{"user_id":276,"name":"TF3.aflyingmouse","steam_id":76561198058134934,"connected_time":765000000000,"state":"active","ping":74},{"user_id":281,"name":"GKumo","steam_id":76561198023175868,"connected_time":698000000000,"state":"active","ping":51},{"user_id":271,"name":"wiiblob","steam_id":76561198109106242,"connected_time":1040000000000,"state":"active","ping":179},{"user_id":207,"name":"Tiparium","steam_id":76561198060021230,"connected_time":4984000000000,"state":"active","ping":52},{"user_id":257,"name":"FemboyMilk â¤","steam_id":76561198387324643,"connected_time":2207000000000,"state":"active","ping":70},{"user_id":282,"name":"croissantcrusader","steam_id":76561198813533235,"connected_time":690000000000,"state":"active","ping":102}]},{"server_id":18,"name":"Uncletopia | San Francisco | 2 | All Maps","name_short":"sfo-2","host":"sfo-1.us.uncletopia.com","port":27025,"enabled":true,"region":"us-west","cc":"us","latitude":37.77397,"longitude":-122.4313,"reserved":0,"last_update":"0001-01-01T00:00:00Z","name_a2s":"Uncletopia | San Francisco | 2 | All Maps","protocol":17,"map":"koth_nucleus","folder":"tf","game":"Team Fortress","app_id":440,"player_count":24,"max_players":24,"Bots":0,"server_type":"Dedicated","server_os":"Linux","password":true,"vac":true,"version":"7932396","steam_id":85568392924470000,"keywords":["cp","nocrits","nodmgspread","uncletopia"],"game_id":440,"stv_port":27026,"stv_name":"Uncletopia | San Francisco | 2 | All Maps | STV","players":[{"user_id":15,"name":"a cat plushie","steam_id":76561198080046542,"connected_time":6868000000000,"state":"active","ping":85},{"user_id":56,"name":"-_-","steam_id":76561198048754646,"connected_time":4947000000000,"state":"active","ping":54},{"user_id":48,"name":"curious inclinations","steam_id":76561198042913843,"connected_time":5382000000000,"state":"active","ping":71},{"user_id":107,"name":"Rygan Sharpside","steam_id":76561198069514400,"connected_time":825000000000,"state":"active","ping":238},{"user_id":88,"name":"bob from vegetable","steam_id":76561199089515791,"connected_time":1887000000000,"state":"active","ping":67},{"user_id":112,"name":"azureglxy","steam_id":76561198861388315,"connected_time":48000000000,"state":"active","ping":40},{"user_id":116,"name":"bbbbb","steam_id":76561198095480838,"connected_time":17000000000,"state":"active","ping":192},{"user_id":53,"name":"naturia","steam_id":76561198092317849,"connected_time":5051000000000,"state":"active","ping":52},{"user_id":109,"name":"_D_I_S_P_E_N_S_E_R_","steam_id":76561199383097700,"connected_time":762000000000,"state":"active","ping":82},{"user_id":103,"name":"PigPig","steam_id":76561198068190834,"connected_time":1477000000000,"state":"active","ping":66},{"user_id":93,"name":"sams","steam_id":76561199093161260,"connected_time":1699000000000,"state":"active","ping":53},{"user_id":94,"name":"kingcab","steam_id":76561197998531589,"connected_time":1697000000000,"state":"active","ping":93},{"user_id":102,"name":"MCman","steam_id":76561198412110305,"connected_time":1499000000000,"state":"active","ping":75},{"user_id":113,"name":"Stan_The_Stick_Man","steam_id":76561198158340112,"connected_time":37000000000,"state":"connecting","ping":57},{"user_id":95,"name":"ð”…ð”˜â„œâ„¨ð”˜ð”","steam_id":76561197962921313,"connected_time":1663000000000,"state":"active","ping":99},{"user_id":114,"name":"chicken","steam_id":76561198196998007,"connected_time":37000000000,"state":"active","ping":51},{"user_id":97,"name":"puke","steam_id":76561197999279693,"connected_time":1603000000000,"state":"active","ping":74},{"user_id":115,"name":"yoboidaniel45","steam_id":76561199059236666,"connected_time":36000000000,"state":"active","ping":96},{"user_id":55,"name":"Zion Chavez","steam_id":76561198178536999,"connected_time":5011000000000,"state":"active","ping":57},{"user_id":98,"name":"MULTI CAR PILEUP","steam_id":76561198051421643,"connected_time":1599000000000,"state":"active","ping":73},{"user_id":104,"name":"Joe","steam_id":76561198013829050,"connected_time":1249000000000,"state":"active","ping":96},{"user_id":99,"name":"Juevos","steam_id":76561198066142119,"connected_time":1567000000000,"state":"spawning","ping":323},{"user_id":100,"name":"Ortadragon","steam_id":76561198023058412,"connected_time":1564000000000,"state":"active","ping":51},{"user_id":61,"name":".3wu","steam_id":76561198816127465,"connected_time":4057000000000,"state":"active","ping":143}]},{"server_id":19,"name":"Uncletopia | San Francisco | 3 | Stopwatch Beta","name_short":"sfo-3","host":"sfo-1.us.uncletopia.com","port":27035,"enabled":true,"region":"us-west","cc":"us","latitude":37.77397,"longitude":-122.4313,"reserved":0,"last_update":"0001-01-01T00:00:00Z","name_a2s":"Uncletopia | San Francisco | 3 | Stopwatch Beta","protocol":17,"map":"workshop/pl_vigil_rc9.ugc1266210012","folder":"tf","game":"Team Fortress","app_id":440,"player_count":0,"max_players":24,"Bots":0,"server_type":"Dedicated","server_os":"Linux","password":true,"vac":true,"version":"7932396","steam_id":85568392924742824,"keywords":["nocrits","nodmgspread","payload","uncletopia"],"game_id":440,"stv_port":27036,"stv_name":"Uncletopia | San Francisco | 3 | Stopwatch Beta | STV","players":null},{"server_id":20,"name":"Uncletopia | San Francisco | 4 | Community","name_short":"sfo-4","host":"sfo-1.us.uncletopia.com","port":27045,"enabled":true,"region":"us-west","cc":"us","latitude":37.77397,"longitude":-122.4313,"reserved":0,"last_update":"0001-01-01T00:00:00Z","name_a2s":"Uncletopia | San Francisco | 4 | Community","protocol":17,"map":"workshop/koth_ashville_final.ugc2130459942","folder":"tf","game":"Team Fortress","app_id":440,"player_count":0,"max_players":24,"Bots":0,"server_type":"Dedicated","server_os":"Linux","password":true,"vac":true,"version":"7932396","steam_id":85568392924742826,"keywords":["cp","nocrits","nodmgspread","uncletopia"],"game_id":440,"stv_port":27046,"stv_name":"Uncletopia | San Francisco | 4 | Community | STV","players":null},{"server_id":141,"name":"Uncletopia | Sydney | 1 | All Maps","name_short":"syd-1","host":"syd-1.au.uncletopia.com","port":27015,"enabled":true,"region":"au","cc":"au","latitude":-33.865143,"longitude":151.2099,"reserved":0,"last_update":"0001-01-01T00:00:00Z","name_a2s":"Uncletopia | Sydney | 1 | All Maps","protocol":17,"map":"koth_harvest_final","folder":"tf","game":"Team Fortress","app_id":440,"player_count":6,"max_players":24,"Bots":0,"server_type":"Dedicated","server_os":"Linux","password":true,"vac":true,"version":"7932396","steam_id":85568392924470001,"keywords":["cp","nocrits","nodmgspread","uncletopia"],"game_id":440,"stv_port":27016,"stv_name":"Uncletopia | Sydney | 1 | All Maps | STV","players":[{"user_id":35,"name":"boi","steam_id":76561199443930358,"connected_time":1524000000000,"state":"active","ping":226},{"user_id":36,"name":"juusha","steam_id":76561198911542330,"connected_time":1227000000000,"state":"active","ping":78},{"user_id":37,"name":"ravioli","steam_id":76561198001765827,"connected_time":1105000000000,"state":"active","ping":57},{"user_id":38,"name":"Welliedowner","steam_id":76561198442791647,"connected_time":1094000000000,"state":"active","ping":64},{"user_id":39,"name":"Denszeal","steam_id":76561198313718095,"connected_time":677000000000,"state":"active","ping":70},{"user_id":40,"name":"i'm gay","steam_id":76561198238031616,"connected_time":434000000000,"state":"active","ping":82}]},{"server_id":123,"name":"Uncletopia | Sydney | 2 | All Maps","name_short":"syd-2","host":"syd-1.au.uncletopia.com","port":27025,"enabled":true,"region":"au","cc":"au","latitude":-33.865143,"longitude":151.2099,"reserved":0,"last_update":"0001-01-01T00:00:00Z","name_a2s":"Uncletopia | Sydney | 2 | All Maps","protocol":17,"map":"cp_dustbowl","folder":"tf","game":"Team Fortress","app_id":440,"player_count":0,"max_players":24,"Bots":0,"server_type":"Dedicated","server_os":"Linux","password":true,"vac":true,"version":"7932396","steam_id":85568392924470002,"keywords":["cp","nocrits","nodmgspread","uncletopia"],"game_id":440,"stv_port":27026,"stv_name":"Uncletopia | Sydney | 2 | All Maps | STV","players":null},{"server_id":395,"name":"Uncletopia | Sydney | 3 | All Maps","name_short":"syd-3","host":"syd-1.au.uncletopia.com","port":27035,"enabled":true,"region":"au","cc":"au","latitude":-33.865143,"longitude":151.2099,"reserved":0,"last_update":"0001-01-01T00:00:00Z","name_a2s":"Uncletopia | Sydney | 3 | All Maps","protocol":17,"map":"cp_mountainlab","folder":"tf","game":"Team Fortress","app_id":440,"player_count":0,"max_players":24,"Bots":0,"server_type":"Dedicated","server_os":"Linux","password":true,"vac":true,"version":"7932396","steam_id":85568392925194467,"keywords":["cp","nocrits","nodmgspread","uncletopia"],"game_id":440,"stv_port":27036,"stv_name":"Uncletopia | Sydney | 3 | All Maps | STV","players":null},{"server_id":396,"name":"Uncletopia | Sydney | 4 | All Maps","name_short":"syd-4","host":"syd-1.au.uncletopia.com","port":27045,"enabled":true,"region":"au","cc":"au","latitude":-33.865143,"longitude":151.2099,"reserved":0,"last_update":"0001-01-01T00:00:00Z","name_a2s":"Uncletopia | Sydney | 4 | All Maps","protocol":17,"map":"koth_viaduct","folder":"tf","game":"Team Fortress","app_id":440,"player_count":0,"max_players":24,"Bots":0,"server_type":"Dedicated","server_os":"Linux","password":true,"vac":true,"version":"7932396","steam_id":85568392925397958,"keywords":["cp","nocrits","nodmgspread","uncletopia"],"game_id":440,"stv_port":27046,"stv_name":"Uncletopia | Sydney | 4 | All Maps | STV","players":null},{"server_id":58,"name":"Uncletopia | Sydney | 5 | Stopwatch Beta","name_short":"syd-5","host":"syd-1.au.uncletopia.com","port":27055,"enabled":true,"region":"au","cc":"au","latitude":-33.865143,"longitude":151.2099,"reserved":0,"last_update":"0001-01-01T00:00:00Z","name_a2s":"Uncletopia | Sydney | 5 | Stopwatch Beta","protocol":17,"map":"workshop/pl_vigil_rc9.ugc1266210012","folder":"tf","game":"Team Fortress","app_id":440,"player_count":0,"max_players":24,"Bots":0,"server_type":"Dedicated","server_os":"Linux","password":true,"vac":true,"version":"7932396","steam_id":85568392925397959,"keywords":["nocrits","nodmgspread","payload","uncletopia"],"game_id":440,"stv_port":27056,"stv_name":"Uncletopia | Sydney | 5 | Stopwatch Beta | STV","players":null},{"server_id":59,"name":"Uncletopia | Sydney | 6 | Community","name_short":"syd-6","host":"syd-1.au.uncletopia.com","port":27065,"enabled":true,"region":"au","cc":"au","latitude":-33.865143,"longitude":151.2099,"reserved":0,"last_update":"0001-01-01T00:00:00Z","name_a2s":"Uncletopia | Sydney | 6 | Community","protocol":17,"map":"cp_altitude","folder":"tf","game":"Team Fortress","app_id":440,"player_count":0,"max_players":24,"Bots":0,"server_type":"Dedicated","server_os":"Linux","password":true,"vac":true,"version":"7932396","steam_id":85568392925397960,"keywords":["cp","nocrits","nodmgspread","uncletopia"],"game_id":440,"stv_port":27066,"stv_name":"Uncletopia | Sydney | 6 | Community | STV","players":null},{"server_id":49,"name":"Uncletopia | Warsaw | 1 | All Maps","name_short":"waw-1","host":"waw-1.pl.uncletopia.com","port":27015,"enabled":true,"region":"eu","cc":"pl","latitude":52.2297,"longitude":21.017532,"reserved":0,"last_update":"0001-01-01T00:00:00Z","name_a2s":"","protocol":0,"map":"","folder":"","game":"","app_id":0,"player_count":0,"max_players":0,"Bots":0,"server_type":"","server_os":"","password":false,"vac":false,"version":"","steam_id":0,"keywords":null,"game_id":0,"stv_port":0,"stv_name":"","players":null},{"server_id":50,"name":"Uncletopia | Warsaw | 2 | All Maps","name_short":"waw-2","host":"waw-1.pl.uncletopia.com","port":27025,"enabled":true,"region":"eu","cc":"pl","latitude":52.2297,"longitude":21.017532,"reserved":0,"last_update":"0001-01-01T00:00:00Z","name_a2s":"Uncletopia | Warsaw | 2 | All Maps","protocol":17,"map":"pl_frontier_final","folder":"tf","game":"Team Fortress","app_id":440,"player_count":0,"max_players":24,"Bots":0,"server_type":"Dedicated","server_os":"Linux","password":true,"vac":true,"version":"7932396","steam_id":85568392925397851,"keywords":["nocrits","nodmgspread","payload","uncletopia"],"game_id":440,"stv_port":27026,"stv_name":"Uncletopia | Warsaw | 2 | All Maps | STV","players":null},{"server_id":51,"name":"Uncletopia | Warsaw | 3 | All Maps","name_short":"waw-3","host":"waw-1.pl.uncletopia.com","port":27035,"enabled":true,"region":"eu","cc":"pl","latitude":52.2297,"longitude":21.017532,"reserved":0,"last_update":"0001-01-01T00:00:00Z","name_a2s":"Uncletopia | Warsaw | 3 | All Maps","protocol":17,"map":"koth_lakeside_final","folder":"tf","game":"Team Fortress","app_id":440,"player_count":0,"max_players":24,"Bots":0,"server_type":"Dedicated","server_os":"Linux","password":true,"vac":true,"version":"7932396","steam_id":85568392925397852,"keywords":["cp","nocrits","nodmgspread","uncletopia"],"game_id":440,"stv_port":27036,"stv_name":"Uncletopia | Warsaw | 3 | All Maps | STV","players":null},{"server_id":52,"name":"Uncletopia | Warsaw | 4 | All Maps","name_short":"waw-4","host":"waw-1.pl.uncletopia.com","port":27045,"enabled":true,"region":"eu","cc":"pl","latitude":52.2297,"longitude":21.017532,"reserved":0,"last_update":"0001-01-01T00:00:00Z","name_a2s":"Uncletopia | Warsaw | 4 | All Maps","protocol":17,"map":"koth_lakeside_final","folder":"tf","game":"Team Fortress","app_id":440,"player_count":0,"max_players":24,"Bots":0,"server_type":"Dedicated","server_os":"Linux","password":true,"vac":true,"version":"7932396","steam_id":85568392925397853,"keywords":["cp","nocrits","nodmgspread","uncletopia"],"game_id":440,"stv_port":27046,"stv_name":"Uncletopia | Warsaw | 4 | All Maps | STV","players":null},{"server_id":53,"name":"Uncletopia | Warsaw | 5 | Stopwatch Beta","name_short":"waw-5","host":"waw-1.pl.uncletopia.com","port":27055,"enabled":true,"region":"eu","cc":"pl","latitude":52.2297,"longitude":21.017532,"reserved":0,"last_update":"0001-01-01T00:00:00Z","name_a2s":"Uncletopia | Warsaw | 5 | Stopwatch Beta","protocol":17,"map":"koth_cascade","folder":"tf","game":"Team Fortress","app_id":440,"player_count":0,"max_players":24,"Bots":0,"server_type":"Dedicated","server_os":"Linux","password":true,"vac":true,"version":"7932396","steam_id":85568392925397854,"keywords":["cp","nocrits","nodmgspread","uncletopia"],"game_id":440,"stv_port":27056,"stv_name":"Uncletopia | Warsaw | 5 | Stopwatch Beta | STV","players":null},{"server_id":54,"name":"Uncletopia | Warsaw | 6 | Community","name_short":"waw-6","host":"waw-1.pl.uncletopia.com","port":27065,"enabled":true,"region":"eu","cc":"pl","latitude":52.2297,"longitude":21.017532,"reserved":0,"last_update":"0001-01-01T00:00:00Z","name_a2s":"Uncletopia | Warsaw | 6 | Community","protocol":17,"map":"workshop/cp_propaganda_b18.ugc1603743849","folder":"tf","game":"Team Fortress","app_id":440,"player_count":0,"max_players":24,"Bots":0,"server_type":"Dedicated","server_os":"Linux","password":true,"vac":true,"version":"7932396","steam_id":85568392925397856,"keywords":["cp","nocrits","nodmgspread","uncletopia"],"game_id":440,"stv_port":27066,"stv_name":"Uncletopia | Warsaw | 6 | Community | STV","players":null}]}