{"status":true,"message":"","result":[{"server_id":9,"name":"Uncletopia | Atlanta | 1 | All Maps","name_short":"atl-1","host":"atl-1.us.uncletopia.com","port":27015,"enabled":true,"region":"us-east","cc":"us","latitude":33.753746,"longitude":-84.38633,"reserved":0,"last_update":"0001-01-01T00:00:00Z","name_a2s":"Uncletopia | Atlanta | 1 | All Maps","protocol":17,"map":"koth_highpass","folder":"tf","game":"Team Fortress","app_id":440,"player_count":25,"max_players":24,"Bots":0,"server_type":"Dedicated","server_os":"Linux","password":true,"vac":true,"version":"7961495","steam_id":85568392924469982,"keywords":["cp","nocrits","nodmgspread","uncletopia"],"game_id":440,"stv_port":27016,"stv_name":"Uncletopia | Atlanta | 1 | All Maps | STV","players":null},{"server_id":104,"name":"Uncletopia | Atlanta | 2 | All Maps","name_short":"atl-2","host":"atl-1.us.uncletopia.com","port":27025,"enabled":true,"region":"us-east","cc":"us","latitude":33.753746,"longitude":-84.38633,"reserved":0,"last_update":"0001-01-01T00:00:00Z","name_a2s":"Uncletopia | Atlanta | 2 | All Maps","protocol":17,"map":"cp_steel","folder":"tf","game":"Team Fortress","app_id":440,"player_count":21,"max_players":24,"Bots":0,"server_type":"Dedicated","server_os":"Linux","password":true,"vac":true,"version":"7961495","steam_id":85568392924469983,"keywords":["cp","nocrits","nodmgspread","uncletopia"],"game_id":440,"stv_port":27026,"stv_name":"Uncletopia | Atlanta | 2 | All Maps | STV","players":null},{"server_id":400,"name":"Uncletopia | Atlanta | 3 | Stopwatch","name_short":"atl-3","host":"atl-1.us.uncletopia.com","port":27035,"enabled":true,"region":"us-east","cc":"us","latitude":33.753746,"longitude":-84.38633,"reserved":0,"last_update":"0001-01-01T00:00:00Z","name_a2s":"Uncletopia | Atlanta | 3 | Stopwatch","protocol":17,"map":"cp_process_f12","folder":"tf","game":"Team Fortress","app_id":440,"player_count":0,"max_players":24,"Bots":0,"server_type":"Dedicated","server_os":"Linux","password":true,"vac":true,"version":"7961495","steam_id":85568392924515187,"keywords":["cp","nocrits","nodmgspread","uncletopia"],"game_id":440,"stv_port":27036,"stv_name":"Uncletopia | Atlanta | 3 | Stopwatch | STV","players":null},{"server_id":401,"name":"Uncletopia | Atlanta | 4 | Community","name_short":"atl-4","host":"atl-1.us.uncletopia.com","port":27045,"enabled":true,"region":"us-east","cc":"us","latitude":33.753746,"longitude":-84.38633,"reserved":0,"last_update":"0001-01-01T00:00:00Z","name_a2s":"Uncletopia | Atlanta | 4 | Community","protocol":17,"map":"koth_ashville_final","folder":"tf","game":"Team Fortress","app_id":440,"player_count":0,"max_players":24,"Bots":0,"server_type":"Dedicated","server_os":"Linux","password":true,"vac":true,"version":"7961495","steam_id":85568392924515188,"keywords":["cp","nocrits","nodmgspread","uncletopia"],"game_id":440,"stv_port":27046,"stv_name":"Uncletopia | Atlanta | 4 | Community | STV","players":null},{"server_id":2,"name":"Uncletopia | Chicago | 1 | All Maps","name_short":"chi-1","host":"chi-1.us.uncletopia.com","port":27015,"enabled":true,"region":"us-central","cc":"us","latitude":41.881832,"longitude":-87.62318,"reserved":0,"last_update":"0001-01-01T00:00:00Z","name_a2s":"Uncletopia | Chicago | 1 | All Maps","protocol":17,"map":"pl_upward","folder":"tf","game":"Team Fortress","app_id":440,"player_count":24,"max_players":24,"Bots":0,"server_type":"Dedicated","server_os":"Linux","password":true,"vac":true,"version":"7961495","steam_id":85568392924469984,"keywords":["nocrits","nodmgspread","payload","uncletopia"],"game_id":440,"stv_port":27016,"stv_name":"Uncletopia | Chicago | 1 | All Maps | STV","players":[{"user_id":558,"name":"qory","steam_id":76561198152064890,"connected_time":443000000000,"state":"active","ping":48},{"user_id":563,"name":"DanthePunman","steam_id":76561198453724913,"connected_time":216000000000,"state":"active","ping":64},{"user_id":566,"name":"Spiffy Sunbro","steam_id":76561198883453571,"connected_time":89000000000,"state":"active","ping":89},{"user_id":567,"name":"Sid","steam_id":76561198028011668,"connected_time":70000000000,"state":"active","ping":59},{"user_id":546,"name":"Prophet No. 8","steam_id":76561199164300600,"connected_time":1341000000000,"state":"active","ping":76},{"user_id":525,"name":"fishy","steam_id":76561198018622305,"connected_time":2222000000000,"state":"active","ping":70},{"user_id":454,"name":"cube","steam_id":76561197991759721,"connected_time":7020000000000,"state":"active","ping":60},{"user_id":532,"name":"Cooler Ye","steam_id":76561198068830312,"connected_time":2131000000000,"state":"active","ping":44},{"user_id":522,"name":"KBoneski ♡","steam_id":76561198307409065,"connected_time":2268000000000,"state":"active","ping":81},{"user_id":553,"name":"DuckKey","steam_id":76561198904477889,"connected_time":910000000000,"state":"active","ping":59},{"user_id":554,"name":"Havi","steam_id":76561198197832829,"connected_time":873000000000,"state":"active","ping":99},{"user_id":568,"name":"caberknight tf2  (f2p-ish)","steam_id":76561199273882768,"connected_time":53000000000,"state":"active","ping":60},{"user_id":555,"name":"Howard Hamlin","steam_id":76561198881039861,"connected_time":813000000000,"state":"active","ping":47},{"user_id":536,"name":"RusticCarp42989","steam_id":76561198361151865,"connected_time":1956000000000,"state":"active","ping":115},{"user_id":573,"name":"King Crust of Crustmus","steam_id":76561198160930421,"connected_time":19000000000,"state":"active","ping":102},{"user_id":544,"name":"flamingcookies","steam_id":76561198280864779,"connected_time":1359000000000,"state":"active","ping":69},{"user_id":560,"name":"gayest MF DOOM fan","steam_id":76561198065801979,"connected_time":392000000000,"state":"active","ping":74},{"user_id":540,"name":"debin","steam_id":76561198070711217,"connected_time":1842000000000,"state":"active","ping":46},{"user_id":565,"name":"\"eLaStiGo GoMeZ\"","steam_id":76561198056834532,"connected_time":109000000000,"state":"active","ping":50},{"user_id":564,"name":"Yam Jazzy Jim","steam_id":76561198000788950,"connected_time":172000000000,"state":"active","ping":64},{"user_id":557,"name":"Comradical","steam_id":76561197990808285,"connected_time":671000000000,"state":"active","ping":76},{"user_id":521,"name":"Saddam Hussein","steam_id":76561199389283507,"connected_time":2296000000000,"state":"active","ping":72},{"user_id":570,"name":"Profesional Brohamad","steam_id":76561198824025210,"connected_time":45000000000,"state":"spawning","ping":45},{"user_id":535,"name":"Johnny Lawrence #JohnnyMaxxing","steam_id":76561199367141671,"connected_time":2057000000000,"state":"active","ping":68}]},{"server_id":106,"name":"Uncletopia | Chicago | 2 | All Maps","name_short":"chi-2","host":"chi-1.us.uncletopia.com","port":27025,"enabled":true,"region":"us-central","cc":"us","latitude":41.881832,"longitude":-87.62318,"reserved":0,"last_update":"0001-01-01T00:00:00Z","name_a2s":"Uncletopia | Chicago | 2 | All Maps","protocol":17,"map":"koth_viaduct","folder":"tf","game":"Team Fortress","app_id":440,"player_count":24,"max_players":24,"Bots":0,"server_type":"Dedicated","server_os":"Linux","password":true,"vac":true,"version":"7961495","steam_id":85568392924469985,"keywords":["cp","nocrits","nodmgspread","uncletopia"],"game_id":440,"stv_port":27026,"stv_name":"Uncletopia | Chicago | 2 | All Maps | STV","players":[{"user_id":412,"name":"dog","steam_id":76561198263873491,"connected_time":1980000000000,"state":"active","ping":45},{"user_id":434,"name":"Jerk Tryhard (roleplay)","steam_id":76561199470538309,"connected_time":939000000000,"state":"active","ping":51},{"user_id":400,"name":"Thumbs","steam_id":76561199065890132,"connected_time":2448000000000,"state":"active","ping":47},{"user_id":427,"name":"HUMBY","steam_id":76561198065045867,"connected_time":1480000000000,"state":"active","ping":85},{"user_id":419,"name":"cumscumscumscumscumscumscumscum","steam_id":76561198057861378,"connected_time":1868000000000,"state":"active","ping":75},{"user_id":397,"name":"drift","steam_id":76561198093781093,"connected_time":2615000000000,"state":"active","ping":52},{"user_id":430,"name":"Comfy!","steam_id":76561198008818346,"connected_time":1140000000000,"state":"active","ping":62},{"user_id":440,"name":"thecal","steam_id":76561198307893384,"connected_time":295000000000,"state":"active","ping":48},{"user_id":429,"name":"rudy","steam_id":76561198088712799,"connected_time":1144000000000,"state":"active","ping":70},{"user_id":425,"name":"Bubtit","steam_id":76561199138751788,"connected_time":1666000000000,"state":"active","ping":47},{"user_id":424,"name":"gritty 2024","steam_id":76561198165567310,"connected_time":1776000000000,"state":"active","ping":52},{"user_id":435,"name":"Kung fu Mungus","steam_id":76561198069281556,"connected_time":827000000000,"state":"active","ping":73},{"user_id":438,"name":"Applesauce (she/her)","steam_id":76561198049642811,"connected_time":641000000000,"state":"active","ping":70},{"user_id":413,"name":"ADRIEN BRODY","steam_id":76561198009299473,"connected_time":1977000000000,"state":"active","ping":71},{"user_id":402,"name":"Menachem","steam_id":76561198041226420,"connected_time":2393000000000,"state":"active","ping":49},{"user_id":417,"name":"poopybutt420","steam_id":76561199000805315,"connected_time":1923000000000,"state":"active","ping":106},{"user_id":403,"name":"Waesel","steam_id":76561198069188177,"connected_time":2385000000000,"state":"active","ping":76},{"user_id":433,"name":"femboy sense","steam_id":76561199198726572,"connected_time":1030000000000,"state":"active","ping":92},{"user_id":381,"name":"vv","steam_id":76561198134813102,"connected_time":4299000000000,"state":"active","ping":53},{"user_id":421,"name":"Moonage Lobotomy","steam_id":76561198045837710,"connected_time":1822000000000,"state":"active","ping":53},{"user_id":411,"name":"what the freak","steam_id":76561198080754727,"connected_time":2079000000000,"state":"active","ping":82},{"user_id":409,"name":"ham salmontizer","steam_id":76561198168840293,"connected_time":2177000000000,"state":"active","ping":100},{"user_id":439,"name":"fractaldunes","steam_id":76561198118102935,"connected_time":506000000000,"state":"active","ping":70},{"user_id":441,"name":"WindWaker","steam_id":76561198245941534,"connected_time":38000000000,"state":"active","ping":58}]},{"server_id":402,"name":"Uncletopia | Chicago | 3 | All Maps","name_short":"chi-3","host":"chi-1.us.uncletopia.com","port":27035,"enabled":true,"region":"us-central","cc":"us","latitude":41.881832,"longitude":-87.62318,"reserved":0,"last_update":"0001-01-01T00:00:00Z","name_a2s":"Uncletopia | Chicago | 3 | All Maps","protocol":17,"map":"pl_upward","folder":"tf","game":"Team Fortress","app_id":440,"player_count":24,"max_players":24,"Bots":0,"server_type":"Dedicated","server_os":"Linux","password":true,"vac":true,"version":"7961495","steam_id":85568392924515191,"keywords":["nocrits","nodmgspread","payload","uncletopia"],"game_id":440,"stv_port":27036,"stv_name":"Uncletopia | Chicago | 3 | All Maps | STV","players":[{"user_id":347,"name":"StormHornet","steam_id":76561198132684393,"connected_time":268000000000,"state":"active","ping":48},{"user_id":305,"name":"RandomRainbow","steam_id":76561199107573588,"connected_time":2874000000000,"state":"active","ping":48},{"user_id":348,"name":"󠁳 ⁧fortnite56k","steam_id":76561198404564240,"connected_time":217000000000,"state":"active","ping":60},{"user_id":349,"name":"E4 #Silenced","steam_id":76561198085813708,"connected_time":30000000000,"state":"spawning","ping":60},{"user_id":342,"name":"The local hobo","steam_id":76561198289650060,"connected_time":578000000000,"state":"active","ping":87},{"user_id":339,"name":"Fangirl","steam_id":76561198253710690,"connected_time":847000000000,"state":"active","ping":103},{"user_id":343,"name":"rept","steam_id":76561198022100969,"connected_time":553000000000,"state":"active","ping":51},{"user_id":322,"name":"Oxygen User","steam_id":76561199111975528,"connected_time":2200000000000,"state":"active","ping":99},{"user_id":302,"name":"corned beef","steam_id":76561199366782761,"connected_time":2920000000000,"state":"active","ping":158},{"user_id":291,"name":"Styx","steam_id":76561198158334494,"connected_time":3415000000000,"state":"active","ping":48},{"user_id":345,"name":"Soy King","steam_id":76561198263025614,"connected_time":379000000000,"state":"active","ping":110},{"user_id":328,"name":"pinky","steam_id":76561199109784776,"connected_time":1548000000000,"state":"active","ping":53},{"user_id":330,"name":"Kiss Master","steam_id":76561198289572271,"connected_time":1238000000000,"state":"active","ping":75},{"user_id":338,"name":"Prime","steam_id":76561198158782028,"connected_time":912000000000,"state":"active","ping":53},{"user_id":337,"name":"PISS MAN","steam_id":76561199121903803,"connected_time":922000000000,"state":"active","ping":96},{"user_id":312,"name":"totoro","steam_id":76561198210420871,"connected_time":2705000000000,"state":"active","ping":42},{"user_id":327,"name":"rickyrickyricky","steam_id":76561198041765918,"connected_time":1726000000000,"state":"active","ping":70},{"user_id":309,"name":"mkl","steam_id":76561197986401685,"connected_time":2780000000000,"state":"active","ping":81},{"user_id":264,"name":"(1)U SUX","steam_id":76561198167031395,"connected_time":5400000000000,"state":"active","ping":80},{"user_id":329,"name":"Clean Lines","steam_id":76561197960691518,"connected_time":1497000000000,"state":"active","ping":46},{"user_id":278,"name":"jarrettconsult","steam_id":76561198249998262,"connected_time":4523000000000,"state":"active","ping":85},{"user_id":341,"name":"FaZe hyazZzZaZa","steam_id":76561199100342013,"connected_time":658000000000,"state":"active","ping":98},{"user_id":317,"name":"Aurélien Tchouaméni","steam_id":76561199499931123,"connected_time":2554000000000,"state":"active","ping":52},{"user_id":325,"name":"u sux","steam_id":76561198112297509,"connected_time":2161000000000,"state":"active","ping":69}]},{"server_id":403,"name":"Uncletopia | Chicago | 4 | All Maps","name_short":"chi-4","host":"chi-1.us.uncletopia.com","port":27045,"enabled":true,"region":"us-central","cc":"us","latitude":41.881832,"longitude":-87.62318,"reserved":0,"last_update":"0001-01-01T00:00:00Z","name_a2s":"Uncletopia | Chicago | 4 | All Maps","protocol":17,"map":"pl_borneo","folder":"tf","game":"Team Fortress","app_id":440,"player_count":24,"max_players":24,"Bots":0,"server_type":"Dedicated","server_os":"Linux","password":true,"vac":true,"version":"7961495","steam_id":85568392924515193,"keywords":["nocrits","nodmgspread","payload","uncletopia"],"game_id":440,"stv_port":27046,"stv_name":"Uncletopia | Chicago | 4 | All Maps | STV","players":[{"user_id":191,"name":"jxh300","steam_id":76561199196579894,"connected_time":2186000000000,"state":"active","ping":71},{"user_id":212,"name":"Ganondorf","steam_id":76561198010421059,"connected_time":720000000000,"state":"active","ping":52},{"user_id":216,"name":"John Pork","steam_id":76561198187097545,"connected_time":216000000000,"state":"active","ping":88},{"user_id":173,"name":"tony soprano (ultra instinct)","steam_id":76561198058469527,"connected_time":3334000000000,"state":"active","ping":63},{"user_id":213,"name":"Elm","steam_id":76561198127972568,"connected_time":719000000000,"state":"active","ping":89},{"user_id":174,"name":"TheRatBoi","steam_id":76561199123032506,"connected_time":3333000000000,"state":"active","ping":67},{"user_id":211,"name":"guy","steam_id":76561198079925551,"connected_time":726000000000,"state":"active","ping":61},{"user_id":182,"name":"og biden pack cart","steam_id":76561198253731826,"connected_time":2548000000000,"state":"active","ping":60},{"user_id":200,"name":"WitheringLeo","steam_id":76561198046722918,"connected_time":1705000000000,"state":"active","ping":86},{"user_id":206,"name":"a table","steam_id":76561198158461279,"connected_time":857000000000,"state":"active","ping":71},{"user_id":203,"name":"YOU FEEL YOUR HEARTBREAK","steam_id":76561198072179483,"connected_time":1350000000000,"state":"active","ping":91},{"user_id":150,"name":"MrKokonut","steam_id":76561198879575825,"connected_time":4214000000000,"state":"active","ping":59},{"user_id":217,"name":"Big Man Doin' Big Man Thangs","steam_id":76561198071434716,"connected_time":202000000000,"state":"active","ping":88},{"user_id":181,"name":"Sinta","steam_id":76561198098398841,"connected_time":2645000000000,"state":"active","ping":60},{"user_id":202,"name":"gIBBY","steam_id":76561198080099598,"connected_time":1586000000000,"state":"active","ping":57},{"user_id":171,"name":"anonion","steam_id":76561198056477584,"connected_time":3429000000000,"state":"active","ping":89},{"user_id":165,"name":"thistletown","steam_id":76561198404858264,"connected_time":3758000000000,"state":"active","ping":68},{"user_id":210,"name":"That Darned Imp","steam_id":76561198854501307,"connected_time":732000000000,"state":"active","ping":62},{"user_id":204,"name":"Gene Takovic","steam_id":76561198120442624,"connected_time":1307000000000,"state":"active","ping":74},{"user_id":208,"name":"22moo","steam_id":76561199075331630,"connected_time":744000000000,"state":"active","ping":74},{"user_id":214,"name":"Level 1 Crook","steam_id":76561198441098132,"connected_time":718000000000,"state":"active","ping":46},{"user_id":155,"name":"Rock Kickass","steam_id":76561198450510841,"connected_time":4038000000000,"state":"active","ping":123},{"user_id":219,"name":"violent monkey porn","steam_id":76561199285074344,"connected_time":44000000000,"state":"active","ping":69},{"user_id":209,"name":"QuarticalPhysics","steam_id":76561198061386266,"connected_time":744000000000,"state":"active","ping":80}]},{"server_id":36,"name":"Uncletopia | Chicago | 5 | All Maps","name_short":"chi-5","host":"chi-2.us.uncletopia.com","port":27015,"enabled":true,"region":"us-central","cc":"us","latitude":41.881832,"longitude":-87.62318,"reserved":0,"last_update":"0001-01-01T00:00:00Z","name_a2s":"Uncletopia | Chicago | 5 | All Maps","protocol":17,"map":"koth_viaduct","folder":"tf","game":"Team Fortress","app_id":440,"player_count":3,"max_players":24,"Bots":0,"server_type":"Dedicated","server_os":"Linux","password":true,"vac":true,"version":"7961495","steam_id":85568392924866362,"keywords":["cp","nocrits","nodmgspread","uncletopia"],"game_id":440,"stv_port":27016,"stv_name":"Uncletopia | Chicago | 5 | All Maps | STV","players":[{"user_id":17,"name":"gideon nav my beloved","steam_id":76561198259092181,"connected_time":589000000000,"state":"active","ping":62},{"user_id":19,"name":"Röntgen","steam_id":76561197993492325,"connected_time":285000000000,"state":"active","ping":95},{"user_id":20,"name":"Henry Ota-Clay","steam_id":76561198053232470,"connected_time":7000000000,"state":"active","ping":112}]},{"server_id":37,"name":"Uncletopia | Chicago | 6 | All Maps","name_short":"chi-6","host":"chi-2.us.uncletopia.com","port":27025,"enabled":true,"region":"us-central","cc":"us","latitude":41.881832,"longitude":-87.62318,"reserved":0,"last_update":"0001-01-01T00:00:00Z","name_a2s":"Uncletopia | Chicago | 6 | All Maps","protocol":17,"map":"cp_process_final","folder":"tf","game":"Team Fortress","app_id":440,"player_count":24,"max_players":24,"Bots":0,"server_type":"Dedicated","server_os":"Linux","password":true,"vac":true,"version":"7961495","steam_id":85568392924866363,"keywords":["cp","nocrits","nodmgspread","uncletopia"],"game_id":440,"stv_port":27026,"stv_name":"Uncletopia | Chicago | 6 | All Maps | STV","players":[{"user_id":508,"name":"MrMind","steam_id":76561199321657653,"connected_time":448000000000,"state":"active","ping":98},{"user_id":494,"name":"The_Stomach_Stone_Surgeon","steam_id":76561198044643725,"connected_time":1576000000000,"state":"active","ping":65},{"user_id":510,"name":"Skudge Sister","steam_id":76561198041766766,"connected_time":314000000000,"state":"active","ping":71},{"user_id":499,"name":"[DEEP] the being of power","steam_id":76561198839503937,"connected_time":1269000000000,"state":"active","ping":81},{"user_id":509,"name":"cuddles","steam_id":76561199471390987,"connected_time":429000000000,"state":"active","ping":87},{"user_id":475,"name":"MillerWhite","steam_id":76561198076060357,"connected_time":2206000000000,"state":"active","ping":82},{"user_id":501,"name":"hamilton","steam_id":76561198034096096,"connected_time":886000000000,"state":"active","ping":80},{"user_id":506,"name":"9gon Danmar33","steam_id":76561198056453091,"connected_time":664000000000,"state":"active","ping":58},{"user_id":422,"name":"cixcin","steam_id":76561199215821942,"connected_time":5199000000000,"state":"active","ping":68},{"user_id":507,"name":"KyleJackMcGee","steam_id":76561198101198704,"connected_time":562000000000,"state":"active","ping":58},{"user_id":482,"name":"MikeLovesRabbit","steam_id":76561197997742625,"connected_time":1856000000000,"state":"active","ping":60},{"user_id":464,"name":"gulch","steam_id":76561199227946025,"connected_time":2661000000000,"state":"active","ping":72},{"user_id":492,"name":"9gon ∞","steam_id":76561198150627999,"connected_time":1586000000000,"state":"active","ping":77},{"user_id":511,"name":"BLØRG","steam_id":76561198036126673,"connected_time":288000000000,"state":"active","ping":78},{"user_id":432,"name":"Hindmost","steam_id":76561199081837220,"connected_time":4790000000000,"state":"active","ping":78},{"user_id":465,"name":"Jrock","steam_id":76561198045715996,"connected_time":2660000000000,"state":"active","ping":88},{"user_id":498,"name":"fresco","steam_id":76561199101199477,"connected_time":1355000000000,"state":"active","ping":64},{"user_id":374,"name":"Ikalpo","steam_id":76561198044686915,"connected_time":8585000000000,"state":"active","ping":102},{"user_id":500,"name":"ScRoMpY","steam_id":76561198312058142,"connected_time":924000000000,"state":"active","ping":89},{"user_id":474,"name":"Pan Wizard","steam_id":76561198031939694,"connected_time":2394000000000,"state":"active","ping":86},{"user_id":469,"name":"kaputon","steam_id":76561198146299782,"connected_time":2609000000000,"state":"active","ping":63},{"user_id":503,"name":"retror","steam_id":76561198846863157,"connected_time":804000000000,"state":"active","ping":47},{"user_id":488,"name":"princess fern \u003c3333","steam_id":76561198881792140,"connected_time":1802000000000,"state":"active","ping":87},{"user_id":505,"name":"jeff","steam_id":76561198059450566,"connected_time":671000000000,"state":"active","ping":62}]},{"server_id":38,"name":"Uncletopia | Chicago | 7 | Stopwatch","name_short":"chi-7","host":"chi-2.us.uncletopia.com","port":27035,"enabled":true,"region":"us-central","cc":"us","latitude":41.881832,"longitude":-87.62318,"reserved":0,"last_update":"0001-01-01T00:00:00Z","name_a2s":"Uncletopia | Chicago | 7 | Stopwatch","protocol":17,"map":"workshop/koth_ashville_final.ugc2130459942","folder":"tf","game":"Team Fortress","app_id":440,"player_count":0,"max_players":24,"Bots":0,"server_type":"Dedicated","server_os":"Linux","password":true,"vac":true,"version":"7961495","steam_id":85568392924866364,"keywords":["cp","nocrits","nodmgspread","uncletopia"],"game_id":440,"stv_port":27036,"stv_name":"Uncletopia | Chicago | 7 | Stopwatch | STV","players":null},{"server_id":39,"name":"Uncletopia | Chicago | 8 | Community","name_short":"chi-8","host":"chi-2.us.uncletopia.com","port":27045,"enabled":true,"region":"us-central","cc":"us","latitude":41.881832,"longitude":-87.62318,"reserved":0,"last_update":"0001-01-01T00:00:00Z","name_a2s":"Uncletopia | Chicago | 8 | Community","protocol":17,"map":"pl_pier","folder":"tf","game":"Team Fortress","app_id":440,"player_count":0,"max_players":24,"Bots":0,"server_type":"Dedicated","server_os":"Linux","password":true,"vac":true,"version":"7961495","steam_id":85568392924866365,"keywords":["nocrits","nodmgspread","payload","uncletopia"],"game_id":440,"stv_port":27046,"stv_name":"Uncletopia | Chicago | 8 | Community | STV","players":null},{"server_id":8,"name":"Uncletopia | Dallas | 1 | All Maps","name_short":"dal-1","host":"dal-1.us.uncletopia.com","port":27015,"enabled":true,"region":"us-central","cc":"us","latitude":32.779167,"longitude":-96.80889,"reserved":0,"last_update":"0001-01-01T00:00:00Z","name_a2s":"Uncletopia | Dallas | 1 | All Maps","protocol":17,"map":"pl_borneo","folder":"tf","game":"Team Fortress","app_id":440,"player_count":24,"max_players":24,"Bots":0,"server_type":"Dedicated","server_os":"Linux","password":true,"vac":true,"version":"7961495","steam_id":85568392924469986,"keywords":["nocrits","nodmgspread","payload","uncletopia"],"game_id":440,"stv_port":27016,"stv_name":"Uncletopia | Dallas | 1 | All Maps | STV","players":[{"user_id":297,"name":"President Saget :)","steam_id":76561198071709455,"connected_time":3905000000000,"state":"active","ping":83},{"user_id":347,"name":"biggerbob1212","steam_id":76561198090078480,"connected_time":789000000000,"state":"active","ping":99},{"user_id":335,"name":"room temp IQ","steam_id":76561198018724712,"connected_time":1414000000000,"state":"active","ping":32},{"user_id":345,"name":"Matt","steam_id":76561198182639406,"connected_time":824000000000,"state":"active","ping":106},{"user_id":303,"name":"Chunk Stuffer","steam_id":76561198856508573,"connected_time":3518000000000,"state":"active","ping":37},{"user_id":305,"name":"Philo","steam_id":76561198061873341,"connected_time":3456000000000,"state":"active","ping":99},{"user_id":317,"name":"Boxpipe","steam_id":76561197964501915,"connected_time":2798000000000,"state":"active","ping":72},{"user_id":336,"name":"Stiffy Magnum","steam_id":76561198000036722,"connected_time":1248000000000,"state":"active","ping":89},{"user_id":354,"name":"Ridley","steam_id":76561198248615662,"connected_time":328000000000,"state":"active","ping":99},{"user_id":360,"name":"artichoke","steam_id":76561198980994364,"connected_time":125000000000,"state":"active","ping":107},{"user_id":356,"name":"Rob","steam_id":76561199187786660,"connected_time":274000000000,"state":"active","ping":54},{"user_id":321,"name":"Lancerland","steam_id":76561198130497320,"connected_time":2175000000000,"state":"active","ping":78},{"user_id":325,"name":"Wolffkran","steam_id":76561198003018041,"connected_time":2011000000000,"state":"active","ping":120},{"user_id":361,"name":"sloppenheimer","steam_id":76561198074678273,"connected_time":8000000000,"state":"active","ping":117},{"user_id":358,"name":"Silverkeys","steam_id":76561197986012496,"connected_time":218000000000,"state":"active","ping":86},{"user_id":285,"name":"Al'","steam_id":76561198105420574,"connected_time":4209000000000,"state":"active","ping":72},{"user_id":249,"name":"master_minion","steam_id":76561198170693990,"connected_time":5753000000000,"state":"active","ping":76},{"user_id":327,"name":"Selment","steam_id":76561198026489601,"connected_time":1728000000000,"state":"active","ping":69},{"user_id":343,"name":"gaspipe","steam_id":76561198046107745,"connected_time":903000000000,"state":"active","ping":96},{"user_id":351,"name":"killeroverscore123","steam_id":76561199168131321,"connected_time":594000000000,"state":"active","ping":80},{"user_id":353,"name":"yeeye","steam_id":76561198094306054,"connected_time":442000000000,"state":"active","ping":60},{"user_id":359,"name":"lego star wars on the psp","steam_id":76561198148014773,"connected_time":216000000000,"state":"active","ping":92},{"user_id":333,"name":"Bean Boy","steam_id":76561198279184347,"connected_time":1534000000000,"state":"active","ping":70},{"user_id":322,"name":"Brandon32204","steam_id":76561198031665291,"connected_time":2171000000000,"state":"active","ping":73}]},{"server_id":108,"name":"Uncletopia | Dallas | 2 | All Maps","name_short":"dal-2","host":"dal-1.us.uncletopia.com","port":27025,"enabled":true,"region":"us-central","cc":"us","latitude":32.779167,"longitude":-96.80889,"reserved":0,"last_update":"0001-01-01T00:00:00Z","name_a2s":"Uncletopia | Dallas | 2 | All Maps","protocol":17,"map":"cp_dustbowl","folder":"tf","game":"Team Fortress","app_id":440,"player_count":21,"max_players":24,"Bots":0,"server_type":"Dedicated","server_os":"Linux","password":true,"vac":true,"version":"7961495","steam_id":85568392924469988,"keywords":["cp","nocrits","nodmgspread","uncletopia"],"game_id":440,"stv_port":27026,"stv_name":"Uncletopia | Dallas | 2 | All Maps | STV","players":[{"user_id":294,"name":"Drained","steam_id":76561198081974528,"connected_time":2533000000000,"state":"active","ping":68},{"user_id":316,"name":"CombustibleToast","steam_id":76561198051358882,"connected_time":429000000000,"state":"active","ping":71},{"user_id":317,"name":"january","steam_id":76561198080921217,"connected_time":423000000000,"state":"active","ping":75},{"user_id":290,"name":"Karma","steam_id":76561198320530905,"connected_time":2721000000000,"state":"active","ping":49},{"user_id":256,"name":"PsychoGhoul","steam_id":76561198105201552,"connected_time":4539000000000,"state":"active","ping":85},{"user_id":304,"name":"leaving lunar orbit","steam_id":76561199085974120,"connected_time":1732000000000,"state":"active","ping":85},{"user_id":318,"name":"The Sydney Sleeper Itself","steam_id":76561198180251763,"connected_time":402000000000,"state":"active","ping":59},{"user_id":314,"name":"Manic","steam_id":76561198128149670,"connected_time":489000000000,"state":"active","ping":44},{"user_id":319,"name":"Rearranging furniture","steam_id":76561199054971009,"connected_time":379000000000,"state":"active","ping":51},{"user_id":310,"name":"doughboy","steam_id":76561198219012928,"connected_time":1038000000000,"state":"active","ping":76},{"user_id":305,"name":"Your Dad™","steam_id":76561198254739340,"connected_time":1687000000000,"state":"active","ping":73},{"user_id":315,"name":"webaline  =＾● ⋏ ●＾=","steam_id":76561199052450127,"connected_time":479000000000,"state":"active","ping":78},{"user_id":323,"name":"Discourse","steam_id":76561198984286678,"connected_time":134000000000,"state":"active","ping":84},{"user_id":325,"name":"Detrimental","steam_id":76561199152388008,"connected_time":78000000000,"state":"active","ping":84},{"user_id":292,"name":"gay porn","steam_id":76561198102454261,"connected_time":2704000000000,"state":"active","ping":86},{"user_id":321,"name":"shaquille oatmeal","steam_id":76561198044999104,"connected_time":158000000000,"state":"active","ping":75},{"user_id":324,"name":"leesh","steam_id":76561198079603938,"connected_time":90000000000,"state":"active","ping":62},{"user_id":326,"name":"Beach Bunny","steam_id":76561198865184390,"connected_time":73000000000,"state":"active","ping":62},{"user_id":307,"name":"Schnabel","steam_id":76561198226159564,"connected_time":1474000000000,"state":"active","ping":85},{"user_id":327,"name":"tail slap +36 (4d12+18)","steam_id":76561198040425096,"connected_time":34000000000,"state":"spawning","ping":120},{"user_id":308,"name":"The_Dominator47","steam_id":76561198170443759,"connected_time":1172000000000,"state":"active","ping":89}]},{"server_id":404,"name":"Uncletopia | Dallas | 3 | All Maps","name_short":"dal-3","host":"dal-1.us.uncletopia.com","port":27035,"enabled":true,"region":"us-central","cc":"us","latitude":32.779167,"longitude":-96.80889,"reserved":0,"last_update":"0001-01-01T00:00:00Z","name_a2s":"Uncletopia | Dallas | 3 | All Maps","protocol":17,"map":"pl_badwater","folder":"tf","game":"Team Fortress","app_id":440,"player_count":24,"max_players":24,"Bots":0,"server_type":"Dedicated","server_os":"Linux","password":true,"vac":true,"version":"7961495","steam_id":85568392924515219,"keywords":["nocrits","nodmgspread","payload","uncletopia"],"game_id":440,"stv_port":27036,"stv_name":"Uncletopia | Dallas | 3 | All Maps | STV","players":[{"user_id":67,"name":"MeatShield 2000","steam_id":76561199375192850,"connected_time":904000000000,"state":"active","ping":115},{"user_id":53,"name":"Kip_skunky","steam_id":76561198084721531,"connected_time":1387000000000,"state":"active","ping":71},{"user_id":43,"name":"AnimeHjonker989","steam_id":76561199122139727,"connected_time":2039000000000,"state":"active","ping":61},{"user_id":68,"name":"bengineer","steam_id":76561198171912174,"connected_time":872000000000,"state":"active","ping":102},{"user_id":69,"name":"too funky ᗜˬᗜ","steam_id":76561199120399776,"connected_time":866000000000,"state":"active","ping":94},{"user_id":70,"name":"Jokerz","steam_id":76561199453766677,"connected_time":864000000000,"state":"active","ping":74},{"user_id":71,"name":"butterthoughts","steam_id":76561198025120284,"connected_time":852000000000,"state":"active","ping":86},{"user_id":44,"name":"Joe For Mayor","steam_id":76561198399003970,"connected_time":2018000000000,"state":"active","ping":78},{"user_id":56,"name":"Juicemelon","steam_id":76561199123714017,"connected_time":1231000000000,"state":"active","ping":99},{"user_id":73,"name":"njkni","steam_id":76561199061380038,"connected_time":785000000000,"state":"active","ping":74},{"user_id":45,"name":"Soapbar","steam_id":76561198081714169,"connected_time":2000000000000,"state":"active","ping":94},{"user_id":74,"name":"_Ati","steam_id":76561198339777801,"connected_time":778000000000,"state":"active","ping":90},{"user_id":47,"name":"captengreen789","steam_id":76561199210416968,"connected_time":1822000000000,"state":"active","ping":72},{"user_id":54,"name":"Scut","steam_id":76561198973734291,"connected_time":1369000000000,"state":"active","ping":92},{"user_id":52,"name":"Ciaphas Cain","steam_id":76561198185598330,"connected_time":1484000000000,"state":"active","ping":100},{"user_id":78,"name":"Ninjegeabey","steam_id":76561198217717789,"connected_time":742000000000,"state":"active","ping":68},{"user_id":63,"name":"yalu","steam_id":76561198224811504,"connected_time":1145000000000,"state":"active","ping":66},{"user_id":83,"name":"MensRightsActivist","steam_id":76561199482149729,"connected_time":173000000000,"state":"active","ping":81},{"user_id":82,"name":"forklift circumcised","steam_id":76561198278756087,"connected_time":221000000000,"state":"active","ping":90},{"user_id":76,"name":"Drilly22","steam_id":76561198068838338,"connected_time":776000000000,"state":"active","ping":69},{"user_id":66,"name":"ECCO","steam_id":76561198002821513,"connected_time":1108000000000,"state":"active","ping":91},{"user_id":81,"name":"???","steam_id":76561198200155343,"connected_time":226000000000,"state":"active","ping":45},{"user_id":64,"name":"Jeramosa","steam_id":76561198811000094,"connected_time":1131000000000,"state":"active","ping":74},{"user_id":77,"name":"TacoMan4Life","steam_id":76561198832562728,"connected_time":771000000000,"state":"active","ping":95}]},{"server_id":405,"name":"Uncletopia | Dallas | 4 | Community","name_short":"dal-4","host":"dal-1.us.uncletopia.com","port":27045,"enabled":true,"region":"us-central","cc":"us","latitude":32.779167,"longitude":-96.80889,"reserved":0,"last_update":"0001-01-01T00:00:00Z","name_a2s":"Uncletopia | Dallas | 4 | Community","protocol":17,"map":"workshop/pl_barnblitz_pro7.ugc582280235","folder":"tf","game":"Team Fortress","app_id":440,"player_count":0,"max_players":24,"Bots":0,"server_type":"Dedicated","server_os":"Linux","password":true,"vac":true,"version":"7961495","steam_id":85568392924515220,"keywords":["nocrits","nodmgspread","payload","uncletopia"],"game_id":440,"stv_port":27046,"stv_name":"Uncletopia | Dallas | 4 | Community | STV","players":null},{"server_id":5,"name":"Uncletopia | Frankfurt | 1 | All Maps","name_short":"frk-1","host":"frk-1.de.uncletopia.com","port":27015,"enabled":true,"region":"eu","cc":"de","latitude":50.110924,"longitude":8.682127,"reserved":0,"last_update":"0001-01-01T00:00:00Z","name_a2s":"Uncletopia | Frankfurt | 1 | All Maps","protocol":17,"map":"koth_cascade","folder":"tf","game":"Team Fortress","app_id":440,"player_count":0,"max_players":24,"Bots":0,"server_type":"Dedicated","server_os":"Linux","password":true,"vac":true,"version":"7961495","steam_id":85568392924469989,"keywords":["cp","nocrits","nodmgspread","uncletopia"],"game_id":440,"stv_port":27016,"stv_name":"Uncletopia | Frankfurt | 1 | All Maps | STV","players":null},{"server_id":110,"name":"Uncletopia | Frankfurt | 2 | All Maps","name_short":"frk-2","host":"frk-1.de.uncletopia.com","port":27025,"enabled":true,"region":"eu","cc":"de","latitude":50.110924,"longitude":8.682127,"reserved":0,"last_update":"0001-01-01T00:00:00Z","name_a2s":"Uncletopia | Frankfurt | 2 | All Maps","protocol":17,"map":"pl_snowycoast","folder":"tf","game":"Team Fortress","app_id":440,"player_count":0,"max_players":24,"Bots":0,"server_type":"Dedicated","server_os":"Linux","password":true,"vac":true,"version":"7961495","steam_id":85568392924469990,"keywords":["nocrits","nodmgspread","payload","uncletopia"],"game_id":440,"stv_port":27026,"stv_name":"Uncletopia | Frankfurt | 2 | All Maps | STV","players":null},{"server_id":308,"name":"Uncletopia | Frankfurt | 3 | All Maps","name_short":"frk-3","host":"frk-1.de.uncletopia.com","port":27035,"enabled":true,"region":"eu","cc":"de","latitude":50.110924,"longitude":8.682127,"reserved":0,"last_update":"0001-01-01T00:00:00Z","name_a2s":"Uncletopia | Frankfurt | 3 | All Maps","protocol":17,"map":"koth_highpass","folder":"tf","game":"Team Fortress","app_id":440,"player_count":0,"max_players":24,"Bots":0,"server_type":"Dedicated","server_os":"Linux","password":true,"vac":true,"version":"7961495","steam_id":85568392924504274,"keywords":["cp","nocrits","nodmgspread","uncletopia"],"game_id":440,"stv_port":27036,"stv_name":"Uncletopia | Frankfurt | 3 | All Maps | STV","players":null},{"server_id":309,"name":"Uncletopia | Frankfurt | 4 | All Maps","name_short":"frk-4","host":"frk-1.de.uncletopia.com","port":27045,"enabled":true,"region":"eu","cc":"de","latitude":50.110924,"longitude":8.682127,"reserved":0,"last_update":"0001-01-01T00:00:00Z","name_a2s":"Uncletopia | Frankfurt | 4 | All Maps","protocol":17,"map":"pl_barnblitz","folder":"tf","game":"Team Fortress","app_id":440,"player_count":0,"max_players":24,"Bots":0,"server_type":"Dedicated","server_os":"Linux","password":true,"vac":true,"version":"7961495","steam_id":85568392924504275,"keywords":["nocrits","nodmgspread","payload","uncletopia"],"game_id":440,"stv_port":27046,"stv_name":"Uncletopia | Frankfurt | 4 | All Maps | STV","players":null},{"server_id":310,"name":"Uncletopia | Frankfurt | 5 | All Maps","name_short":"frk-5","host":"frk-1.de.uncletopia.com","port":27055,"enabled":true,"region":"eu","cc":"de","latitude":50.110924,"longitude":8.682127,"reserved":0,"last_update":"0001-01-01T00:00:00Z","name_a2s":"Uncletopia | Frankfurt | 5 | All Maps","protocol":17,"map":"pl_badwater","folder":"tf","game":"Team Fortress","app_id":440,"player_count":24,"max_players":24,"Bots":0,"server_type":"Dedicated","server_os":"Linux","password":true,"vac":true,"version":"7961495","steam_id":85568392924504277,"keywords":["nocrits","nodmgspread","payload","uncletopia"],"game_id":440,"stv_port":27056,"stv_name":"Uncletopia | Frankfurt | 5 | All Maps | STV","players":[{"user_id":449,"name":"frenchie","steam_id":76561198178298931,"connected_time":1490000000000,"state":"active","ping":51},{"user_id":457,"name":"scarecrowshelper","steam_id":76561198072260553,"connected_time":1260000000000,"state":"active","ping":44},{"user_id":441,"name":"joachym","steam_id":76561198428579761,"connected_time":1932000000000,"state":"active","ping":63},{"user_id":465,"name":"♂ Dungeon Master ♂","steam_id":76561198106441033,"connected_time":136000000000,"state":"active","ping":90},{"user_id":442,"name":"volkiano","steam_id":76561198319802031,"connected_time":1930000000000,"state":"active","ping":60},{"user_id":451,"name":"splarvis","steam_id":76561198007792525,"connected_time":1348000000000,"state":"active","ping":58},{"user_id":463,"name":"weezerfiend","steam_id":76561198163316273,"connected_time":493000000000,"state":"active","ping":79},{"user_id":454,"name":"KittyKate ❤","steam_id":76561198116340817,"connected_time":1303000000000,"state":"active","ping":61},{"user_id":464,"name":"Bluth Banana","steam_id":76561197997642178,"connected_time":482000000000,"state":"active","ping":70},{"user_id":460,"name":"GoatLord1","steam_id":76561198157964544,"connected_time":1212000000000,"state":"active","ping":60},{"user_id":375,"name":"speedy-heavy","steam_id":76561198124991468,"connected_time":6901000000000,"state":"active","ping":62},{"user_id":452,"name":"Mr_Pulse_","steam_id":76561198095001602,"connected_time":1342000000000,"state":"active","ping":86},{"user_id":453,"name":"JosepXXL","steam_id":76561198407124695,"connected_time":1324000000000,"state":"active","ping":91},{"user_id":429,"name":"STARRI","steam_id":76561198245784188,"connected_time":2581000000000,"state":"active","ping":62},{"user_id":417,"name":"tone","steam_id":76561197975301462,"connected_time":3828000000000,"state":"active","ping":74},{"user_id":430,"name":"EnragementGame","steam_id":76561198280376215,"connected_time":2576000000000,"state":"active","ping":141},{"user_id":455,"name":"BuzzBees ❤","steam_id":76561198101502273,"connected_time":1290000000000,"state":"active","ping":60},{"user_id":456,"name":"Tattletails","steam_id":76561198055690341,"connected_time":1270000000000,"state":"active","ping":73},{"user_id":433,"name":"Durin sein Vater","steam_id":76561198021246713,"connected_time":2485000000000,"state":"active","ping":44},{"user_id":420,"name":"Gioni","steam_id":76561198395912581,"connected_time":3549000000000,"state":"active","ping":107},{"user_id":434,"name":"Carl Gustav Jung","steam_id":76561198284558039,"connected_time":2434000000000,"state":"active","ping":78},{"user_id":436,"name":"Tea Follet","steam_id":76561198852408734,"connected_time":2404000000000,"state":"active","ping":102},{"user_id":458,"name":". . .","steam_id":76561198184360615,"connected_time":1258000000000,"state":"active","ping":89},{"user_id":459,"name":"amjugan","steam_id":76561198018488216,"connected_time":1242000000000,"state":"active","ping":143}]},{"server_id":311,"name":"Uncletopia | Frankfurt | 6 | All Maps","name_short":"frk-6","host":"frk-1.de.uncletopia.com","port":27065,"enabled":true,"region":"eu","cc":"de","latitude":50.110924,"longitude":8.682127,"reserved":0,"last_update":"0001-01-01T00:00:00Z","name_a2s":"Uncletopia | Frankfurt | 6 | All Maps","protocol":17,"map":"plr_pipeline","folder":"tf","game":"Team Fortress","app_id":440,"player_count":0,"max_players":24,"Bots":0,"server_type":"Dedicated","server_os":"Linux","password":true,"vac":true,"version":"7961495","steam_id":85568392924504278,"keywords":["nocrits","nodmgspread","payload","uncletopia"],"game_id":440,"stv_port":27066,"stv_name":"Uncletopia | Frankfurt | 6 | All Maps | STV","players":null},{"server_id":23,"name":"Uncletopia | Frankfurt | 7 | Stopwatch","name_short":"frk-7","host":"frk-1.de.uncletopia.com","port":27075,"enabled":true,"region":"eu","cc":"de","latitude":50.110924,"longitude":8.682127,"reserved":0,"last_update":"0001-01-01T00:00:00Z","name_a2s":"Uncletopia | Frankfurt | 7 | Stopwatch","protocol":17,"map":"workshop/koth_bagel_rc6.ugc2514036946","folder":"tf","game":"Team Fortress","app_id":440,"player_count":0,"max_players":24,"Bots":0,"server_type":"Dedicated","server_os":"Linux","password":true,"vac":true,"version":"7961495","steam_id":85568392924742827,"keywords":["cp","nocrits","nodmgspread","uncletopia"],"game_id":440,"stv_port":27076,"stv_name":"Uncletopia | Frankfurt | 7 | Stopwatch | STV","players":null},{"server_id":24,"name":"Uncletopia | Frankfurt | 8 | Community","name_short":"frk-8","host":"frk-1.de.uncletopia.com","port":27085,"enabled":true,"region":"eu","cc":"de","latitude":50.110924,"longitude":8.682127,"reserved":0,"last_update":"0001-01-01T00:00:00Z","name_a2s":"Uncletopia | Frankfurt | 8 | Community","protocol":17,"map":"workshop/koth_kemptown_rc1.ugc767410655","folder":"tf","game":"Team Fortress","app_id":440,"player_count":0,"max_players":24,"Bots":0,"server_type":"Dedicated","server_os":"Linux","password":true,"vac":true,"version":"7961495","steam_id":85568392924742828,"keywords":["cp","nocrits","nodmgspread","uncletopia"],"game_id":440,"stv_port":27086,"stv_name":"Uncletopia | Frankfurt | 8 | Community | STV","players":null},{"server_id":202,"name":"Uncletopia | Hong Kong | 1 | All Maps","name_short":"hgk-1","host":"hgk-1.hk.uncletopia.com","port":27015,"enabled":true,"region":"asia","cc":"hk","latitude":22.302711,"longitude":114.177216,"reserved":0,"last_update":"0001-01-01T00:00:00Z","name_a2s":"Uncletopia | Hong Kong | 1 | All Maps","protocol":17,"map":"pl_frontier_final","folder":"tf","game":"Team Fortress","app_id":440,"player_count":0,"max_players":24,"Bots":0,"server_type":"Dedicated","server_os":"Linux","password":true,"vac":true,"version":"7961495","steam_id":85568392924494504,"keywords":["nocrits","nodmgspread","payload","uncletopia"],"game_id":440,"stv_port":27016,"stv_name":"Uncletopia | Hong Kong | 1 | All Maps | STV","players":null},{"server_id":1,"name":"Uncletopia | Los Angeles | 1 | All Maps","name_short":"lax-1","host":"lax-1.us.uncletopia.com","port":27015,"enabled":true,"region":"us-west","cc":"us","latitude":33.94279,"longitude":-118.41004,"reserved":0,"last_update":"0001-01-01T00:00:00Z","name_a2s":"Uncletopia | Los Angeles | 1 | All Maps","protocol":17,"map":"pl_pier","folder":"tf","game":"Team Fortress","app_id":440,"player_count":21,"max_players":24,"Bots":0,"server_type":"Dedicated","server_os":"Linux","password":true,"vac":true,"version":"7961495","steam_id":85568392924469991,"keywords":["nocrits","nodmgspread","payload","uncletopia"],"game_id":440,"stv_port":27016,"stv_name":"Uncletopia | Los Angeles | 1 | All Maps | STV","players":[{"user_id":52,"name":"moe","steam_id":76561198929586245,"connected_time":334000000000,"state":"active","ping":36},{"user_id":32,"name":"Buswolley","steam_id":76561197995205571,"connected_time":1718000000000,"state":"active","ping":53},{"user_id":33,"name":":skull:","steam_id":76561199122005388,"connected_time":1615000000000,"state":"active","ping":59},{"user_id":22,"name":"Youngblood5780","steam_id":76561198113934410,"connected_time":2600000000000,"state":"active","ping":67},{"user_id":20,"name":"Soupy Meal","steam_id":76561199056842761,"connected_time":3234000000000,"state":"active","ping":53},{"user_id":54,"name":"Borked","steam_id":76561197984964095,"connected_time":224000000000,"state":"active","ping":58},{"user_id":23,"name":"Mr lazy pants 72","steam_id":76561198396412589,"connected_time":2193000000000,"state":"active","ping":101},{"user_id":55,"name":"Mallow Marsh","steam_id":76561199062007067,"connected_time":220000000000,"state":"active","ping":82},{"user_id":25,"name":"ACK","steam_id":76561198130390689,"connected_time":2115000000000,"state":"active","ping":67},{"user_id":56,"name":"Mugen","steam_id":76561198411174773,"connected_time":144000000000,"state":"active","ping":49},{"user_id":28,"name":"Leviathan","steam_id":76561198437699814,"connected_time":1990000000000,"state":"active","ping":65},{"user_id":30,"name":"knatspray","steam_id":76561198832507482,"connected_time":1867000000000,"state":"active","ping":82},{"user_id":35,"name":"Odd Life","steam_id":76561198244979998,"connected_time":1565000000000,"state":"active","ping":51},{"user_id":50,"name":"Jeffery","steam_id":76561198352805460,"connected_time":847000000000,"state":"active","ping":97},{"user_id":38,"name":"Joh Bags","steam_id":76561198097004438,"connected_time":1480000000000,"state":"active","ping":69},{"user_id":48,"name":"Master Of Whales","steam_id":76561198349104889,"connected_time":1186000000000,"state":"active","ping":59},{"user_id":42,"name":"new ZAland","steam_id":76561198433114405,"connected_time":1425000000000,"state":"active","ping":69},{"user_id":47,"name":"Keamy","steam_id":76561199471434875,"connected_time":1254000000000,"state":"active","ping":73},{"user_id":44,"name":"Username","steam_id":76561198198918781,"connected_time":1407000000000,"state":"active","ping":69},{"user_id":51,"name":"Eden","steam_id":76561198081284664,"connected_time":766000000000,"state":"active","ping":59},{"user_id":46,"name":"krootonitron","steam_id":76561198114113037,"connected_time":1371000000000,"state":"active","ping":54}]},{"server_id":112,"name":"Uncletopia | Los Angeles | 2 | All Maps","name_short":"lax-2","host":"lax-1.us.uncletopia.com","port":27025,"enabled":true,"region":"us-west","cc":"us","latitude":33.94279,"longitude":-118.41004,"reserved":0,"last_update":"0001-01-01T00:00:00Z","name_a2s":"Uncletopia | Los Angeles | 2 | All Maps","protocol":17,"map":"koth_viaduct","folder":"tf","game":"Team Fortress","app_id":440,"player_count":24,"max_players":24,"Bots":0,"server_type":"Dedicated","server_os":"Linux","password":true,"vac":true,"version":"7961495","steam_id":85568392924469992,"keywords":["cp","nocrits","nodmgspread","uncletopia"],"game_id":440,"stv_port":27026,"stv_name":"Uncletopia | Los Angeles | 2 | All Maps | STV","players":[{"user_id":188,"name":"Curse of the Blackened Eye","steam_id":76561198097175164,"connected_time":666000000000,"state":"active","ping":129},{"user_id":164,"name":"Mud Goblin","steam_id":76561198839118505,"connected_time":2794000000000,"state":"active","ping":73},{"user_id":185,"name":"heavy tf2 gaming","steam_id":76561198069760139,"connected_time":889000000000,"state":"active","ping":73},{"user_id":186,"name":"dP | I'm in a Wookie Suit","steam_id":76561198083307644,"connected_time":874000000000,"state":"active","ping":84},{"user_id":165,"name":"Gabe","steam_id":76561198081153719,"connected_time":2785000000000,"state":"active","ping":65},{"user_id":201,"name":"Poundcake","steam_id":76561198042196918,"connected_time":315000000000,"state":"active","ping":86},{"user_id":155,"name":"Midnight-ag","steam_id":76561198115714484,"connected_time":3252000000000,"state":"active","ping":91},{"user_id":182,"name":"Underscorn","steam_id":76561198374209415,"connected_time":1458000000000,"state":"active","ping":96},{"user_id":187,"name":"Sizenberg","steam_id":76561198115842661,"connected_time":858000000000,"state":"active","ping":121},{"user_id":181,"name":"thumb","steam_id":76561198353762582,"connected_time":1546000000000,"state":"active","ping":69},{"user_id":189,"name":"Balloon","steam_id":76561198068498829,"connected_time":654000000000,"state":"active","ping":95},{"user_id":190,"name":"bronkie2","steam_id":76561198123076374,"connected_time":635000000000,"state":"active","ping":103},{"user_id":191,"name":"Aglovail","steam_id":76561198276988844,"connected_time":601000000000,"state":"active","ping":61},{"user_id":202,"name":"Gerbias","steam_id":76561198001002427,"connected_time":315000000000,"state":"active","ping":63},{"user_id":167,"name":"Who","steam_id":76561198013049671,"connected_time":2708000000000,"state":"active","ping":49},{"user_id":193,"name":"Sleepy Bunny","steam_id":76561198069870490,"connected_time":586000000000,"state":"active","ping":90},{"user_id":163,"name":"Johni3FireFly","steam_id":76561198089760607,"connected_time":2858000000000,"state":"active","ping":59},{"user_id":203,"name":"chicken on quack","steam_id":76561199235538552,"connected_time":284000000000,"state":"active","ping":68},{"user_id":208,"name":"Blue Banana","steam_id":76561198100077411,"connected_time":10000000000,"state":"spawning","ping":45},{"user_id":196,"name":"Bcuz","steam_id":76561197981318027,"connected_time":531000000000,"state":"active","ping":69},{"user_id":205,"name":"dave strider","steam_id":76561198065112186,"connected_time":264000000000,"state":"active","ping":72},{"user_id":197,"name":"Ice","steam_id":76561198045076794,"connected_time":529000000000,"state":"active","ping":103},{"user_id":206,"name":"sabre","steam_id":76561198108685037,"connected_time":256000000000,"state":"active","ping":77},{"user_id":199,"name":"trackftv","steam_id":76561198036488706,"connected_time":520000000000,"state":"active","ping":53}]},{"server_id":324,"name":"Uncletopia | Los Angeles | 3 | All Maps","name_short":"lax-3","host":"lax-1.us.uncletopia.com","port":27035,"enabled":true,"region":"us-west","cc":"us","latitude":33.94279,"longitude":-118.41004,"reserved":0,"last_update":"0001-01-01T00:00:00Z","name_a2s":"Uncletopia | Los Angeles | 3 | All Maps","protocol":17,"map":"pl_snowycoast","folder":"tf","game":"Team Fortress","app_id":440,"player_count":0,"max_players":24,"Bots":0,"server_type":"Dedicated","server_os":"Linux","password":true,"vac":true,"version":"7961495","steam_id":85568392924510198,"keywords":["nocrits","nodmgspread","payload","uncletopia"],"game_id":440,"stv_port":27036,"stv_name":"Uncletopia | Los Angeles | 3 | All Maps | STV","players":null},{"server_id":25,"name":"Uncletopia | Los Angeles | 4 | Stopwatch","name_short":"lax-4","host":"lax-1.us.uncletopia.com","port":27045,"enabled":true,"region":"us-west","cc":"us","latitude":33.94279,"longitude":-118.41004,"reserved":0,"last_update":"0001-01-01T00:00:00Z","name_a2s":"Uncletopia | Los Angeles | 4 | Stopwatch","protocol":17,"map":"workshop/koth_ramjam_rc1.ugc459778887","folder":"tf","game":"Team Fortress","app_id":440,"player_count":0,"max_players":24,"Bots":0,"server_type":"Dedicated","server_os":"Linux","password":true,"vac":true,"version":"7961495","steam_id":85568392924510199,"keywords":["cp","nocrits","nodmgspread","uncletopia"],"game_id":440,"stv_port":27046,"stv_name":"Uncletopia | Los Angeles | 4 | Stopwatch | STV","players":null},{"server_id":11,"name":"Uncletopia | London | 1 | All Maps","name_short":"lon-1","host":"lon-1.uk.uncletopia.com","port":27015,"enabled":true,"region":"eu","cc":"gb","latitude":51.509865,"longitude":-0.118092,"reserved":0,"last_update":"0001-01-01T00:00:00Z","name_a2s":"Uncletopia | London | 1 | All Maps","protocol":17,"map":"pl_hoodoo_final","folder":"tf","game":"Team Fortress","app_id":440,"player_count":24,"max_players":24,"Bots":0,"server_type":"Dedicated","server_os":"Linux","password":true,"vac":true,"version":"7961495","steam_id":85568392924367362,"keywords":["nocrits","nodmgspread","payload","uncletopia"],"game_id":440,"stv_port":27016,"stv_name":"Uncletopia | London | 1 | All Maps | STV","players":[{"user_id":662,"name":"Xeronuclear","steam_id":76561198167712775,"connected_time":1030000000000,"state":"active","ping":50},{"user_id":671,"name":"Sinnamonsters","steam_id":76561198423422354,"connected_time":88000000000,"state":"active","ping":138},{"user_id":644,"name":"Tichy☆","steam_id":76561198026218934,"connected_time":1608000000000,"state":"active","ping":61},{"user_id":645,"name":"Zerwee","steam_id":76561198181368101,"connected_time":1592000000000,"state":"active","ping":62},{"user_id":614,"name":"snus","steam_id":76561198046716430,"connected_time":5784000000000,"state":"active","ping":52},{"user_id":632,"name":"Deformed Gollum","steam_id":76561198155563589,"connected_time":2657000000000,"state":"active","ping":48},{"user_id":660,"name":"Glad","steam_id":76561198093397695,"connected_time":1157000000000,"state":"active","ping":90},{"user_id":650,"name":"caramelldancin'","steam_id":76561198193357946,"connected_time":1384000000000,"state":"active","ping":100},{"user_id":646,"name":"fikafika","steam_id":76561198037517223,"connected_time":1573000000000,"state":"active","ping":85},{"user_id":654,"name":"[10thAL] Ballix","steam_id":76561198217495645,"connected_time":1325000000000,"state":"active","ping":52},{"user_id":656,"name":"vug","steam_id":76561198042227249,"connected_time":1227000000000,"state":"active","ping":57},{"user_id":651,"name":"Keke","steam_id":76561198042032908,"connected_time":1384000000000,"state":"active","ping":76},{"user_id":664,"name":"Donac Dum","steam_id":76561198064089294,"connected_time":931000000000,"state":"active","ping":52},{"user_id":577,"name":"dec","steam_id":76561198009660168,"connected_time":10163000000000,"state":"active","ping":47},{"user_id":552,"name":"Sherlock Bond","steam_id":76561198042045955,"connected_time":14265000000000,"state":"active","ping":49},{"user_id":652,"name":"ScampSixteen","steam_id":76561198021771000,"connected_time":1349000000000,"state":"active","ping":53},{"user_id":606,"name":"Mega","steam_id":76561197970389664,"connected_time":6265000000000,"state":"active","ping":51},{"user_id":665,"name":"chum","steam_id":76561198324048855,"connected_time":929000000000,"state":"active","ping":52},{"user_id":666,"name":"bitkomet","steam_id":76561198058232147,"connected_time":911000000000,"state":"active","ping":77},{"user_id":667,"name":"Severeburrito16","steam_id":76561198353155991,"connected_time":911000000000,"state":"active","ping":123},{"user_id":661,"name":"Smokey Boi","steam_id":76561198018739392,"connected_time":1153000000000,"state":"active","ping":71},{"user_id":670,"name":"✪ Danny","steam_id":76561198104483241,"connected_time":788000000000,"state":"active","ping":53},{"user_id":629,"name":"BigFudge","steam_id":76561199403590127,"connected_time":3358000000000,"state":"active","ping":69},{"user_id":636,"name":"Level 1 Noob","steam_id":76561198088586340,"connected_time":2188000000000,"state":"active","ping":57}]},{"server_id":114,"name":"Uncletopia | London | 2 | All Maps","name_short":"lon-2","host":"lon-1.uk.uncletopia.com","port":27025,"enabled":true,"region":"eu","cc":"gb","latitude":51.509865,"longitude":-0.118092,"reserved":0,"last_update":"0001-01-01T00:00:00Z","name_a2s":"Uncletopia | London | 2 | All Maps","protocol":17,"map":"pl_pier","folder":"tf","game":"Team Fortress","app_id":440,"player_count":24,"max_players":24,"Bots":0,"server_type":"Dedicated","server_os":"Linux","password":true,"vac":true,"version":"7961495","steam_id":85568392924470941,"keywords":["nocrits","nodmgspread","payload","uncletopia"],"game_id":440,"stv_port":27026,"stv_name":"Uncletopia | London | 2 | All Maps | STV","players":[{"user_id":900,"name":"Lewy","steam_id":76561198051795513,"connected_time":2023000000000,"state":"active","ping":83},{"user_id":880,"name":"Yelowchy","steam_id":76561198199416121,"connected_time":3054000000000,"state":"active","ping":67},{"user_id":910,"name":"stun","steam_id":76561198276681691,"connected_time":750000000000,"state":"active","ping":45},{"user_id":908,"name":"Ishbel","steam_id":76561198211990879,"connected_time":886000000000,"state":"active","ping":58},{"user_id":869,"name":"Finem Belli","steam_id":76561198227177976,"connected_time":3512000000000,"state":"active","ping":46},{"user_id":915,"name":"Mammut","steam_id":76561198056773933,"connected_time":682000000000,"state":"active","ping":60},{"user_id":838,"name":"ywyw","steam_id":76561198088624259,"connected_time":5468000000000,"state":"active","ping":64},{"user_id":904,"name":"Szymi Burger Dowóz","steam_id":76561198039000112,"connected_time":1749000000000,"state":"active","ping":86},{"user_id":853,"name":"Jonno","steam_id":76561198023443744,"connected_time":5261000000000,"state":"active","ping":54},{"user_id":888,"name":"tone'","steam_id":76561198055552635,"connected_time":2541000000000,"state":"active","ping":58},{"user_id":907,"name":"WASD","steam_id":76561198278640702,"connected_time":991000000000,"state":"active","ping":75},{"user_id":901,"name":"remi, she wrote.","steam_id":76561198044045655,"connected_time":1986000000000,"state":"active","ping":85},{"user_id":879,"name":"QameI","steam_id":76561198251229496,"connected_time":3267000000000,"state":"active","ping":72},{"user_id":913,"name":"DuneRaisin","steam_id":76561198130491545,"connected_time":723000000000,"state":"active","ping":58},{"user_id":841,"name":"AkioTohru","steam_id":76561198197606282,"connected_time":5430000000000,"state":"active","ping":41},{"user_id":914,"name":"nebuden","steam_id":76561198307037169,"connected_time":708000000000,"state":"active","ping":59},{"user_id":909,"name":"0xb0","steam_id":76561198167209059,"connected_time":806000000000,"state":"active","ping":72},{"user_id":917,"name":"DistantJragon","steam_id":76561198117563641,"connected_time":382000000000,"state":"active","ping":127},{"user_id":890,"name":"abdpocoyo","steam_id":76561198094321481,"connected_time":2481000000000,"state":"active","ping":68},{"user_id":902,"name":"Proud Jojo Fan #TF2SP","steam_id":76561198847327216,"connected_time":1963000000000,"state":"active","ping":74},{"user_id":860,"name":"Brian","steam_id":76561198077756206,"connected_time":4243000000000,"state":"active","ping":39},{"user_id":892,"name":"CEO of Racism","steam_id":76561198042317958,"connected_time":2328000000000,"state":"active","ping":67},{"user_id":906,"name":"_420_StopItDudeCmon","steam_id":76561197997146481,"connected_time":1581000000000,"state":"active","ping":49},{"user_id":878,"name":"NovaEngineer","steam_id":76561199187304864,"connected_time":3352000000000,"state":"active","ping":68}]},{"server_id":320,"name":"Uncletopia | London | 3 | All Maps","name_short":"lon-3","host":"lon-1.uk.uncletopia.com","port":27035,"enabled":true,"region":"eu","cc":"gb","latitude":51.509865,"longitude":-0.118092,"reserved":0,"last_update":"0001-01-01T00:00:00Z","name_a2s":"Uncletopia | London | 3 | All Maps","protocol":17,"map":"pl_barnblitz","folder":"tf","game":"Team Fortress","app_id":440,"player_count":24,"max_players":24,"Bots":0,"server_type":"Dedicated","server_os":"Linux","password":true,"vac":true,"version":"7961495","steam_id":85568392924510192,"keywords":["nocrits","nodmgspread","payload","uncletopia"],"game_id":440,"stv_port":27036,"stv_name":"Uncletopia | London | 3 | All Maps | STV","players":[{"user_id":623,"name":"M.C.Mcmuffins","steam_id":76561198068225535,"connected_time":4367000000000,"state":"active","ping":51},{"user_id":618,"name":"Michał","steam_id":76561198320346362,"connected_time":5029000000000,"state":"active","ping":120},{"user_id":678,"name":"BELADIT","steam_id":76561198011911501,"connected_time":1216000000000,"state":"active","ping":79},{"user_id":689,"name":"koziol","steam_id":76561198014716232,"connected_time":634000000000,"state":"active","ping":72},{"user_id":665,"name":"Fifibat","steam_id":76561198132981027,"connected_time":2052000000000,"state":"active","ping":101},{"user_id":702,"name":"bin","steam_id":76561198085163975,"connected_time":199000000000,"state":"active","ping":47},{"user_id":700,"name":"gibb (official)","steam_id":76561198074097655,"connected_time":353000000000,"state":"active","ping":65},{"user_id":701,"name":"V3rg","steam_id":76561198085293829,"connected_time":322000000000,"state":"active","ping":93},{"user_id":667,"name":"Ascended Noob","steam_id":76561198079411460,"connected_time":1927000000000,"state":"active","ping":53},{"user_id":683,"name":"Daemoxan","steam_id":76561199013109940,"connected_time":895000000000,"state":"active","ping":64},{"user_id":684,"name":"MortIssues","steam_id":76561198349302033,"connected_time":864000000000,"state":"active","ping":52},{"user_id":703,"name":"please do not the cat","steam_id":76561198089003514,"connected_time":107000000000,"state":"active","ping":50},{"user_id":686,"name":"aja","steam_id":76561198972253395,"connected_time":776000000000,"state":"active","ping":60},{"user_id":673,"name":"Moistie!!","steam_id":76561198989752113,"connected_time":1675000000000,"state":"active","ping":50},{"user_id":704,"name":"Tusho","steam_id":76561198115447383,"connected_time":79000000000,"state":"active","ping":75},{"user_id":688,"name":"♥boop","steam_id":76561198246136858,"connected_time":749000000000,"state":"active","ping":56},{"user_id":705,"name":"iron within, iron without","steam_id":76561199058337415,"connected_time":33000000000,"state":"active","ping":177},{"user_id":653,"name":"Economic crisis","steam_id":76561198063562843,"connected_time":2760000000000,"state":"active","ping":77},{"user_id":694,"name":"Lilliputt (escaped convict)","steam_id":76561198090146457,"connected_time":577000000000,"state":"active","ping":38},{"user_id":656,"name":"SparkyDoodles - Artist","steam_id":76561198060128235,"connected_time":2708000000000,"state":"active","ping":55},{"user_id":695,"name":"Przemomalin","steam_id":76561197987528170,"connected_time":553000000000,"state":"active","ping":74},{"user_id":706,"name":"sloppy transgirl toppy","steam_id":76561198057092208,"connected_time":30000000000,"state":"spawning","ping":74},{"user_id":697,"name":"CreepyYellowDuck","steam_id":76561198000479387,"connected_time":530000000000,"state":"active","ping":32},{"user_id":707,"name":"Doctor Marijuana","steam_id":76561198288289879,"connected_time":16000000000,"state":"active","ping":48}]},{"server_id":321,"name":"Uncletopia | London | 4 | All Maps","name_short":"lon-4","host":"lon-1.uk.uncletopia.com","port":27045,"enabled":true,"region":"eu","cc":"gb","latitude":51.509865,"longitude":-0.118092,"reserved":0,"last_update":"0001-01-01T00:00:00Z","name_a2s":"Uncletopia | London | 4 | All Maps","protocol":17,"map":"pl_pier","folder":"tf","game":"Team Fortress","app_id":440,"player_count":13,"max_players":24,"Bots":0,"server_type":"Dedicated","server_os":"Linux","password":true,"vac":true,"version":"7961495","steam_id":85568392924510193,"keywords":["nocrits","nodmgspread","payload","uncletopia"],"game_id":440,"stv_port":27046,"stv_name":"Uncletopia | London | 4 | All Maps | STV","players":[{"user_id":578,"name":"★Lily","steam_id":76561198014774371,"connected_time":1407000000000,"state":"active","ping":41},{"user_id":586,"name":"Batters🌸","steam_id":76561198927992205,"connected_time":238000000000,"state":"active","ping":53},{"user_id":588,"name":"Microwaved Burrito","steam_id":76561198055916647,"connected_time":88000000000,"state":"active","ping":43},{"user_id":589,"name":"Pudim The Gimbus Priest","steam_id":76561199076171761,"connected_time":66000000000,"state":"spawning","ping":251},{"user_id":454,"name":"Bobirulez","steam_id":76561198009125458,"connected_time":12842000000000,"state":"active","ping":72},{"user_id":590,"name":"x_o","steam_id":76561198170334258,"connected_time":63000000000,"state":"active","ping":80},{"user_id":567,"name":"Not Sussy Tanuki","steam_id":76561198137289375,"connected_time":2466000000000,"state":"active","ping":101},{"user_id":544,"name":"rob","steam_id":76561198122211848,"connected_time":5447000000000,"state":"active","ping":87},{"user_id":545,"name":"Lukullu","steam_id":76561198269414258,"connected_time":5329000000000,"state":"active","ping":77},{"user_id":587,"name":"Bart","steam_id":76561198276910428,"connected_time":209000000000,"state":"active","ping":83},{"user_id":501,"name":"Just Navlis (on the scoreboard)","steam_id":76561198090479609,"connected_time":9040000000000,"state":"active","ping":48},{"user_id":556,"name":"BenteBent","steam_id":76561198297920637,"connected_time":4058000000000,"state":"active","ping":35},{"user_id":538,"name":"Damn D. Aniel","steam_id":76561198106597458,"connected_time":5913000000000,"state":"active","ping":59}]},{"server_id":21,"name":"Uncletopia | London | 5 | All Maps","name_short":"lon-5","host":"lon-1.uk.uncletopia.com","port":27055,"enabled":true,"region":"eu","cc":"gb","latitude":51.509865,"longitude":-0.118092,"reserved":0,"last_update":"0001-01-01T00:00:00Z","name_a2s":"Uncletopia | London | 5 | All Maps","protocol":17,"map":"koth_lakeside_final","folder":"tf","game":"Team Fortress","app_id":440,"player_count":0,"max_players":24,"Bots":0,"server_type":"Dedicated","server_os":"Linux","password":true,"vac":true,"version":"7961495","steam_id":85568392924742829,"keywords":["cp","nocrits","nodmgspread","uncletopia"],"game_id":440,"stv_port":27056,"stv_name":"Uncletopia | London | 5 | All Maps | STV","players":null},{"server_id":22,"name":"Uncletopia | London | 6 | All Maps","name_short":"lon-6","host":"lon-1.uk.uncletopia.com","port":27065,"enabled":true,"region":"eu","cc":"gb","latitude":51.509865,"longitude":-0.118092,"reserved":0,"last_update":"0001-01-01T00:00:00Z","name_a2s":"Uncletopia | London | 6 | All Maps","protocol":17,"map":"pl_barnblitz","folder":"tf","game":"Team Fortress","app_id":440,"player_count":0,"max_players":24,"Bots":0,"server_type":"Dedicated","server_os":"Linux","password":true,"vac":true,"version":"7961495","steam_id":85568392924742830,"keywords":["nocrits","nodmgspread","payload","uncletopia"],"game_id":440,"stv_port":27066,"stv_name":"Uncletopia | London | 6 | All Maps | STV","players":null},{"server_id":40,"name":"Uncletopia | London | 7 | Stopwatch","name_short":"lon-7","host":"lon-1.uk.uncletopia.com","port":27075,"enabled":true,"region":"eu","cc":"gb","latitude":51.509865,"longitude":-0.118092,"reserved":0,"last_update":"0001-01-01T00:00:00Z","name_a2s":"Uncletopia | London | 7 | Stopwatch","protocol":17,"map":"workshop/koth_product_final.ugc454272353","folder":"tf","game":"Team Fortress","app_id":440,"player_count":0,"max_players":24,"Bots":0,"server_type":"Dedicated","server_os":"Linux","password":true,"vac":true,"version":"7961495","steam_id":85568392924964314,"keywords":["cp","nocrits","nodmgspread","uncletopia"],"game_id":440,"stv_port":27076,"stv_name":"Uncletopia | London | 7 | Stopwatch | STV","players":null},{"server_id":41,"name":"Uncletopia | London | 8 | Community","name_short":"lon-8","host":"lon-1.uk.uncletopia.com","port":27085,"enabled":true,"region":"eu","cc":"gb","latitude":51.509865,"longitude":-0.118092,"reserved":0,"last_update":"0001-01-01T00:00:00Z","name_a2s":"Uncletopia | London | 8 | Community","protocol":17,"map":"workshop/koth_trenchfoot_b1a.ugc731436616","folder":"tf","game":"Team Fortress","app_id":440,"player_count":0,"max_players":24,"Bots":0,"server_type":"Dedicated","server_os":"Linux","password":true,"vac":true,"version":"7961495","steam_id":85568392924964315,"keywords":["cp","nocrits","nodmgspread","uncletopia"],"game_id":440,"stv_port":27086,"stv_name":"Uncletopia | London | 8 | Community | STV","players":null},{"server_id":300,"name":"Uncletopia | Montréal | 1 | One Thousand Uncles","name_short":"mtl-1","host":"mtl-1.ca.uncletopia.com","port":27015,"enabled":true,"region":"us-east","cc":"ca","latitude":45.50889,"longitude":-73.56167,"reserved":0,"last_update":"0001-01-01T00:00:00Z","name_a2s":"","protocol":0,"map":"","folder":"","game":"","app_id":0,"player_count":7,"max_players":0,"Bots":0,"server_type":"","server_os":"","password":false,"vac":false,"version":"","steam_id":0,"keywords":null,"game_id":0,"stv_port":0,"stv_name":"","players":[{"user_id":198,"name":"Jade Jetts [She/They]","steam_id":76561198206130076,"connected_time":1870000000000,"state":"active","ping":119},{"user_id":196,"name":"JustNeo","steam_id":76561199086288085,"connected_time":2322000000000,"state":"active","ping":73},{"user_id":195,"name":"BIGGEST MAC","steam_id":76561198847517098,"connected_time":2351000000000,"state":"active","ping":74},{"user_id":199,"name":"DrMisteryous2","steam_id":76561198336307012,"connected_time":1389000000000,"state":"active","ping":166},{"user_id":171,"name":"concrete_car","steam_id":76561198388207363,"connected_time":3699000000000,"state":"active","ping":64},{"user_id":200,"name":"GorillaC","steam_id":76561199148314970,"connected_time":821000000000,"state":"active","ping":65},{"user_id":177,"name":"BinaryBitGamer[They/Them]","steam_id":76561198140761006,"connected_time":2548000000000,"state":"active","ping":59}]},{"server_id":301,"name":"Uncletopia | Montréal | 2 | One Thousand Uncles","name_short":"mtl-2","host":"mtl-1.ca.uncletopia.com","port":27025,"enabled":true,"region":"us-east","cc":"ca","latitude":45.50889,"longitude":-73.56167,"reserved":0,"last_update":"0001-01-01T00:00:00Z","name_a2s":"","protocol":0,"map":"","folder":"","game":"","app_id":0,"player_count":0,"max_players":0,"Bots":0,"server_type":"","server_os":"","password":false,"vac":false,"version":"","steam_id":0,"keywords":null,"game_id":0,"stv_port":0,"stv_name":"","players":null},{"server_id":302,"name":"Uncletopia | Montréal | 3 | One Thousand Uncles","name_short":"mtl-3","host":"mtl-1.ca.uncletopia.com","port":27035,"enabled":true,"region":"us-east","cc":"ca","latitude":45.50889,"longitude":-73.56167,"reserved":0,"last_update":"0001-01-01T00:00:00Z","name_a2s":"","protocol":0,"map":"","folder":"","game":"","app_id":0,"player_count":0,"max_players":0,"Bots":0,"server_type":"","server_os":"","password":false,"vac":false,"version":"","steam_id":0,"keywords":null,"game_id":0,"stv_port":0,"stv_name":"","players":null},{"server_id":13,"name":"Uncletopia | New York City | 1 | All Maps","name_short":"nyc-1","host":"nyc-1.us.uncletopia.com","port":27015,"enabled":true,"region":"us-east","cc":"us","latitude":40.73061,"longitude":-73.93524,"reserved":0,"last_update":"0001-01-01T00:00:00Z","name_a2s":"Uncletopia | New York City | 1 | All Maps","protocol":17,"map":"pl_borneo","folder":"tf","game":"Team Fortress","app_id":440,"player_count":24,"max_players":24,"Bots":0,"server_type":"Dedicated","server_os":"Linux","password":true,"vac":true,"version":"7961495","steam_id":85568392924469993,"keywords":["nocrits","nodmgspread","payload","uncletopia"],"game_id":440,"stv_port":27016,"stv_name":"Uncletopia | New York City | 1 | All Maps | STV","players":[{"user_id":247,"name":"Iridescity","steam_id":76561198081446822,"connected_time":104000000000,"state":"active","ping":83},{"user_id":245,"name":"drain.pablo.2005","steam_id":76561198303963691,"connected_time":565000000000,"state":"active","ping":74},{"user_id":154,"name":"penis atomizer 9000 🏳️?","steam_id":76561198864841966,"connected_time":7104000000000,"state":"active","ping":91},{"user_id":228,"name":"PoopBob","steam_id":76561198066733892,"connected_time":1824000000000,"state":"active","ping":70},{"user_id":249,"name":"Terminator69","steam_id":76561198809283651,"connected_time":57000000000,"state":"active","ping":44},{"user_id":210,"name":"Dann1526","steam_id":76561199121864838,"connected_time":2716000000000,"state":"active","ping":46},{"user_id":241,"name":"Primitive","steam_id":76561198060500671,"connected_time":794000000000,"state":"active","ping":35},{"user_id":221,"name":"One Confused Proton","steam_id":76561199372053610,"connected_time":2089000000000,"state":"active","ping":87},{"user_id":233,"name":"Xavi","steam_id":76561198337783795,"connected_time":1238000000000,"state":"active","ping":47},{"user_id":242,"name":"frid","steam_id":76561198005806915,"connected_time":770000000000,"state":"active","ping":75},{"user_id":212,"name":"JunThePanda","steam_id":76561198144029002,"connected_time":2665000000000,"state":"active","ping":92},{"user_id":239,"name":"Grundle Thunder","steam_id":76561197960790338,"connected_time":867000000000,"state":"active","ping":69},{"user_id":215,"name":"kikikikoboy","steam_id":76561198073380271,"connected_time":2438000000000,"state":"active","ping":77},{"user_id":213,"name":"Argo","steam_id":76561198353725622,"connected_time":2638000000000,"state":"active","ping":60},{"user_id":244,"name":"Cum Time™","steam_id":76561198003137065,"connected_time":586000000000,"state":"active","ping":54},{"user_id":217,"name":"Halley Rubicon","steam_id":76561198118948585,"connected_time":2321000000000,"state":"active","ping":52},{"user_id":232,"name":"mocolata","steam_id":76561198023757872,"connected_time":1639000000000,"state":"active","ping":84},{"user_id":230,"name":"Oatmeal","steam_id":76561199099745868,"connected_time":1765000000000,"state":"active","ping":44},{"user_id":220,"name":"the scamper","steam_id":76561199153963849,"connected_time":2152000000000,"state":"active","ping":82},{"user_id":248,"name":"Gremlin","steam_id":76561198435061144,"connected_time":100000000000,"state":"active","ping":53},{"user_id":235,"name":"EGGZO13","steam_id":76561199163466238,"connected_time":1082000000000,"state":"active","ping":159},{"user_id":224,"name":"Quincy99","steam_id":76561198381841894,"connected_time":2054000000000,"state":"active","ping":74},{"user_id":225,"name":"Peepster","steam_id":76561198297854733,"connected_time":2018000000000,"state":"active","ping":84},{"user_id":100,"name":"The Guy","steam_id":76561198799183693,"connected_time":10237000000000,"state":"active","ping":91}]},{"server_id":14,"name":"Uncletopia | New York City | 2 | All Maps","name_short":"nyc-2","host":"nyc-1.us.uncletopia.com","port":27025,"enabled":true,"region":"us-east","cc":"us","latitude":40.73061,"longitude":-73.93524,"reserved":0,"last_update":"0001-01-01T00:00:00Z","name_a2s":"Uncletopia | New York City | 2 | All Maps","protocol":17,"map":"ctf_turbine","folder":"tf","game":"Team Fortress","app_id":440,"player_count":24,"max_players":24,"Bots":0,"server_type":"Dedicated","server_os":"Linux","password":true,"vac":true,"version":"7961495","steam_id":85568392924469994,"keywords":["ctf","nocrits","nodmgspread","uncletopia"],"game_id":440,"stv_port":27026,"stv_name":"Uncletopia | New York City | 2 | All Maps | STV","players":[{"user_id":111,"name":"Big Bill Haywood","steam_id":76561198142290733,"connected_time":1503000000000,"state":"active","ping":54},{"user_id":112,"name":"Boy Smoocher","steam_id":76561199200969139,"connected_time":1485000000000,"state":"active","ping":123},{"user_id":127,"name":"Lavender","steam_id":76561198142770666,"connected_time":420000000000,"state":"active","ping":76},{"user_id":69,"name":"Canadian","steam_id":76561199104281653,"connected_time":5165000000000,"state":"active","ping":58},{"user_id":106,"name":"MiKE","steam_id":76561198073082983,"connected_time":2121000000000,"state":"active","ping":64},{"user_id":128,"name":"Baby Yae Extreme","steam_id":76561198983838790,"connected_time":365000000000,"state":"active","ping":78},{"user_id":122,"name":"Niλiwiλi, ▼iscount of ▼io","steam_id":76561198009193777,"connected_time":865000000000,"state":"active","ping":64},{"user_id":101,"name":"Nobody","steam_id":76561198286486517,"connected_time":2604000000000,"state":"active","ping":74},{"user_id":124,"name":"Newph","steam_id":76561198826359519,"connected_time":805000000000,"state":"active","ping":64},{"user_id":130,"name":"Urbanzpinapple","steam_id":76561198115426938,"connected_time":232000000000,"state":"active","ping":78},{"user_id":115,"name":"Skiddy","steam_id":76561198125942665,"connected_time":1417000000000,"state":"active","ping":105},{"user_id":77,"name":"Walmart Employee","steam_id":76561198840373909,"connected_time":4105000000000,"state":"active","ping":100},{"user_id":114,"name":"King Sans","steam_id":76561198294198517,"connected_time":1445000000000,"state":"active","ping":42},{"user_id":68,"name":"Haveltherock27","steam_id":76561199219844391,"connected_time":5228000000000,"state":"active","ping":74},{"user_id":73,"name":"Just a baby","steam_id":76561198018660838,"connected_time":4695000000000,"state":"active","ping":80},{"user_id":123,"name":"Lepo","steam_id":76561198383509659,"connected_time":865000000000,"state":"active","ping":98},{"user_id":118,"name":"Sebarko(Idk how to TF2)","steam_id":76561198853473934,"connected_time":1325000000000,"state":"active","ping":77},{"user_id":121,"name":"Bald Vegeta","steam_id":76561198844143746,"connected_time":1053000000000,"state":"active","ping":70},{"user_id":48,"name":"Great","steam_id":76561198895516433,"connected_time":6313000000000,"state":"active","ping":56},{"user_id":91,"name":"Frank The Fragger","steam_id":76561198088767519,"connected_time":3102000000000,"state":"active","ping":93},{"user_id":70,"name":".jpg","steam_id":76561198137237377,"connected_time":5116000000000,"state":"active","ping":62},{"user_id":107,"name":"Chris P. Bacon","steam_id":76561198000851038,"connected_time":2075000000000,"state":"active","ping":54},{"user_id":117,"name":"JaxsonBOOM","steam_id":76561198206566367,"connected_time":1375000000000,"state":"active","ping":58},{"user_id":72,"name":"Hobomunculus","steam_id":76561198210739144,"connected_time":4826000000000,"state":"active","ping":103}]},{"server_id":15,"name":"Uncletopia | New York City | 3 | Stopwatch","name_short":"nyc-3","host":"nyc-1.us.uncletopia.com","port":27035,"enabled":true,"region":"us-east","cc":"us","latitude":40.73061,"longitude":-73.93524,"reserved":0,"last_update":"0001-01-01T00:00:00Z","name_a2s":"Uncletopia | New York City | 3 | Stopwatch","protocol":17,"map":"pl_snowycoast","folder":"tf","game":"Team Fortress","app_id":440,"player_count":0,"max_players":24,"Bots":0,"server_type":"Dedicated","server_os":"Linux","password":true,"vac":true,"version":"7961495","steam_id":85568392924742820,"keywords":["nocrits","nodmgspread","payload","uncletopia"],"game_id":440,"stv_port":27036,"stv_name":"Uncletopia | New York City | 3 | Stopwatch | STV","players":null},{"server_id":16,"name":"Uncletopia | New York City | 4 | Community","name_short":"nyc-4","host":"nyc-1.us.uncletopia.com","port":27045,"enabled":true,"region":"us-east","cc":"us","latitude":40.73061,"longitude":-73.93524,"reserved":0,"last_update":"0001-01-01T00:00:00Z","name_a2s":"Uncletopia | New York City | 4 | Community","protocol":17,"map":"workshop/pl_eruption_b9a.ugc2807898013","folder":"tf","game":"Team Fortress","app_id":440,"player_count":0,"max_players":24,"Bots":0,"server_type":"Dedicated","server_os":"Linux","password":true,"vac":true,"version":"7961495","steam_id":85568392924742821,"keywords":["nocrits","nodmgspread","payload","uncletopia"],"game_id":440,"stv_port":27046,"stv_name":"Uncletopia | New York City | 4 | Community | STV","players":null},{"server_id":142,"name":"Uncletopia | São Paulo | 1 | All Maps","name_short":"sao-1","host":"sao-1.br.uncletopia.com","port":27015,"enabled":true,"region":"sa","cc":"br","latitude":-23.533773,"longitude":-46.62529,"reserved":0,"last_update":"0001-01-01T00:00:00Z","name_a2s":"Uncletopia | São Paulo | 1 | All Maps","protocol":17,"map":"pl_frontier_final","folder":"tf","game":"Team Fortress","app_id":440,"player_count":1,"max_players":24,"Bots":0,"server_type":"Dedicated","server_os":"Linux","password":true,"vac":true,"version":"7961495","steam_id":85568392924469996,"keywords":["nocrits","nodmgspread","payload","uncletopia"],"game_id":440,"stv_port":27016,"stv_name":"Uncletopia | São Paulo | 1 | All Maps | STV","players":[{"user_id":10,"name":"Miel","steam_id":76561199442213560,"connected_time":2274000000000,"state":"active","ping":86}]},{"server_id":143,"name":"Uncletopia | São Paulo | 2 | Community","name_short":"sao-2","host":"sao-2.br.uncletopia.com","port":27015,"enabled":true,"region":"sa","cc":"br","latitude":-23.533773,"longitude":-46.62529,"reserved":0,"last_update":"0001-01-01T00:00:00Z","name_a2s":"Uncletopia | São Paulo | 2 | Community","protocol":17,"map":"pl_badwater","folder":"tf","game":"Team Fortress","app_id":440,"player_count":0,"max_players":24,"Bots":0,"server_type":"Dedicated","server_os":"Linux","password":true,"vac":true,"version":"7961495","steam_id":85568392924485349,"keywords":["nocrits","nodmgspread","payload","uncletopia"],"game_id":440,"stv_port":27016,"stv_name":"Uncletopia | São Paulo | 2 | Community | STV","players":null},{"server_id":7,"name":"Uncletopia | Seattle | 1 | All Maps","name_short":"sea-1","host":"sea-1.us.uncletopia.com","port":27015,"enabled":true,"region":"us-west","cc":"us","latitude":47.608013,"longitude":-122.33517,"reserved":0,"last_update":"0001-01-01T00:00:00Z","name_a2s":"Uncletopia | Seattle | 1 | All Maps","protocol":17,"map":"pl_barnblitz","folder":"tf","game":"Team Fortress","app_id":440,"player_count":24,"max_players":24,"Bots":0,"server_type":"Dedicated","server_os":"Linux","password":true,"vac":true,"version":"7961495","steam_id":85568392924469997,"keywords":["nocrits","nodmgspread","payload","uncletopia"],"game_id":440,"stv_port":27016,"stv_name":"Uncletopia | Seattle | 1 | All Maps | STV","players":[{"user_id":391,"name":"worker","steam_id":76561198039608940,"connected_time":850000000000,"state":"active","ping":53},{"user_id":393,"name":"[TrC] Dackstrus","steam_id":76561197973518509,"connected_time":757000000000,"state":"active","ping":57},{"user_id":396,"name":"DeathcatThor","steam_id":76561199179982061,"connected_time":563000000000,"state":"active","ping":52},{"user_id":378,"name":"› Noir","steam_id":76561197977418994,"connected_time":1340000000000,"state":"active","ping":64},{"user_id":399,"name":"Person","steam_id":76561198073885832,"connected_time":159000000000,"state":"active","ping":68},{"user_id":336,"name":"my monitor is off","steam_id":76561198074499537,"connected_time":4628000000000,"state":"active","ping":63},{"user_id":390,"name":"Serenity Twilight","steam_id":76561198428518240,"connected_time":940000000000,"state":"active","ping":105},{"user_id":368,"name":"Vincent Van Bro","steam_id":76561197966919802,"connected_time":1982000000000,"state":"active","ping":43},{"user_id":400,"name":"Mer","steam_id":76561198192171041,"connected_time":117000000000,"state":"active","ping":157},{"user_id":363,"name":"CHIEF_JUSTICE_FUCKASS","steam_id":76561199261675844,"connected_time":2345000000000,"state":"active","ping":47},{"user_id":401,"name":"the man","steam_id":76561199103120314,"connected_time":110000000000,"state":"active","ping":74},{"user_id":360,"name":"gloobern","steam_id":76561198341190679,"connected_time":2401000000000,"state":"active","ping":54},{"user_id":394,"name":"TheTalentlessChicken","steam_id":76561198148390834,"connected_time":738000000000,"state":"active","ping":73},{"user_id":402,"name":"brian","steam_id":76561198192172411,"connected_time":86000000000,"state":"active","ping":74},{"user_id":383,"name":"io_est","steam_id":76561198079538952,"connected_time":1236000000000,"state":"active","ping":45},{"user_id":398,"name":"Mii Guest C, From Wii Sports","steam_id":76561198197964803,"connected_time":237000000000,"state":"active","ping":47},{"user_id":389,"name":"Seskova","steam_id":76561198090207032,"connected_time":1041000000000,"state":"active","ping":71},{"user_id":321,"name":"you just got dyked on","steam_id":76561198018977723,"connected_time":5832000000000,"state":"active","ping":52},{"user_id":372,"name":"Grill Skills","steam_id":76561198053575147,"connected_time":1613000000000,"state":"active","ping":42},{"user_id":369,"name":"MrYadaization","steam_id":76561198050770818,"connected_time":1980000000000,"state":"active","ping":52},{"user_id":397,"name":"[TrC] Nosy","steam_id":76561197978859310,"connected_time":438000000000,"state":"active","ping":58},{"user_id":386,"name":"Vroooooooooooooooom","steam_id":76561198139913628,"connected_time":1176000000000,"state":"active","ping":115},{"user_id":388,"name":"P.C. Baby","steam_id":76561198067011379,"connected_time":1089000000000,"state":"active","ping":62},{"user_id":379,"name":"Seriously Bruh","steam_id":76561198070408485,"connected_time":1311000000000,"state":"active","ping":54}]},{"server_id":119,"name":"Uncletopia | Seattle | 2 | All Maps","name_short":"sea-2","host":"sea-1.us.uncletopia.com","port":27025,"enabled":true,"region":"us-west","cc":"us","latitude":47.608013,"longitude":-122.33517,"reserved":0,"last_update":"0001-01-01T00:00:00Z","name_a2s":"Uncletopia | Seattle | 2 | All Maps","protocol":17,"map":"koth_viaduct","folder":"tf","game":"Team Fortress","app_id":440,"player_count":0,"max_players":24,"Bots":0,"server_type":"Dedicated","server_os":"Linux","password":true,"vac":true,"version":"7961495","steam_id":85568392924469998,"keywords":["cp","nocrits","nodmgspread","uncletopia"],"game_id":440,"stv_port":27026,"stv_name":"Uncletopia | Seattle | 2 | All Maps | STV","players":null},{"server_id":406,"name":"Uncletopia | Seattle | 3 | Stopwatch","name_short":"sea-3","host":"sea-1.us.uncletopia.com","port":27035,"enabled":true,"region":"us-west","cc":"us","latitude":47.608013,"longitude":-122.33517,"reserved":0,"last_update":"0001-01-01T00:00:00Z","name_a2s":"Uncletopia | Seattle | 3 | Stopwatch","protocol":17,"map":"cp_snakewater_final1","folder":"tf","game":"Team Fortress","app_id":440,"player_count":0,"max_players":24,"Bots":0,"server_type":"Dedicated","server_os":"Linux","password":true,"vac":true,"version":"7961495","steam_id":85568392924515217,"keywords":["cp","nocrits","nodmgspread","uncletopia"],"game_id":440,"stv_port":27036,"stv_name":"Uncletopia | Seattle | 3 | Stopwatch | STV","players":null},{"server_id":17,"name":"Uncletopia | San Francisco | 1 | All Maps","name_short":"sfo-1","host":"sfo-1.us.uncletopia.com","port":27015,"enabled":true,"region":"us-west","cc":"us","latitude":37.77397,"longitude":-122.4313,"reserved":0,"last_update":"0001-01-01T00:00:00Z","name_a2s":"Uncletopia | San Francisco | 1 | All Maps","protocol":17,"map":"ctf_2fort","folder":"tf","game":"Team Fortress","app_id":440,"player_count":0,"max_players":24,"Bots":0,"server_type":"Dedicated","server_os":"Linux","password":true,"vac":true,"version":"7961495","steam_id":85568392924469999,"keywords":["ctf","nocrits","nodmgspread","uncletopia"],"game_id":440,"stv_port":27016,"stv_name":"Uncletopia | San Francisco | 1 | All Maps | STV","players":null},{"server_id":18,"name":"Uncletopia | San Francisco | 2 | All Maps","name_short":"sfo-2","host":"sfo-1.us.uncletopia.com","port":27025,"enabled":true,"region":"us-west","cc":"us","latitude":37.77397,"longitude":-122.4313,"reserved":0,"last_update":"0001-01-01T00:00:00Z","name_a2s":"Uncletopia | San Francisco | 2 | All Maps","protocol":17,"map":"pl_barnblitz","folder":"tf","game":"Team Fortress","app_id":440,"player_count":0,"max_players":24,"Bots":0,"server_type":"Dedicated","server_os":"Linux","password":true,"vac":true,"version":"7961495","steam_id":85568392924470000,"keywords":["nocrits","nodmgspread","payload","uncletopia"],"game_id":440,"stv_port":27026,"stv_name":"Uncletopia | San Francisco | 2 | All Maps | STV","players":null},{"server_id":19,"name":"Uncletopia | San Francisco | 3 | Stopwatch","name_short":"sfo-3","host":"sfo-1.us.uncletopia.com","port":27035,"enabled":true,"region":"us-west","cc":"us","latitude":37.77397,"longitude":-122.4313,"reserved":0,"last_update":"0001-01-01T00:00:00Z","name_a2s":"Uncletopia | San Francisco | 3 | Stopwatch","protocol":17,"map":"pl_pier","folder":"tf","game":"Team Fortress","app_id":440,"player_count":0,"max_players":24,"Bots":0,"server_type":"Dedicated","server_os":"Linux","password":true,"vac":true,"version":"7961495","steam_id":85568392924742824,"keywords":["nocrits","nodmgspread","payload","uncletopia"],"game_id":440,"stv_port":27036,"stv_name":"Uncletopia | San Francisco | 3 | Stopwatch | STV","players":null},{"server_id":20,"name":"Uncletopia | San Francisco | 4 | Community","name_short":"sfo-4","host":"sfo-1.us.uncletopia.com","port":27045,"enabled":true,"region":"us-west","cc":"us","latitude":37.77397,"longitude":-122.4313,"reserved":0,"last_update":"0001-01-01T00:00:00Z","name_a2s":"Uncletopia | San Francisco | 4 | Community","protocol":17,"map":"pl_pier","folder":"tf","game":"Team Fortress","app_id":440,"player_count":0,"max_players":24,"Bots":0,"server_type":"Dedicated","server_os":"Linux","password":true,"vac":true,"version":"7961495","steam_id":85568392924742826,"keywords":["nocrits","nodmgspread","payload","uncletopia"],"game_id":440,"stv_port":27046,"stv_name":"Uncletopia | San Francisco | 4 | Community | STV","players":null},{"server_id":141,"name":"Uncletopia | Sydney | 1 | All Maps","name_short":"syd-1","host":"syd-1.au.uncletopia.com","port":27015,"enabled":true,"region":"au","cc":"au","latitude":-33.865143,"longitude":151.2099,"reserved":0,"last_update":"0001-01-01T00:00:00Z","name_a2s":"Uncletopia | Sydney | 1 | All Maps","protocol":17,"map":"koth_viaduct","folder":"tf","game":"Team Fortress","app_id":440,"player_count":0,"max_players":24,"Bots":0,"server_type":"Dedicated","server_os":"Linux","password":true,"vac":true,"version":"7961495","steam_id":85568392924470001,"keywords":["cp","nocrits","nodmgspread","uncletopia"],"game_id":440,"stv_port":27016,"stv_name":"Uncletopia | Sydney | 1 | All Maps | STV","players":null},{"server_id":123,"name":"Uncletopia | Sydney | 2 | All Maps","name_short":"syd-2","host":"syd-1.au.uncletopia.com","port":27025,"enabled":true,"region":"au","cc":"au","latitude":-33.865143,"longitude":151.2099,"reserved":0,"last_update":"0001-01-01T00:00:00Z","name_a2s":"Uncletopia | Sydney | 2 | All Maps","protocol":17,"map":"koth_lakeside_final","folder":"tf","game":"Team Fortress","app_id":440,"player_count":0,"max_players":24,"Bots":0,"server_type":"Dedicated","server_os":"Linux","password":true,"vac":true,"version":"7961495","steam_id":85568392924470002,"keywords":["cp","nocrits","nodmgspread","uncletopia"],"game_id":440,"stv_port":27026,"stv_name":"Uncletopia | Sydney | 2 | All Maps | STV","players":null},{"server_id":395,"name":"Uncletopia | Sydney | 3 | All Maps","name_short":"syd-3","host":"syd-1.au.uncletopia.com","port":27035,"enabled":true,"region":"au","cc":"au","latitude":-33.865143,"longitude":151.2099,"reserved":0,"last_update":"0001-01-01T00:00:00Z","name_a2s":"Uncletopia | Sydney | 3 | All Maps","protocol":17,"map":"pl_frontier_final","folder":"tf","game":"Team Fortress","app_id":440,"player_count":0,"max_players":24,"Bots":0,"server_type":"Dedicated","server_os":"Linux","password":true,"vac":true,"version":"7961495","steam_id":85568392925194467,"keywords":["nocrits","nodmgspread","payload","uncletopia"],"game_id":440,"stv_port":27036,"stv_name":"Uncletopia | Sydney | 3 | All Maps | STV","players":null},{"server_id":396,"name":"Uncletopia | Sydney | 4 | All Maps","name_short":"syd-4","host":"syd-1.au.uncletopia.com","port":27045,"enabled":true,"region":"au","cc":"au","latitude":-33.865143,"longitude":151.2099,"reserved":0,"last_update":"0001-01-01T00:00:00Z","name_a2s":"Uncletopia | Sydney | 4 | All Maps","protocol":17,"map":"cp_process_final","folder":"tf","game":"Team Fortress","app_id":440,"player_count":0,"max_players":24,"Bots":0,"server_type":"Dedicated","server_os":"Linux","password":true,"vac":true,"version":"7961495","steam_id":85568392925397958,"keywords":["cp","nocrits","nodmgspread","uncletopia"],"game_id":440,"stv_port":27046,"stv_name":"Uncletopia | Sydney | 4 | All Maps | STV","players":null},{"server_id":58,"name":"Uncletopia | Sydney | 5 | Stopwatch","name_short":"syd-5","host":"syd-1.au.uncletopia.com","port":27055,"enabled":true,"region":"au","cc":"au","latitude":-33.865143,"longitude":151.2099,"reserved":0,"last_update":"0001-01-01T00:00:00Z","name_a2s":"Uncletopia | Sydney | 5 | Stopwatch","protocol":17,"map":"pl_frontier_final","folder":"tf","game":"Team Fortress","app_id":440,"player_count":0,"max_players":24,"Bots":0,"server_type":"Dedicated","server_os":"Linux","password":true,"vac":true,"version":"7961495","steam_id":85568392925397959,"keywords":["nocrits","nodmgspread","payload","uncletopia"],"game_id":440,"stv_port":27056,"stv_name":"Uncletopia | Sydney | 5 | Stopwatch | STV","players":null},{"server_id":59,"name":"Uncletopia | Sydney | 6 | Community","name_short":"syd-6","host":"syd-1.au.uncletopia.com","port":27065,"enabled":true,"region":"au","cc":"au","latitude":-33.865143,"longitude":151.2099,"reserved":0,"last_update":"0001-01-01T00:00:00Z","name_a2s":"Uncletopia | Sydney | 6 | Community","protocol":17,"map":"workshop/rd_asteroid_redux_b1.ugc2154902912","folder":"tf","game":"Team Fortress","app_id":440,"player_count":0,"max_players":24,"Bots":0,"server_type":"Dedicated","server_os":"Linux","password":true,"vac":true,"version":"7961495","steam_id":85568392925397960,"keywords":["beta","nocrits","nodmgspread","rd","uncletopia"],"game_id":440,"stv_port":27066,"stv_name":"Uncletopia | Sydney | 6 | Community | STV","players":null},{"server_id":49,"name":"Uncletopia | Warsaw | 1 | One Thousand Uncles","name_short":"waw-1","host":"waw-1.pl.uncletopia.com","port":27015,"enabled":true,"region":"eu","cc":"pl","latitude":52.2297,"longitude":21.017532,"reserved":0,"last_update":"0001-01-01T00:00:00Z","name_a2s":"Uncletopia | Warsaw | 1 | One Thousand Uncles","protocol":17,"map":"cp_mercenarypark","folder":"tf","game":"Team Fortress","app_id":440,"player_count":19,"max_players":32,"Bots":16,"server_type":"Dedicated","server_os":"Linux","password":true,"vac":true,"version":"7961495","steam_id":85568392925397850,"keywords":["alltalk","bots","cp","danepve","increased_maxplayers","nocrits","norespawntime","uncletopia"],"game_id":440,"stv_port":0,"stv_name":"","players":[{"user_id":385,"name":"WolfyGamer21","steam_id":76561199148811704,"connected_time":1185000000000,"state":"active","ping":149},{"user_id":319,"name":"blackman.vbhop.2004","steam_id":76561198268384872,"connected_time":9438000000000,"state":"active","ping":87},{"user_id":320,"name":"Scout","steam_id":76561198992898803,"connected_time":9005000000000,"state":"active","ping":67}]},{"server_id":50,"name":"Uncletopia | Warsaw | 2 | One Thousand Uncles","name_short":"waw-2","host":"waw-1.pl.uncletopia.com","port":27025,"enabled":true,"region":"eu","cc":"pl","latitude":52.2297,"longitude":21.017532,"reserved":0,"last_update":"0001-01-01T00:00:00Z","name_a2s":"Uncletopia | Warsaw | 2 | One Thousand Uncles","protocol":17,"map":"pl_barnblitz","folder":"tf","game":"Team Fortress","app_id":440,"player_count":18,"max_players":32,"Bots":16,"server_type":"Dedicated","server_os":"Linux","password":true,"vac":true,"version":"7961495","steam_id":85568392925397851,"keywords":["alltalk","bots","danepve","increased_maxplayers","nocrits","norespawntime","payload","uncletopia"],"game_id":440,"stv_port":0,"stv_name":"","players":[{"user_id":154,"name":"Mischail","steam_id":76561198016127010,"connected_time":2862000000000,"state":"active","ping":88},{"user_id":135,"name":"meriones","steam_id":76561198034234373,"connected_time":3963000000000,"state":"active","ping":71}]},{"server_id":51,"name":"Uncletopia | Warsaw | 3 | All Maps","name_short":"waw-3","host":"waw-1.pl.uncletopia.com","port":27035,"enabled":true,"region":"eu","cc":"pl","latitude":52.2297,"longitude":21.017532,"reserved":0,"last_update":"0001-01-01T00:00:00Z","name_a2s":"Uncletopia | Warsaw | 3 | All Maps","protocol":17,"map":"koth_cascade","folder":"tf","game":"Team Fortress","app_id":440,"player_count":0,"max_players":24,"Bots":0,"server_type":"Dedicated","server_os":"Linux","password":true,"vac":true,"version":"7961495","steam_id":85568392925397852,"keywords":["cp","nocrits","nodmgspread","uncletopia"],"game_id":440,"stv_port":27036,"stv_name":"Uncletopia | Warsaw | 3 | All Maps | STV","players":null},{"server_id":52,"name":"Uncletopia | Warsaw | 4 | All Maps","name_short":"waw-4","host":"waw-1.pl.uncletopia.com","port":27045,"enabled":true,"region":"eu","cc":"pl","latitude":52.2297,"longitude":21.017532,"reserved":0,"last_update":"0001-01-01T00:00:00Z","name_a2s":"Uncletopia | Warsaw | 4 | All Maps","protocol":17,"map":"koth_highpass","folder":"tf","game":"Team Fortress","app_id":440,"player_count":0,"max_players":24,"Bots":0,"server_type":"Dedicated","server_os":"Linux","password":true,"vac":true,"version":"7961495","steam_id":85568392925397853,"keywords":["cp","nocrits","nodmgspread","uncletopia"],"game_id":440,"stv_port":27046,"stv_name":"Uncletopia | Warsaw | 4 | All Maps | STV","players":null},{"server_id":53,"name":"Uncletopia | Warsaw | 5 | Stopwatch","name_short":"waw-5","host":"waw-1.pl.uncletopia.com","port":27055,"enabled":true,"region":"eu","cc":"pl","latitude":52.2297,"longitude":21.017532,"reserved":0,"last_update":"0001-01-01T00:00:00Z","name_a2s":"Uncletopia | Warsaw | 5 | Stopwatch","protocol":17,"map":"workshop/pl_vigil_rc10.ugc1266210012","folder":"tf","game":"Team Fortress","app_id":440,"player_count":0,"max_players":24,"Bots":0,"server_type":"Dedicated","server_os":"Linux","password":true,"vac":true,"version":"7961495","steam_id":85568392925397854,"keywords":["nocrits","nodmgspread","payload","uncletopia"],"game_id":440,"stv_port":27056,"stv_name":"Uncletopia | Warsaw | 5 | Stopwatch | STV","players":null},{"server_id":54,"name":"Uncletopia | Warsaw | 6 | Community","name_short":"waw-6","host":"waw-1.pl.uncletopia.com","port":27065,"enabled":true,"region":"eu","cc":"pl","latitude":52.2297,"longitude":21.017532,"reserved":0,"last_update":"0001-01-01T00:00:00Z","name_a2s":"Uncletopia | Warsaw | 6 | Community","protocol":17,"map":"workshop/koth_slaughter_rc1.ugc1712845210","folder":"tf","game":"Team Fortress","app_id":440,"player_count":0,"max_players":24,"Bots":0,"server_type":"Dedicated","server_os":"Linux","password":true,"vac":true,"version":"7961495","steam_id":85568392925397856,"keywords":["cp","nocrits","nodmgspread","uncletopia"],"game_id":440,"stv_port":27066,"stv_name":"Uncletopia | Warsaw | 6 | Community | STV","players":null}]}