{"status":true,"message":"","result":[{"server_id":9,"name":"Uncletopia | Atlanta | 1 | All Maps","name_short":"atl-1","host":"atl-1.us.uncletopia.com","port":27015,"enabled":true,"region":"us-east","cc":"us","latitude":33.753746,"longitude":-84.38633,"reserved":0,"last_update":"0001-01-01T00:00:00Z","name_a2s":"Uncletopia | Atlanta | 1 | All Maps","protocol":17,"map":"pl_badwater","folder":"tf","game":"Team Fortress","app_id":440,"player_count":0,"max_players":24,"Bots":0,"server_type":"Dedicated","server_os":"Linux","password":true,"vac":true,"version":"7932396","steam_id":85568392924469982,"keywords":["nocrits","nodmgspread","payload","uncletopia"],"game_id":440,"stv_port":27016,"stv_name":"Uncletopia | Atlanta | 1 | All Maps | STV","players":null},{"server_id":104,"name":"Uncletopia | Atlanta | 2 | All Maps","name_short":"atl-2","host":"atl-1.us.uncletopia.com","port":27025,"enabled":true,"region":"us-east","cc":"us","latitude":33.753746,"longitude":-84.38633,"reserved":0,"last_update":"0001-01-01T00:00:00Z","name_a2s":"Uncletopia | Atlanta | 2 | All Maps","protocol":17,"map":"koth_viaduct","folder":"tf","game":"Team Fortress","app_id":440,"player_count":0,"max_players":24,"Bots":0,"server_type":"Dedicated","server_os":"Linux","password":true,"vac":true,"version":"7932396","steam_id":85568392924469983,"keywords":["cp","nocrits","nodmgspread","uncletopia"],"game_id":440,"stv_port":27026,"stv_name":"Uncletopia | Atlanta | 2 | All Maps | STV","players":null},{"server_id":400,"name":"Uncletopia | Atlanta | 3 | Community","name_short":"atl-3","host":"atl-1.us.uncletopia.com","port":27035,"enabled":true,"region":"us-east","cc":"us","latitude":33.753746,"longitude":-84.38633,"reserved":0,"last_update":"0001-01-01T00:00:00Z","name_a2s":"Uncletopia | Atlanta | 3 | Community","protocol":17,"map":"workshop/cp_hazyfort_rc6.ugc1365963729","folder":"tf","game":"Team Fortress","app_id":440,"player_count":0,"max_players":24,"Bots":0,"server_type":"Dedicated","server_os":"Linux","password":true,"vac":true,"version":"7932396","steam_id":85568392924515187,"keywords":["cp","nocrits","nodmgspread","uncletopia"],"game_id":440,"stv_port":27036,"stv_name":"Uncletopia | Atlanta | 3 | Community | STV","players":null},{"server_id":401,"name":"Uncletopia | Atlanta | 4 | No Payload","name_short":"atl-4","host":"atl-1.us.uncletopia.com","port":27045,"enabled":true,"region":"us-east","cc":"us","latitude":33.753746,"longitude":-84.38633,"reserved":0,"last_update":"0001-01-01T00:00:00Z","name_a2s":"","protocol":0,"map":"","folder":"","game":"","app_id":0,"player_count":0,"max_players":0,"Bots":0,"server_type":"","server_os":"","password":false,"vac":false,"version":"","steam_id":0,"keywords":null,"game_id":0,"stv_port":0,"stv_name":"","players":null},{"server_id":2,"name":"Uncletopia | Chicago | 1 | All Maps","name_short":"chi-1","host":"chi-1.us.uncletopia.com","port":27015,"enabled":true,"region":"us-central","cc":"us","latitude":41.881832,"longitude":-87.62318,"reserved":0,"last_update":"0001-01-01T00:00:00Z","name_a2s":"Uncletopia | Chicago | 1 | All Maps","protocol":17,"map":"cp_process_final","folder":"tf","game":"Team Fortress","app_id":440,"player_count":23,"max_players":24,"Bots":0,"server_type":"Dedicated","server_os":"Linux","password":true,"vac":true,"version":"7932396","steam_id":85568392924469984,"keywords":["cp","nocrits","nodmgspread","uncletopia"],"game_id":440,"stv_port":27016,"stv_name":"Uncletopia | Chicago | 1 | All Maps | STV","players":[{"user_id":152,"name":"Lost","steam_id":76561198093713427,"connected_time":1233000000000,"state":"active","ping":75},{"user_id":154,"name":"Tyco","steam_id":76561197978414167,"connected_time":1002000000000,"state":"active","ping":70},{"user_id":161,"name":"Thequirka","steam_id":76561198968058652,"connected_time":562000000000,"state":"active","ping":100},{"user_id":163,"name":"GreekGoat_Coffee","steam_id":76561198129331088,"connected_time":355000000000,"state":"active","ping":43},{"user_id":143,"name":"Halibard","steam_id":76561198011239659,"connected_time":1946000000000,"state":"active","ping":67},{"user_id":120,"name":"dirty tuna","steam_id":76561198021535785,"connected_time":4576000000000,"state":"active","ping":75},{"user_id":159,"name":"Crazy__Biscuit","steam_id":76561198399851872,"connected_time":673000000000,"state":"active","ping":66},{"user_id":165,"name":"crox","steam_id":76561199024792831,"connected_time":325000000000,"state":"active","ping":60},{"user_id":142,"name":"LeadHickory","steam_id":76561198219756521,"connected_time":2012000000000,"state":"active","ping":78},{"user_id":168,"name":"Menachem","steam_id":76561198041226420,"connected_time":168000000000,"state":"active","ping":46},{"user_id":160,"name":"krueger","steam_id":76561198268654031,"connected_time":617000000000,"state":"active","ping":45},{"user_id":155,"name":"cpg","steam_id":76561198853515541,"connected_time":871000000000,"state":"active","ping":87},{"user_id":164,"name":"Classysaurus","steam_id":76561198065992731,"connected_time":349000000000,"state":"active","ping":52},{"user_id":116,"name":"Gustavo","steam_id":76561198190288063,"connected_time":4919000000000,"state":"active","ping":86},{"user_id":90,"name":"Motreir","steam_id":76561198151717946,"connected_time":6311000000000,"state":"active","ping":80},{"user_id":162,"name":"Ark","steam_id":76561198053000340,"connected_time":412000000000,"state":"active","ping":61},{"user_id":141,"name":"flaccid","steam_id":76561198299241777,"connected_time":2020000000000,"state":"active","ping":90},{"user_id":166,"name":"dillon","steam_id":76561198118054166,"connected_time":324000000000,"state":"active","ping":77},{"user_id":158,"name":"Ademar","steam_id":76561199391802581,"connected_time":818000000000,"state":"active","ping":59},{"user_id":169,"name":"Cerabond","steam_id":76561199230915333,"connected_time":125000000000,"state":"active","ping":79},{"user_id":99,"name":"Jirachi","steam_id":76561198341537452,"connected_time":5718000000000,"state":"active","ping":80},{"user_id":63,"name":"Peppino","steam_id":76561198189176634,"connected_time":7987000000000,"state":"active","ping":82},{"user_id":140,"name":"Drooop","steam_id":76561198856700517,"connected_time":2077000000000,"state":"active","ping":75}]},{"server_id":106,"name":"Uncletopia | Chicago | 2 | All Maps","name_short":"chi-2","host":"chi-1.us.uncletopia.com","port":27025,"enabled":true,"region":"us-central","cc":"us","latitude":41.881832,"longitude":-87.62318,"reserved":0,"last_update":"0001-01-01T00:00:00Z","name_a2s":"Uncletopia | Chicago | 2 | All Maps","protocol":17,"map":"cp_gullywash_final1","folder":"tf","game":"Team Fortress","app_id":440,"player_count":24,"max_players":24,"Bots":0,"server_type":"Dedicated","server_os":"Linux","password":true,"vac":true,"version":"7932396","steam_id":85568392924469985,"keywords":["cp","nocrits","nodmgspread","uncletopia"],"game_id":440,"stv_port":27026,"stv_name":"Uncletopia | Chicago | 2 | All Maps | STV","players":[{"user_id":323,"name":"shnowshner","steam_id":76561198066450438,"connected_time":1572000000000,"state":"active","ping":86},{"user_id":312,"name":"i have amazing aim","steam_id":76561199222920753,"connected_time":3246000000000,"state":"active","ping":46},{"user_id":271,"name":"we're so back","steam_id":76561198058485742,"connected_time":4993000000000,"state":"active","ping":62},{"user_id":324,"name":"heartcey","steam_id":76561198101585918,"connected_time":1535000000000,"state":"active","ping":71},{"user_id":342,"name":"Valem","steam_id":76561198808224331,"connected_time":144000000000,"state":"spawning","ping":99},{"user_id":330,"name":"Poorkitten","steam_id":76561197995468170,"connected_time":1313000000000,"state":"active","ping":55},{"user_id":311,"name":"Tomcouger","steam_id":76561198022866923,"connected_time":3283000000000,"state":"active","ping":164},{"user_id":326,"name":"Magnet Dood","steam_id":76561198364178746,"connected_time":1448000000000,"state":"active","ping":56},{"user_id":313,"name":"your local forecast","steam_id":76561198042243083,"connected_time":3245000000000,"state":"active","ping":60},{"user_id":331,"name":"Big Milk","steam_id":76561198066904836,"connected_time":1310000000000,"state":"active","ping":93},{"user_id":328,"name":"toastman","steam_id":76561198207073088,"connected_time":1421000000000,"state":"active","ping":69},{"user_id":229,"name":"Garfield Expert","steam_id":76561198092452824,"connected_time":5982000000000,"state":"active","ping":69},{"user_id":332,"name":"Snoopy","steam_id":76561198273735974,"connected_time":1286000000000,"state":"active","ping":95},{"user_id":321,"name":"phantom","steam_id":76561197963860777,"connected_time":1900000000000,"state":"active","ping":88},{"user_id":341,"name":"kazoo2","steam_id":76561198260473504,"connected_time":715000000000,"state":"active","ping":88},{"user_id":343,"name":"ray (the based god)","steam_id":76561198311984941,"connected_time":44000000000,"state":"active","ping":151},{"user_id":318,"name":"rontu","steam_id":76561199072955534,"connected_time":2846000000000,"state":"active","ping":51},{"user_id":335,"name":"Still Alive","steam_id":76561198042523000,"connected_time":1117000000000,"state":"active","ping":56},{"user_id":305,"name":"Aeonspassed","steam_id":76561198014016451,"connected_time":3678000000000,"state":"active","ping":52},{"user_id":336,"name":"GamingGeneral","steam_id":76561198872339275,"connected_time":1109000000000,"state":"active","ping":64},{"user_id":292,"name":"Ziath","steam_id":76561198094009164,"connected_time":4390000000000,"state":"active","ping":63},{"user_id":338,"name":"nhbiker","steam_id":76561198081277675,"connected_time":807000000000,"state":"active","ping":59},{"user_id":339,"name":"Engideer","steam_id":76561198145733164,"connected_time":805000000000,"state":"active","ping":74},{"user_id":316,"name":"andyiscolorless","steam_id":76561199239870921,"connected_time":3190000000000,"state":"active","ping":147}]},{"server_id":402,"name":"Uncletopia | Chicago | 3 | All Maps","name_short":"chi-3","host":"chi-1.us.uncletopia.com","port":27035,"enabled":true,"region":"us-central","cc":"us","latitude":41.881832,"longitude":-87.62318,"reserved":0,"last_update":"0001-01-01T00:00:00Z","name_a2s":"Uncletopia | Chicago | 3 | All Maps","protocol":17,"map":"pl_snowycoast","folder":"tf","game":"Team Fortress","app_id":440,"player_count":24,"max_players":24,"Bots":0,"server_type":"Dedicated","server_os":"Linux","password":true,"vac":true,"version":"7932396","steam_id":85568392924515191,"keywords":["nocrits","nodmgspread","payload","uncletopia"],"game_id":440,"stv_port":27036,"stv_name":"Uncletopia | Chicago | 3 | All Maps | STV","players":[{"user_id":133,"name":"Nefy","steam_id":76561198030017316,"connected_time":4082000000000,"state":"active","ping":88},{"user_id":166,"name":"your neighbour's garden gnome","steam_id":76561199037050183,"connected_time":72000000000,"state":"active","ping":92},{"user_id":124,"name":"DragonKnight343","steam_id":76561199235854406,"connected_time":4457000000000,"state":"active","ping":111},{"user_id":170,"name":"Ghostmeal","steam_id":76561198042380299,"connected_time":13000000000,"state":"spawning","ping":52},{"user_id":167,"name":"doja dog","steam_id":76561199013396916,"connected_time":63000000000,"state":"active","ping":62},{"user_id":95,"name":"khil","steam_id":76561198042455487,"connected_time":7363000000000,"state":"active","ping":42},{"user_id":115,"name":"Zanartan","steam_id":76561198050528902,"connected_time":5664000000000,"state":"active","ping":182},{"user_id":164,"name":"Edder","steam_id":76561198011088393,"connected_time":206000000000,"state":"active","ping":73},{"user_id":145,"name":"lpk","steam_id":76561198025478698,"connected_time":2171000000000,"state":"active","ping":38},{"user_id":168,"name":"ShellBug","steam_id":76561198144187527,"connected_time":45000000000,"state":"active","ping":67},{"user_id":128,"name":"shake","steam_id":76561199064204750,"connected_time":4235000000000,"state":"active","ping":80},{"user_id":137,"name":"Allahgator","steam_id":76561198280659041,"connected_time":3175000000000,"state":"active","ping":75},{"user_id":163,"name":"blossom","steam_id":76561198042735130,"connected_time":238000000000,"state":"active","ping":106},{"user_id":135,"name":"co)))))ne","steam_id":76561198053967778,"connected_time":3800000000000,"state":"active","ping":69},{"user_id":127,"name":"meo ♥","steam_id":76561197992719272,"connected_time":4336000000000,"state":"active","ping":52},{"user_id":158,"name":"Commodore","steam_id":76561198042112852,"connected_time":735000000000,"state":"active","ping":76},{"user_id":161,"name":"SSBM Pelican","steam_id":76561198040697907,"connected_time":681000000000,"state":"active","ping":75},{"user_id":146,"name":"Deki","steam_id":76561198031914490,"connected_time":2157000000000,"state":"active","ping":156},{"user_id":100,"name":"Rin \"Hindwing\" Redtail","steam_id":76561199074865638,"connected_time":7104000000000,"state":"active","ping":74},{"user_id":165,"name":"Edgy McEdgeison","steam_id":76561198047845399,"connected_time":181000000000,"state":"active","ping":71},{"user_id":159,"name":"Cowboy Goose","steam_id":76561198058681166,"connected_time":724000000000,"state":"active","ping":57},{"user_id":131,"name":"Dead_Stranger","steam_id":76561198120804563,"connected_time":4155000000000,"state":"active","ping":91},{"user_id":147,"name":"i wish you obelisk","steam_id":76561198032482394,"connected_time":2137000000000,"state":"active","ping":70},{"user_id":171,"name":"An Erect Penis :)","steam_id":76561198086477485,"connected_time":8000000000,"state":"spawning","ping":42}]},{"server_id":403,"name":"Uncletopia | Chicago | 4 | All Maps","name_short":"chi-4","host":"chi-1.us.uncletopia.com","port":27045,"enabled":true,"region":"us-central","cc":"us","latitude":41.881832,"longitude":-87.62318,"reserved":0,"last_update":"0001-01-01T00:00:00Z","name_a2s":"Uncletopia | Chicago | 4 | All Maps","protocol":17,"map":"koth_viaduct","folder":"tf","game":"Team Fortress","app_id":440,"player_count":24,"max_players":24,"Bots":0,"server_type":"Dedicated","server_os":"Linux","password":true,"vac":true,"version":"7932396","steam_id":85568392924515193,"keywords":["cp","nocrits","nodmgspread","uncletopia"],"game_id":440,"stv_port":27046,"stv_name":"Uncletopia | Chicago | 4 | All Maps | STV","players":[{"user_id":321,"name":"Sergeant Joker #savetf2","steam_id":76561198854616604,"connected_time":481000000000,"state":"active","ping":62},{"user_id":322,"name":"Cordial_Lump","steam_id":76561198027777950,"connected_time":478000000000,"state":"active","ping":89},{"user_id":308,"name":"neet","steam_id":76561197968115168,"connected_time":2290000000000,"state":"active","ping":56},{"user_id":323,"name":"Oatmeal","steam_id":76561199378924674,"connected_time":475000000000,"state":"active","ping":77},{"user_id":296,"name":"Banks","steam_id":76561198276505537,"connected_time":3175000000000,"state":"active","ping":67},{"user_id":333,"name":"Tired","steam_id":76561198072620682,"connected_time":125000000000,"state":"active","ping":79},{"user_id":329,"name":"shadowking","steam_id":76561199284698401,"connected_time":333000000000,"state":"active","ping":93},{"user_id":314,"name":"oomper","steam_id":76561199189982701,"connected_time":1986000000000,"state":"active","ping":51},{"user_id":320,"name":"Critscare","steam_id":76561198087712508,"connected_time":580000000000,"state":"active","ping":43},{"user_id":330,"name":"TheConchinator","steam_id":76561199388149092,"connected_time":329000000000,"state":"active","ping":55},{"user_id":292,"name":"Snazzy_","steam_id":76561198014803098,"connected_time":3730000000000,"state":"active","ping":62},{"user_id":238,"name":"daemon","steam_id":76561198001541433,"connected_time":6972000000000,"state":"active","ping":58},{"user_id":316,"name":"eat Pant","steam_id":76561197974965536,"connected_time":1586000000000,"state":"active","ping":59},{"user_id":317,"name":"M","steam_id":76561198286792807,"connected_time":1218000000000,"state":"active","ping":69},{"user_id":318,"name":"Bee_Pirate","steam_id":76561199000599111,"connected_time":924000000000,"state":"active","ping":60},{"user_id":334,"name":"AlphaD_ツ","steam_id":76561198798020212,"connected_time":116000000000,"state":"active","ping":52},{"user_id":335,"name":"jema","steam_id":76561198276513608,"connected_time":59000000000,"state":"active","ping":167},{"user_id":319,"name":"Robert","steam_id":76561198133200895,"connected_time":593000000000,"state":"active","ping":60},{"user_id":294,"name":"Elias","steam_id":76561198106431732,"connected_time":3489000000000,"state":"active","ping":56},{"user_id":327,"name":"Flubby","steam_id":76561198069171252,"connected_time":443000000000,"state":"active","ping":60},{"user_id":328,"name":"T4T488","steam_id":76561198242633220,"connected_time":443000000000,"state":"active","ping":81},{"user_id":293,"name":"Cloud","steam_id":76561198954987128,"connected_time":3615000000000,"state":"active","ping":73},{"user_id":209,"name":"GhettoSmash@freenudecelebs.com","steam_id":76561198168864083,"connected_time":8541000000000,"state":"active","ping":109},{"user_id":303,"name":"Tri-Dot","steam_id":76561199075186597,"connected_time":2949000000000,"state":"active","ping":71}]},{"server_id":36,"name":"Uncletopia | Chicago | 5 | All Maps","name_short":"chi-5","host":"chi-2.us.uncletopia.com","port":27015,"enabled":true,"region":"us-central","cc":"us","latitude":41.881832,"longitude":-87.62318,"reserved":0,"last_update":"0001-01-01T00:00:00Z","name_a2s":"Uncletopia | Chicago | 5 | All Maps","protocol":17,"map":"pl_upward","folder":"tf","game":"Team Fortress","app_id":440,"player_count":1,"max_players":24,"Bots":0,"server_type":"Dedicated","server_os":"Linux","password":true,"vac":true,"version":"7932396","steam_id":85568392924866362,"keywords":["nocrits","nodmgspread","payload","uncletopia"],"game_id":440,"stv_port":27016,"stv_name":"Uncletopia | Chicago | 5 | All Maps | STV","players":[{"user_id":19,"name":"Ballfondler","steam_id":76561198796712940,"connected_time":210000000000,"state":"active","ping":52}]},{"server_id":37,"name":"Uncletopia | Chicago | 6 | All Maps","name_short":"chi-6","host":"chi-2.us.uncletopia.com","port":27025,"enabled":true,"region":"us-central","cc":"us","latitude":41.881832,"longitude":-87.62318,"reserved":0,"last_update":"0001-01-01T00:00:00Z","name_a2s":"Uncletopia | Chicago | 6 | All Maps","protocol":17,"map":"koth_highpass","folder":"tf","game":"Team Fortress","app_id":440,"player_count":0,"max_players":24,"Bots":0,"server_type":"Dedicated","server_os":"Linux","password":true,"vac":true,"version":"7932396","steam_id":85568392924866363,"keywords":["cp","nocrits","nodmgspread","uncletopia"],"game_id":440,"stv_port":27026,"stv_name":"Uncletopia | Chicago | 6 | All Maps | STV","players":null},{"server_id":38,"name":"Uncletopia | Chicago | 7 | Stopwatch Beta","name_short":"chi-7","host":"chi-2.us.uncletopia.com","port":27035,"enabled":true,"region":"us-central","cc":"us","latitude":41.881832,"longitude":-87.62318,"reserved":0,"last_update":"0001-01-01T00:00:00Z","name_a2s":"Uncletopia | Chicago | 7 | Stopwatch Beta","protocol":17,"map":"pl_borneo","folder":"tf","game":"Team Fortress","app_id":440,"player_count":0,"max_players":24,"Bots":0,"server_type":"Dedicated","server_os":"Linux","password":true,"vac":true,"version":"7932396","steam_id":85568392924866364,"keywords":["nocrits","nodmgspread","payload","uncletopia"],"game_id":440,"stv_port":27036,"stv_name":"Uncletopia | Chicago | 7 | Stopwatch Beta | STV","players":null},{"server_id":39,"name":"Uncletopia | Chicago | 8 | Community","name_short":"chi-8","host":"chi-2.us.uncletopia.com","port":27045,"enabled":true,"region":"us-central","cc":"us","latitude":41.881832,"longitude":-87.62318,"reserved":0,"last_update":"0001-01-01T00:00:00Z","name_a2s":"Uncletopia | Chicago | 8 | Community","protocol":17,"map":"koth_viaduct","folder":"tf","game":"Team Fortress","app_id":440,"player_count":0,"max_players":24,"Bots":0,"server_type":"Dedicated","server_os":"Linux","password":true,"vac":true,"version":"7932396","steam_id":85568392924866365,"keywords":["cp","nocrits","nodmgspread","uncletopia"],"game_id":440,"stv_port":27046,"stv_name":"Uncletopia | Chicago | 8 | Community | STV","players":null},{"server_id":8,"name":"Uncletopia | Dallas | 1 | All Maps","name_short":"dal-1","host":"dal-1.us.uncletopia.com","port":27015,"enabled":true,"region":"us-central","cc":"us","latitude":32.779167,"longitude":-96.80889,"reserved":0,"last_update":"0001-01-01T00:00:00Z","name_a2s":"Uncletopia | Dallas | 1 | All Maps","protocol":17,"map":"pl_badwater","folder":"tf","game":"Team Fortress","app_id":440,"player_count":23,"max_players":24,"Bots":0,"server_type":"Dedicated","server_os":"Linux","password":true,"vac":true,"version":"7932396","steam_id":85568392924469986,"keywords":["nocrits","nodmgspread","payload","uncletopia"],"game_id":440,"stv_port":27016,"stv_name":"Uncletopia | Dallas | 1 | All Maps | STV","players":[{"user_id":174,"name":"jayce","steam_id":76561198079403345,"connected_time":780000000000,"state":"active","ping":63},{"user_id":126,"name":"Poo","steam_id":76561198265144507,"connected_time":4774000000000,"state":"active","ping":101},{"user_id":169,"name":"Doomagedden","steam_id":76561198272589475,"connected_time":872000000000,"state":"active","ping":59},{"user_id":127,"name":"onions","steam_id":76561198201259645,"connected_time":4552000000000,"state":"active","ping":86},{"user_id":168,"name":"seems_fishy","steam_id":76561199028846656,"connected_time":905000000000,"state":"active","ping":90},{"user_id":144,"name":"gay gay homo gay","steam_id":76561198084362787,"connected_time":2277000000000,"state":"active","ping":77},{"user_id":187,"name":"drwwby","steam_id":76561198067741339,"connected_time":184000000000,"state":"active","ping":72},{"user_id":16,"name":"Jerk Tryhard (roleplay)","steam_id":76561199470538309,"connected_time":14719000000000,"state":"active","ping":75},{"user_id":160,"name":"aiming with drawing tablet","steam_id":76561198397662124,"connected_time":1705000000000,"state":"active","ping":61},{"user_id":182,"name":"Vzlæd","steam_id":76561198044192839,"connected_time":435000000000,"state":"active","ping":82},{"user_id":170,"name":"Queen Huge Girldick","steam_id":76561198002692909,"connected_time":827000000000,"state":"active","ping":96},{"user_id":186,"name":"-{A★T}- KnightofWind","steam_id":76561198103233971,"connected_time":274000000000,"state":"active","ping":99},{"user_id":177,"name":"Bottle","steam_id":76561199057108384,"connected_time":568000000000,"state":"active","ping":63},{"user_id":180,"name":"Security Chief Boper","steam_id":76561198218558897,"connected_time":484000000000,"state":"active","ping":103},{"user_id":179,"name":"god's 10,000th gec","steam_id":76561198071775268,"connected_time":486000000000,"state":"active","ping":83},{"user_id":162,"name":"Ligmus Sigmus","steam_id":76561198168946002,"connected_time":1691000000000,"state":"active","ping":74},{"user_id":184,"name":"aintnowaiyboi","steam_id":76561198301372369,"connected_time":371000000000,"state":"active","ping":38},{"user_id":183,"name":"Kid B8","steam_id":76561198086764710,"connected_time":402000000000,"state":"active","ping":71},{"user_id":141,"name":"Flying Emu","steam_id":76561198121632924,"connected_time":2864000000000,"state":"active","ping":54},{"user_id":172,"name":"chiarraz","steam_id":76561198277439571,"connected_time":814000000000,"state":"active","ping":72},{"user_id":132,"name":"Poké","steam_id":76561198100167641,"connected_time":4215000000000,"state":"active","ping":69},{"user_id":175,"name":"the one true chubster","steam_id":76561198038358134,"connected_time":765000000000,"state":"active","ping":80},{"user_id":142,"name":"freak","steam_id":76561198049544552,"connected_time":2559000000000,"state":"active","ping":36}]},{"server_id":108,"name":"Uncletopia | Dallas | 2 | All Maps","name_short":"dal-2","host":"dal-1.us.uncletopia.com","port":27025,"enabled":true,"region":"us-central","cc":"us","latitude":32.779167,"longitude":-96.80889,"reserved":0,"last_update":"0001-01-01T00:00:00Z","name_a2s":"Uncletopia | Dallas | 2 | All Maps","protocol":17,"map":"pl_pier","folder":"tf","game":"Team Fortress","app_id":440,"player_count":23,"max_players":24,"Bots":0,"server_type":"Dedicated","server_os":"Linux","password":true,"vac":true,"version":"7932396","steam_id":85568392924469988,"keywords":["nocrits","nodmgspread","payload","uncletopia"],"game_id":440,"stv_port":27026,"stv_name":"Uncletopia | Dallas | 2 | All Maps | STV","players":[{"user_id":204,"name":"Syntaxx","steam_id":76561199235615445,"connected_time":104000000000,"state":"active","ping":63},{"user_id":205,"name":"no brain","steam_id":76561198451032322,"connected_time":96000000000,"state":"active","ping":105},{"user_id":173,"name":"scapegoat","steam_id":76561198188722751,"connected_time":2698000000000,"state":"active","ping":90},{"user_id":185,"name":"sebastiencsdennis","steam_id":76561199010837825,"connected_time":1715000000000,"state":"active","ping":98},{"user_id":186,"name":"No_Dictators","steam_id":76561199065777321,"connected_time":1656000000000,"state":"active","ping":54},{"user_id":196,"name":"Flint","steam_id":76561198148412420,"connected_time":1283000000000,"state":"active","ping":72},{"user_id":181,"name":"Paragon","steam_id":76561198274263793,"connected_time":1853000000000,"state":"active","ping":96},{"user_id":197,"name":"Horse","steam_id":76561198004583631,"connected_time":1121000000000,"state":"active","ping":101},{"user_id":184,"name":"webaline","steam_id":76561199052450127,"connected_time":1774000000000,"state":"active","ping":77},{"user_id":100,"name":"cypherzero","steam_id":76561199182960322,"connected_time":7233000000000,"state":"active","ping":47},{"user_id":187,"name":"Mal","steam_id":76561198066074151,"connected_time":1644000000000,"state":"active","ping":79},{"user_id":167,"name":"Raptortastic","steam_id":76561198105613110,"connected_time":2928000000000,"state":"active","ping":75},{"user_id":203,"name":"10000 gecs","steam_id":76561198826878914,"connected_time":329000000000,"state":"active","ping":62},{"user_id":189,"name":"Eins","steam_id":76561199030343810,"connected_time":1575000000000,"state":"active","ping":57},{"user_id":172,"name":"CapoCannoli","steam_id":76561199092143255,"connected_time":2779000000000,"state":"active","ping":74},{"user_id":199,"name":"lil Klonex ❤","steam_id":76561198061550694,"connected_time":988000000000,"state":"active","ping":60},{"user_id":207,"name":"JPCreuz3","steam_id":76561198408169555,"connected_time":84000000000,"state":"active","ping":115},{"user_id":208,"name":"Hig5_F!v3","steam_id":76561199158318526,"connected_time":74000000000,"state":"active","ping":207},{"user_id":156,"name":"Solstrom","steam_id":76561198313364985,"connected_time":3474000000000,"state":"active","ping":93},{"user_id":193,"name":"Poly","steam_id":76561198327850752,"connected_time":1505000000000,"state":"active","ping":97},{"user_id":194,"name":"pogo","steam_id":76561198148913461,"connected_time":1464000000000,"state":"active","ping":86},{"user_id":198,"name":"BigPimpin","steam_id":76561198119549348,"connected_time":1047000000000,"state":"active","ping":52},{"user_id":202,"name":"Sullivate","steam_id":76561198247267324,"connected_time":629000000000,"state":"active","ping":110}]},{"server_id":5,"name":"Uncletopia | Frankfurt | 1 | All Maps","name_short":"frk-1","host":"frk-1.de.uncletopia.com","port":27015,"enabled":true,"region":"eu","cc":"de","latitude":50.110924,"longitude":8.682127,"reserved":0,"last_update":"0001-01-01T00:00:00Z","name_a2s":"Uncletopia | Frankfurt | 1 | All Maps","protocol":17,"map":"pl_badwater","folder":"tf","game":"Team Fortress","app_id":440,"player_count":24,"max_players":24,"Bots":0,"server_type":"Dedicated","server_os":"Linux","password":true,"vac":true,"version":"7932396","steam_id":85568392924469989,"keywords":["nocrits","nodmgspread","payload","uncletopia"],"game_id":440,"stv_port":27016,"stv_name":"Uncletopia | Frankfurt | 1 | All Maps | STV","players":[{"user_id":190,"name":"Cyrell","steam_id":76561198158308194,"connected_time":6287000000000,"state":"active","ping":45},{"user_id":292,"name":"Бархатные тяги, К","steam_id":76561198214926087,"connected_time":53000000000,"state":"active","ping":75},{"user_id":298,"name":"snsmac","steam_id":76561198082821185,"connected_time":2000000000,"state":"spawning","ping":28},{"user_id":285,"name":"Cdkatpifuzrmeu-uhfffaoysa-","steam_id":76561198185348855,"connected_time":153000000000,"state":"active","ping":74},{"user_id":263,"name":"AlyG","steam_id":76561198027351760,"connected_time":1395000000000,"state":"active","ping":62},{"user_id":278,"name":"das boot","steam_id":76561198953844914,"connected_time":860000000000,"state":"active","ping":61},{"user_id":265,"name":"player with 0 skill","steam_id":76561198002451113,"connected_time":1322000000000,"state":"active","ping":90},{"user_id":282,"name":"nvs","steam_id":76561198120668070,"connected_time":691000000000,"state":"active","ping":61},{"user_id":286,"name":"Paintbrush","steam_id":76561198119987705,"connected_time":139000000000,"state":"active","ping":53},{"user_id":280,"name":"imrealylazy","steam_id":76561198878574518,"connected_time":854000000000,"state":"active","ping":67},{"user_id":268,"name":"Furno","steam_id":76561197999723047,"connected_time":1203000000000,"state":"active","ping":54},{"user_id":262,"name":"fifrok","steam_id":76561198799267621,"connected_time":1482000000000,"state":"active","ping":74},{"user_id":143,"name":"AleXandriX","steam_id":76561198035203950,"connected_time":9123000000000,"state":"active","ping":60},{"user_id":281,"name":"Skyfoogle","steam_id":76561198027177883,"connected_time":817000000000,"state":"active","ping":75},{"user_id":259,"name":"Mr.TEA","steam_id":76561198014381591,"connected_time":1769000000000,"state":"active","ping":69},{"user_id":243,"name":"Roland Deschain","steam_id":76561198023296355,"connected_time":3279000000000,"state":"active","ping":106},{"user_id":272,"name":"donatofina","steam_id":76561198353497885,"connected_time":1126000000000,"state":"active","ping":94},{"user_id":273,"name":"Macro","steam_id":76561199442846226,"connected_time":1124000000000,"state":"active","ping":171},{"user_id":274,"name":"zpirituh","steam_id":76561198234741444,"connected_time":1120000000000,"state":"active","ping":299},{"user_id":244,"name":"Zireael","steam_id":76561198188258338,"connected_time":3278000000000,"state":"active","ping":118},{"user_id":283,"name":"Vitun vittu","steam_id":76561198110679463,"connected_time":416000000000,"state":"active","ping":86},{"user_id":275,"name":"Herios","steam_id":76561198132804139,"connected_time":1114000000000,"state":"active","ping":92},{"user_id":276,"name":"Dolcelatte","steam_id":76561198038501770,"connected_time":1113000000000,"state":"active","ping":60},{"user_id":288,"name":"finbar","steam_id":76561198056812396,"connected_time":108000000000,"state":"active","ping":84}]},{"server_id":110,"name":"Uncletopia | Frankfurt | 2 | All Maps","name_short":"frk-2","host":"frk-1.de.uncletopia.com","port":27025,"enabled":true,"region":"eu","cc":"de","latitude":50.110924,"longitude":8.682127,"reserved":0,"last_update":"0001-01-01T00:00:00Z","name_a2s":"Uncletopia | Frankfurt | 2 | All Maps","protocol":17,"map":"cp_process_final","folder":"tf","game":"Team Fortress","app_id":440,"player_count":24,"max_players":24,"Bots":0,"server_type":"Dedicated","server_os":"Linux","password":true,"vac":true,"version":"7932396","steam_id":85568392924469990,"keywords":["cp","nocrits","nodmgspread","uncletopia"],"game_id":440,"stv_port":27026,"stv_name":"Uncletopia | Frankfurt | 2 | All Maps | STV","players":[{"user_id":515,"name":"Gravy","steam_id":76561198029548074,"connected_time":2125000000000,"state":"active","ping":60},{"user_id":499,"name":"Lyncurion","steam_id":76561199260022725,"connected_time":3708000000000,"state":"active","ping":80},{"user_id":527,"name":"Michael","steam_id":76561198003146906,"connected_time":1101000000000,"state":"active","ping":60},{"user_id":536,"name":"jeff the chiller","steam_id":76561198064115286,"connected_time":221000000000,"state":"active","ping":61},{"user_id":530,"name":"󠀡󠀡","steam_id":76561198399390201,"connected_time":932000000000,"state":"active","ping":72},{"user_id":490,"name":"Berdly","steam_id":76561199029872533,"connected_time":3946000000000,"state":"active","ping":63},{"user_id":504,"name":"Salkè","steam_id":76561199216611062,"connected_time":3078000000000,"state":"active","ping":63},{"user_id":533,"name":"MrFelixll","steam_id":76561198439292774,"connected_time":271000000000,"state":"active","ping":78},{"user_id":531,"name":"Bright","steam_id":76561198847850273,"connected_time":642000000000,"state":"active","ping":83},{"user_id":534,"name":"lilchicky","steam_id":76561198951121530,"connected_time":261000000000,"state":"active","ping":166},{"user_id":535,"name":"Plant","steam_id":76561199155348654,"connected_time":246000000000,"state":"active","ping":100},{"user_id":516,"name":"nyanezt","steam_id":76561198253734265,"connected_time":2034000000000,"state":"active","ping":109},{"user_id":522,"name":"SoupER","steam_id":76561198063056668,"connected_time":1806000000000,"state":"active","ping":57},{"user_id":509,"name":"BreadAcres","steam_id":76561198098217082,"connected_time":2447000000000,"state":"active","ping":62},{"user_id":528,"name":"ulei de motor","steam_id":76561198057308127,"connected_time":1085000000000,"state":"active","ping":82},{"user_id":532,"name":"Dogeglas","steam_id":76561198086291796,"connected_time":636000000000,"state":"active","ping":84},{"user_id":537,"name":"Fart Goblin","steam_id":76561198072147068,"connected_time":216000000000,"state":"active","ping":97},{"user_id":519,"name":"Dee","steam_id":76561198105520278,"connected_time":1896000000000,"state":"active","ping":85},{"user_id":334,"name":"Tegnerud","steam_id":76561198214185612,"connected_time":12053000000000,"state":"active","ping":68},{"user_id":526,"name":"burritoeater","steam_id":76561199124197813,"connected_time":1330000000000,"state":"active","ping":76},{"user_id":501,"name":"Fairy Of Nature","steam_id":76561198274159048,"connected_time":3361000000000,"state":"active","ping":68},{"user_id":521,"name":"Will","steam_id":76561198173329977,"connected_time":1849000000000,"state":"active","ping":73},{"user_id":538,"name":"Bahador","steam_id":76561198897378461,"connected_time":192000000000,"state":"active","ping":61},{"user_id":524,"name":"Spy Gaming.","steam_id":76561198889149340,"connected_time":1783000000000,"state":"active","ping":105}]},{"server_id":308,"name":"Uncletopia | Frankfurt | 3 | All Maps","name_short":"frk-3","host":"frk-1.de.uncletopia.com","port":27035,"enabled":true,"region":"eu","cc":"de","latitude":50.110924,"longitude":8.682127,"reserved":0,"last_update":"0001-01-01T00:00:00Z","name_a2s":"Uncletopia | Frankfurt | 3 | All Maps","protocol":17,"map":"pl_badwater","folder":"tf","game":"Team Fortress","app_id":440,"player_count":24,"max_players":24,"Bots":0,"server_type":"Dedicated","server_os":"Linux","password":true,"vac":true,"version":"7932396","steam_id":85568392924504274,"keywords":["nocrits","nodmgspread","payload","uncletopia"],"game_id":440,"stv_port":27036,"stv_name":"Uncletopia | Frankfurt | 3 | All Maps | STV","players":[{"user_id":406,"name":"Korean Streamer/Leader","steam_id":76561198206997036,"connected_time":134000000000,"state":"active","ping":68},{"user_id":400,"name":"-TA-skai","steam_id":76561198184881255,"connected_time":444000000000,"state":"active","ping":72},{"user_id":401,"name":"BeanGuyMagnus","steam_id":76561198299123355,"connected_time":439000000000,"state":"active","ping":86},{"user_id":403,"name":"Muvi","steam_id":76561198044583116,"connected_time":260000000000,"state":"active","ping":90},{"user_id":378,"name":"Covetousix","steam_id":76561198293936824,"connected_time":1754000000000,"state":"active","ping":72},{"user_id":337,"name":"m909","steam_id":76561198279621400,"connected_time":4162000000000,"state":"active","ping":87},{"user_id":333,"name":"_420_StopItDudeCmon","steam_id":76561197997146481,"connected_time":4443000000000,"state":"active","ping":63},{"user_id":391,"name":"collin","steam_id":76561198067030681,"connected_time":748000000000,"state":"active","ping":60},{"user_id":387,"name":"Jedi Knight","steam_id":76561198039030709,"connected_time":805000000000,"state":"active","ping":46},{"user_id":368,"name":"WATANG!","steam_id":76561198040478926,"connected_time":2511000000000,"state":"active","ping":61},{"user_id":405,"name":"Mlanky","steam_id":76561198047796778,"connected_time":143000000000,"state":"active","ping":45},{"user_id":359,"name":"Germanium_Ge","steam_id":76561198130561775,"connected_time":2822000000000,"state":"active","ping":56},{"user_id":366,"name":"Peskyplumber64","steam_id":76561198044458330,"connected_time":2633000000000,"state":"active","ping":67},{"user_id":364,"name":"Ixsus\u003c3","steam_id":76561198094756869,"connected_time":2733000000000,"state":"active","ping":56},{"user_id":377,"name":"Koblenz 1972","steam_id":76561198077563222,"connected_time":1891000000000,"state":"active","ping":63},{"user_id":346,"name":"Porridge Moisturizer","steam_id":76561198336523288,"connected_time":3560000000000,"state":"active","ping":122},{"user_id":367,"name":"sunshine (she/her)","steam_id":76561198084597975,"connected_time":2537000000000,"state":"active","ping":66},{"user_id":392,"name":"clueless","steam_id":76561198193357946,"connected_time":732000000000,"state":"active","ping":118},{"user_id":371,"name":"Poggito","steam_id":76561198838001276,"connected_time":2300000000000,"state":"active","ping":62},{"user_id":402,"name":"Fredrik","steam_id":76561197993362052,"connected_time":421000000000,"state":"active","ping":72},{"user_id":393,"name":"Yobopan","steam_id":76561198088064860,"connected_time":710000000000,"state":"active","ping":69},{"user_id":395,"name":"DJPNK","steam_id":76561197989948420,"connected_time":687000000000,"state":"active","ping":68},{"user_id":396,"name":"EEEEEH","steam_id":76561198126717413,"connected_time":686000000000,"state":"active","ping":84},{"user_id":399,"name":"swueuws","steam_id":76561198020716743,"connected_time":465000000000,"state":"active","ping":50}]},{"server_id":309,"name":"Uncletopia | Frankfurt | 4 | All Maps","name_short":"frk-4","host":"frk-1.de.uncletopia.com","port":27045,"enabled":true,"region":"eu","cc":"de","latitude":50.110924,"longitude":8.682127,"reserved":0,"last_update":"0001-01-01T00:00:00Z","name_a2s":"Uncletopia | Frankfurt | 4 | All Maps","protocol":17,"map":"koth_highpass","folder":"tf","game":"Team Fortress","app_id":440,"player_count":9,"max_players":24,"Bots":0,"server_type":"Dedicated","server_os":"Linux","password":true,"vac":true,"version":"7932396","steam_id":85568392924504275,"keywords":["cp","nocrits","nodmgspread","uncletopia"],"game_id":440,"stv_port":27046,"stv_name":"Uncletopia | Frankfurt | 4 | All Maps | STV","players":[{"user_id":326,"name":"GimmeTheCheese","steam_id":76561198360230614,"connected_time":1752000000000,"state":"active","ping":76},{"user_id":327,"name":"Diesel","steam_id":76561198156415361,"connected_time":1354000000000,"state":"active","ping":76},{"user_id":328,"name":"TOP P","steam_id":76561198390824709,"connected_time":1077000000000,"state":"active","ping":76},{"user_id":329,"name":"nope","steam_id":76561199385522547,"connected_time":1028000000000,"state":"active","ping":55},{"user_id":331,"name":"ran is running","steam_id":76561199443185667,"connected_time":347000000000,"state":"active","ping":141},{"user_id":332,"name":"piss man (real)","steam_id":76561198839843428,"connected_time":235000000000,"state":"active","ping":125},{"user_id":334,"name":"KoopaKnight","steam_id":76561198906996407,"connected_time":30000000000,"state":"spawning","ping":55},{"user_id":335,"name":"Lord69Shaxx","steam_id":76561199131134436,"connected_time":26000000000,"state":"active","ping":76},{"user_id":336,"name":"TheDripCollector","steam_id":76561198834945599,"connected_time":7000000000,"state":"active","ping":54}]},{"server_id":310,"name":"Uncletopia | Frankfurt | 5 | All Maps","name_short":"frk-5","host":"frk-1.de.uncletopia.com","port":27055,"enabled":true,"region":"eu","cc":"de","latitude":50.110924,"longitude":8.682127,"reserved":0,"last_update":"0001-01-01T00:00:00Z","name_a2s":"Uncletopia | Frankfurt | 5 | All Maps","protocol":17,"map":"cp_sunshine","folder":"tf","game":"Team Fortress","app_id":440,"player_count":24,"max_players":24,"Bots":0,"server_type":"Dedicated","server_os":"Linux","password":true,"vac":true,"version":"7932396","steam_id":85568392924504277,"keywords":["cp","nocrits","nodmgspread","uncletopia"],"game_id":440,"stv_port":27056,"stv_name":"Uncletopia | Frankfurt | 5 | All Maps | STV","players":[{"user_id":504,"name":"Destinys","steam_id":76561198056132894,"connected_time":405000000000,"state":"active","ping":59},{"user_id":481,"name":"mark of the outsider","steam_id":76561198309246388,"connected_time":1698000000000,"state":"active","ping":45},{"user_id":503,"name":"TheEventGuy","steam_id":76561197972797744,"connected_time":605000000000,"state":"active","ping":62},{"user_id":495,"name":"val","steam_id":76561198324316160,"connected_time":1326000000000,"state":"active","ping":57},{"user_id":505,"name":"MisterCue","steam_id":76561198147371234,"connected_time":404000000000,"state":"active","ping":78},{"user_id":506,"name":"Kokos","steam_id":76561198085501501,"connected_time":370000000000,"state":"active","ping":83},{"user_id":496,"name":"Fat Pigeon","steam_id":76561198817940142,"connected_time":1254000000000,"state":"active","ping":55},{"user_id":507,"name":"DOMAIN","steam_id":76561199095640319,"connected_time":346000000000,"state":"active","ping":84},{"user_id":488,"name":"sahok1112","steam_id":76561198345303033,"connected_time":1512000000000,"state":"active","ping":124},{"user_id":494,"name":"Mephistopheles","steam_id":76561199033390312,"connected_time":1400000000000,"state":"active","ping":110},{"user_id":502,"name":"Chillrend | #SaveTF2","steam_id":76561198452963141,"connected_time":843000000000,"state":"active","ping":76},{"user_id":508,"name":"Daan77","steam_id":76561198129940468,"connected_time":316000000000,"state":"active","ping":78},{"user_id":509,"name":"Tyulmi","steam_id":76561198041432710,"connected_time":309000000000,"state":"active","ping":167},{"user_id":510,"name":"Gesundheit","steam_id":76561198854802626,"connected_time":298000000000,"state":"active","ping":100},{"user_id":491,"name":"Sammy096","steam_id":76561198128167541,"connected_time":1439000000000,"state":"active","ping":63},{"user_id":511,"name":"Sarah Obama Michella","steam_id":76561198078996559,"connected_time":124000000000,"state":"active","ping":75},{"user_id":474,"name":"TrinTy[Eric]","steam_id":76561198233457496,"connected_time":2085000000000,"state":"active","ping":54},{"user_id":492,"name":"driz","steam_id":76561198069462235,"connected_time":1435000000000,"state":"active","ping":63},{"user_id":475,"name":"bf Zocker","steam_id":76561198373721988,"connected_time":2034000000000,"state":"active","ping":55},{"user_id":514,"name":"Gryoss","steam_id":76561197999837111,"connected_time":44000000000,"state":"active","ping":108},{"user_id":435,"name":"Master Of Noob","steam_id":76561198217926783,"connected_time":5202000000000,"state":"active","ping":74},{"user_id":501,"name":"Tsuwu","steam_id":76561198354596897,"connected_time":926000000000,"state":"active","ping":99},{"user_id":497,"name":"Schmidt","steam_id":76561198001058733,"connected_time":1207000000000,"state":"active","ping":105},{"user_id":513,"name":"NutsNTrolls","steam_id":76561198335891676,"connected_time":86000000000,"state":"active","ping":105}]},{"server_id":311,"name":"Uncletopia | Frankfurt | 6 | All Maps","name_short":"frk-6","host":"frk-1.de.uncletopia.com","port":27065,"enabled":true,"region":"eu","cc":"de","latitude":50.110924,"longitude":8.682127,"reserved":0,"last_update":"0001-01-01T00:00:00Z","name_a2s":"Uncletopia | Frankfurt | 6 | All Maps","protocol":17,"map":"pl_snowycoast","folder":"tf","game":"Team Fortress","app_id":440,"player_count":0,"max_players":24,"Bots":0,"server_type":"Dedicated","server_os":"Linux","password":true,"vac":true,"version":"7932396","steam_id":85568392924504278,"keywords":["nocrits","nodmgspread","payload","uncletopia"],"game_id":440,"stv_port":27066,"stv_name":"Uncletopia | Frankfurt | 6 | All Maps | STV","players":null},{"server_id":23,"name":"Uncletopia | Frankfurt | 7 | Stopwatch Beta","name_short":"frk-7","host":"frk-1.de.uncletopia.com","port":27075,"enabled":true,"region":"eu","cc":"de","latitude":50.110924,"longitude":8.682127,"reserved":0,"last_update":"0001-01-01T00:00:00Z","name_a2s":"Uncletopia | Frankfurt | 7 | Stopwatch Beta","protocol":17,"map":"pl_snowycoast","folder":"tf","game":"Team Fortress","app_id":440,"player_count":0,"max_players":24,"Bots":0,"server_type":"Dedicated","server_os":"Linux","password":true,"vac":true,"version":"7932396","steam_id":85568392924742827,"keywords":["nocrits","nodmgspread","payload","uncletopia"],"game_id":440,"stv_port":27076,"stv_name":"Uncletopia | Frankfurt | 7 | Stopwatch Beta | STV","players":null},{"server_id":24,"name":"Uncletopia | Frankfurt | 8 | Community","name_short":"frk-8","host":"frk-1.de.uncletopia.com","port":27085,"enabled":true,"region":"eu","cc":"de","latitude":50.110924,"longitude":8.682127,"reserved":0,"last_update":"0001-01-01T00:00:00Z","name_a2s":"Uncletopia | Frankfurt | 8 | Community","protocol":17,"map":"workshop/cp_fulgur_rc2a.ugc2068252300","folder":"tf","game":"Team Fortress","app_id":440,"player_count":0,"max_players":24,"Bots":0,"server_type":"Dedicated","server_os":"Linux","password":true,"vac":true,"version":"7932396","steam_id":85568392924742828,"keywords":["cp","nocrits","nodmgspread","uncletopia"],"game_id":440,"stv_port":27086,"stv_name":"Uncletopia | Frankfurt | 8 | Community | STV","players":null},{"server_id":202,"name":"Uncletopia | Hong Kong | 1 | All Maps","name_short":"hgk-1","host":"hgk-1.hk.uncletopia.com","port":27015,"enabled":true,"region":"asia","cc":"hk","latitude":22.302711,"longitude":114.177216,"reserved":0,"last_update":"0001-01-01T00:00:00Z","name_a2s":"Uncletopia | Hong Kong | 1 | All Maps","protocol":17,"map":"cp_steel","folder":"tf","game":"Team Fortress","app_id":440,"player_count":4,"max_players":24,"Bots":0,"server_type":"Dedicated","server_os":"Linux","password":true,"vac":true,"version":"7932396","steam_id":85568392924494504,"keywords":["cp","nocrits","nodmgspread","uncletopia"],"game_id":440,"stv_port":27016,"stv_name":"Uncletopia | Hong Kong | 1 | All Maps | STV","players":[{"user_id":856,"name":"TPC","steam_id":76561198127380768,"connected_time":3512000000000,"state":"active","ping":328},{"user_id":857,"name":"V","steam_id":76561199038861980,"connected_time":3473000000000,"state":"active","ping":113},{"user_id":850,"name":"dankz","steam_id":76561198418790381,"connected_time":4011000000000,"state":"active","ping":107},{"user_id":849,"name":"RinRin the pansexual witch","steam_id":76561199024333803,"connected_time":4422000000000,"state":"active","ping":87}]},{"server_id":1,"name":"Uncletopia | Los Angeles | 1 | All Maps","name_short":"lax-1","host":"lax-1.us.uncletopia.com","port":27015,"enabled":true,"region":"us-west","cc":"us","latitude":33.94279,"longitude":-118.41004,"reserved":0,"last_update":"0001-01-01T00:00:00Z","name_a2s":"Uncletopia | Los Angeles | 1 | All Maps","protocol":17,"map":"pl_barnblitz","folder":"tf","game":"Team Fortress","app_id":440,"player_count":24,"max_players":24,"Bots":0,"server_type":"Dedicated","server_os":"Linux","password":true,"vac":true,"version":"7932396","steam_id":85568392924469991,"keywords":["nocrits","nodmgspread","payload","uncletopia"],"game_id":440,"stv_port":27016,"stv_name":"Uncletopia | Los Angeles | 1 | All Maps | STV","players":[{"user_id":50,"name":"Nibotshooter","steam_id":76561199284825579,"connected_time":6965000000000,"state":"active","ping":72},{"user_id":125,"name":"doughboy","steam_id":76561198219012928,"connected_time":1906000000000,"state":"active","ping":45},{"user_id":116,"name":"Mr.Nostalgic","steam_id":76561198083240822,"connected_time":2515000000000,"state":"active","ping":75},{"user_id":130,"name":"selvhat","steam_id":76561198114225509,"connected_time":1701000000000,"state":"active","ping":50},{"user_id":131,"name":"Walrus","steam_id":76561198001799905,"connected_time":1502000000000,"state":"active","ping":50},{"user_id":153,"name":"axellinag15","steam_id":76561199188113751,"connected_time":396000000000,"state":"active","ping":117},{"user_id":141,"name":"Spy (I Love spy)","steam_id":76561199138738952,"connected_time":677000000000,"state":"active","ping":89},{"user_id":126,"name":"shelf","steam_id":76561198260021696,"connected_time":1893000000000,"state":"active","ping":75},{"user_id":105,"name":"Zykron","steam_id":76561199056400800,"connected_time":4028000000000,"state":"active","ping":57},{"user_id":147,"name":"elephant thumb","steam_id":76561198118859752,"connected_time":575000000000,"state":"active","ping":45},{"user_id":148,"name":"doghouse","steam_id":76561198000319035,"connected_time":575000000000,"state":"active","ping":70},{"user_id":155,"name":"The Entire Population of Canada","steam_id":76561198090187112,"connected_time":245000000000,"state":"active","ping":115},{"user_id":133,"name":"goat","steam_id":76561198070073405,"connected_time":1364000000000,"state":"active","ping":113},{"user_id":143,"name":"blackwillow83@hotmail.com","steam_id":76561199467334502,"connected_time":665000000000,"state":"active","ping":48},{"user_id":144,"name":"hazel (she/her)","steam_id":76561198879911815,"connected_time":665000000000,"state":"active","ping":110},{"user_id":152,"name":"Stapler","steam_id":76561198099295077,"connected_time":489000000000,"state":"active","ping":59},{"user_id":139,"name":"Pez","steam_id":76561199197778137,"connected_time":836000000000,"state":"active","ping":60},{"user_id":134,"name":"canakblasteran","steam_id":76561199472518822,"connected_time":1327000000000,"state":"active","ping":69},{"user_id":108,"name":"Soviet Potato","steam_id":76561198068546113,"connected_time":3579000000000,"state":"active","ping":65},{"user_id":114,"name":"Jazpy","steam_id":76561198036872545,"connected_time":2611000000000,"state":"active","ping":75},{"user_id":137,"name":"Renegade","steam_id":76561198066847055,"connected_time":1137000000000,"state":"active","ping":99},{"user_id":136,"name":"Unwanted Hero","steam_id":76561198070211478,"connected_time":1288000000000,"state":"active","ping":150},{"user_id":151,"name":"Idk","steam_id":76561198971629959,"connected_time":518000000000,"state":"active","ping":164},{"user_id":156,"name":"challen","steam_id":76561197961277967,"connected_time":40000000000,"state":"active","ping":59}]},{"server_id":112,"name":"Uncletopia | Los Angeles | 2 | All Maps","name_short":"lax-2","host":"lax-1.us.uncletopia.com","port":27025,"enabled":true,"region":"us-west","cc":"us","latitude":33.94279,"longitude":-118.41004,"reserved":0,"last_update":"0001-01-01T00:00:00Z","name_a2s":"Uncletopia | Los Angeles | 2 | All Maps","protocol":17,"map":"koth_lakeside_final","folder":"tf","game":"Team Fortress","app_id":440,"player_count":0,"max_players":24,"Bots":0,"server_type":"Dedicated","server_os":"Linux","password":true,"vac":true,"version":"7932396","steam_id":85568392924469992,"keywords":["cp","nocrits","nodmgspread","uncletopia"],"game_id":440,"stv_port":27026,"stv_name":"Uncletopia | Los Angeles | 2 | All Maps | STV","players":null},{"server_id":324,"name":"Uncletopia | Los Angeles | 3 | All Maps","name_short":"lax-3","host":"lax-1.us.uncletopia.com","port":27035,"enabled":true,"region":"us-west","cc":"us","latitude":33.94279,"longitude":-118.41004,"reserved":0,"last_update":"0001-01-01T00:00:00Z","name_a2s":"Uncletopia | Los Angeles | 3 | All Maps","protocol":17,"map":"cp_altitude","folder":"tf","game":"Team Fortress","app_id":440,"player_count":0,"max_players":24,"Bots":0,"server_type":"Dedicated","server_os":"Linux","password":true,"vac":true,"version":"7932396","steam_id":85568392924510198,"keywords":["cp","nocrits","nodmgspread","uncletopia"],"game_id":440,"stv_port":27036,"stv_name":"Uncletopia | Los Angeles | 3 | All Maps | STV","players":null},{"server_id":25,"name":"Uncletopia | Los Angeles | 4 | Stopwatch Beta","name_short":"lax-4","host":"lax-1.us.uncletopia.com","port":27045,"enabled":true,"region":"us-west","cc":"us","latitude":33.94279,"longitude":-118.41004,"reserved":0,"last_update":"0001-01-01T00:00:00Z","name_a2s":"Uncletopia | Los Angeles | 4 | Stopwatch Beta","protocol":17,"map":"pl_swiftwater_final1","folder":"tf","game":"Team Fortress","app_id":440,"player_count":0,"max_players":24,"Bots":0,"server_type":"Dedicated","server_os":"Linux","password":true,"vac":true,"version":"7932396","steam_id":85568392924510199,"keywords":["nocrits","nodmgspread","payload","uncletopia"],"game_id":440,"stv_port":27046,"stv_name":"Uncletopia | Los Angeles | 4 | Stopwatch Beta | STV","players":null},{"server_id":11,"name":"Uncletopia | London | 1 | All Maps","name_short":"lon-1","host":"lon-1.uk.uncletopia.com","port":27015,"enabled":true,"region":"eu","cc":"gb","latitude":51.509865,"longitude":-0.118092,"reserved":0,"last_update":"0001-01-01T00:00:00Z","name_a2s":"Uncletopia | London | 1 | All Maps","protocol":17,"map":"koth_harvest_final","folder":"tf","game":"Team Fortress","app_id":440,"player_count":24,"max_players":24,"Bots":0,"server_type":"Dedicated","server_os":"Linux","password":true,"vac":true,"version":"7932396","steam_id":85568392924367362,"keywords":["cp","nocrits","nodmgspread","uncletopia"],"game_id":440,"stv_port":27016,"stv_name":"Uncletopia | London | 1 | All Maps | STV","players":[{"user_id":547,"name":"KLAMA  ❤","steam_id":76561198351549661,"connected_time":3315000000000,"state":"active","ping":77},{"user_id":584,"name":"Wujek Cacek","steam_id":76561198010267943,"connected_time":1290000000000,"state":"active","ping":78},{"user_id":599,"name":"the_Qcumber","steam_id":76561199152515819,"connected_time":252000000000,"state":"active","ping":65},{"user_id":590,"name":"spurdala","steam_id":76561198886546942,"connected_time":792000000000,"state":"active","ping":222},{"user_id":598,"name":"Diogenes Swagus","steam_id":76561198006293325,"connected_time":328000000000,"state":"active","ping":99},{"user_id":572,"name":"BumiiBum","steam_id":76561198210682456,"connected_time":1634000000000,"state":"active","ping":59},{"user_id":592,"name":"Oxer","steam_id":76561198055942412,"connected_time":668000000000,"state":"active","ping":89},{"user_id":595,"name":"Remizer","steam_id":76561198799755616,"connected_time":598000000000,"state":"active","ping":71},{"user_id":568,"name":"Isuurn","steam_id":76561198150201094,"connected_time":1787000000000,"state":"active","ping":78},{"user_id":588,"name":"Small Mouse","steam_id":76561198286085100,"connected_time":851000000000,"state":"active","ping":95},{"user_id":591,"name":"Mau","steam_id":76561198410945277,"connected_time":767000000000,"state":"active","ping":120},{"user_id":587,"name":"Mapavri","steam_id":76561198370196400,"connected_time":947000000000,"state":"active","ping":93},{"user_id":567,"name":"trampampoline","steam_id":76561198121286517,"connected_time":1912000000000,"state":"active","ping":37},{"user_id":554,"name":"walking plane","steam_id":76561198146779559,"connected_time":2908000000000,"state":"active","ping":88},{"user_id":565,"name":"unconditional love","steam_id":76561199026097466,"connected_time":2204000000000,"state":"active","ping":72},{"user_id":492,"name":"FirePenguin","steam_id":76561198151468340,"connected_time":6376000000000,"state":"active","ping":47},{"user_id":435,"name":"TheButterPickle","steam_id":76561198354317787,"connected_time":8924000000000,"state":"active","ping":62},{"user_id":600,"name":"Lensy","steam_id":76561198124442128,"connected_time":51000000000,"state":"active","ping":56},{"user_id":593,"name":"kabahaly","steam_id":76561198113143238,"connected_time":662000000000,"state":"active","ping":129},{"user_id":540,"name":"TheGrayGamer","steam_id":76561198862727465,"connected_time":3708000000000,"state":"active","ping":57},{"user_id":594,"name":"big poo","steam_id":76561198129157178,"connected_time":647000000000,"state":"active","ping":100},{"user_id":563,"name":"Suspicious Cabin","steam_id":76561198083261198,"connected_time":2259000000000,"state":"active","ping":46},{"user_id":597,"name":"Abhorrent","steam_id":76561198056338288,"connected_time":565000000000,"state":"active","ping":45},{"user_id":550,"name":"Steen","steam_id":76561198122992510,"connected_time":3153000000000,"state":"active","ping":33}]},{"server_id":114,"name":"Uncletopia | London | 2 | All Maps","name_short":"lon-2","host":"lon-1.uk.uncletopia.com","port":27025,"enabled":true,"region":"eu","cc":"gb","latitude":51.509865,"longitude":-0.118092,"reserved":0,"last_update":"0001-01-01T00:00:00Z","name_a2s":"Uncletopia | London | 2 | All Maps","protocol":17,"map":"pl_pier","folder":"tf","game":"Team Fortress","app_id":440,"player_count":24,"max_players":24,"Bots":0,"server_type":"Dedicated","server_os":"Linux","password":true,"vac":true,"version":"7932396","steam_id":85568392924470941,"keywords":["nocrits","nodmgspread","payload","uncletopia"],"game_id":440,"stv_port":27026,"stv_name":"Uncletopia | London | 2 | All Maps | STV","players":[{"user_id":421,"name":"that_hatkid","steam_id":76561199103375873,"connected_time":620000000000,"state":"active","ping":74},{"user_id":425,"name":"Zerfesh","steam_id":76561198117534358,"connected_time":283000000000,"state":"active","ping":101},{"user_id":426,"name":"Kakao","steam_id":76561199067659112,"connected_time":131000000000,"state":"active","ping":61},{"user_id":377,"name":"P3rsErkki","steam_id":76561198063093495,"connected_time":3579000000000,"state":"active","ping":66},{"user_id":418,"name":"tired","steam_id":76561198046838168,"connected_time":1320000000000,"state":"active","ping":60},{"user_id":410,"name":"sethlington14","steam_id":76561199438357690,"connected_time":1765000000000,"state":"active","ping":54},{"user_id":409,"name":"Cutlass","steam_id":76561197979392696,"connected_time":1767000000000,"state":"active","ping":57},{"user_id":423,"name":"crafteen","steam_id":76561198362185755,"connected_time":423000000000,"state":"active","ping":32},{"user_id":389,"name":"gerwazyjaworski735","steam_id":76561199489358269,"connected_time":3131000000000,"state":"active","ping":64},{"user_id":361,"name":"ghostie","steam_id":76561199097303487,"connected_time":4823000000000,"state":"active","ping":52},{"user_id":342,"name":"aww yeah","steam_id":76561197992978878,"connected_time":6126000000000,"state":"active","ping":74},{"user_id":419,"name":"Jara.","steam_id":76561197992207165,"connected_time":1201000000000,"state":"active","ping":103},{"user_id":403,"name":"Jørn","steam_id":76561199073257952,"connected_time":2168000000000,"state":"active","ping":95},{"user_id":414,"name":"Cabbch","steam_id":76561198045955679,"connected_time":1652000000000,"state":"active","ping":45},{"user_id":401,"name":"Explosive Poptart","steam_id":76561198023918830,"connected_time":2251000000000,"state":"active","ping":45},{"user_id":415,"name":"breezingthrough","steam_id":76561198032582116,"connected_time":1650000000000,"state":"active","ping":53},{"user_id":416,"name":"Lassie","steam_id":76561198131924713,"connected_time":1648000000000,"state":"active","ping":47},{"user_id":360,"name":"john fortress","steam_id":76561198013237629,"connected_time":4830000000000,"state":"active","ping":94},{"user_id":408,"name":"Kabachok Aeronavt","steam_id":76561198123659806,"connected_time":1879000000000,"state":"active","ping":99},{"user_id":422,"name":"marvs","steam_id":76561198851777617,"connected_time":535000000000,"state":"active","ping":46},{"user_id":255,"name":"JUST","steam_id":76561198069064885,"connected_time":12693000000000,"state":"active","ping":60},{"user_id":424,"name":"Scipionemiliano","steam_id":76561198027646559,"connected_time":415000000000,"state":"active","ping":138},{"user_id":400,"name":"Pierdu","steam_id":76561198028705770,"connected_time":2373000000000,"state":"active","ping":46},{"user_id":369,"name":"big heavy is heavy heavy","steam_id":76561198300059652,"connected_time":4514000000000,"state":"active","ping":63}]},{"server_id":320,"name":"Uncletopia | London | 3 | All Maps","name_short":"lon-3","host":"lon-1.uk.uncletopia.com","port":27035,"enabled":true,"region":"eu","cc":"gb","latitude":51.509865,"longitude":-0.118092,"reserved":0,"last_update":"0001-01-01T00:00:00Z","name_a2s":"Uncletopia | London | 3 | All Maps","protocol":17,"map":"pl_snowycoast","folder":"tf","game":"Team Fortress","app_id":440,"player_count":21,"max_players":24,"Bots":0,"server_type":"Dedicated","server_os":"Linux","password":true,"vac":true,"version":"7932396","steam_id":85568392924510192,"keywords":["nocrits","nodmgspread","payload","uncletopia"],"game_id":440,"stv_port":27036,"stv_name":"Uncletopia | London | 3 | All Maps | STV","players":[{"user_id":315,"name":"maakgis","steam_id":76561198851703804,"connected_time":493000000000,"state":"active","ping":132},{"user_id":302,"name":"Deacon Dracul","steam_id":76561198046880663,"connected_time":1810000000000,"state":"active","ping":97},{"user_id":313,"name":"Son Goku","steam_id":76561199383437138,"connected_time":640000000000,"state":"active","ping":120},{"user_id":283,"name":"Star Fighter","steam_id":76561198027893319,"connected_time":3353000000000,"state":"active","ping":51},{"user_id":319,"name":"dotdotdot","steam_id":76561198057628751,"connected_time":27000000000,"state":"active","ping":60},{"user_id":316,"name":"ender45","steam_id":76561198840955715,"connected_time":466000000000,"state":"active","ping":30},{"user_id":264,"name":"silicon based life form","steam_id":76561199127121346,"connected_time":4750000000000,"state":"active","ping":56},{"user_id":320,"name":"Rook","steam_id":76561197995204779,"connected_time":4000000000,"state":"spawning","ping":45},{"user_id":235,"name":"hmscole09","steam_id":76561198811362788,"connected_time":8147000000000,"state":"active","ping":55},{"user_id":281,"name":"Sarahtonin","steam_id":76561197992144115,"connected_time":3731000000000,"state":"active","ping":75},{"user_id":244,"name":"mesλ","steam_id":76561198324582918,"connected_time":6832000000000,"state":"active","ping":93},{"user_id":295,"name":"Arkheid","steam_id":76561198063066081,"connected_time":2668000000000,"state":"active","ping":69},{"user_id":225,"name":"IndigoJones","steam_id":76561198050284262,"connected_time":8326000000000,"state":"active","ping":45},{"user_id":304,"name":"Pantroglodytestherapy","steam_id":76561198236015392,"connected_time":1492000000000,"state":"active","ping":120},{"user_id":317,"name":"femboy enjoyer","steam_id":76561199041737814,"connected_time":57000000000,"state":"active","ping":37},{"user_id":232,"name":"Grillem Dafoe","steam_id":76561198306874574,"connected_time":8233000000000,"state":"active","ping":63},{"user_id":240,"name":"Snake-chan","steam_id":76561199044755854,"connected_time":7510000000000,"state":"active","ping":83},{"user_id":277,"name":"Skuld","steam_id":76561198064734905,"connected_time":3991000000000,"state":"active","ping":105},{"user_id":318,"name":"Gety0","steam_id":76561198044387185,"connected_time":51000000000,"state":"active","ping":93},{"user_id":263,"name":"Heed","steam_id":76561198033605800,"connected_time":4784000000000,"state":"active","ping":75},{"user_id":299,"name":"zoinks!","steam_id":76561198068645362,"connected_time":2224000000000,"state":"active","ping":41}]},{"server_id":321,"name":"Uncletopia | London | 4 | All Maps","name_short":"lon-4","host":"lon-1.uk.uncletopia.com","port":27045,"enabled":true,"region":"eu","cc":"gb","latitude":51.509865,"longitude":-0.118092,"reserved":0,"last_update":"0001-01-01T00:00:00Z","name_a2s":"Uncletopia | London | 4 | All Maps","protocol":17,"map":"pl_borneo","folder":"tf","game":"Team Fortress","app_id":440,"player_count":24,"max_players":24,"Bots":0,"server_type":"Dedicated","server_os":"Linux","password":true,"vac":true,"version":"7932396","steam_id":85568392924510193,"keywords":["nocrits","nodmgspread","payload","uncletopia"],"game_id":440,"stv_port":27046,"stv_name":"Uncletopia | London | 4 | All Maps | STV","players":[{"user_id":63,"name":"Moonkey","steam_id":76561199013741389,"connected_time":1030000000000,"state":"active","ping":108},{"user_id":65,"name":"Osmo","steam_id":76561199286764992,"connected_time":994000000000,"state":"active","ping":81},{"user_id":66,"name":"Femboy Melooni","steam_id":76561199035732179,"connected_time":897000000000,"state":"active","ping":87},{"user_id":62,"name":"vanillabarrel","steam_id":76561199242251815,"connected_time":1082000000000,"state":"active","ping":74},{"user_id":50,"name":"Grand Admiral Thrawn","steam_id":76561198302019412,"connected_time":2290000000000,"state":"active","ping":64},{"user_id":75,"name":"369","steam_id":76561198149967445,"connected_time":386000000000,"state":"active","ping":33},{"user_id":64,"name":"Uselss Joe","steam_id":76561198275853629,"connected_time":1006000000000,"state":"active","ping":60},{"user_id":76,"name":"Sanity Issues","steam_id":76561198041535987,"connected_time":369000000000,"state":"active","ping":92},{"user_id":69,"name":"WaDIP","steam_id":76561198010270494,"connected_time":704000000000,"state":"active","ping":82},{"user_id":74,"name":"kinimon","steam_id":76561198178453270,"connected_time":467000000000,"state":"active","ping":38},{"user_id":70,"name":"xpitipitx","steam_id":76561198343333412,"connected_time":667000000000,"state":"active","ping":95},{"user_id":78,"name":"margaret thatcher's girl power","steam_id":76561199401283123,"connected_time":227000000000,"state":"active","ping":54},{"user_id":58,"name":"1couver","steam_id":76561198168553215,"connected_time":1358000000000,"state":"active","ping":104},{"user_id":54,"name":"Krat","steam_id":76561198171765813,"connected_time":2058000000000,"state":"active","ping":76},{"user_id":35,"name":"Bottle O' Scrumpy","steam_id":76561199244250562,"connected_time":2747000000000,"state":"active","ping":104},{"user_id":71,"name":"Pogi820","steam_id":76561198320573568,"connected_time":654000000000,"state":"active","ping":108},{"user_id":38,"name":"Lola bunny","steam_id":76561198214149431,"connected_time":2653000000000,"state":"active","ping":69},{"user_id":40,"name":"OnlyFans Geezer","steam_id":76561198208093880,"connected_time":2631000000000,"state":"active","ping":52},{"user_id":72,"name":"Bepperman","steam_id":76561198397517828,"connected_time":597000000000,"state":"active","ping":54},{"user_id":42,"name":"Noob_with_source","steam_id":76561198870362103,"connected_time":2606000000000,"state":"active","ping":57},{"user_id":49,"name":"LainBizkit","steam_id":76561199200708626,"connected_time":2322000000000,"state":"active","ping":120},{"user_id":77,"name":"C.H.E.R.E.P.","steam_id":76561198026938595,"connected_time":336000000000,"state":"active","ping":80},{"user_id":73,"name":"spxcy","steam_id":76561198080296853,"connected_time":585000000000,"state":"active","ping":85},{"user_id":79,"name":"TAFI03","steam_id":76561198213082089,"connected_time":218000000000,"state":"active","ping":83}]},{"server_id":21,"name":"Uncletopia | London | 5 | All Maps","name_short":"lon-5","host":"lon-1.uk.uncletopia.com","port":27055,"enabled":true,"region":"eu","cc":"gb","latitude":51.509865,"longitude":-0.118092,"reserved":0,"last_update":"0001-01-01T00:00:00Z","name_a2s":"Uncletopia | London | 5 | All Maps","protocol":17,"map":"pl_pier","folder":"tf","game":"Team Fortress","app_id":440,"player_count":23,"max_players":24,"Bots":0,"server_type":"Dedicated","server_os":"Linux","password":true,"vac":true,"version":"7932396","steam_id":85568392924742829,"keywords":["nocrits","nodmgspread","payload","uncletopia"],"game_id":440,"stv_port":27056,"stv_name":"Uncletopia | London | 5 | All Maps | STV","players":[{"user_id":318,"name":"Grim the lemon","steam_id":76561199083433988,"connected_time":5999000000000,"state":"active","ping":47},{"user_id":404,"name":"Dr. Funkenstein","steam_id":76561197977816210,"connected_time":288000000000,"state":"active","ping":61},{"user_id":394,"name":"Ryter","steam_id":76561198396279597,"connected_time":621000000000,"state":"active","ping":93},{"user_id":323,"name":"profreshional cactus","steam_id":76561198837919828,"connected_time":5576000000000,"state":"active","ping":106},{"user_id":402,"name":"American Bottas","steam_id":76561198324268871,"connected_time":389000000000,"state":"active","ping":71},{"user_id":396,"name":"ArikMor","steam_id":76561199124472513,"connected_time":499000000000,"state":"active","ping":164},{"user_id":403,"name":"gub","steam_id":76561198171178427,"connected_time":386000000000,"state":"active","ping":85},{"user_id":408,"name":"\u003c blank \u003e","steam_id":76561198059375315,"connected_time":64000000000,"state":"active","ping":77},{"user_id":399,"name":"panakid","steam_id":76561198364121077,"connected_time":463000000000,"state":"active","ping":99},{"user_id":389,"name":"beef estrogenoff","steam_id":76561198106455841,"connected_time":1124000000000,"state":"active","ping":73},{"user_id":348,"name":"magnos62564","steam_id":76561198356968225,"connected_time":3939000000000,"state":"active","ping":74},{"user_id":391,"name":"BALLS ITCH","steam_id":76561199078330622,"connected_time":1047000000000,"state":"active","ping":92},{"user_id":392,"name":"ThaumielAT","steam_id":76561199488559560,"connected_time":1009000000000,"state":"active","ping":108},{"user_id":401,"name":"EST_R33kid","steam_id":76561198947039734,"connected_time":445000000000,"state":"active","ping":86},{"user_id":373,"name":"Dicartal","steam_id":76561198295793592,"connected_time":2802000000000,"state":"active","ping":141},{"user_id":381,"name":"Buddy","steam_id":76561198050185582,"connected_time":2039000000000,"state":"active","ping":59},{"user_id":405,"name":"PASTAMAN!!!","steam_id":76561198995641765,"connected_time":276000000000,"state":"active","ping":61},{"user_id":352,"name":"gneeda","steam_id":76561198147249160,"connected_time":3806000000000,"state":"active","ping":106},{"user_id":341,"name":"Hexagon","steam_id":76561198151205758,"connected_time":4660000000000,"state":"active","ping":58},{"user_id":375,"name":"Akuzoru","steam_id":76561198319963090,"connected_time":2793000000000,"state":"active","ping":135},{"user_id":386,"name":"♂ Animan ♂ Studios ♂","steam_id":76561198308302932,"connected_time":1769000000000,"state":"active","ping":105},{"user_id":377,"name":"vurtun","steam_id":76561198857395274,"connected_time":2786000000000,"state":"active","ping":60},{"user_id":407,"name":"Dr.Sees [F2P]","steam_id":76561199219233587,"connected_time":144000000000,"state":"active","ping":81}]},{"server_id":22,"name":"Uncletopia | London | 6 | All Maps","name_short":"lon-6","host":"lon-1.uk.uncletopia.com","port":27065,"enabled":true,"region":"eu","cc":"gb","latitude":51.509865,"longitude":-0.118092,"reserved":0,"last_update":"0001-01-01T00:00:00Z","name_a2s":"Uncletopia | London | 6 | All Maps","protocol":17,"map":"pl_upward","folder":"tf","game":"Team Fortress","app_id":440,"player_count":15,"max_players":24,"Bots":0,"server_type":"Dedicated","server_os":"Linux","password":true,"vac":true,"version":"7932396","steam_id":85568392924742830,"keywords":["nocrits","nodmgspread","payload","uncletopia"],"game_id":440,"stv_port":27066,"stv_name":"Uncletopia | London | 6 | All Maps | STV","players":[{"user_id":222,"name":"Lucky_Pierre","steam_id":76561197965662752,"connected_time":2000000000,"state":"spawning","ping":38},{"user_id":220,"name":"tadzikkuba","steam_id":76561198389799459,"connected_time":206000000000,"state":"active","ping":105},{"user_id":217,"name":"twisted","steam_id":76561198039685348,"connected_time":407000000000,"state":"active","ping":49},{"user_id":221,"name":"Axord","steam_id":76561199289652176,"connected_time":99000000000,"state":"active","ping":67},{"user_id":177,"name":"mr cock","steam_id":76561198857396812,"connected_time":2999000000000,"state":"active","ping":52},{"user_id":186,"name":"Milosz52","steam_id":76561199060940204,"connected_time":2761000000000,"state":"active","ping":84},{"user_id":216,"name":"yeah","steam_id":76561197976345859,"connected_time":444000000000,"state":"active","ping":59},{"user_id":135,"name":"kornetov.vitalya","steam_id":76561199286034833,"connected_time":5486000000000,"state":"active","ping":99},{"user_id":209,"name":"XuMuK","steam_id":76561198102102340,"connected_time":970000000000,"state":"active","ping":85},{"user_id":211,"name":"Puss in Boots","steam_id":76561198211599767,"connected_time":881000000000,"state":"active","ping":53},{"user_id":198,"name":"Pootis penser","steam_id":76561198944032480,"connected_time":1949000000000,"state":"active","ping":99},{"user_id":213,"name":"cuzimlatin2704","steam_id":76561199094752899,"connected_time":697000000000,"state":"active","ping":137},{"user_id":214,"name":"old_bones9987","steam_id":76561199082469077,"connected_time":572000000000,"state":"active","ping":156},{"user_id":199,"name":"Faraday's Law","steam_id":76561198105385977,"connected_time":1858000000000,"state":"active","ping":73},{"user_id":166,"name":"dogs_drink_water","steam_id":76561198296630670,"connected_time":4416000000000,"state":"active","ping":64}]},{"server_id":40,"name":"Uncletopia | London | 7 | No Payload","name_short":"lon-7","host":"lon-1.uk.uncletopia.com","port":27075,"enabled":true,"region":"eu","cc":"gb","latitude":51.509865,"longitude":-0.118092,"reserved":0,"last_update":"0001-01-01T00:00:00Z","name_a2s":"Uncletopia | London | 7 | No Payload","protocol":17,"map":"koth_harvest_final","folder":"tf","game":"Team Fortress","app_id":440,"player_count":24,"max_players":24,"Bots":0,"server_type":"Dedicated","server_os":"Linux","password":true,"vac":true,"version":"7932396","steam_id":85568392924964314,"keywords":["cp","nocrits","nodmgspread","uncletopia"],"game_id":440,"stv_port":27076,"stv_name":"Uncletopia | London | 7 | No Payload | STV","players":[{"user_id":61,"name":"The Bread Bringer","steam_id":76561198264079743,"connected_time":7293000000000,"state":"active","ping":43},{"user_id":130,"name":"MajorKlebstoff","steam_id":76561198035489363,"connected_time":1605000000000,"state":"active","ping":60},{"user_id":114,"name":"Apatoi","steam_id":76561198148394270,"connected_time":2330000000000,"state":"active","ping":55},{"user_id":153,"name":"ldshwt","steam_id":76561198090364357,"connected_time":157000000000,"state":"active","ping":59},{"user_id":125,"name":"OrofMeister","steam_id":76561198262138886,"connected_time":1827000000000,"state":"active","ping":83},{"user_id":140,"name":"Porsche 911 Turbo S","steam_id":76561198108379136,"connected_time":814000000000,"state":"active","ping":136},{"user_id":139,"name":"Robit","steam_id":76561198079630666,"connected_time":842000000000,"state":"active","ping":65},{"user_id":120,"name":"Lion Doge","steam_id":76561198130701252,"connected_time":1937000000000,"state":"active","ping":82},{"user_id":154,"name":"timvs5","steam_id":76561198136646312,"connected_time":91000000000,"state":"active","ping":59},{"user_id":155,"name":"ЕМ НАВОЗ","steam_id":76561199221738111,"connected_time":73000000000,"state":"active","ping":99},{"user_id":115,"name":"CamWil2022","steam_id":76561198810377531,"connected_time":2270000000000,"state":"active","ping":68},{"user_id":144,"name":"Dyfed","steam_id":76561198055389492,"connected_time":543000000000,"state":"active","ping":44},{"user_id":133,"name":"WolfmanCZ","steam_id":76561199157141414,"connected_time":1307000000000,"state":"active","ping":75},{"user_id":156,"name":"bean","steam_id":76561198161013815,"connected_time":59000000000,"state":"active","ping":58},{"user_id":113,"name":"President MGE","steam_id":76561198406320611,"connected_time":2508000000000,"state":"active","ping":52},{"user_id":128,"name":"Marti_2115","steam_id":76561198260916346,"connected_time":1719000000000,"state":"active","ping":85},{"user_id":119,"name":"Tiberius Bingleton","steam_id":76561198855873744,"connected_time":1940000000000,"state":"active","ping":50},{"user_id":157,"name":"NAX","steam_id":76561198216856653,"connected_time":42000000000,"state":"active","ping":45},{"user_id":158,"name":"Clitorina","steam_id":76561198077570815,"connected_time":40000000000,"state":"active","ping":39},{"user_id":123,"name":"_Cpt.Decoder_","steam_id":76561198236937010,"connected_time":1851000000000,"state":"active","ping":93},{"user_id":126,"name":"UnusedEngine","steam_id":76561199281868902,"connected_time":1820000000000,"state":"active","ping":59},{"user_id":127,"name":"Adopted?","steam_id":76561198118667043,"connected_time":1812000000000,"state":"active","ping":39},{"user_id":149,"name":"mt","steam_id":76561197961319303,"connected_time":488000000000,"state":"active","ping":72},{"user_id":150,"name":"Zazou","steam_id":76561198028076362,"connected_time":485000000000,"state":"active","ping":60}]},{"server_id":41,"name":"Uncletopia | London | 8 | Community","name_short":"lon-8","host":"lon-1.uk.uncletopia.com","port":27085,"enabled":true,"region":"eu","cc":"gb","latitude":51.509865,"longitude":-0.118092,"reserved":0,"last_update":"0001-01-01T00:00:00Z","name_a2s":"Uncletopia | London | 8 | Community","protocol":17,"map":"workshop/koth_slaughter_rc1.ugc1712845210","folder":"tf","game":"Team Fortress","app_id":440,"player_count":0,"max_players":24,"Bots":0,"server_type":"Dedicated","server_os":"Linux","password":true,"vac":true,"version":"7932396","steam_id":85568392924964315,"keywords":["cp","nocrits","nodmgspread","uncletopia"],"game_id":440,"stv_port":27086,"stv_name":"Uncletopia | London | 8 | Community | STV","players":null},{"server_id":300,"name":"Uncletopia | Montréal | 1 | All Maps","name_short":"mtl-1","host":"mtl-1.ca.uncletopia.com","port":27015,"enabled":true,"region":"us-east","cc":"ca","latitude":45.50889,"longitude":-73.56167,"reserved":0,"last_update":"0001-01-01T00:00:00Z","name_a2s":"Uncletopia | Montréal | 1 | All Maps","protocol":17,"map":"koth_cascade","folder":"tf","game":"Team Fortress","app_id":440,"player_count":0,"max_players":24,"Bots":0,"server_type":"Dedicated","server_os":"Linux","password":true,"vac":true,"version":"7932396","steam_id":85568392924500087,"keywords":["cp","nocrits","nodmgspread","uncletopia"],"game_id":440,"stv_port":27016,"stv_name":"Uncletopia | Montréal | 1 | All Maps | STV","players":null},{"server_id":301,"name":"Uncletopia | Montréal | 2 | All Maps","name_short":"mtl-2","host":"mtl-1.ca.uncletopia.com","port":27025,"enabled":true,"region":"us-east","cc":"ca","latitude":45.50889,"longitude":-73.56167,"reserved":0,"last_update":"0001-01-01T00:00:00Z","name_a2s":"Uncletopia | Montréal | 2 | All Maps","protocol":17,"map":"koth_lakeside_final","folder":"tf","game":"Team Fortress","app_id":440,"player_count":0,"max_players":24,"Bots":0,"server_type":"Dedicated","server_os":"Linux","password":true,"vac":true,"version":"7932396","steam_id":85568392924500088,"keywords":["cp","nocrits","nodmgspread","uncletopia"],"game_id":440,"stv_port":27026,"stv_name":"Uncletopia | Montréal | 2 | All Maps | STV","players":null},{"server_id":302,"name":"Uncletopia | Montréal | 3 | All Maps","name_short":"mtl-3","host":"mtl-1.ca.uncletopia.com","port":27035,"enabled":true,"region":"us-east","cc":"ca","latitude":45.50889,"longitude":-73.56167,"reserved":0,"last_update":"0001-01-01T00:00:00Z","name_a2s":"Uncletopia | Montréal | 3 | All Maps","protocol":17,"map":"cp_process_final","folder":"tf","game":"Team Fortress","app_id":440,"player_count":0,"max_players":24,"Bots":0,"server_type":"Dedicated","server_os":"Linux","password":true,"vac":true,"version":"7932396","steam_id":85568392924500089,"keywords":["cp","nocrits","nodmgspread","uncletopia"],"game_id":440,"stv_port":27036,"stv_name":"Uncletopia | Montréal | 3 | All Maps | STV","players":null},{"server_id":303,"name":"Uncletopia | Montréal | 4 | No Payload","name_short":"mtl-4","host":"mtl-1.ca.uncletopia.com","port":27045,"enabled":true,"region":"us-east","cc":"ca","latitude":45.50889,"longitude":-73.56167,"reserved":0,"last_update":"0001-01-01T00:00:00Z","name_a2s":"Uncletopia | Montréal | 4 | No Payload","protocol":17,"map":"cp_snakewater_final1","folder":"tf","game":"Team Fortress","app_id":440,"player_count":0,"max_players":24,"Bots":0,"server_type":"Dedicated","server_os":"Linux","password":true,"vac":true,"version":"7932396","steam_id":85568392924500090,"keywords":["cp","nocrits","nodmgspread","uncletopia"],"game_id":440,"stv_port":27046,"stv_name":"Uncletopia | Montréal | 4 | No Payload | STV","players":null},{"server_id":13,"name":"Uncletopia | New York City | 1 | All Maps","name_short":"nyc-1","host":"nyc-1.us.uncletopia.com","port":27015,"enabled":true,"region":"us-east","cc":"us","latitude":40.73061,"longitude":-73.93524,"reserved":0,"last_update":"0001-01-01T00:00:00Z","name_a2s":"Uncletopia | New York City | 1 | All Maps","protocol":17,"map":"pl_snowycoast","folder":"tf","game":"Team Fortress","app_id":440,"player_count":24,"max_players":24,"Bots":0,"server_type":"Dedicated","server_os":"Linux","password":true,"vac":true,"version":"7932396","steam_id":85568392924469993,"keywords":["nocrits","nodmgspread","payload","uncletopia"],"game_id":440,"stv_port":27016,"stv_name":"Uncletopia | New York City | 1 | All Maps | STV","players":[{"user_id":10,"name":"B∞p | ❤Fasto❤","steam_id":76561198118298527,"connected_time":5062000000000,"state":"active","ping":148},{"user_id":74,"name":"Cheesi","steam_id":76561199417190840,"connected_time":1056000000000,"state":"active","ping":80},{"user_id":69,"name":"Huey","steam_id":76561198972816386,"connected_time":1334000000000,"state":"active","ping":90},{"user_id":13,"name":"B∞p | ❤Hina❤","steam_id":76561198058465921,"connected_time":5051000000000,"state":"active","ping":120},{"user_id":14,"name":"get scrongled, idiot","steam_id":76561198115874625,"connected_time":4982000000000,"state":"active","ping":51},{"user_id":75,"name":"Cynicalrage #TF2center","steam_id":76561198085805532,"connected_time":1036000000000,"state":"active","ping":61},{"user_id":63,"name":"Lil' Diabeetus","steam_id":76561198330119627,"connected_time":1821000000000,"state":"active","ping":75},{"user_id":66,"name":"XD_ChaChingXD","steam_id":76561199103086783,"connected_time":1637000000000,"state":"active","ping":78},{"user_id":71,"name":"bear","steam_id":76561198301165813,"connected_time":1318000000000,"state":"active","ping":70},{"user_id":89,"name":"Norman","steam_id":76561198154715990,"connected_time":448000000000,"state":"active","ping":105},{"user_id":91,"name":"happs (God is good)","steam_id":76561198364093418,"connected_time":47000000000,"state":"active","ping":103},{"user_id":73,"name":"Meerkat","steam_id":76561199245435539,"connected_time":1104000000000,"state":"active","ping":116},{"user_id":90,"name":"round and puntable","steam_id":76561198392539722,"connected_time":387000000000,"state":"active","ping":99},{"user_id":87,"name":"FLORAL COMPUTING","steam_id":76561199056492130,"connected_time":657000000000,"state":"active","ping":63},{"user_id":60,"name":"TOBY!!!","steam_id":76561199380822531,"connected_time":1945000000000,"state":"active","ping":74},{"user_id":86,"name":"Shame","steam_id":76561198100490994,"connected_time":794000000000,"state":"active","ping":69},{"user_id":78,"name":"rainbowmaster25!","steam_id":76561199215255414,"connected_time":976000000000,"state":"active","ping":101},{"user_id":29,"name":"Wire  Bash","steam_id":76561198033268371,"connected_time":4293000000000,"state":"active","ping":136},{"user_id":85,"name":"Nova","steam_id":76561198201444213,"connected_time":847000000000,"state":"active","ping":85},{"user_id":80,"name":"Dead People Are Unable To Live","steam_id":76561198443172836,"connected_time":964000000000,"state":"active","ping":49},{"user_id":32,"name":"woople","steam_id":76561198076625889,"connected_time":4249000000000,"state":"active","ping":146},{"user_id":88,"name":"StonedGiant","steam_id":76561197984386932,"connected_time":636000000000,"state":"active","ping":69},{"user_id":82,"name":"SeaBass","steam_id":76561198278914206,"connected_time":961000000000,"state":"active","ping":88},{"user_id":83,"name":"Jade Greenleaf","steam_id":76561198304845413,"connected_time":945000000000,"state":"active","ping":90}]},{"server_id":14,"name":"Uncletopia | New York City | 2 | All Maps","name_short":"nyc-2","host":"nyc-1.us.uncletopia.com","port":27025,"enabled":true,"region":"us-east","cc":"us","latitude":40.73061,"longitude":-73.93524,"reserved":0,"last_update":"0001-01-01T00:00:00Z","name_a2s":"Uncletopia | New York City | 2 | All Maps","protocol":17,"map":"pl_snowycoast","folder":"tf","game":"Team Fortress","app_id":440,"player_count":24,"max_players":24,"Bots":0,"server_type":"Dedicated","server_os":"Linux","password":true,"vac":true,"version":"7932396","steam_id":85568392924469994,"keywords":["nocrits","nodmgspread","payload","uncletopia"],"game_id":440,"stv_port":27026,"stv_name":"Uncletopia | New York City | 2 | All Maps | STV","players":[{"user_id":187,"name":"Snake Handler","steam_id":76561198027198306,"connected_time":3632000000000,"state":"active","ping":62},{"user_id":230,"name":"acid","steam_id":76561198055855408,"connected_time":282000000000,"state":"active","ping":60},{"user_id":222,"name":"Spicey","steam_id":76561198039548756,"connected_time":1464000000000,"state":"active","ping":60},{"user_id":221,"name":"Overlooked","steam_id":76561199072155749,"connected_time":1581000000000,"state":"active","ping":91},{"user_id":181,"name":"artichoke","steam_id":76561198980994364,"connected_time":4186000000000,"state":"active","ping":86},{"user_id":231,"name":"Ursus Ludius","steam_id":76561198025470722,"connected_time":251000000000,"state":"active","ping":68},{"user_id":219,"name":"snub","steam_id":76561198312106312,"connected_time":1819000000000,"state":"active","ping":118},{"user_id":224,"name":"Penis Chopper","steam_id":76561199016999537,"connected_time":1018000000000,"state":"active","ping":107},{"user_id":190,"name":"Qrbrbrbl","steam_id":76561197999497203,"connected_time":3337000000000,"state":"active","ping":90},{"user_id":214,"name":"Tyranitar9999","steam_id":76561198071637331,"connected_time":2033000000000,"state":"active","ping":61},{"user_id":223,"name":"bortion bortion bortion bortion","steam_id":76561198044034546,"connected_time":1098000000000,"state":"active","ping":65},{"user_id":194,"name":"TDuke","steam_id":76561198826785435,"connected_time":3293000000000,"state":"active","ping":62},{"user_id":218,"name":"Ranswon Swanson","steam_id":76561199489382664,"connected_time":1962000000000,"state":"active","ping":178},{"user_id":216,"name":"LWebb","steam_id":76561199162936929,"connected_time":2025000000000,"state":"active","ping":128},{"user_id":232,"name":"lester","steam_id":76561198170710713,"connected_time":88000000000,"state":"active","ping":76},{"user_id":220,"name":"Kirbs","steam_id":76561198970654800,"connected_time":1751000000000,"state":"active","ping":46},{"user_id":200,"name":"𝒆𝒗𝒊𝒍ArnoldGamingﾠ","steam_id":76561198040140247,"connected_time":3122000000000,"state":"active","ping":88},{"user_id":201,"name":"you forgot the sauce","steam_id":76561198387016713,"connected_time":3097000000000,"state":"active","ping":55},{"user_id":205,"name":"The World's Softest Sandwich","steam_id":76561198015577707,"connected_time":2979000000000,"state":"active","ping":91},{"user_id":203,"name":"euphoricfilth","steam_id":76561198100160865,"connected_time":3026000000000,"state":"active","ping":46},{"user_id":206,"name":"Fresh Lychee","steam_id":76561198045399559,"connected_time":2977000000000,"state":"active","ping":70},{"user_id":226,"name":"Utopia","steam_id":76561198330205913,"connected_time":767000000000,"state":"active","ping":64},{"user_id":209,"name":"Dusklight","steam_id":76561198036982638,"connected_time":2900000000000,"state":"active","ping":92},{"user_id":229,"name":"WastefulTrash","steam_id":76561198119003597,"connected_time":713000000000,"state":"active","ping":80}]},{"server_id":15,"name":"Uncletopia | New York City | 3 | Stopwatch Beta","name_short":"nyc-3","host":"nyc-1.us.uncletopia.com","port":27035,"enabled":true,"region":"us-east","cc":"us","latitude":40.73061,"longitude":-73.93524,"reserved":0,"last_update":"0001-01-01T00:00:00Z","name_a2s":"Uncletopia | New York City | 3 | Stopwatch Beta","protocol":17,"map":"cp_sunshine","folder":"tf","game":"Team Fortress","app_id":440,"player_count":0,"max_players":24,"Bots":0,"server_type":"Dedicated","server_os":"Linux","password":true,"vac":true,"version":"7932396","steam_id":85568392924742820,"keywords":["cp","nocrits","nodmgspread","uncletopia"],"game_id":440,"stv_port":27036,"stv_name":"Uncletopia | New York City | 3 | Stopwatch Beta | STV","players":null},{"server_id":16,"name":"Uncletopia | New York City | 4 | Community","name_short":"nyc-4","host":"nyc-1.us.uncletopia.com","port":27045,"enabled":true,"region":"us-east","cc":"us","latitude":40.73061,"longitude":-73.93524,"reserved":0,"last_update":"0001-01-01T00:00:00Z","name_a2s":"Uncletopia | New York City | 4 | Community","protocol":17,"map":"workshop/cp_glacier_rc6.ugc2905735376","folder":"tf","game":"Team Fortress","app_id":440,"player_count":0,"max_players":24,"Bots":0,"server_type":"Dedicated","server_os":"Linux","password":true,"vac":true,"version":"7932396","steam_id":85568392924742821,"keywords":["cp","nocrits","nodmgspread","uncletopia"],"game_id":440,"stv_port":27046,"stv_name":"Uncletopia | New York City | 4 | Community | STV","players":null},{"server_id":142,"name":"Uncletopia | São Paulo | 1 | All Maps","name_short":"sao-1","host":"sao-1.br.uncletopia.com","port":27015,"enabled":true,"region":"sa","cc":"br","latitude":-23.533773,"longitude":-46.62529,"reserved":0,"last_update":"0001-01-01T00:00:00Z","name_a2s":"Uncletopia | São Paulo | 1 | All Maps","protocol":17,"map":"koth_viaduct","folder":"tf","game":"Team Fortress","app_id":440,"player_count":0,"max_players":24,"Bots":0,"server_type":"Dedicated","server_os":"Linux","password":true,"vac":true,"version":"7932396","steam_id":85568392924469996,"keywords":["cp","nocrits","nodmgspread","uncletopia"],"game_id":440,"stv_port":27016,"stv_name":"Uncletopia | São Paulo | 1 | All Maps | STV","players":null},{"server_id":143,"name":"Uncletopia | São Paulo | 2 | All Maps","name_short":"sao-2","host":"sao-2.br.uncletopia.com","port":27015,"enabled":true,"region":"sa","cc":"br","latitude":-23.533773,"longitude":-46.62529,"reserved":0,"last_update":"0001-01-01T00:00:00Z","name_a2s":"Uncletopia | São Paulo | 2 | All Maps","protocol":17,"map":"cp_dustbowl","folder":"tf","game":"Team Fortress","app_id":440,"player_count":0,"max_players":24,"Bots":0,"server_type":"Dedicated","server_os":"Linux","password":true,"vac":true,"version":"7932396","steam_id":85568392924485349,"keywords":["cp","nocrits","nodmgspread","uncletopia"],"game_id":440,"stv_port":27016,"stv_name":"Uncletopia | São Paulo | 2 | All Maps | STV","players":null},{"server_id":7,"name":"Uncletopia | Seattle | 1 | All Maps","name_short":"sea-1","host":"sea-1.us.uncletopia.com","port":27015,"enabled":true,"region":"us-west","cc":"us","latitude":47.608013,"longitude":-122.33517,"reserved":0,"last_update":"0001-01-01T00:00:00Z","name_a2s":"Uncletopia | Seattle | 1 | All Maps","protocol":17,"map":"cp_gorge","folder":"tf","game":"Team Fortress","app_id":440,"player_count":23,"max_players":24,"Bots":0,"server_type":"Dedicated","server_os":"Linux","password":true,"vac":true,"version":"7932396","steam_id":85568392924469997,"keywords":["cp","nocrits","nodmgspread","uncletopia"],"game_id":440,"stv_port":27016,"stv_name":"Uncletopia | Seattle | 1 | All Maps | STV","players":[{"user_id":138,"name":"captain red","steam_id":76561198191587983,"connected_time":2503000000000,"state":"active","ping":84},{"user_id":95,"name":"Goldensliv","steam_id":76561198161673891,"connected_time":7670000000000,"state":"active","ping":54},{"user_id":160,"name":"team foolery 2","steam_id":76561199118049168,"connected_time":139000000000,"state":"active","ping":76},{"user_id":151,"name":"jammy nutrient boy genius","steam_id":76561198165086917,"connected_time":801000000000,"state":"active","ping":74},{"user_id":114,"name":"Goth Spy Boyfriend","steam_id":76561198104086771,"connected_time":5809000000000,"state":"active","ping":67},{"user_id":8,"name":"CoffeeZombee","steam_id":76561198172708053,"connected_time":13614000000000,"state":"active","ping":131},{"user_id":9,"name":"Flippityflop","steam_id":76561198086692908,"connected_time":13602000000000,"state":"active","ping":120},{"user_id":132,"name":"Lucas","steam_id":76561198399704604,"connected_time":3179000000000,"state":"active","ping":76},{"user_id":142,"name":"abcdefghijklmnopqrstuvwxyz","steam_id":76561198175741741,"connected_time":2325000000000,"state":"active","ping":65},{"user_id":155,"name":"Corpe","steam_id":76561198054490549,"connected_time":372000000000,"state":"active","ping":56},{"user_id":156,"name":"HaphazardHazel","steam_id":76561198316812693,"connected_time":355000000000,"state":"active","ping":135},{"user_id":133,"name":"MegaBitmap","steam_id":76561198086027059,"connected_time":3176000000000,"state":"active","ping":75},{"user_id":126,"name":"Themasterman75","steam_id":76561199385573293,"connected_time":3997000000000,"state":"active","ping":71},{"user_id":161,"name":"Birdman743","steam_id":76561198799636748,"connected_time":115000000000,"state":"active","ping":59},{"user_id":70,"name":"Sprit ♥","steam_id":76561198268780781,"connected_time":9332000000000,"state":"active","ping":103},{"user_id":153,"name":"griffy","steam_id":76561198858732642,"connected_time":416000000000,"state":"active","ping":58},{"user_id":162,"name":"Ryld","steam_id":76561198010174380,"connected_time":102000000000,"state":"active","ping":66},{"user_id":147,"name":"Oldengie","steam_id":76561199074712665,"connected_time":1478000000000,"state":"active","ping":80},{"user_id":127,"name":"Mario","steam_id":76561198321794277,"connected_time":3957000000000,"state":"active","ping":73},{"user_id":157,"name":"Medical Breakthrough","steam_id":76561198171718019,"connected_time":345000000000,"state":"active","ping":84},{"user_id":137,"name":"DrD","steam_id":76561198067266383,"connected_time":2525000000000,"state":"active","ping":38},{"user_id":154,"name":"Truly Cryo","steam_id":76561198347497484,"connected_time":400000000000,"state":"active","ping":139},{"user_id":158,"name":"Salazar9","steam_id":76561198049903973,"connected_time":262000000000,"state":"active","ping":55}]},{"server_id":119,"name":"Uncletopia | Seattle | 2 | All Maps","name_short":"sea-2","host":"sea-1.us.uncletopia.com","port":27025,"enabled":true,"region":"us-west","cc":"us","latitude":47.608013,"longitude":-122.33517,"reserved":0,"last_update":"0001-01-01T00:00:00Z","name_a2s":"Uncletopia | Seattle | 2 | All Maps","protocol":17,"map":"pl_borneo","folder":"tf","game":"Team Fortress","app_id":440,"player_count":24,"max_players":24,"Bots":0,"server_type":"Dedicated","server_os":"Linux","password":true,"vac":true,"version":"7932396","steam_id":85568392924469998,"keywords":["nocrits","nodmgspread","payload","uncletopia"],"game_id":440,"stv_port":27026,"stv_name":"Uncletopia | Seattle | 2 | All Maps | STV","players":[{"user_id":117,"name":"Apathetica","steam_id":76561197978237633,"connected_time":751000000000,"state":"active","ping":59},{"user_id":115,"name":"sagekiss","steam_id":76561198038831240,"connected_time":1054000000000,"state":"active","ping":57},{"user_id":113,"name":"Hans","steam_id":76561199024079388,"connected_time":1139000000000,"state":"active","ping":45},{"user_id":132,"name":"Nadnerp \u003c3","steam_id":76561198030189225,"connected_time":87000000000,"state":"active","ping":54},{"user_id":119,"name":"A Very Confused Gentleman","steam_id":76561198051686391,"connected_time":554000000000,"state":"active","ping":105},{"user_id":82,"name":"Underscorn","steam_id":76561198374209415,"connected_time":3396000000000,"state":"active","ping":108},{"user_id":64,"name":"♥ Milo Stefferson ♥ (Soupca","steam_id":76561198056269538,"connected_time":4433000000000,"state":"active","ping":58},{"user_id":121,"name":"Xiphor","steam_id":76561199236537212,"connected_time":525000000000,"state":"active","ping":113},{"user_id":69,"name":"Aeris","steam_id":76561198287271028,"connected_time":4170000000000,"state":"active","ping":100},{"user_id":120,"name":"Ozzmancomeith","steam_id":76561199419970402,"connected_time":537000000000,"state":"active","ping":86},{"user_id":91,"name":"Dimple #TF2Center","steam_id":76561198980324190,"connected_time":2743000000000,"state":"active","ping":60},{"user_id":131,"name":"kasper","steam_id":76561198263271697,"connected_time":249000000000,"state":"active","ping":87},{"user_id":130,"name":"knatspray","steam_id":76561198832507482,"connected_time":273000000000,"state":"active","ping":85},{"user_id":84,"name":"monk mode protocol","steam_id":76561199100342013,"connected_time":3090000000000,"state":"active","ping":69},{"user_id":110,"name":"Mexican gun Spi","steam_id":76561199246930652,"connected_time":1292000000000,"state":"active","ping":106},{"user_id":93,"name":"DistantJragon","steam_id":76561198117563641,"connected_time":2674000000000,"state":"active","ping":104},{"user_id":126,"name":"bob from vegetable","steam_id":76561199089515791,"connected_time":446000000000,"state":"active","ping":76},{"user_id":123,"name":"Keamy","steam_id":76561199471434875,"connected_time":486000000000,"state":"active","ping":36},{"user_id":124,"name":"afeel5004","steam_id":76561199273696662,"connected_time":479000000000,"state":"active","ping":74},{"user_id":118,"name":"oske","steam_id":76561198131526809,"connected_time":590000000000,"state":"active","ping":74},{"user_id":73,"name":"green bean","steam_id":76561198113099204,"connected_time":4054000000000,"state":"active","ping":53},{"user_id":99,"name":"Laffey","steam_id":76561198107049456,"connected_time":2328000000000,"state":"active","ping":59},{"user_id":125,"name":"Mr.RexiBoi","steam_id":76561199365177007,"connected_time":471000000000,"state":"active","ping":52},{"user_id":89,"name":"Vruk","steam_id":76561198116930332,"connected_time":3039000000000,"state":"active","ping":61}]},{"server_id":406,"name":"Uncletopia | Seattle | 3 | Stopwatch Beta","name_short":"sea-3","host":"sea-1.us.uncletopia.com","port":27035,"enabled":true,"region":"us-west","cc":"us","latitude":47.608013,"longitude":-122.33517,"reserved":0,"last_update":"0001-01-01T00:00:00Z","name_a2s":"Uncletopia | Seattle | 3 | Stopwatch Beta","protocol":17,"map":"pl_upward","folder":"tf","game":"Team Fortress","app_id":440,"player_count":3,"max_players":24,"Bots":0,"server_type":"Dedicated","server_os":"Linux","password":true,"vac":true,"version":"7932396","steam_id":85568392924515217,"keywords":["nocrits","nodmgspread","payload","uncletopia"],"game_id":440,"stv_port":27036,"stv_name":"Uncletopia | Seattle | 3 | Stopwatch Beta | STV","players":[{"user_id":7,"name":"Matrix_kun","steam_id":76561199126328014,"connected_time":272000000000,"state":"active","ping":79},{"user_id":9,"name":"Sharky","steam_id":76561198376372471,"connected_time":186000000000,"state":"active","ping":81},{"user_id":10,"name":"the_best_soldier1","steam_id":76561198870684157,"connected_time":163000000000,"state":"active","ping":102}]},{"server_id":17,"name":"Uncletopia | San Francisco | 1 | All Maps","name_short":"sfo-1","host":"sfo-1.us.uncletopia.com","port":27015,"enabled":true,"region":"us-west","cc":"us","latitude":37.77397,"longitude":-122.4313,"reserved":0,"last_update":"0001-01-01T00:00:00Z","name_a2s":"Uncletopia | San Francisco | 1 | All Maps","protocol":17,"map":"pl_borneo","folder":"tf","game":"Team Fortress","app_id":440,"player_count":24,"max_players":24,"Bots":0,"server_type":"Dedicated","server_os":"Linux","password":true,"vac":true,"version":"7932396","steam_id":85568392924469999,"keywords":["nocrits","nodmgspread","payload","uncletopia"],"game_id":440,"stv_port":27016,"stv_name":"Uncletopia | San Francisco | 1 | All Maps | STV","players":[{"user_id":6,"name":"a cat plushie","steam_id":76561198080046542,"connected_time":4010000000000,"state":"active","ping":60},{"user_id":68,"name":"Chi -fr","steam_id":76561198121085178,"connected_time":174000000000,"state":"active","ping":101},{"user_id":10,"name":"a single goal","steam_id":76561198042913843,"connected_time":3325000000000,"state":"active","ping":72},{"user_id":13,"name":"Kylar","steam_id":76561198196979431,"connected_time":2724000000000,"state":"active","ping":66},{"user_id":62,"name":"Spring Beans","steam_id":76561197978546259,"connected_time":521000000000,"state":"active","ping":75},{"user_id":58,"name":"JoeFalco","steam_id":76561198064005012,"connected_time":802000000000,"state":"active","ping":144},{"user_id":48,"name":"klopse","steam_id":76561198314981454,"connected_time":1209000000000,"state":"active","ping":78},{"user_id":17,"name":"Meet The Kazoo","steam_id":76561199229748300,"connected_time":2628000000000,"state":"active","ping":68},{"user_id":55,"name":"SwordBreaker","steam_id":76561199135564076,"connected_time":923000000000,"state":"active","ping":54},{"user_id":22,"name":"Monsieur Pequeño","steam_id":76561198327271041,"connected_time":2348000000000,"state":"active","ping":67},{"user_id":65,"name":"Vorpas Jabwak","steam_id":76561198112186064,"connected_time":249000000000,"state":"active","ping":77},{"user_id":21,"name":"WarbleBorble","steam_id":76561198132094572,"connected_time":2539000000000,"state":"active","ping":100},{"user_id":23,"name":"zinnk","steam_id":76561198092081825,"connected_time":2311000000000,"state":"active","ping":31},{"user_id":24,"name":"Johnson, Navin R.","steam_id":76561197961107982,"connected_time":2299000000000,"state":"active","ping":88},{"user_id":49,"name":"Carpetspill","steam_id":76561198240023406,"connected_time":1173000000000,"state":"active","ping":118},{"user_id":29,"name":"nori_420","steam_id":76561199117134203,"connected_time":1979000000000,"state":"active","ping":60},{"user_id":30,"name":"Legendstorm09","steam_id":76561199131721629,"connected_time":1900000000000,"state":"active","ping":95},{"user_id":40,"name":"Poobastank","steam_id":76561198298649714,"connected_time":1440000000000,"state":"active","ping":44},{"user_id":57,"name":"Nolan","steam_id":76561198169648081,"connected_time":811000000000,"state":"active","ping":84},{"user_id":42,"name":"Amateur Glaswegian","steam_id":76561198030851956,"connected_time":1376000000000,"state":"active","ping":65},{"user_id":53,"name":"[universe]","steam_id":76561198366834319,"connected_time":1037000000000,"state":"active","ping":136},{"user_id":45,"name":"t","steam_id":76561198175988929,"connected_time":1317000000000,"state":"active","ping":102},{"user_id":67,"name":"Lemur w/a Femur","steam_id":76561199008374083,"connected_time":195000000000,"state":"active","ping":55},{"user_id":70,"name":"Heartgold","steam_id":76561199062592062,"connected_time":113000000000,"state":"active","ping":132}]},{"server_id":18,"name":"Uncletopia | San Francisco | 2 | All Maps","name_short":"sfo-2","host":"sfo-1.us.uncletopia.com","port":27025,"enabled":true,"region":"us-west","cc":"us","latitude":37.77397,"longitude":-122.4313,"reserved":0,"last_update":"0001-01-01T00:00:00Z","name_a2s":"Uncletopia | San Francisco | 2 | All Maps","protocol":17,"map":"cp_dustbowl","folder":"tf","game":"Team Fortress","app_id":440,"player_count":0,"max_players":24,"Bots":0,"server_type":"Dedicated","server_os":"Linux","password":true,"vac":true,"version":"7932396","steam_id":85568392924470000,"keywords":["cp","nocrits","nodmgspread","uncletopia"],"game_id":440,"stv_port":27026,"stv_name":"Uncletopia | San Francisco | 2 | All Maps | STV","players":null},{"server_id":19,"name":"Uncletopia | San Francisco | 3 | Stopwatch Beta","name_short":"sfo-3","host":"sfo-1.us.uncletopia.com","port":27035,"enabled":true,"region":"us-west","cc":"us","latitude":37.77397,"longitude":-122.4313,"reserved":0,"last_update":"0001-01-01T00:00:00Z","name_a2s":"Uncletopia | San Francisco | 3 | Stopwatch Beta","protocol":17,"map":"cp_process_final","folder":"tf","game":"Team Fortress","app_id":440,"player_count":0,"max_players":24,"Bots":0,"server_type":"Dedicated","server_os":"Linux","password":true,"vac":true,"version":"7932396","steam_id":85568392924742824,"keywords":["cp","nocrits","nodmgspread","uncletopia"],"game_id":440,"stv_port":27036,"stv_name":"Uncletopia | San Francisco | 3 | Stopwatch Beta | STV","players":null},{"server_id":20,"name":"Uncletopia | San Francisco | 4 | Community","name_short":"sfo-4","host":"sfo-1.us.uncletopia.com","port":27045,"enabled":true,"region":"us-west","cc":"us","latitude":37.77397,"longitude":-122.4313,"reserved":0,"last_update":"0001-01-01T00:00:00Z","name_a2s":"Uncletopia | San Francisco | 4 | Community","protocol":17,"map":"pl_borneo","folder":"tf","game":"Team Fortress","app_id":440,"player_count":0,"max_players":24,"Bots":0,"server_type":"Dedicated","server_os":"Linux","password":true,"vac":true,"version":"7932396","steam_id":85568392924742826,"keywords":["nocrits","nodmgspread","payload","uncletopia"],"game_id":440,"stv_port":27046,"stv_name":"Uncletopia | San Francisco | 4 | Community | STV","players":null},{"server_id":141,"name":"Uncletopia | Sydney | 1 | All Maps","name_short":"syd-1","host":"syd-1.au.uncletopia.com","port":27015,"enabled":true,"region":"au","cc":"au","latitude":-33.865143,"longitude":151.2099,"reserved":0,"last_update":"0001-01-01T00:00:00Z","name_a2s":"Uncletopia | Sydney | 1 | All Maps","protocol":17,"map":"cp_process_final","folder":"tf","game":"Team Fortress","app_id":440,"player_count":0,"max_players":24,"Bots":0,"server_type":"Dedicated","server_os":"Linux","password":true,"vac":true,"version":"7932396","steam_id":85568392924470001,"keywords":["cp","nocrits","nodmgspread","uncletopia"],"game_id":440,"stv_port":27016,"stv_name":"Uncletopia | Sydney | 1 | All Maps | STV","players":null},{"server_id":123,"name":"Uncletopia | Sydney | 2 | All Maps","name_short":"syd-2","host":"syd-1.au.uncletopia.com","port":27025,"enabled":true,"region":"au","cc":"au","latitude":-33.865143,"longitude":151.2099,"reserved":0,"last_update":"0001-01-01T00:00:00Z","name_a2s":"Uncletopia | Sydney | 2 | All Maps","protocol":17,"map":"ctf_2fort","folder":"tf","game":"Team Fortress","app_id":440,"player_count":0,"max_players":24,"Bots":0,"server_type":"Dedicated","server_os":"Linux","password":true,"vac":true,"version":"7932396","steam_id":85568392924470002,"keywords":["ctf","nocrits","nodmgspread","uncletopia"],"game_id":440,"stv_port":27026,"stv_name":"Uncletopia | Sydney | 2 | All Maps | STV","players":null},{"server_id":395,"name":"Uncletopia | Sydney | 3 | All Maps","name_short":"syd-3","host":"syd-1.au.uncletopia.com","port":27035,"enabled":true,"region":"au","cc":"au","latitude":-33.865143,"longitude":151.2099,"reserved":0,"last_update":"0001-01-01T00:00:00Z","name_a2s":"Uncletopia | Sydney | 3 | All Maps","protocol":17,"map":"koth_cascade","folder":"tf","game":"Team Fortress","app_id":440,"player_count":0,"max_players":24,"Bots":0,"server_type":"Dedicated","server_os":"Linux","password":true,"vac":true,"version":"7932396","steam_id":85568392925194467,"keywords":["cp","nocrits","nodmgspread","uncletopia"],"game_id":440,"stv_port":27036,"stv_name":"Uncletopia | Sydney | 3 | All Maps | STV","players":null},{"server_id":396,"name":"Uncletopia | Sydney | 4 | All Maps","name_short":"syd-4","host":"syd-1.au.uncletopia.com","port":27045,"enabled":true,"region":"au","cc":"au","latitude":-33.865143,"longitude":151.2099,"reserved":0,"last_update":"0001-01-01T00:00:00Z","name_a2s":"Uncletopia | Sydney | 4 | All Maps","protocol":17,"map":"koth_lakeside_final","folder":"tf","game":"Team Fortress","app_id":440,"player_count":0,"max_players":24,"Bots":0,"server_type":"Dedicated","server_os":"Linux","password":true,"vac":true,"version":"7932396","steam_id":85568392925397958,"keywords":["cp","nocrits","nodmgspread","uncletopia"],"game_id":440,"stv_port":27046,"stv_name":"Uncletopia | Sydney | 4 | All Maps | STV","players":null},{"server_id":58,"name":"Uncletopia | Sydney | 5 | Stopwatch Beta","name_short":"syd-5","host":"syd-1.au.uncletopia.com","port":27055,"enabled":true,"region":"au","cc":"au","latitude":-33.865143,"longitude":151.2099,"reserved":0,"last_update":"0001-01-01T00:00:00Z","name_a2s":"Uncletopia | Sydney | 5 | Stopwatch Beta","protocol":17,"map":"pl_borneo","folder":"tf","game":"Team Fortress","app_id":440,"player_count":0,"max_players":24,"Bots":0,"server_type":"Dedicated","server_os":"Linux","password":true,"vac":true,"version":"7932396","steam_id":85568392925397959,"keywords":["nocrits","nodmgspread","payload","uncletopia"],"game_id":440,"stv_port":27056,"stv_name":"Uncletopia | Sydney | 5 | Stopwatch Beta | STV","players":null},{"server_id":59,"name":"Uncletopia | Sydney | 6 | Community","name_short":"syd-6","host":"syd-1.au.uncletopia.com","port":27065,"enabled":true,"region":"au","cc":"au","latitude":-33.865143,"longitude":151.2099,"reserved":0,"last_update":"0001-01-01T00:00:00Z","name_a2s":"Uncletopia | Sydney | 6 | Community","protocol":17,"map":"workshop/koth_product_final.ugc454272353","folder":"tf","game":"Team Fortress","app_id":440,"player_count":0,"max_players":24,"Bots":0,"server_type":"Dedicated","server_os":"Linux","password":true,"vac":true,"version":"7932396","steam_id":85568392925397960,"keywords":["cp","nocrits","nodmgspread","uncletopia"],"game_id":440,"stv_port":27066,"stv_name":"Uncletopia | Sydney | 6 | Community | STV","players":null},{"server_id":49,"name":"Uncletopia | Warsaw | 1 | All Maps","name_short":"waw-1","host":"waw-1.pl.uncletopia.com","port":27015,"enabled":true,"region":"eu","cc":"pl","latitude":52.2297,"longitude":21.017532,"reserved":0,"last_update":"0001-01-01T00:00:00Z","name_a2s":"","protocol":0,"map":"","folder":"","game":"","app_id":0,"player_count":0,"max_players":0,"Bots":0,"server_type":"","server_os":"","password":false,"vac":false,"version":"","steam_id":0,"keywords":null,"game_id":0,"stv_port":0,"stv_name":"","players":null},{"server_id":50,"name":"Uncletopia | Warsaw | 2 | All Maps","name_short":"waw-2","host":"waw-1.pl.uncletopia.com","port":27025,"enabled":true,"region":"eu","cc":"pl","latitude":52.2297,"longitude":21.017532,"reserved":0,"last_update":"0001-01-01T00:00:00Z","name_a2s":"Uncletopia | Warsaw | 2 | All Maps","protocol":17,"map":"pl_barnblitz","folder":"tf","game":"Team Fortress","app_id":440,"player_count":0,"max_players":24,"Bots":0,"server_type":"Dedicated","server_os":"Linux","password":true,"vac":true,"version":"7932396","steam_id":85568392925397851,"keywords":["nocrits","nodmgspread","payload","uncletopia"],"game_id":440,"stv_port":27026,"stv_name":"Uncletopia | Warsaw | 2 | All Maps | STV","players":null},{"server_id":51,"name":"Uncletopia | Warsaw | 3 | All Maps","name_short":"waw-3","host":"waw-1.pl.uncletopia.com","port":27035,"enabled":true,"region":"eu","cc":"pl","latitude":52.2297,"longitude":21.017532,"reserved":0,"last_update":"0001-01-01T00:00:00Z","name_a2s":"Uncletopia | Warsaw | 3 | All Maps","protocol":17,"map":"koth_lakeside_final","folder":"tf","game":"Team Fortress","app_id":440,"player_count":0,"max_players":24,"Bots":0,"server_type":"Dedicated","server_os":"Linux","password":true,"vac":true,"version":"7932396","steam_id":85568392925397852,"keywords":["cp","nocrits","nodmgspread","uncletopia"],"game_id":440,"stv_port":27036,"stv_name":"Uncletopia | Warsaw | 3 | All Maps | STV","players":null},{"server_id":52,"name":"Uncletopia | Warsaw | 4 | All Maps","name_short":"waw-4","host":"waw-1.pl.uncletopia.com","port":27045,"enabled":true,"region":"eu","cc":"pl","latitude":52.2297,"longitude":21.017532,"reserved":0,"last_update":"0001-01-01T00:00:00Z","name_a2s":"Uncletopia | Warsaw | 4 | All Maps","protocol":17,"map":"pl_swiftwater_final1","folder":"tf","game":"Team Fortress","app_id":440,"player_count":0,"max_players":24,"Bots":0,"server_type":"Dedicated","server_os":"Linux","password":true,"vac":true,"version":"7932396","steam_id":85568392925397853,"keywords":["nocrits","nodmgspread","payload","uncletopia"],"game_id":440,"stv_port":27046,"stv_name":"Uncletopia | Warsaw | 4 | All Maps | STV","players":null},{"server_id":53,"name":"Uncletopia | Warsaw | 5 | Stopwatch Beta","name_short":"waw-5","host":"waw-1.pl.uncletopia.com","port":27055,"enabled":true,"region":"eu","cc":"pl","latitude":52.2297,"longitude":21.017532,"reserved":0,"last_update":"0001-01-01T00:00:00Z","name_a2s":"Uncletopia | Warsaw | 5 | Stopwatch Beta","protocol":17,"map":"koth_lakeside_final","folder":"tf","game":"Team Fortress","app_id":440,"player_count":0,"max_players":24,"Bots":0,"server_type":"Dedicated","server_os":"Linux","password":true,"vac":true,"version":"7932396","steam_id":85568392925397854,"keywords":["cp","nocrits","nodmgspread","uncletopia"],"game_id":440,"stv_port":27056,"stv_name":"Uncletopia | Warsaw | 5 | Stopwatch Beta | STV","players":null},{"server_id":54,"name":"Uncletopia | Warsaw | 6 | Community","name_short":"waw-6","host":"waw-1.pl.uncletopia.com","port":27065,"enabled":true,"region":"eu","cc":"pl","latitude":52.2297,"longitude":21.017532,"reserved":0,"last_update":"0001-01-01T00:00:00Z","name_a2s":"Uncletopia | Warsaw | 6 | Community","protocol":17,"map":"workshop/koth_ramjam_rc1.ugc459778887","folder":"tf","game":"Team Fortress","app_id":440,"player_count":0,"max_players":24,"Bots":0,"server_type":"Dedicated","server_os":"Linux","password":true,"vac":true,"version":"7932396","steam_id":85568392925397856,"keywords":["cp","nocrits","nodmgspread","uncletopia"],"game_id":440,"stv_port":27066,"stv_name":"Uncletopia | Warsaw | 6 | Community | STV","players":null}]}