{"status":true,"message":"","result":[{"server_id":9,"name":"Uncletopia | Atlanta | 1 | All Maps","name_short":"atl-1","host":"atl-1.us.uncletopia.com","port":27015,"enabled":true,"region":"us-east","cc":"us","latitude":33.753746,"longitude":-84.38633,"reserved":0,"last_update":"0001-01-01T00:00:00Z","name_a2s":"Uncletopia | Atlanta | 1 | All Maps","protocol":17,"map":"koth_cascade","folder":"tf","game":"Team Fortress","app_id":440,"player_count":16,"max_players":24,"Bots":0,"server_type":"Dedicated","server_os":"Linux","password":true,"vac":true,"version":"7708610","steam_id":85568392924469982,"keywords":["cp","nocrits","nodmgspread","uncletopia"],"game_id":440,"stv_port":27016,"stv_name":"Uncletopia | Atlanta | 1 | All Maps | STV","players":[{"user_id":751,"name":"LeijonLives","steam_id":76561198145531241,"connected_time":279000000000,"state":"active","ping":115},{"user_id":752,"name":"ghostism","steam_id":76561198215437797,"connected_time":253000000000,"state":"active","ping":104},{"user_id":740,"name":"BIG HOG","steam_id":76561198079923652,"connected_time":1063000000000,"state":"active","ping":67},{"user_id":748,"name":"Username","steam_id":76561198390962199,"connected_time":531000000000,"state":"active","ping":107},{"user_id":706,"name":"King Rat","steam_id":76561198083835128,"connected_time":2663000000000,"state":"active","ping":312},{"user_id":744,"name":"fingerbib","steam_id":76561198148132163,"connected_time":854000000000,"state":"active","ping":79},{"user_id":698,"name":"C papi","steam_id":76561198027779564,"connected_time":3143000000000,"state":"active","ping":49},{"user_id":745,"name":"FemboyNate","steam_id":76561198146636410,"connected_time":852000000000,"state":"active","ping":62},{"user_id":695,"name":"mommy claus","steam_id":76561199230929836,"connected_time":3267000000000,"state":"active","ping":76},{"user_id":686,"name":"Techo","steam_id":76561199169405285,"connected_time":4650000000000,"state":"active","ping":131},{"user_id":739,"name":"rose","steam_id":76561198048882285,"connected_time":1215000000000,"state":"active","ping":60},{"user_id":731,"name":"groond","steam_id":76561198309426720,"connected_time":1644000000000,"state":"active","ping":78},{"user_id":754,"name":"Yuudachi","steam_id":76561198059812393,"connected_time":204000000000,"state":"active","ping":62},{"user_id":755,"name":"Alley_YAMBO","steam_id":76561198055651850,"connected_time":200000000000,"state":"active","ping":86},{"user_id":756,"name":"matkaster","steam_id":76561197998546486,"connected_time":172000000000,"state":"active","ping":71},{"user_id":689,"name":"--_Cook_--","steam_id":76561198080855748,"connected_time":4472000000000,"state":"active","ping":50}]},{"server_id":400,"name":"Uncletopia | Atlanta | 3 | All Maps","name_short":"atl-3","host":"atl-1.us.uncletopia.com","port":27035,"enabled":true,"region":"us-east","cc":"us","latitude":33.753746,"longitude":-84.38633,"reserved":0,"last_update":"0001-01-01T00:00:00Z","name_a2s":"Uncletopia | Atlanta | 3 | All Maps","protocol":17,"map":"cp_sunshine","folder":"tf","game":"Team Fortress","app_id":440,"player_count":0,"max_players":24,"Bots":0,"server_type":"Dedicated","server_os":"Linux","password":true,"vac":true,"version":"7708610","steam_id":85568392924515187,"keywords":["cp","nocrits","nodmgspread","uncletopia"],"game_id":440,"stv_port":27036,"stv_name":"Uncletopia | Atlanta | 3 | All Maps | STV","players":null},{"server_id":401,"name":"Uncletopia | Atlanta | 4 | No Payload","name_short":"atl-4","host":"atl-1.us.uncletopia.com","port":27045,"enabled":true,"region":"us-east","cc":"us","latitude":33.753746,"longitude":-84.38633,"reserved":0,"last_update":"0001-01-01T00:00:00Z","name_a2s":"Uncletopia | Atlanta | 4 | No Payload","protocol":17,"map":"plr_pipeline","folder":"tf","game":"Team Fortress","app_id":440,"player_count":0,"max_players":24,"Bots":0,"server_type":"Dedicated","server_os":"Linux","password":true,"vac":true,"version":"7708610","steam_id":85568392924515188,"keywords":["nocrits","nodmgspread","payload","uncletopia"],"game_id":440,"stv_port":27046,"stv_name":"Uncletopia | Atlanta | 4 | No Payload | STV","players":null},{"server_id":2,"name":"Uncletopia | Chicago | 1 | All Maps","name_short":"chi-1","host":"chi-1.us.uncletopia.com","port":27015,"enabled":true,"region":"us-central","cc":"us","latitude":41.881832,"longitude":-87.62318,"reserved":0,"last_update":"0001-01-01T00:00:00Z","name_a2s":"Uncletopia | Chicago | 1 | All Maps","protocol":17,"map":"pl_barnblitz","folder":"tf","game":"Team Fortress","app_id":440,"player_count":23,"max_players":24,"Bots":0,"server_type":"Dedicated","server_os":"Linux","password":true,"vac":true,"version":"7708610","steam_id":85568392924469984,"keywords":["nocrits","nodmgspread","payload","uncletopia"],"game_id":440,"stv_port":27016,"stv_name":"Uncletopia | Chicago | 1 | All Maps | STV","players":[{"user_id":891,"name":":O","steam_id":76561198161403931,"connected_time":1475000000000,"state":"active","ping":58},{"user_id":893,"name":"SlimGrady","steam_id":76561198451231329,"connected_time":1432000000000,"state":"active","ping":64},{"user_id":895,"name":"ApertureCity","steam_id":76561198004153607,"connected_time":1350000000000,"state":"active","ping":75},{"user_id":897,"name":"yuji","steam_id":76561198401572620,"connected_time":1307000000000,"state":"active","ping":59},{"user_id":924,"name":"Cam","steam_id":76561198139174433,"connected_time":685000000000,"state":"active","ping":89},{"user_id":898,"name":"q!k.glodfyeehs","steam_id":76561198086008437,"connected_time":1290000000000,"state":"active","ping":74},{"user_id":919,"name":"Discount","steam_id":76561198228825336,"connected_time":749000000000,"state":"active","ping":89},{"user_id":869,"name":"√íw√ì","steam_id":76561197997304387,"connected_time":3663000000000,"state":"active","ping":70},{"user_id":931,"name":"im the biggest bird im the bi","steam_id":76561198143132686,"connected_time":379000000000,"state":"active","ping":87},{"user_id":870,"name":"SkyJett","steam_id":76561198040719249,"connected_time":3656000000000,"state":"active","ping":73},{"user_id":856,"name":"dogen","steam_id":76561198803769563,"connected_time":4801000000000,"state":"active","ping":81},{"user_id":900,"name":"General Fisticuffs","steam_id":76561198255721392,"connected_time":1204000000000,"state":"active","ping":79},{"user_id":901,"name":"CrackedSanity","steam_id":76561198279841251,"connected_time":1176000000000,"state":"active","ping":102},{"user_id":886,"name":"Cleric","steam_id":76561198045887994,"connected_time":2298000000000,"state":"active","ping":45},{"user_id":902,"name":"Hedgey","steam_id":76561199072934471,"connected_time":1134000000000,"state":"active","ping":92},{"user_id":914,"name":"Scorpsy","steam_id":76561198024477688,"connected_time":826000000000,"state":"active","ping":70},{"user_id":904,"name":"pinion","steam_id":76561197960553065,"connected_time":1089000000000,"state":"active","ping":147},{"user_id":890,"name":"Yukon Cornelius","steam_id":76561198261512781,"connected_time":1726000000000,"state":"active","ping":58},{"user_id":905,"name":"Darwin Is Life","steam_id":76561198079114049,"connected_time":1072000000000,"state":"active","ping":92},{"user_id":841,"name":"Skbonesin","steam_id":76561198180513878,"connected_time":5777000000000,"state":"active","ping":86},{"user_id":906,"name":"{[F.H]} Hydroida","steam_id":76561197999797274,"connected_time":1054000000000,"state":"active","ping":59},{"user_id":934,"name":"L + Maidenless + Tarnished","steam_id":76561198978605490,"connected_time":215000000000,"state":"active","ping":58},{"user_id":908,"name":"Rubber","steam_id":76561198053832401,"connected_time":1011000000000,"state":"active","ping":117}]},{"server_id":106,"name":"Uncletopia | Chicago | 2 | All Maps","name_short":"chi-2","host":"chi-1.us.uncletopia.com","port":27025,"enabled":true,"region":"us-central","cc":"us","latitude":41.881832,"longitude":-87.62318,"reserved":0,"last_update":"0001-01-01T00:00:00Z","name_a2s":"Uncletopia | Chicago | 2 | All Maps","protocol":17,"map":"koth_highpass","folder":"tf","game":"Team Fortress","app_id":440,"player_count":0,"max_players":24,"Bots":0,"server_type":"Dedicated","server_os":"Linux","password":true,"vac":true,"version":"7708610","steam_id":85568392924469985,"keywords":["cp","nocrits","nodmgspread","uncletopia"],"game_id":440,"stv_port":27026,"stv_name":"Uncletopia | Chicago | 2 | All Maps | STV","players":null},{"server_id":402,"name":"Uncletopia | Chicago | 3 | All Maps","name_short":"chi-3","host":"chi-1.us.uncletopia.com","port":27035,"enabled":true,"region":"us-central","cc":"us","latitude":41.881832,"longitude":-87.62318,"reserved":0,"last_update":"0001-01-01T00:00:00Z","name_a2s":"Uncletopia | Chicago | 3 | All Maps","protocol":17,"map":"koth_lakeside_final","folder":"tf","game":"Team Fortress","app_id":440,"player_count":22,"max_players":24,"Bots":0,"server_type":"Dedicated","server_os":"Linux","password":true,"vac":true,"version":"7708610","steam_id":85568392924515191,"keywords":["cp","nocrits","nodmgspread","uncletopia"],"game_id":440,"stv_port":27036,"stv_name":"Uncletopia | Chicago | 3 | All Maps | STV","players":[{"user_id":450,"name":"They/Them pussy got me like","steam_id":76561198050964269,"connected_time":2584000000000,"state":"active","ping":77},{"user_id":497,"name":"nelly modelo","steam_id":76561198044875206,"connected_time":103000000000,"state":"active","ping":75},{"user_id":477,"name":"s3aL","steam_id":76561198160550637,"connected_time":824000000000,"state":"active","ping":45},{"user_id":447,"name":"Arcadletus","steam_id":76561198976009938,"connected_time":3064000000000,"state":"active","ping":91},{"user_id":484,"name":"Frongus","steam_id":76561197979056451,"connected_time":552000000000,"state":"active","ping":90},{"user_id":452,"name":"Scoutroad","steam_id":76561198136564680,"connected_time":2024000000000,"state":"active","ping":75},{"user_id":498,"name":"WeaverReaver42","steam_id":76561198085744605,"connected_time":92000000000,"state":"active","ping":118},{"user_id":476,"name":"big guapo","steam_id":76561198103228695,"connected_time":944000000000,"state":"active","ping":54},{"user_id":486,"name":"ultra","steam_id":76561198327686189,"connected_time":517000000000,"state":"active","ping":67},{"user_id":456,"name":"max","steam_id":76561198953695435,"connected_time":1820000000000,"state":"active","ping":105},{"user_id":474,"name":"Atlas","steam_id":76561198127975050,"connected_time":1118000000000,"state":"active","ping":62},{"user_id":479,"name":"Brendan","steam_id":76561198041079914,"connected_time":745000000000,"state":"active","ping":68},{"user_id":471,"name":"Whorse","steam_id":76561198114141445,"connected_time":1399000000000,"state":"active","ping":61},{"user_id":487,"name":"GibbyGarbo","steam_id":76561198206070907,"connected_time":509000000000,"state":"active","ping":38},{"user_id":481,"name":"Tirlby","steam_id":76561198045231233,"connected_time":713000000000,"state":"active","ping":62},{"user_id":462,"name":"Miner2495","steam_id":76561198445904523,"connected_time":1708000000000,"state":"active","ping":60},{"user_id":488,"name":"Fantastic","steam_id":76561198079088978,"connected_time":504000000000,"state":"active","ping":45},{"user_id":475,"name":"FreakyPhineas","steam_id":76561197994289562,"connected_time":1010000000000,"state":"active","ping":58},{"user_id":489,"name":"Yeshie the Dragon Layer","steam_id":76561198080214214,"connected_time":494000000000,"state":"active","ping":41},{"user_id":490,"name":"Mr. Pink","steam_id":76561198065858172,"connected_time":490000000000,"state":"active","ping":61},{"user_id":473,"name":"Arky","steam_id":76561198989409309,"connected_time":1231000000000,"state":"active","ping":122},{"user_id":495,"name":"shadow3004","steam_id":76561198064870076,"connected_time":255000000000,"state":"active","ping":83}]},{"server_id":403,"name":"Uncletopia | Chicago | 4 | All Maps","name_short":"chi-4","host":"chi-1.us.uncletopia.com","port":27045,"enabled":true,"region":"us-central","cc":"us","latitude":41.881832,"longitude":-87.62318,"reserved":0,"last_update":"0001-01-01T00:00:00Z","name_a2s":"Uncletopia | Chicago | 4 | All Maps","protocol":17,"map":"koth_viaduct","folder":"tf","game":"Team Fortress","app_id":440,"player_count":0,"max_players":24,"Bots":0,"server_type":"Dedicated","server_os":"Linux","password":true,"vac":true,"version":"7708610","steam_id":85568392924515193,"keywords":["cp","nocrits","nodmgspread","uncletopia"],"game_id":440,"stv_port":27046,"stv_name":"Uncletopia | Chicago | 4 | All Maps | STV","players":null},{"server_id":36,"name":"Uncletopia | Chicago | 5 | All Maps","name_short":"chi-5","host":"chi-2.us.uncletopia.com","port":27015,"enabled":true,"region":"us-central","cc":"us","latitude":41.881832,"longitude":-87.62318,"reserved":0,"last_update":"0001-01-01T00:00:00Z","name_a2s":"Uncletopia | Chicago | 5 | All Maps","protocol":17,"map":"koth_cascade","folder":"tf","game":"Team Fortress","app_id":440,"player_count":0,"max_players":24,"Bots":0,"server_type":"Dedicated","server_os":"Linux","password":true,"vac":true,"version":"7708610","steam_id":85568392924866362,"keywords":["cp","nocrits","nodmgspread","uncletopia"],"game_id":440,"stv_port":27016,"stv_name":"Uncletopia | Chicago | 5 | All Maps | STV","players":null},{"server_id":37,"name":"Uncletopia | Chicago | 6 | All Maps","name_short":"chi-6","host":"chi-2.us.uncletopia.com","port":27025,"enabled":true,"region":"us-central","cc":"us","latitude":41.881832,"longitude":-87.62318,"reserved":0,"last_update":"0001-01-01T00:00:00Z","name_a2s":"Uncletopia | Chicago | 6 | All Maps","protocol":17,"map":"cp_sunshine","folder":"tf","game":"Team Fortress","app_id":440,"player_count":7,"max_players":24,"Bots":0,"server_type":"Dedicated","server_os":"Linux","password":true,"vac":true,"version":"7708610","steam_id":85568392924866363,"keywords":["cp","nocrits","nodmgspread","uncletopia"],"game_id":440,"stv_port":27026,"stv_name":"Uncletopia | Chicago | 6 | All Maps | STV","players":[{"user_id":324,"name":"DS8U","steam_id":76561198151554321,"connected_time":398000000000,"state":"active","ping":51},{"user_id":323,"name":"Menachem","steam_id":76561198041226420,"connected_time":661000000000,"state":"active","ping":44},{"user_id":326,"name":"El Grand Pato","steam_id":76561198144296383,"connected_time":180000000000,"state":"active","ping":52},{"user_id":319,"name":"‚ô¶WestHarlow‚ô¶","steam_id":76561198251977820,"connected_time":893000000000,"state":"active","ping":101},{"user_id":258,"name":"VX Ghost (Holiday)","steam_id":76561198072541436,"connected_time":5494000000000,"state":"active","ping":39},{"user_id":294,"name":"Evolution","steam_id":76561198144767370,"connected_time":3043000000000,"state":"active","ping":45},{"user_id":314,"name":"leonardo doujinshi","steam_id":76561198025810326,"connected_time":2157000000000,"state":"active","ping":60}]},{"server_id":38,"name":"Uncletopia | Chicago | 7 | No Payload","name_short":"chi-7","host":"chi-2.us.uncletopia.com","port":27035,"enabled":true,"region":"us-central","cc":"us","latitude":41.881832,"longitude":-87.62318,"reserved":0,"last_update":"0001-01-01T00:00:00Z","name_a2s":"Uncletopia | Chicago | 7 | No Payload","protocol":17,"map":"koth_lakeside_final","folder":"tf","game":"Team Fortress","app_id":440,"player_count":0,"max_players":24,"Bots":0,"server_type":"Dedicated","server_os":"Linux","password":true,"vac":true,"version":"7708610","steam_id":85568392924866364,"keywords":["cp","nocrits","nodmgspread","uncletopia"],"game_id":440,"stv_port":27036,"stv_name":"Uncletopia | Chicago | 7 | No Payload | STV","players":null},{"server_id":39,"name":"Uncletopia | Chicago | 8 | Community","name_short":"chi-8","host":"chi-2.us.uncletopia.com","port":27045,"enabled":true,"region":"us-central","cc":"us","latitude":41.881832,"longitude":-87.62318,"reserved":0,"last_update":"0001-01-01T00:00:00Z","name_a2s":"Uncletopia | Chicago | 8 | Community","protocol":17,"map":"workshop/cp_reckoner_rc6.ugc674719999","folder":"tf","game":"Team Fortress","app_id":440,"player_count":0,"max_players":24,"Bots":0,"server_type":"Dedicated","server_os":"Linux","password":true,"vac":true,"version":"7708610","steam_id":85568392924866365,"keywords":["cp","nocrits","nodmgspread","uncletopia"],"game_id":440,"stv_port":27046,"stv_name":"Uncletopia | Chicago | 8 | Community | STV","players":null},{"server_id":8,"name":"Uncletopia | Dallas | 1 | All Maps","name_short":"dal-1","host":"dal-1.us.uncletopia.com","port":27015,"enabled":true,"region":"us-central","cc":"us","latitude":32.779167,"longitude":-96.80889,"reserved":0,"last_update":"0001-01-01T00:00:00Z","name_a2s":"Uncletopia | Dallas | 1 | All Maps","protocol":17,"map":"pl_frontier_final","folder":"tf","game":"Team Fortress","app_id":440,"player_count":16,"max_players":24,"Bots":0,"server_type":"Dedicated","server_os":"Linux","password":true,"vac":true,"version":"7708610","steam_id":85568392924469986,"keywords":["nocrits","nodmgspread","payload","uncletopia"],"game_id":440,"stv_port":27016,"stv_name":"Uncletopia | Dallas | 1 | All Maps | STV","players":[{"user_id":721,"name":"thanksgiving turkey","steam_id":76561198976876859,"connected_time":5036000000000,"state":"active","ping":77},{"user_id":717,"name":"Krazzle","steam_id":76561198029782412,"connected_time":5713000000000,"state":"active","ping":53},{"user_id":729,"name":"aero","steam_id":76561198297202459,"connected_time":2441000000000,"state":"active","ping":86},{"user_id":709,"name":"ShiddyKong","steam_id":76561198189742189,"connected_time":6533000000000,"state":"active","ping":41},{"user_id":677,"name":"177013","steam_id":76561198072303290,"connected_time":8209000000000,"state":"active","ping":89},{"user_id":692,"name":"The Engie","steam_id":76561198049418537,"connected_time":7161000000000,"state":"active","ping":54},{"user_id":720,"name":"McNamJam","steam_id":76561198028128686,"connected_time":5490000000000,"state":"active","ping":81},{"user_id":748,"name":"Quietsharp","steam_id":76561198277968438,"connected_time":66000000000,"state":"active","ping":78},{"user_id":725,"name":"CreativeUsername","steam_id":76561198186045503,"connected_time":3884000000000,"state":"active","ping":74},{"user_id":710,"name":"I Swallowed Shampoo","steam_id":76561198075130050,"connected_time":6348000000000,"state":"active","ping":64},{"user_id":746,"name":"SlightlyToasty","steam_id":76561198934455279,"connected_time":804000000000,"state":"active","ping":110},{"user_id":749,"name":"The Caretaker","steam_id":76561198125241411,"connected_time":25000000000,"state":"active","ping":186},{"user_id":705,"name":"CACTUS","steam_id":76561198327863229,"connected_time":6703000000000,"state":"active","ping":78},{"user_id":735,"name":"Shmoopy","steam_id":76561198030459152,"connected_time":2059000000000,"state":"active","ping":75},{"user_id":745,"name":"Raven57p","steam_id":76561198118992563,"connected_time":903000000000,"state":"active","ping":74},{"user_id":674,"name":"Lore","steam_id":76561198098407538,"connected_time":8526000000000,"state":"active","ping":67}]},{"server_id":108,"name":"Uncletopia | Dallas | 2 | All Maps","name_short":"dal-2","host":"dal-1.us.uncletopia.com","port":27025,"enabled":true,"region":"us-central","cc":"us","latitude":32.779167,"longitude":-96.80889,"reserved":0,"last_update":"0001-01-01T00:00:00Z","name_a2s":"Uncletopia | Dallas | 2 | All Maps","protocol":17,"map":"cp_dustbowl","folder":"tf","game":"Team Fortress","app_id":440,"player_count":20,"max_players":24,"Bots":0,"server_type":"Dedicated","server_os":"Linux","password":true,"vac":true,"version":"7708610","steam_id":85568392924469988,"keywords":["cp","nocrits","nodmgspread","uncletopia"],"game_id":440,"stv_port":27026,"stv_name":"Uncletopia | Dallas | 2 | All Maps | STV","players":[{"user_id":247,"name":"Avacyn, Angel of Hope","steam_id":76561198072515851,"connected_time":524000000000,"state":"active","ping":80},{"user_id":258,"name":"kater","steam_id":76561198110255678,"connected_time":152000000000,"state":"spawning","ping":88},{"user_id":249,"name":"fudgemcgutchins","steam_id":76561199051377997,"connected_time":463000000000,"state":"active","ping":76},{"user_id":250,"name":"IRESPECTWOMEN285","steam_id":76561198080486123,"connected_time":457000000000,"state":"active","ping":92},{"user_id":251,"name":"Nepeta Gamer","steam_id":76561198964321336,"connected_time":431000000000,"state":"active","ping":69},{"user_id":176,"name":"Oscidor","steam_id":76561198362839738,"connected_time":5175000000000,"state":"active","ping":60},{"user_id":257,"name":"Willis The Whale","steam_id":76561198240046452,"connected_time":171000000000,"state":"active","ping":77},{"user_id":195,"name":"TeriyakiDynamite","steam_id":76561198050049346,"connected_time":4507000000000,"state":"active","ping":90},{"user_id":232,"name":"Scrux","steam_id":76561198129763115,"connected_time":1887000000000,"state":"active","ping":89},{"user_id":228,"name":"just the worst","steam_id":76561198102567402,"connected_time":2095000000000,"state":"active","ping":77},{"user_id":256,"name":"gabe(stew)","steam_id":76561199067882406,"connected_time":187000000000,"state":"active","ping":100},{"user_id":252,"name":"Weegeee","steam_id":76561198049000586,"connected_time":352000000000,"state":"active","ping":71},{"user_id":209,"name":"mama burger","steam_id":76561198048698026,"connected_time":3661000000000,"state":"active","ping":90},{"user_id":253,"name":"john trevolta","steam_id":76561197998867160,"connected_time":333000000000,"state":"active","ping":97},{"user_id":240,"name":"RafeKupa","steam_id":76561198220612564,"connected_time":1258000000000,"state":"active","ping":87},{"user_id":244,"name":"Bomb Squirtle‚Ñ¢","steam_id":76561197998931145,"connected_time":805000000000,"state":"active","ping":98},{"user_id":260,"name":"An00bissmas","steam_id":76561198044084508,"connected_time":100000000000,"state":"active","ping":62},{"user_id":230,"name":"Western_dragon","steam_id":76561198130456105,"connected_time":2046000000000,"state":"active","ping":76},{"user_id":261,"name":"RycaNN","steam_id":76561198069386128,"connected_time":61000000000,"state":"active","ping":73},{"user_id":262,"name":"PookieSmoker#1","steam_id":76561198171707453,"connected_time":58000000000,"state":"spawning","ping":59}]},{"server_id":5,"name":"Uncletopia | Frankfurt | 1 | All Maps","name_short":"frk-1","host":"frk-1.de.uncletopia.com","port":27015,"enabled":true,"region":"eu","cc":"de","latitude":50.110924,"longitude":8.682127,"reserved":0,"last_update":"0001-01-01T00:00:00Z","name_a2s":"Uncletopia | Frankfurt | 1 | All Maps","protocol":17,"map":"pl_swiftwater_final1","folder":"tf","game":"Team Fortress","app_id":440,"player_count":0,"max_players":24,"Bots":0,"server_type":"Dedicated","server_os":"Linux","password":true,"vac":true,"version":"7708610","steam_id":85568392924469989,"keywords":["nocrits","nodmgspread","payload","uncletopia"],"game_id":440,"stv_port":27016,"stv_name":"Uncletopia | Frankfurt | 1 | All Maps | STV","players":null},{"server_id":110,"name":"Uncletopia | Frankfurt | 2 | All Maps","name_short":"frk-2","host":"frk-1.de.uncletopia.com","port":27025,"enabled":true,"region":"eu","cc":"de","latitude":50.110924,"longitude":8.682127,"reserved":0,"last_update":"0001-01-01T00:00:00Z","name_a2s":"Uncletopia | Frankfurt | 2 | All Maps","protocol":17,"map":"pl_pier","folder":"tf","game":"Team Fortress","app_id":440,"player_count":0,"max_players":24,"Bots":0,"server_type":"Dedicated","server_os":"Linux","password":true,"vac":true,"version":"7708610","steam_id":85568392924469990,"keywords":["nocrits","nodmgspread","payload","uncletopia"],"game_id":440,"stv_port":0,"stv_name":"","players":null},{"server_id":308,"name":"Uncletopia | Frankfurt | 3 | All Maps","name_short":"frk-3","host":"frk-1.de.uncletopia.com","port":27035,"enabled":true,"region":"eu","cc":"de","latitude":50.110924,"longitude":8.682127,"reserved":0,"last_update":"0001-01-01T00:00:00Z","name_a2s":"Uncletopia | Frankfurt | 3 | All Maps","protocol":17,"map":"koth_cascade","folder":"tf","game":"Team Fortress","app_id":440,"player_count":0,"max_players":24,"Bots":0,"server_type":"Dedicated","server_os":"Linux","password":true,"vac":true,"version":"7708610","steam_id":85568392924504274,"keywords":["cp","nocrits","nodmgspread","uncletopia"],"game_id":440,"stv_port":0,"stv_name":"","players":null},{"server_id":309,"name":"Uncletopia | Frankfurt | 4 | All Maps","name_short":"frk-4","host":"frk-1.de.uncletopia.com","port":27045,"enabled":true,"region":"eu","cc":"de","latitude":50.110924,"longitude":8.682127,"reserved":0,"last_update":"0001-01-01T00:00:00Z","name_a2s":"Uncletopia | Frankfurt | 4 | All Maps","protocol":17,"map":"pl_swiftwater_final1","folder":"tf","game":"Team Fortress","app_id":440,"player_count":7,"max_players":24,"Bots":0,"server_type":"Dedicated","server_os":"Linux","password":true,"vac":true,"version":"7708610","steam_id":85568392924504275,"keywords":["nocrits","nodmgspread","payload","uncletopia"],"game_id":440,"stv_port":0,"stv_name":"","players":[{"user_id":2,"name":"pl_z≈Çawoda","steam_id":76561198040588109,"connected_time":1213000000000,"state":"active","ping":72},{"user_id":3,"name":"pl_badwater","steam_id":76561198152184280,"connected_time":911000000000,"state":"active","ping":64},{"user_id":4,"name":"san fierro","steam_id":76561198067159902,"connected_time":756000000000,"state":"active","ping":113},{"user_id":5,"name":"Jozsika (E-Girl)","steam_id":76561199401478121,"connected_time":653000000000,"state":"active","ping":56},{"user_id":6,"name":"worry about it","steam_id":76561199414716848,"connected_time":483000000000,"state":"active","ping":60},{"user_id":7,"name":"the femscout enjoyer","steam_id":76561198808125985,"connected_time":267000000000,"state":"active","ping":98},{"user_id":8,"name":"E1s","steam_id":76561198894958917,"connected_time":57000000000,"state":"active","ping":44}]},{"server_id":310,"name":"Uncletopia | Frankfurt | 5 | All Maps","name_short":"frk-5","host":"frk-1.de.uncletopia.com","port":27055,"enabled":true,"region":"eu","cc":"de","latitude":50.110924,"longitude":8.682127,"reserved":0,"last_update":"0001-01-01T00:00:00Z","name_a2s":"Uncletopia | Frankfurt | 5 | All Maps","protocol":17,"map":"koth_cascade","folder":"tf","game":"Team Fortress","app_id":440,"player_count":0,"max_players":24,"Bots":0,"server_type":"Dedicated","server_os":"Linux","password":true,"vac":true,"version":"7708610","steam_id":85568392924504277,"keywords":["cp","nocrits","nodmgspread","uncletopia"],"game_id":440,"stv_port":0,"stv_name":"","players":null},{"server_id":311,"name":"Uncletopia | Frankfurt | 6 | All Maps","name_short":"frk-6","host":"frk-1.de.uncletopia.com","port":27065,"enabled":true,"region":"eu","cc":"de","latitude":50.110924,"longitude":8.682127,"reserved":0,"last_update":"0001-01-01T00:00:00Z","name_a2s":"Uncletopia | Frankfurt | 6 | All Maps","protocol":17,"map":"koth_lakeside_final","folder":"tf","game":"Team Fortress","app_id":440,"player_count":0,"max_players":24,"Bots":0,"server_type":"Dedicated","server_os":"Linux","password":true,"vac":true,"version":"7708610","steam_id":85568392924504278,"keywords":["cp","nocrits","nodmgspread","uncletopia"],"game_id":440,"stv_port":0,"stv_name":"","players":null},{"server_id":23,"name":"Uncletopia | Frankfurt | 7 | No Payload","name_short":"frk-7","host":"frk-1.de.uncletopia.com","port":27075,"enabled":true,"region":"eu","cc":"de","latitude":50.110924,"longitude":8.682127,"reserved":0,"last_update":"0001-01-01T00:00:00Z","name_a2s":"Uncletopia | Frankfurt | 7 | No Payload","protocol":17,"map":"pl_frontier_final","folder":"tf","game":"Team Fortress","app_id":440,"player_count":0,"max_players":24,"Bots":0,"server_type":"Dedicated","server_os":"Linux","password":true,"vac":true,"version":"7708610","steam_id":85568392924742827,"keywords":["nocrits","nodmgspread","payload","uncletopia"],"game_id":440,"stv_port":0,"stv_name":"","players":null},{"server_id":24,"name":"Uncletopia | Frankfurt | 8 | Community","name_short":"frk-8","host":"frk-1.de.uncletopia.com","port":27085,"enabled":true,"region":"eu","cc":"de","latitude":50.110924,"longitude":8.682127,"reserved":0,"last_update":"0001-01-01T00:00:00Z","name_a2s":"Uncletopia | Frankfurt | 8 | Community","protocol":17,"map":"cp_mountainlab","folder":"tf","game":"Team Fortress","app_id":440,"player_count":0,"max_players":24,"Bots":0,"server_type":"Dedicated","server_os":"Linux","password":true,"vac":true,"version":"7708610","steam_id":85568392924742828,"keywords":["cp","nocrits","nodmgspread","uncletopia"],"game_id":440,"stv_port":0,"stv_name":"","players":null},{"server_id":202,"name":"Uncletopia | Hong Kong | 1 | All Maps","name_short":"hgk-1","host":"hgk-1.hk.uncletopia.com","port":27015,"enabled":true,"region":"asia","cc":"hk","latitude":22.302711,"longitude":114.177216,"reserved":0,"last_update":"0001-01-01T00:00:00Z","name_a2s":"Uncletopia | Hong Kong | 1 | All Maps","protocol":17,"map":"pl_borneo","folder":"tf","game":"Team Fortress","app_id":440,"player_count":24,"max_players":24,"Bots":0,"server_type":"Dedicated","server_os":"Linux","password":true,"vac":true,"version":"7708610","steam_id":85568392924494504,"keywords":["nocrits","nodmgspread","payload","uncletopia"],"game_id":440,"stv_port":27016,"stv_name":"Uncletopia | Hong Kong | 1 | All Maps | STV","players":[{"user_id":262,"name":"can we get much higher","steam_id":76561199390507975,"connected_time":3313000000000,"state":"active","ping":45},{"user_id":187,"name":"bonito borzoi","steam_id":76561198230213828,"connected_time":9965000000000,"state":"active","ping":62},{"user_id":244,"name":"Talkk More","steam_id":76561198305424433,"connected_time":5625000000000,"state":"active","ping":79},{"user_id":222,"name":"L√∫d","steam_id":76561198828840546,"connected_time":7208000000000,"state":"active","ping":79},{"user_id":314,"name":"bakabazooka(merrychrismas)","steam_id":76561198061628689,"connected_time":139000000000,"state":"active","ping":55},{"user_id":231,"name":"Michael Scott","steam_id":76561198023082794,"connected_time":6796000000000,"state":"active","ping":47},{"user_id":273,"name":"QWQ","steam_id":76561198886731650,"connected_time":2372000000000,"state":"active","ping":107},{"user_id":131,"name":"MS PowerPoint","steam_id":76561198369523192,"connected_time":13603000000000,"state":"active","ping":64},{"user_id":269,"name":"paga","steam_id":76561198296718007,"connected_time":2952000000000,"state":"active","ping":104},{"user_id":247,"name":"Noyour","steam_id":76561198323259830,"connected_time":5590000000000,"state":"active","ping":117},{"user_id":277,"name":"BBOY","steam_id":76561198070719495,"connected_time":1101000000000,"state":"active","ping":65},{"user_id":196,"name":"ogey","steam_id":76561198074339034,"connected_time":9621000000000,"state":"active","ping":76},{"user_id":243,"name":"UltraFat","steam_id":76561198253918132,"connected_time":5627000000000,"state":"active","ping":84},{"user_id":261,"name":"silversol","steam_id":76561198004570036,"connected_time":3812000000000,"state":"active","ping":99},{"user_id":317,"name":"CypherMango","steam_id":76561199440975644,"connected_time":73000000000,"state":"spawning","ping":83},{"user_id":254,"name":"Buttman","steam_id":76561198044693388,"connected_time":4727000000000,"state":"active","ping":49},{"user_id":232,"name":"Lu","steam_id":76561198320532821,"connected_time":6794000000000,"state":"active","ping":60},{"user_id":256,"name":"water tastes good","steam_id":76561199375947670,"connected_time":4623000000000,"state":"active","ping":69},{"user_id":271,"name":"Èõ™„Éé‰∏ãÈõ™‰πÉ„ÅÆoppai","steam_id":76561198008307645,"connected_time":2949000000000,"state":"active","ping":78},{"user_id":280,"name":"È¶ôËæ£ÁÅ´ÈîÖÈ∏°","steam_id":76561198095119121,"connected_time":680000000000,"state":"active","ping":93},{"user_id":313,"name":"\"SKS\"","steam_id":76561198187995386,"connected_time":154000000000,"state":"active","ping":81},{"user_id":274,"name":"im_0ff","steam_id":76561198339346695,"connected_time":1346000000000,"state":"active","ping":122},{"user_id":259,"name":"Dr. Piss Rat","steam_id":76561199074809838,"connected_time":4043000000000,"state":"active","ping":66},{"user_id":276,"name":"bookman","steam_id":76561198989168133,"connected_time":1168000000000,"state":"active","ping":86}]},{"server_id":1,"name":"Uncletopia | Los Angeles | 1 | All Maps","name_short":"lax-1","host":"lax-1.us.uncletopia.com","port":27015,"enabled":true,"region":"us-west","cc":"us","latitude":33.94279,"longitude":-118.41004,"reserved":0,"last_update":"0001-01-01T00:00:00Z","name_a2s":"Uncletopia | Los Angeles | 1 | All Maps","protocol":17,"map":"koth_viaduct","folder":"tf","game":"Team Fortress","app_id":440,"player_count":0,"max_players":24,"Bots":0,"server_type":"Dedicated","server_os":"Linux","password":true,"vac":true,"version":"7708610","steam_id":85568392924469991,"keywords":["cp","nocrits","nodmgspread","uncletopia"],"game_id":440,"stv_port":27016,"stv_name":"Uncletopia | Los Angeles | 1 | All Maps | STV","players":null},{"server_id":112,"name":"Uncletopia | Los Angeles | 2 | All Maps","name_short":"lax-2","host":"lax-1.us.uncletopia.com","port":27025,"enabled":true,"region":"us-west","cc":"us","latitude":33.94279,"longitude":-118.41004,"reserved":0,"last_update":"0001-01-01T00:00:00Z","name_a2s":"Uncletopia | Los Angeles | 2 | All Maps","protocol":17,"map":"cp_mountainlab","folder":"tf","game":"Team Fortress","app_id":440,"player_count":0,"max_players":24,"Bots":0,"server_type":"Dedicated","server_os":"Linux","password":true,"vac":true,"version":"7708610","steam_id":85568392924469992,"keywords":["cp","nocrits","nodmgspread","uncletopia"],"game_id":440,"stv_port":27026,"stv_name":"Uncletopia | Los Angeles | 2 | All Maps | STV","players":null},{"server_id":324,"name":"Uncletopia | Los Angeles | 3 | All Maps","name_short":"lax-3","host":"lax-1.us.uncletopia.com","port":27035,"enabled":true,"region":"us-west","cc":"us","latitude":33.94279,"longitude":-118.41004,"reserved":0,"last_update":"0001-01-01T00:00:00Z","name_a2s":"Uncletopia | Los Angeles | 3 | All Maps","protocol":17,"map":"pl_badwater","folder":"tf","game":"Team Fortress","app_id":440,"player_count":24,"max_players":24,"Bots":0,"server_type":"Dedicated","server_os":"Linux","password":true,"vac":true,"version":"7708610","steam_id":85568392924510198,"keywords":["nocrits","nodmgspread","payload","uncletopia"],"game_id":440,"stv_port":27036,"stv_name":"Uncletopia | Los Angeles | 3 | All Maps | STV","players":[{"user_id":54,"name":"Humus","steam_id":76561198175286355,"connected_time":6171000000000,"state":"active","ping":41},{"user_id":117,"name":"Frank Accardi","steam_id":76561198017275707,"connected_time":235000000000,"state":"active","ping":63},{"user_id":87,"name":"El Doktor","steam_id":76561198413013439,"connected_time":3101000000000,"state":"active","ping":47},{"user_id":107,"name":"Jovi Boy","steam_id":76561198046605691,"connected_time":1766000000000,"state":"active","ping":55},{"user_id":59,"name":"Mom","steam_id":76561198207936000,"connected_time":5701000000000,"state":"active","ping":51},{"user_id":89,"name":"oil","steam_id":76561198099980149,"connected_time":2888000000000,"state":"active","ping":48},{"user_id":113,"name":"Trips","steam_id":76561198054581597,"connected_time":1019000000000,"state":"active","ping":40},{"user_id":111,"name":"High Cotton","steam_id":76561197998894854,"connected_time":1433000000000,"state":"active","ping":103},{"user_id":116,"name":"dmitri","steam_id":76561198060559286,"connected_time":474000000000,"state":"active","ping":52},{"user_id":93,"name":"Moyshen24","steam_id":76561199210510557,"connected_time":2701000000000,"state":"active","ping":62},{"user_id":91,"name":"The_Pacific_gamer","steam_id":76561198089491446,"connected_time":2800000000000,"state":"active","ping":73},{"user_id":103,"name":"rasa","steam_id":76561198025784696,"connected_time":2177000000000,"state":"active","ping":76},{"user_id":63,"name":"Sun Sugar","steam_id":76561198385085005,"connected_time":5584000000000,"state":"active","ping":62},{"user_id":100,"name":"BernieWouldHaveWon","steam_id":76561197979776458,"connected_time":2325000000000,"state":"active","ping":83},{"user_id":92,"name":"warehouse13xx","steam_id":76561198193379762,"connected_time":2771000000000,"state":"active","ping":75},{"user_id":94,"name":"ChoccyMiltank","steam_id":76561198981474284,"connected_time":2678000000000,"state":"active","ping":46},{"user_id":68,"name":"happer","steam_id":76561198018252253,"connected_time":4643000000000,"state":"active","ping":53},{"user_id":114,"name":"‚ù§ Alice","steam_id":76561198869945051,"connected_time":672000000000,"state":"active","ping":90},{"user_id":75,"name":"El Monte","steam_id":76561198263562991,"connected_time":4279000000000,"state":"active","ping":65},{"user_id":112,"name":"Chef","steam_id":76561198037041957,"connected_time":1372000000000,"state":"active","ping":57},{"user_id":115,"name":"goldhed","steam_id":76561198051751133,"connected_time":565000000000,"state":"active","ping":86},{"user_id":110,"name":"PunishedCrab","steam_id":76561198079650017,"connected_time":1659000000000,"state":"active","ping":55},{"user_id":106,"name":"hypotenuse","steam_id":76561198062479158,"connected_time":1779000000000,"state":"active","ping":82},{"user_id":119,"name":"Star","steam_id":76561198422395239,"connected_time":186000000000,"state":"active","ping":46}]},{"server_id":25,"name":"Uncletopia | Los Angeles | 4 | No Payload","name_short":"lax-4","host":"lax-1.us.uncletopia.com","port":27045,"enabled":true,"region":"us-west","cc":"us","latitude":33.94279,"longitude":-118.41004,"reserved":0,"last_update":"0001-01-01T00:00:00Z","name_a2s":"Uncletopia | Los Angeles | 4 | No Payload","protocol":17,"map":"koth_suijin","folder":"tf","game":"Team Fortress","app_id":440,"player_count":0,"max_players":24,"Bots":0,"server_type":"Dedicated","server_os":"Linux","password":true,"vac":true,"version":"7708610","steam_id":85568392924510199,"keywords":["cp","nocrits","nodmgspread","uncletopia"],"game_id":440,"stv_port":27046,"stv_name":"Uncletopia | Los Angeles | 4 | No Payload | STV","players":null},{"server_id":11,"name":"Uncletopia | London | 1 | All Maps","name_short":"lon-1","host":"lon-1.uk.uncletopia.com","port":27015,"enabled":true,"region":"eu","cc":"gb","latitude":51.509865,"longitude":-0.118092,"reserved":0,"last_update":"0001-01-01T00:00:00Z","name_a2s":"Uncletopia | London | 1 | All Maps","protocol":17,"map":"koth_viaduct","folder":"tf","game":"Team Fortress","app_id":440,"player_count":0,"max_players":24,"Bots":0,"server_type":"Dedicated","server_os":"Linux","password":true,"vac":true,"version":"7708610","steam_id":85568392924367362,"keywords":["cp","nocrits","nodmgspread","uncletopia"],"game_id":440,"stv_port":0,"stv_name":"","players":null},{"server_id":114,"name":"Uncletopia | London | 2 | All Maps","name_short":"lon-2","host":"lon-1.uk.uncletopia.com","port":27025,"enabled":true,"region":"eu","cc":"gb","latitude":51.509865,"longitude":-0.118092,"reserved":0,"last_update":"0001-01-01T00:00:00Z","name_a2s":"Uncletopia | London | 2 | All Maps","protocol":17,"map":"cp_mountainlab","folder":"tf","game":"Team Fortress","app_id":440,"player_count":0,"max_players":24,"Bots":0,"server_type":"Dedicated","server_os":"Linux","password":true,"vac":true,"version":"7708610","steam_id":85568392924470941,"keywords":["cp","nocrits","nodmgspread","uncletopia"],"game_id":440,"stv_port":27026,"stv_name":"Uncletopia | London | 2 | All Maps | STV","players":null},{"server_id":320,"name":"Uncletopia | London | 3 | All Maps","name_short":"lon-3","host":"lon-1.uk.uncletopia.com","port":27035,"enabled":true,"region":"eu","cc":"gb","latitude":51.509865,"longitude":-0.118092,"reserved":0,"last_update":"0001-01-01T00:00:00Z","name_a2s":"Uncletopia | London | 3 | All Maps","protocol":17,"map":"cp_altitude","folder":"tf","game":"Team Fortress","app_id":440,"player_count":0,"max_players":24,"Bots":0,"server_type":"Dedicated","server_os":"Linux","password":true,"vac":true,"version":"7708610","steam_id":85568392924510192,"keywords":["cp","nocrits","nodmgspread","uncletopia"],"game_id":440,"stv_port":0,"stv_name":"","players":null},{"server_id":321,"name":"Uncletopia | London | 4 | All Maps","name_short":"lon-4","host":"lon-1.uk.uncletopia.com","port":27045,"enabled":true,"region":"eu","cc":"gb","latitude":51.509865,"longitude":-0.118092,"reserved":0,"last_update":"0001-01-01T00:00:00Z","name_a2s":"Uncletopia | London | 4 | All Maps","protocol":17,"map":"koth_viaduct","folder":"tf","game":"Team Fortress","app_id":440,"player_count":0,"max_players":24,"Bots":0,"server_type":"Dedicated","server_os":"Linux","password":true,"vac":true,"version":"7708610","steam_id":85568392924510193,"keywords":["cp","nocrits","nodmgspread","uncletopia"],"game_id":440,"stv_port":0,"stv_name":"","players":null},{"server_id":21,"name":"Uncletopia | London | 5 | All Maps","name_short":"lon-5","host":"lon-1.uk.uncletopia.com","port":27055,"enabled":true,"region":"eu","cc":"gb","latitude":51.509865,"longitude":-0.118092,"reserved":0,"last_update":"0001-01-01T00:00:00Z","name_a2s":"Uncletopia | London | 5 | All Maps","protocol":17,"map":"koth_lakeside_final","folder":"tf","game":"Team Fortress","app_id":440,"player_count":0,"max_players":24,"Bots":0,"server_type":"Dedicated","server_os":"Linux","password":true,"vac":true,"version":"7708610","steam_id":85568392924742829,"keywords":["cp","nocrits","nodmgspread","uncletopia"],"game_id":440,"stv_port":0,"stv_name":"","players":null},{"server_id":22,"name":"Uncletopia | London | 6 | All Maps","name_short":"lon-6","host":"lon-1.uk.uncletopia.com","port":27065,"enabled":true,"region":"eu","cc":"gb","latitude":51.509865,"longitude":-0.118092,"reserved":0,"last_update":"0001-01-01T00:00:00Z","name_a2s":"Uncletopia | London | 6 | All Maps","protocol":17,"map":"koth_viaduct","folder":"tf","game":"Team Fortress","app_id":440,"player_count":0,"max_players":24,"Bots":0,"server_type":"Dedicated","server_os":"Linux","password":true,"vac":true,"version":"7708610","steam_id":85568392924742830,"keywords":["cp","nocrits","nodmgspread","uncletopia"],"game_id":440,"stv_port":0,"stv_name":"","players":null},{"server_id":40,"name":"Uncletopia | London | 7 | No Payload","name_short":"lon-7","host":"lon-1.uk.uncletopia.com","port":27075,"enabled":true,"region":"eu","cc":"gb","latitude":51.509865,"longitude":-0.118092,"reserved":0,"last_update":"0001-01-01T00:00:00Z","name_a2s":"Uncletopia | London | 7 | No Payload","protocol":17,"map":"cp_snakewater_final1","folder":"tf","game":"Team Fortress","app_id":440,"player_count":0,"max_players":24,"Bots":0,"server_type":"Dedicated","server_os":"Linux","password":true,"vac":true,"version":"7708610","steam_id":85568392924964314,"keywords":["cp","nocrits","nodmgspread","uncletopia"],"game_id":440,"stv_port":0,"stv_name":"","players":null},{"server_id":41,"name":"Uncletopia | London | 8 | Community","name_short":"lon-8","host":"lon-1.uk.uncletopia.com","port":27085,"enabled":true,"region":"eu","cc":"gb","latitude":51.509865,"longitude":-0.118092,"reserved":0,"last_update":"0001-01-01T00:00:00Z","name_a2s":"Uncletopia | London | 8 | Community","protocol":17,"map":"cp_snakewater_final1","folder":"tf","game":"Team Fortress","app_id":440,"player_count":0,"max_players":24,"Bots":0,"server_type":"Dedicated","server_os":"Linux","password":true,"vac":true,"version":"7708610","steam_id":85568392924964315,"keywords":["cp","nocrits","nodmgspread","uncletopia"],"game_id":440,"stv_port":0,"stv_name":"","players":null},{"server_id":300,"name":"Uncletopia | Montr√©al | 1 | All Maps","name_short":"mtl-1","host":"mtl-1.ca.uncletopia.com","port":27015,"enabled":true,"region":"us-east","cc":"ca","latitude":45.50889,"longitude":-73.56167,"reserved":0,"last_update":"0001-01-01T00:00:00Z","name_a2s":"Uncletopia | Montr√©al | 1 | All Maps","protocol":17,"map":"koth_cascade","folder":"tf","game":"Team Fortress","app_id":440,"player_count":0,"max_players":24,"Bots":0,"server_type":"Dedicated","server_os":"Linux","password":true,"vac":true,"version":"7708610","steam_id":85568392924500087,"keywords":["cp","nocrits","nodmgspread","uncletopia"],"game_id":440,"stv_port":27016,"stv_name":"Uncletopia | Montr√©al | 1 | All Maps | STV","players":null},{"server_id":301,"name":"Uncletopia | Montr√©al | 2 | All Maps","name_short":"mtl-2","host":"mtl-1.ca.uncletopia.com","port":27025,"enabled":true,"region":"us-east","cc":"ca","latitude":45.50889,"longitude":-73.56167,"reserved":0,"last_update":"0001-01-01T00:00:00Z","name_a2s":"Uncletopia | Montr√©al | 2 | All Maps","protocol":17,"map":"koth_viaduct","folder":"tf","game":"Team Fortress","app_id":440,"player_count":0,"max_players":24,"Bots":0,"server_type":"Dedicated","server_os":"Linux","password":true,"vac":true,"version":"7708610","steam_id":85568392924500088,"keywords":["cp","nocrits","nodmgspread","uncletopia"],"game_id":440,"stv_port":27026,"stv_name":"Uncletopia | Montr√©al | 2 | All Maps | STV","players":null},{"server_id":302,"name":"Uncletopia | Montr√©al | 3 | All Maps","name_short":"mtl-3","host":"mtl-1.ca.uncletopia.com","port":27035,"enabled":true,"region":"us-east","cc":"ca","latitude":45.50889,"longitude":-73.56167,"reserved":0,"last_update":"0001-01-01T00:00:00Z","name_a2s":"Uncletopia | Montr√©al | 3 | All Maps","protocol":17,"map":"koth_cascade","folder":"tf","game":"Team Fortress","app_id":440,"player_count":0,"max_players":24,"Bots":0,"server_type":"Dedicated","server_os":"Linux","password":true,"vac":true,"version":"7708610","steam_id":85568392924500089,"keywords":["cp","nocrits","nodmgspread","uncletopia"],"game_id":440,"stv_port":27036,"stv_name":"Uncletopia | Montr√©al | 3 | All Maps | STV","players":null},{"server_id":303,"name":"Uncletopia | Montr√©al | 4 | No Payload","name_short":"mtl-4","host":"mtl-1.ca.uncletopia.com","port":27045,"enabled":true,"region":"us-east","cc":"ca","latitude":45.50889,"longitude":-73.56167,"reserved":0,"last_update":"0001-01-01T00:00:00Z","name_a2s":"Uncletopia | Montr√©al | 4 | No Payload","protocol":17,"map":"pl_frontier_final","folder":"tf","game":"Team Fortress","app_id":440,"player_count":0,"max_players":24,"Bots":0,"server_type":"Dedicated","server_os":"Linux","password":true,"vac":true,"version":"7708610","steam_id":85568392924500090,"keywords":["nocrits","nodmgspread","payload","uncletopia"],"game_id":440,"stv_port":0,"stv_name":"","players":null},{"server_id":13,"name":"Uncletopia | New York City | 1 | All Maps","name_short":"nyc-1","host":"nyc-1.us.uncletopia.com","port":27015,"enabled":true,"region":"us-east","cc":"us","latitude":40.73061,"longitude":-73.93524,"reserved":0,"last_update":"0001-01-01T00:00:00Z","name_a2s":"Uncletopia | New York City | 1 | All Maps","protocol":17,"map":"koth_cascade","folder":"tf","game":"Team Fortress","app_id":440,"player_count":0,"max_players":24,"Bots":0,"server_type":"Dedicated","server_os":"Linux","password":true,"vac":true,"version":"7708610","steam_id":85568392924469993,"keywords":["cp","nocrits","nodmgspread","uncletopia"],"game_id":440,"stv_port":27016,"stv_name":"Uncletopia | New York City | 1 | All Maps | STV","players":null},{"server_id":14,"name":"Uncletopia | New York City | 2 | All Maps","name_short":"nyc-2","host":"nyc-1.us.uncletopia.com","port":27025,"enabled":true,"region":"us-east","cc":"us","latitude":40.73061,"longitude":-73.93524,"reserved":0,"last_update":"0001-01-01T00:00:00Z","name_a2s":"Uncletopia | New York City | 2 | All Maps","protocol":17,"map":"koth_highpass","folder":"tf","game":"Team Fortress","app_id":440,"player_count":0,"max_players":24,"Bots":0,"server_type":"Dedicated","server_os":"Linux","password":true,"vac":true,"version":"7708610","steam_id":85568392924469994,"keywords":["cp","nocrits","nodmgspread","uncletopia"],"game_id":440,"stv_port":27026,"stv_name":"Uncletopia | New York City | 2 | All Maps | STV","players":null},{"server_id":15,"name":"Uncletopia | New York City | 3 | All Maps","name_short":"nyc-3","host":"nyc-1.us.uncletopia.com","port":27035,"enabled":true,"region":"us-east","cc":"us","latitude":40.73061,"longitude":-73.93524,"reserved":0,"last_update":"0001-01-01T00:00:00Z","name_a2s":"Uncletopia | New York City | 3 | All Maps","protocol":17,"map":"pl_pier","folder":"tf","game":"Team Fortress","app_id":440,"player_count":24,"max_players":24,"Bots":0,"server_type":"Dedicated","server_os":"Linux","password":true,"vac":true,"version":"7708610","steam_id":85568392924742820,"keywords":["nocrits","nodmgspread","payload","uncletopia"],"game_id":440,"stv_port":27036,"stv_name":"Uncletopia | New York City | 3 | All Maps | STV","players":[{"user_id":349,"name":"ExtraSoap","steam_id":76561198008712409,"connected_time":1270000000000,"state":"active","ping":45},{"user_id":328,"name":"üÉî Nugg1t(sme/lly)","steam_id":76561198065652251,"connected_time":3388000000000,"state":"active","ping":133},{"user_id":301,"name":"layabout","steam_id":76561198130892117,"connected_time":5947000000000,"state":"active","ping":47},{"user_id":347,"name":"puer delicatus","steam_id":76561198102681457,"connected_time":1378000000000,"state":"active","ping":73},{"user_id":341,"name":"roman","steam_id":76561198170066797,"connected_time":2085000000000,"state":"active","ping":61},{"user_id":354,"name":"gromit","steam_id":76561198037746805,"connected_time":402000000000,"state":"active","ping":59},{"user_id":359,"name":"Dr. Adolf Sponge","steam_id":76561198072573105,"connected_time":209000000000,"state":"active","ping":88},{"user_id":340,"name":"haha yeah \u003c/3","steam_id":76561198986281248,"connected_time":2135000000000,"state":"active","ping":54},{"user_id":336,"name":"jras","steam_id":76561198159797901,"connected_time":2413000000000,"state":"active","ping":85},{"user_id":325,"name":"sergeant Adderall","steam_id":76561199010296481,"connected_time":3839000000000,"state":"active","ping":69},{"user_id":353,"name":"Maxxycat","steam_id":76561198194062681,"connected_time":426000000000,"state":"active","ping":39},{"user_id":348,"name":"ana","steam_id":76561197994492154,"connected_time":1282000000000,"state":"active","ping":138},{"user_id":355,"name":"O.G. C.E.O","steam_id":76561198063928325,"connected_time":331000000000,"state":"active","ping":78},{"user_id":361,"name":"xenolith","steam_id":76561198041496496,"connected_time":102000000000,"state":"active","ping":52},{"user_id":344,"name":"tonyb lft","steam_id":76561198131703086,"connected_time":1922000000000,"state":"active","ping":54},{"user_id":338,"name":"Soap","steam_id":76561198074619142,"connected_time":2333000000000,"state":"active","ping":74},{"user_id":358,"name":"‚ô•","steam_id":76561198401455467,"connected_time":269000000000,"state":"active","ping":107},{"user_id":333,"name":"crime br√ªl√©e","steam_id":76561198026223621,"connected_time":2737000000000,"state":"active","ping":54},{"user_id":330,"name":"Moon Seal","steam_id":76561198095827608,"connected_time":3102000000000,"state":"active","ping":121},{"user_id":324,"name":"AlexLovesYou","steam_id":76561199163263543,"connected_time":3874000000000,"state":"active","ping":92},{"user_id":362,"name":"Doober","steam_id":76561198056661095,"connected_time":10000000000,"state":"spawning","ping":88},{"user_id":203,"name":"Al Michaels","steam_id":76561198071217597,"connected_time":13184000000000,"state":"active","ping":59},{"user_id":316,"name":"Flamefishy","steam_id":76561198190284347,"connected_time":4455000000000,"state":"active","ping":58},{"user_id":351,"name":"Vaporeon","steam_id":76561198107058140,"connected_time":793000000000,"state":"active","ping":54}]},{"server_id":16,"name":"Uncletopia | New York City | 4 | Community","name_short":"nyc-4","host":"nyc-1.us.uncletopia.com","port":27045,"enabled":true,"region":"us-east","cc":"us","latitude":40.73061,"longitude":-73.93524,"reserved":0,"last_update":"0001-01-01T00:00:00Z","name_a2s":"Uncletopia | New York City | 4 | Community","protocol":17,"map":"workshop/cp_sulfur_rc2.ugc619869471","folder":"tf","game":"Team Fortress","app_id":440,"player_count":0,"max_players":24,"Bots":0,"server_type":"Dedicated","server_os":"Linux","password":true,"vac":true,"version":"7708610","steam_id":85568392924742821,"keywords":["cp","nocrits","nodmgspread","uncletopia"],"game_id":440,"stv_port":27046,"stv_name":"Uncletopia | New York City | 4 | Community | STV","players":null},{"server_id":142,"name":"Uncletopia | S√£o Paulo | 1 | All Maps","name_short":"sao-1","host":"sao-1.br.uncletopia.com","port":27015,"enabled":true,"region":"sa","cc":"br","latitude":-23.533773,"longitude":-46.62529,"reserved":0,"last_update":"0001-01-01T00:00:00Z","name_a2s":"Uncletopia | S√£o Paulo | 1 | All Maps","protocol":17,"map":"koth_cascade","folder":"tf","game":"Team Fortress","app_id":440,"player_count":0,"max_players":24,"Bots":0,"server_type":"Dedicated","server_os":"Linux","password":true,"vac":true,"version":"7708610","steam_id":85568392924469996,"keywords":["cp","nocrits","nodmgspread","uncletopia"],"game_id":440,"stv_port":27016,"stv_name":"Uncletopia | S√£o Paulo | 1 | All Maps | STV","players":null},{"server_id":143,"name":"Uncletopia | S√£o Paulo | 2 | All Maps","name_short":"sao-2","host":"sao-2.br.uncletopia.com","port":27015,"enabled":true,"region":"sa","cc":"br","latitude":-23.533773,"longitude":-46.62529,"reserved":0,"last_update":"0001-01-01T00:00:00Z","name_a2s":"Uncletopia | S√£o Paulo | 2 | All Maps","protocol":17,"map":"koth_viaduct","folder":"tf","game":"Team Fortress","app_id":440,"player_count":0,"max_players":24,"Bots":0,"server_type":"Dedicated","server_os":"Linux","password":true,"vac":true,"version":"7708610","steam_id":85568392924485349,"keywords":["cp","nocrits","nodmgspread","uncletopia"],"game_id":440,"stv_port":27016,"stv_name":"Uncletopia | S√£o Paulo | 2 | All Maps | STV","players":null},{"server_id":7,"name":"Uncletopia | Seattle | 1 | All Maps","name_short":"sea-1","host":"sea-1.us.uncletopia.com","port":27015,"enabled":true,"region":"us-west","cc":"us","latitude":47.608013,"longitude":-122.33517,"reserved":0,"last_update":"0001-01-01T00:00:00Z","name_a2s":"Uncletopia | Seattle | 1 | All Maps","protocol":17,"map":"cp_gorge","folder":"tf","game":"Team Fortress","app_id":440,"player_count":24,"max_players":24,"Bots":0,"server_type":"Dedicated","server_os":"Linux","password":true,"vac":true,"version":"7708610","steam_id":85568392924469997,"keywords":["cp","nocrits","nodmgspread","uncletopia"],"game_id":440,"stv_port":27016,"stv_name":"Uncletopia | Seattle | 1 | All Maps | STV","players":[{"user_id":436,"name":"lol","steam_id":76561198026491738,"connected_time":5951000000000,"state":"active","ping":71},{"user_id":482,"name":"Kenpachi","steam_id":76561198803824764,"connected_time":490000000000,"state":"active","ping":65},{"user_id":437,"name":"Black Adam","steam_id":76561198066091050,"connected_time":5947000000000,"state":"active","ping":50},{"user_id":468,"name":"House","steam_id":76561198308405663,"connected_time":2423000000000,"state":"active","ping":54},{"user_id":414,"name":"Sniff","steam_id":76561198010270922,"connected_time":7995000000000,"state":"active","ping":43},{"user_id":455,"name":"Ayayahuasca","steam_id":76561199002906056,"connected_time":3520000000000,"state":"active","ping":45},{"user_id":388,"name":"Joy in A Box","steam_id":76561198156820753,"connected_time":10566000000000,"state":"active","ping":179},{"user_id":472,"name":"Exposed_Bigfoot","steam_id":76561198306193891,"connected_time":1925000000000,"state":"active","ping":62},{"user_id":478,"name":"mub","steam_id":76561197961943948,"connected_time":1240000000000,"state":"active","ping":43},{"user_id":473,"name":"zoiboi","steam_id":76561198069598590,"connected_time":1918000000000,"state":"active","ping":83},{"user_id":359,"name":"Luca","steam_id":76561198125087140,"connected_time":12422000000000,"state":"active","ping":47},{"user_id":484,"name":"Can of Oranges (Festive)","steam_id":76561199121813529,"connected_time":482000000000,"state":"active","ping":39},{"user_id":479,"name":"mega","steam_id":76561198089520959,"connected_time":1158000000000,"state":"active","ping":97},{"user_id":483,"name":"Aardillo","steam_id":76561198042193578,"connected_time":489000000000,"state":"active","ping":65},{"user_id":461,"name":"Nuren","steam_id":76561198111190489,"connected_time":2961000000000,"state":"active","ping":136},{"user_id":439,"name":"s4lmon","steam_id":76561198055882807,"connected_time":5813000000000,"state":"active","ping":51},{"user_id":465,"name":"Tom Skirrett","steam_id":76561198014600788,"connected_time":2641000000000,"state":"active","ping":75},{"user_id":453,"name":"Mapachito Lindo","steam_id":76561198031359995,"connected_time":3784000000000,"state":"active","ping":40},{"user_id":477,"name":"rat gets the cheese","steam_id":76561198031234032,"connected_time":1587000000000,"state":"active","ping":98},{"user_id":463,"name":"Spaghetti Cat","steam_id":76561198027168510,"connected_time":2875000000000,"state":"active","ping":61},{"user_id":457,"name":"shane","steam_id":76561198060491451,"connected_time":3490000000000,"state":"active","ping":87},{"user_id":393,"name":"Lambchop","steam_id":76561198043900363,"connected_time":9590000000000,"state":"active","ping":75},{"user_id":449,"name":"SolarusD","steam_id":76561198029279861,"connected_time":5034000000000,"state":"active","ping":72},{"user_id":485,"name":"lil raph","steam_id":76561198870682982,"connected_time":479000000000,"state":"active","ping":52}]},{"server_id":119,"name":"Uncletopia | Seattle | 2 | All Maps","name_short":"sea-2","host":"sea-1.us.uncletopia.com","port":27025,"enabled":true,"region":"us-west","cc":"us","latitude":47.608013,"longitude":-122.33517,"reserved":0,"last_update":"0001-01-01T00:00:00Z","name_a2s":"Uncletopia | Seattle | 2 | All Maps","protocol":17,"map":"pl_pier","folder":"tf","game":"Team Fortress","app_id":440,"player_count":24,"max_players":24,"Bots":0,"server_type":"Dedicated","server_os":"Linux","password":true,"vac":true,"version":"7708610","steam_id":85568392924469998,"keywords":["nocrits","nodmgspread","payload","uncletopia"],"game_id":440,"stv_port":27026,"stv_name":"Uncletopia | Seattle | 2 | All Maps | STV","players":[{"user_id":460,"name":"Eggnog","steam_id":76561197968179862,"connected_time":3257000000000,"state":"active","ping":73},{"user_id":496,"name":"Squidward Tortellini","steam_id":76561199017850660,"connected_time":718000000000,"state":"active","ping":109},{"user_id":418,"name":"Evanb","steam_id":76561198042057792,"connected_time":6884000000000,"state":"active","ping":52},{"user_id":487,"name":"Madrox Who?","steam_id":76561197988859134,"connected_time":1424000000000,"state":"active","ping":124},{"user_id":493,"name":"Raw_Input","steam_id":76561198050238582,"connected_time":1275000000000,"state":"active","ping":47},{"user_id":437,"name":"JON","steam_id":76561198057971005,"connected_time":5572000000000,"state":"active","ping":40},{"user_id":457,"name":"Wormy Getting Coal","steam_id":76561198054539200,"connected_time":3503000000000,"state":"active","ping":48},{"user_id":485,"name":"Oberynne","steam_id":76561198081868308,"connected_time":1492000000000,"state":"active","ping":50},{"user_id":497,"name":"hotgarbage","steam_id":76561197988541148,"connected_time":678000000000,"state":"active","ping":84},{"user_id":488,"name":"SomeRandomMail","steam_id":76561199002913110,"connected_time":1353000000000,"state":"active","ping":65},{"user_id":486,"name":"„Çª„Ç§„Éê„Éº","steam_id":76561198169223408,"connected_time":1482000000000,"state":"active","ping":57},{"user_id":494,"name":"[Bandit]","steam_id":76561197986919852,"connected_time":1144000000000,"state":"active","ping":57},{"user_id":438,"name":"google","steam_id":76561198799673421,"connected_time":5450000000000,"state":"active","ping":64},{"user_id":498,"name":"KingTinkerer","steam_id":76561198226856548,"connected_time":659000000000,"state":"active","ping":70},{"user_id":499,"name":"Lily Thorn","steam_id":76561198305488625,"connected_time":646000000000,"state":"active","ping":62},{"user_id":489,"name":"R5-D4","steam_id":76561198025196439,"connected_time":1346000000000,"state":"active","ping":59},{"user_id":500,"name":"Seal","steam_id":76561197970204043,"connected_time":581000000000,"state":"active","ping":46},{"user_id":490,"name":"SesataPomang","steam_id":76561198145133059,"connected_time":1339000000000,"state":"active","ping":98},{"user_id":475,"name":"OJ Simpson","steam_id":76561198056329143,"connected_time":2302000000000,"state":"active","ping":82},{"user_id":495,"name":"KellyKapoor","steam_id":76561198040828123,"connected_time":785000000000,"state":"active","ping":46},{"user_id":492,"name":"but why though?","steam_id":76561198091871087,"connected_time":1324000000000,"state":"active","ping":67},{"user_id":464,"name":"dex","steam_id":76561198202575667,"connected_time":3091000000000,"state":"active","ping":180},{"user_id":502,"name":"ExplodingRat","steam_id":76561198133165103,"connected_time":535000000000,"state":"active","ping":37},{"user_id":465,"name":"Parauder","steam_id":76561198131593741,"connected_time":3090000000000,"state":"active","ping":115}]},{"server_id":17,"name":"Uncletopia | San Francisco | 1 | All Maps","name_short":"sfo-1","host":"sfo-1.us.uncletopia.com","port":27015,"enabled":true,"region":"us-west","cc":"us","latitude":37.77397,"longitude":-122.4313,"reserved":0,"last_update":"0001-01-01T00:00:00Z","name_a2s":"Uncletopia | San Francisco | 1 | All Maps","protocol":17,"map":"pl_badwater","folder":"tf","game":"Team Fortress","app_id":440,"player_count":17,"max_players":24,"Bots":0,"server_type":"Dedicated","server_os":"Linux","password":true,"vac":true,"version":"7708610","steam_id":85568392924469999,"keywords":["nocrits","nodmgspread","payload","uncletopia"],"game_id":440,"stv_port":27016,"stv_name":"Uncletopia | San Francisco | 1 | All Maps | STV","players":[{"user_id":341,"name":"bippard","steam_id":76561198002053047,"connected_time":801000000000,"state":"spawning","ping":146},{"user_id":262,"name":"Livin' Like Larry","steam_id":76561198313360974,"connected_time":6055000000000,"state":"spawning","ping":106},{"user_id":295,"name":"fyoure","steam_id":76561198083694047,"connected_time":4546000000000,"state":"spawning","ping":129},{"user_id":342,"name":"Sir Galahad","steam_id":76561198195999859,"connected_time":713000000000,"state":"spawning","ping":100},{"user_id":331,"name":"Mezden","steam_id":76561197991156264,"connected_time":1593000000000,"state":"spawning","ping":145},{"user_id":307,"name":"benglengler","steam_id":76561198150137369,"connected_time":3178000000000,"state":"spawning","ping":125},{"user_id":340,"name":"[DSU] Bluetshirtguy","steam_id":76561198012831206,"connected_time":831000000000,"state":"spawning","ping":136},{"user_id":343,"name":"DSM-IVCE","steam_id":76561199438515797,"connected_time":31000000000,"state":"connecting","ping":171},{"user_id":330,"name":"Branos","steam_id":76561198396414319,"connected_time":1649000000000,"state":"spawning","ping":127},{"user_id":344,"name":"moe","steam_id":76561198929586245,"connected_time":11000000000,"state":"spawning","ping":65},{"user_id":338,"name":"TheGamingJasper","steam_id":76561199054003635,"connected_time":982000000000,"state":"spawning","ping":143},{"user_id":324,"name":"VerSaKa","steam_id":76561198052392540,"connected_time":2391000000000,"state":"spawning","ping":170},{"user_id":296,"name":"huiei","steam_id":76561198073763735,"connected_time":4361000000000,"state":"spawning","ping":86},{"user_id":172,"name":"Marzbee115","steam_id":76561198095821025,"connected_time":13320000000000,"state":"spawning","ping":120},{"user_id":336,"name":"Satori Komeiji","steam_id":76561198158211423,"connected_time":1125000000000,"state":"spawning","ping":89},{"user_id":186,"name":"GameGuru the Green Gryphon","steam_id":76561198118495354,"connected_time":12660000000000,"state":"spawning","ping":133},{"user_id":189,"name":"Avem","steam_id":76561198058763710,"connected_time":12208000000000,"state":"spawning","ping":123}]},{"server_id":18,"name":"Uncletopia | San Francisco | 2 | All Maps","name_short":"sfo-2","host":"sfo-1.us.uncletopia.com","port":27025,"enabled":true,"region":"us-west","cc":"us","latitude":37.77397,"longitude":-122.4313,"reserved":0,"last_update":"0001-01-01T00:00:00Z","name_a2s":"Uncletopia | San Francisco | 2 | All Maps","protocol":17,"map":"pl_badwater","folder":"tf","game":"Team Fortress","app_id":440,"player_count":0,"max_players":24,"Bots":0,"server_type":"Dedicated","server_os":"Linux","password":true,"vac":true,"version":"7708610","steam_id":85568392924470000,"keywords":["nocrits","nodmgspread","payload","uncletopia"],"game_id":440,"stv_port":27026,"stv_name":"Uncletopia | San Francisco | 2 | All Maps | STV","players":null},{"server_id":19,"name":"Uncletopia | San Francisco | 3 | No Payload","name_short":"sfo-3","host":"sfo-1.us.uncletopia.com","port":27035,"enabled":true,"region":"us-west","cc":"us","latitude":37.77397,"longitude":-122.4313,"reserved":0,"last_update":"0001-01-01T00:00:00Z","name_a2s":"Uncletopia | San Francisco | 3 | No Payload","protocol":17,"map":"plr_bananabay","folder":"tf","game":"Team Fortress","app_id":440,"player_count":0,"max_players":24,"Bots":0,"server_type":"Dedicated","server_os":"Linux","password":true,"vac":true,"version":"7708610","steam_id":85568392924742824,"keywords":["nocrits","nodmgspread","payload","uncletopia"],"game_id":440,"stv_port":27036,"stv_name":"Uncletopia | San Francisco | 3 | No Payload | STV","players":null},{"server_id":20,"name":"Uncletopia | San Francisco | 4 | Community","name_short":"sfo-4","host":"sfo-1.us.uncletopia.com","port":27045,"enabled":true,"region":"us-west","cc":"us","latitude":37.77397,"longitude":-122.4313,"reserved":0,"last_update":"0001-01-01T00:00:00Z","name_a2s":"Uncletopia | San Francisco | 4 | Community","protocol":17,"map":"workshop/koth_synthetic_rc6a.ugc1549817316","folder":"tf","game":"Team Fortress","app_id":440,"player_count":0,"max_players":24,"Bots":0,"server_type":"Dedicated","server_os":"Linux","password":true,"vac":true,"version":"7708610","steam_id":85568392924742826,"keywords":["cp","nocrits","nodmgspread","uncletopia"],"game_id":440,"stv_port":27046,"stv_name":"Uncletopia | San Francisco | 4 | Community | STV","players":null},{"server_id":141,"name":"Uncletopia | Sydney | 1 | All Maps","name_short":"syd-1","host":"syd-1.au.uncletopia.com","port":27015,"enabled":true,"region":"au","cc":"au","latitude":-33.865143,"longitude":151.2099,"reserved":0,"last_update":"0001-01-01T00:00:00Z","name_a2s":"Uncletopia | Sydney | 1 | All Maps","protocol":17,"map":"cp_dustbowl","folder":"tf","game":"Team Fortress","app_id":440,"player_count":24,"max_players":24,"Bots":0,"server_type":"Dedicated","server_os":"Linux","password":true,"vac":true,"version":"7708610","steam_id":85568392924470001,"keywords":["cp","nocrits","nodmgspread","uncletopia"],"game_id":440,"stv_port":27016,"stv_name":"Uncletopia | Sydney | 1 | All Maps | STV","players":[{"user_id":518,"name":"PyroShark","steam_id":76561198199915279,"connected_time":1432000000000,"state":"active","ping":70},{"user_id":524,"name":"Pizzaray","steam_id":76561198005075102,"connected_time":1108000000000,"state":"active","ping":30},{"user_id":517,"name":"Fatass Yoshi","steam_id":76561198033784848,"connected_time":1439000000000,"state":"active","ping":45},{"user_id":509,"name":"hyak","steam_id":76561198175700625,"connected_time":1659000000000,"state":"active","ping":88},{"user_id":530,"name":"MrMuffin16","steam_id":76561198257303774,"connected_time":145000000000,"state":"active","ping":50},{"user_id":527,"name":"clout","steam_id":76561198073310502,"connected_time":675000000000,"state":"active","ping":71},{"user_id":374,"name":"‡∏∏bifcheg","steam_id":76561198319806610,"connected_time":11430000000000,"state":"active","ping":64},{"user_id":521,"name":"Solidmozza","steam_id":76561197976650325,"connected_time":1305000000000,"state":"active","ping":48},{"user_id":528,"name":"Treggles","steam_id":76561198042806226,"connected_time":628000000000,"state":"active","ping":77},{"user_id":451,"name":"little raw meat boy","steam_id":76561199248254676,"connected_time":5866000000000,"state":"active","ping":59},{"user_id":479,"name":"ice_freeze101","steam_id":76561198060902496,"connected_time":4176000000000,"state":"active","ping":50},{"user_id":519,"name":"Winky","steam_id":76561199059450243,"connected_time":1350000000000,"state":"active","ping":49},{"user_id":497,"name":"ruben","steam_id":76561198025063982,"connected_time":2541000000000,"state":"active","ping":168},{"user_id":520,"name":"Charm","steam_id":76561198028891054,"connected_time":1345000000000,"state":"active","ping":61},{"user_id":501,"name":"floppinv2","steam_id":76561198213566569,"connected_time":2282000000000,"state":"active","ping":98},{"user_id":525,"name":"ljpaters","steam_id":76561198094354484,"connected_time":1000000000000,"state":"active","ping":61},{"user_id":513,"name":"Comedy Mode","steam_id":76561198293250088,"connected_time":1578000000000,"state":"active","ping":93},{"user_id":480,"name":"KwassaKwassa","steam_id":76561198970205160,"connected_time":4034000000000,"state":"active","ping":63},{"user_id":522,"name":"the lad#savetf2","steam_id":76561198865537226,"connected_time":1283000000000,"state":"active","ping":84},{"user_id":463,"name":"NewChris","steam_id":76561198254754182,"connected_time":5211000000000,"state":"active","ping":79},{"user_id":495,"name":"no teles 4 u","steam_id":76561198018478297,"connected_time":2766000000000,"state":"active","ping":65},{"user_id":523,"name":"Atlas","steam_id":76561198069332870,"connected_time":1277000000000,"state":"active","ping":53},{"user_id":466,"name":"Abyss (she/her)","steam_id":76561198049213583,"connected_time":5171000000000,"state":"active","ping":62},{"user_id":436,"name":"Eddie","steam_id":76561198081031350,"connected_time":7102000000000,"state":"active","ping":59}]},{"server_id":123,"name":"Uncletopia | Sydney | 2 | All Maps","name_short":"syd-2","host":"syd-1.au.uncletopia.com","port":27025,"enabled":true,"region":"au","cc":"au","latitude":-33.865143,"longitude":151.2099,"reserved":0,"last_update":"0001-01-01T00:00:00Z","name_a2s":"Uncletopia | Sydney | 2 | All Maps","protocol":17,"map":"koth_highpass","folder":"tf","game":"Team Fortress","app_id":440,"player_count":0,"max_players":24,"Bots":0,"server_type":"Dedicated","server_os":"Linux","password":true,"vac":true,"version":"7708610","steam_id":85568392924470002,"keywords":["cp","nocrits","nodmgspread","uncletopia"],"game_id":440,"stv_port":27026,"stv_name":"Uncletopia | Sydney | 2 | All Maps | STV","players":null},{"server_id":395,"name":"Uncletopia | Sydney | 3 | All Maps","name_short":"syd-3","host":"syd-1.au.uncletopia.com","port":27035,"enabled":true,"region":"au","cc":"au","latitude":-33.865143,"longitude":151.2099,"reserved":0,"last_update":"0001-01-01T00:00:00Z","name_a2s":"Uncletopia | Sydney | 3 | All Maps","protocol":17,"map":"koth_highpass","folder":"tf","game":"Team Fortress","app_id":440,"player_count":16,"max_players":24,"Bots":0,"server_type":"Dedicated","server_os":"Linux","password":true,"vac":true,"version":"7708610","steam_id":85568392925194467,"keywords":["cp","nocrits","nodmgspread","uncletopia"],"game_id":440,"stv_port":27036,"stv_name":"Uncletopia | Sydney | 3 | All Maps | STV","players":[{"user_id":193,"name":"Emerald the Snake","steam_id":76561199013344853,"connected_time":939000000000,"state":"active","ping":54},{"user_id":201,"name":"GTSW1FT","steam_id":76561198315785054,"connected_time":356000000000,"state":"active","ping":75},{"user_id":195,"name":"bigboibabi","steam_id":76561198050936655,"connected_time":680000000000,"state":"active","ping":38},{"user_id":196,"name":"Y0shua3","steam_id":76561199381627916,"connected_time":661000000000,"state":"active","ping":76},{"user_id":197,"name":"Painfully Average","steam_id":76561198119409653,"connected_time":643000000000,"state":"active","ping":72},{"user_id":200,"name":"Evojr","steam_id":76561198211512664,"connected_time":475000000000,"state":"active","ping":41},{"user_id":202,"name":"wody","steam_id":76561198867007873,"connected_time":355000000000,"state":"active","ping":98},{"user_id":203,"name":"superbob event manager","steam_id":76561198272422193,"connected_time":284000000000,"state":"active","ping":61},{"user_id":204,"name":"Skeptikal01","steam_id":76561199064694137,"connected_time":261000000000,"state":"active","ping":149},{"user_id":205,"name":"cimpact","steam_id":76561198452258917,"connected_time":247000000000,"state":"active","ping":168},{"user_id":206,"name":"Case-Ah-Dia","steam_id":76561198103840947,"connected_time":202000000000,"state":"active","ping":75},{"user_id":207,"name":"[MMM] ReeOne‚Ñ¢","steam_id":76561199172478531,"connected_time":182000000000,"state":"active","ping":78},{"user_id":209,"name":"shreb","steam_id":76561199000517547,"connected_time":105000000000,"state":"active","ping":106},{"user_id":210,"name":"[MMM] Jazztache","steam_id":76561198335312620,"connected_time":82000000000,"state":"active","ping":45},{"user_id":211,"name":"table","steam_id":76561198055553140,"connected_time":55000000000,"state":"active","ping":246},{"user_id":212,"name":"Arteralis","steam_id":76561199005492252,"connected_time":37000000000,"state":"active","ping":67}]},{"server_id":396,"name":"Uncletopia | Sydney | 4 | All Maps","name_short":"syd-4","host":"syd-1.au.uncletopia.com","port":27045,"enabled":true,"region":"au","cc":"au","latitude":-33.865143,"longitude":151.2099,"reserved":0,"last_update":"0001-01-01T00:00:00Z","name_a2s":"Uncletopia | Sydney | 4 | All Maps","protocol":17,"map":"koth_lakeside_final","folder":"tf","game":"Team Fortress","app_id":440,"player_count":0,"max_players":24,"Bots":0,"server_type":"Dedicated","server_os":"Linux","password":true,"vac":true,"version":"7708610","steam_id":85568392925397958,"keywords":["cp","nocrits","nodmgspread","uncletopia"],"game_id":440,"stv_port":0,"stv_name":"","players":null},{"server_id":58,"name":"Uncletopia | Sydney | 5 | No Payload","name_short":"syd-5","host":"syd-1.au.uncletopia.com","port":27055,"enabled":true,"region":"au","cc":"au","latitude":-33.865143,"longitude":151.2099,"reserved":0,"last_update":"0001-01-01T00:00:00Z","name_a2s":"Uncletopia | Sydney | 5 | No Payload","protocol":17,"map":"koth_cascade","folder":"tf","game":"Team Fortress","app_id":440,"player_count":0,"max_players":24,"Bots":0,"server_type":"Dedicated","server_os":"Linux","password":true,"vac":true,"version":"7708610","steam_id":85568392925397959,"keywords":["cp","nocrits","nodmgspread","uncletopia"],"game_id":440,"stv_port":0,"stv_name":"","players":null},{"server_id":59,"name":"Uncletopia | Sydney | 6 | Community","name_short":"syd-6","host":"syd-1.au.uncletopia.com","port":27065,"enabled":true,"region":"au","cc":"au","latitude":-33.865143,"longitude":151.2099,"reserved":0,"last_update":"0001-01-01T00:00:00Z","name_a2s":"Uncletopia | Sydney | 6 | Community","protocol":17,"map":"workshop/koth_synthetic_rc6a.ugc1549817316","folder":"tf","game":"Team Fortress","app_id":440,"player_count":0,"max_players":24,"Bots":0,"server_type":"Dedicated","server_os":"Linux","password":true,"vac":true,"version":"7708610","steam_id":85568392925397960,"keywords":["cp","nocrits","nodmgspread","uncletopia"],"game_id":440,"stv_port":27066,"stv_name":"Uncletopia | Sydney | 6 | Community | STV","players":null},{"server_id":49,"name":"Uncletopia | Warsaw | 1 | All Maps","name_short":"waw-1","host":"waw-1.pl.uncletopia.com","port":27015,"enabled":true,"region":"eu","cc":"pl","latitude":52.2297,"longitude":21.017532,"reserved":0,"last_update":"0001-01-01T00:00:00Z","name_a2s":"Uncletopia | Warsaw | 1 | All Maps","protocol":17,"map":"cp_mountainlab","folder":"tf","game":"Team Fortress","app_id":440,"player_count":0,"max_players":24,"Bots":0,"server_type":"Dedicated","server_os":"Linux","password":true,"vac":true,"version":"7708610","steam_id":85568392925397850,"keywords":["cp","nocrits","nodmgspread","uncletopia"],"game_id":440,"stv_port":0,"stv_name":"","players":null},{"server_id":50,"name":"Uncletopia | Warsaw | 2 | All Maps","name_short":"waw-2","host":"waw-1.pl.uncletopia.com","port":27025,"enabled":true,"region":"eu","cc":"pl","latitude":52.2297,"longitude":21.017532,"reserved":0,"last_update":"0001-01-01T00:00:00Z","name_a2s":"Uncletopia | Warsaw | 2 | All Maps","protocol":17,"map":"pl_badwater","folder":"tf","game":"Team Fortress","app_id":440,"player_count":0,"max_players":24,"Bots":0,"server_type":"Dedicated","server_os":"Linux","password":true,"vac":true,"version":"7708610","steam_id":85568392925397851,"keywords":["nocrits","nodmgspread","payload","uncletopia"],"game_id":440,"stv_port":0,"stv_name":"","players":null},{"server_id":51,"name":"Uncletopia | Warsaw | 3 | All Maps","name_short":"waw-3","host":"waw-1.pl.uncletopia.com","port":27035,"enabled":true,"region":"eu","cc":"pl","latitude":52.2297,"longitude":21.017532,"reserved":0,"last_update":"0001-01-01T00:00:00Z","name_a2s":"Uncletopia | Warsaw | 3 | All Maps","protocol":17,"map":"koth_cascade","folder":"tf","game":"Team Fortress","app_id":440,"player_count":0,"max_players":24,"Bots":0,"server_type":"Dedicated","server_os":"Linux","password":true,"vac":true,"version":"7708610","steam_id":85568392925397852,"keywords":["cp","nocrits","nodmgspread","uncletopia"],"game_id":440,"stv_port":0,"stv_name":"","players":null},{"server_id":52,"name":"Uncletopia | Warsaw | 4 | All Maps","name_short":"waw-4","host":"waw-1.pl.uncletopia.com","port":27045,"enabled":true,"region":"eu","cc":"pl","latitude":52.2297,"longitude":21.017532,"reserved":0,"last_update":"0001-01-01T00:00:00Z","name_a2s":"Uncletopia | Warsaw | 4 | All Maps","protocol":17,"map":"cp_mountainlab","folder":"tf","game":"Team Fortress","app_id":440,"player_count":0,"max_players":24,"Bots":0,"server_type":"Dedicated","server_os":"Linux","password":true,"vac":true,"version":"7708610","steam_id":85568392925397853,"keywords":["cp","nocrits","nodmgspread","uncletopia"],"game_id":440,"stv_port":0,"stv_name":"","players":null},{"server_id":53,"name":"Uncletopia | Warsaw | 5 | No Payload","name_short":"waw-5","host":"waw-1.pl.uncletopia.com","port":27055,"enabled":true,"region":"eu","cc":"pl","latitude":52.2297,"longitude":21.017532,"reserved":0,"last_update":"0001-01-01T00:00:00Z","name_a2s":"Uncletopia | Warsaw | 5 | No Payload","protocol":17,"map":"cp_dustbowl","folder":"tf","game":"Team Fortress","app_id":440,"player_count":0,"max_players":24,"Bots":0,"server_type":"Dedicated","server_os":"Linux","password":true,"vac":true,"version":"7708610","steam_id":85568392925397854,"keywords":["cp","nocrits","nodmgspread","uncletopia"],"game_id":440,"stv_port":0,"stv_name":"","players":null},{"server_id":54,"name":"Uncletopia | Warsaw | 6 | Community","name_short":"waw-6","host":"waw-1.pl.uncletopia.com","port":27065,"enabled":true,"region":"eu","cc":"pl","latitude":52.2297,"longitude":21.017532,"reserved":0,"last_update":"0001-01-01T00:00:00Z","name_a2s":"Uncletopia | Warsaw | 6 | Community","protocol":17,"map":"koth_highpass","folder":"tf","game":"Team Fortress","app_id":440,"player_count":0,"max_players":24,"Bots":0,"server_type":"Dedicated","server_os":"Linux","password":true,"vac":true,"version":"7708610","steam_id":85568392925397856,"keywords":["cp","nocrits","nodmgspread","uncletopia"],"game_id":440,"stv_port":0,"stv_name":"","players":null}]}