{"status":true,"message":"","result":[{"server_id":9,"name":"Uncletopia | Atlanta | 1 | All Maps","name_short":"atl-1","host":"atl-1.us.uncletopia.com","port":27015,"enabled":true,"region":"us-east","cc":"us","latitude":33.753746,"longitude":-84.38633,"reserved":0,"last_update":"0001-01-01T00:00:00Z","name_a2s":"Uncletopia | Atlanta | 1 | All Maps","protocol":17,"map":"koth_lakeside_final","folder":"tf","game":"Team Fortress","app_id":440,"player_count":0,"max_players":24,"Bots":0,"server_type":"Dedicated","server_os":"Linux","password":true,"vac":true,"version":"7961495","steam_id":85568392924469982,"keywords":["cp","nocrits","nodmgspread","uncletopia"],"game_id":440,"stv_port":27016,"stv_name":"Uncletopia | Atlanta | 1 | All Maps | STV","players":null},{"server_id":104,"name":"Uncletopia | Atlanta | 2 | All Maps","name_short":"atl-2","host":"atl-1.us.uncletopia.com","port":27025,"enabled":true,"region":"us-east","cc":"us","latitude":33.753746,"longitude":-84.38633,"reserved":0,"last_update":"0001-01-01T00:00:00Z","name_a2s":"Uncletopia | Atlanta | 2 | All Maps","protocol":17,"map":"koth_cascade","folder":"tf","game":"Team Fortress","app_id":440,"player_count":0,"max_players":24,"Bots":0,"server_type":"Dedicated","server_os":"Linux","password":true,"vac":true,"version":"7961495","steam_id":85568392924469983,"keywords":["cp","nocrits","nodmgspread","uncletopia"],"game_id":440,"stv_port":27026,"stv_name":"Uncletopia | Atlanta | 2 | All Maps | STV","players":null},{"server_id":400,"name":"Uncletopia | Atlanta | 3 | Stopwatch","name_short":"atl-3","host":"atl-1.us.uncletopia.com","port":27035,"enabled":true,"region":"us-east","cc":"us","latitude":33.753746,"longitude":-84.38633,"reserved":0,"last_update":"0001-01-01T00:00:00Z","name_a2s":"Uncletopia | Atlanta | 3 | Stopwatch","protocol":17,"map":"pl_badwater","folder":"tf","game":"Team Fortress","app_id":440,"player_count":0,"max_players":24,"Bots":0,"server_type":"Dedicated","server_os":"Linux","password":true,"vac":true,"version":"7961495","steam_id":85568392924515187,"keywords":["nocrits","nodmgspread","payload","uncletopia"],"game_id":440,"stv_port":27036,"stv_name":"Uncletopia | Atlanta | 3 | Stopwatch | STV","players":null},{"server_id":401,"name":"Uncletopia | Atlanta | 4 | Community","name_short":"atl-4","host":"atl-1.us.uncletopia.com","port":27045,"enabled":true,"region":"us-east","cc":"us","latitude":33.753746,"longitude":-84.38633,"reserved":0,"last_update":"0001-01-01T00:00:00Z","name_a2s":"Uncletopia | Atlanta | 4 | Community","protocol":17,"map":"cp_sunshine","folder":"tf","game":"Team Fortress","app_id":440,"player_count":0,"max_players":24,"Bots":0,"server_type":"Dedicated","server_os":"Linux","password":true,"vac":true,"version":"7961495","steam_id":85568392924515188,"keywords":["cp","nocrits","nodmgspread","uncletopia"],"game_id":440,"stv_port":27046,"stv_name":"Uncletopia | Atlanta | 4 | Community | STV","players":null},{"server_id":2,"name":"Uncletopia | Chicago | 1 | All Maps","name_short":"chi-1","host":"chi-1.us.uncletopia.com","port":27015,"enabled":true,"region":"us-central","cc":"us","latitude":41.881832,"longitude":-87.62318,"reserved":0,"last_update":"0001-01-01T00:00:00Z","name_a2s":"Uncletopia | Chicago | 1 | All Maps","protocol":17,"map":"koth_highpass","folder":"tf","game":"Team Fortress","app_id":440,"player_count":0,"max_players":24,"Bots":0,"server_type":"Dedicated","server_os":"Linux","password":true,"vac":true,"version":"7961495","steam_id":85568392924469984,"keywords":["cp","nocrits","nodmgspread","uncletopia"],"game_id":440,"stv_port":27016,"stv_name":"Uncletopia | Chicago | 1 | All Maps | STV","players":null},{"server_id":106,"name":"Uncletopia | Chicago | 2 | All Maps","name_short":"chi-2","host":"chi-1.us.uncletopia.com","port":27025,"enabled":true,"region":"us-central","cc":"us","latitude":41.881832,"longitude":-87.62318,"reserved":0,"last_update":"0001-01-01T00:00:00Z","name_a2s":"Uncletopia | Chicago | 2 | All Maps","protocol":17,"map":"pl_borneo","folder":"tf","game":"Team Fortress","app_id":440,"player_count":24,"max_players":24,"Bots":0,"server_type":"Dedicated","server_os":"Linux","password":true,"vac":true,"version":"7961495","steam_id":85568392924469985,"keywords":["nocrits","nodmgspread","payload","uncletopia"],"game_id":440,"stv_port":27026,"stv_name":"Uncletopia | Chicago | 2 | All Maps | STV","players":[{"user_id":121,"name":"Siren","steam_id":76561198047395823,"connected_time":800000000000,"state":"active","ping":99},{"user_id":79,"name":"Dareu","steam_id":76561198081781710,"connected_time":4430000000000,"state":"active","ping":63},{"user_id":96,"name":"Gargathor the Entity Catcher","steam_id":76561198189429665,"connected_time":3643000000000,"state":"active","ping":74},{"user_id":127,"name":"Pybro Crusader","steam_id":76561199173623332,"connected_time":341000000000,"state":"active","ping":57},{"user_id":55,"name":"newjack","steam_id":76561198353456379,"connected_time":6618000000000,"state":"active","ping":67},{"user_id":123,"name":"Draco6257","steam_id":76561199147322448,"connected_time":672000000000,"state":"active","ping":54},{"user_id":51,"name":"c","steam_id":76561198881665250,"connected_time":8044000000000,"state":"active","ping":90},{"user_id":98,"name":"viagra addict","steam_id":76561198017705248,"connected_time":2896000000000,"state":"active","ping":46},{"user_id":102,"name":"Reznika","steam_id":76561198116144377,"connected_time":2849000000000,"state":"active","ping":64},{"user_id":74,"name":"Sonic Mania 2 [100 Real Leaked","steam_id":76561198062764039,"connected_time":5046000000000,"state":"active","ping":164},{"user_id":129,"name":"inshallah","steam_id":76561198165212575,"connected_time":99000000000,"state":"active","ping":65},{"user_id":15,"name":"ImmortalProphet","steam_id":76561198012352477,"connected_time":10368000000000,"state":"active","ping":45},{"user_id":104,"name":"ol' musty","steam_id":76561198081075865,"connected_time":2626000000000,"state":"active","ping":73},{"user_id":124,"name":"Mixomin","steam_id":76561198295061570,"connected_time":633000000000,"state":"active","ping":51},{"user_id":40,"name":"John Calibur","steam_id":76561197999986606,"connected_time":8939000000000,"state":"active","ping":90},{"user_id":130,"name":"caberknight tf2  (f2p-ish)","steam_id":76561199273882768,"connected_time":14000000000,"state":"spawning","ping":92},{"user_id":64,"name":"lynt","steam_id":76561198988333976,"connected_time":6568000000000,"state":"active","ping":67},{"user_id":22,"name":"albert581_gaming","steam_id":76561198219209367,"connected_time":10219000000000,"state":"active","ping":70},{"user_id":112,"name":"Brown_Dream","steam_id":76561198975766145,"connected_time":1408000000000,"state":"active","ping":81},{"user_id":99,"name":"club going up","steam_id":76561198141700569,"connected_time":2894000000000,"state":"active","ping":78},{"user_id":84,"name":"meowfang","steam_id":76561198123056791,"connected_time":4360000000000,"state":"active","ping":74},{"user_id":107,"name":"rice white","steam_id":76561198320732910,"connected_time":2546000000000,"state":"active","ping":76},{"user_id":117,"name":"00Lemon","steam_id":76561198068014451,"connected_time":975000000000,"state":"active","ping":76},{"user_id":125,"name":"ratware","steam_id":76561198802653760,"connected_time":569000000000,"state":"active","ping":120}]},{"server_id":402,"name":"Uncletopia | Chicago | 3 | All Maps","name_short":"chi-3","host":"chi-1.us.uncletopia.com","port":27035,"enabled":true,"region":"us-central","cc":"us","latitude":41.881832,"longitude":-87.62318,"reserved":0,"last_update":"0001-01-01T00:00:00Z","name_a2s":"Uncletopia | Chicago | 3 | All Maps","protocol":17,"map":"pl_upward","folder":"tf","game":"Team Fortress","app_id":440,"player_count":24,"max_players":24,"Bots":0,"server_type":"Dedicated","server_os":"Linux","password":true,"vac":true,"version":"7961495","steam_id":85568392924515191,"keywords":["nocrits","nodmgspread","payload","uncletopia"],"game_id":440,"stv_port":27036,"stv_name":"Uncletopia | Chicago | 3 | All Maps | STV","players":[{"user_id":52,"name":"Drachma","steam_id":76561198007310514,"connected_time":3675000000000,"state":"active","ping":57},{"user_id":62,"name":"Mick","steam_id":76561198972619900,"connected_time":2979000000000,"state":"active","ping":71},{"user_id":61,"name":"Nuts from Berserk","steam_id":76561199474152483,"connected_time":3164000000000,"state":"active","ping":69},{"user_id":75,"name":"world machine","steam_id":76561198020689909,"connected_time":1053000000000,"state":"active","ping":90},{"user_id":69,"name":"Tonio The Jester","steam_id":76561199489156825,"connected_time":1954000000000,"state":"active","ping":69},{"user_id":89,"name":"Neacrock","steam_id":76561199178338856,"connected_time":106000000000,"state":"active","ping":70},{"user_id":85,"name":"SuitNtie_","steam_id":76561199405831719,"connected_time":802000000000,"state":"active","ping":64},{"user_id":88,"name":"Mog","steam_id":76561198025575870,"connected_time":300000000000,"state":"active","ping":58},{"user_id":77,"name":"Hulkster","steam_id":76561198278156353,"connected_time":1038000000000,"state":"active","ping":112},{"user_id":65,"name":"Airwolf28","steam_id":76561199002019722,"connected_time":2376000000000,"state":"active","ping":84},{"user_id":43,"name":"cashinchina","steam_id":76561199449147549,"connected_time":4426000000000,"state":"active","ping":73},{"user_id":48,"name":"zacmattsmith","steam_id":76561199027704149,"connected_time":3889000000000,"state":"active","ping":86},{"user_id":86,"name":"conner","steam_id":76561198052911241,"connected_time":789000000000,"state":"active","ping":75},{"user_id":73,"name":"Wet","steam_id":76561199474220124,"connected_time":1290000000000,"state":"active","ping":91},{"user_id":87,"name":"♥Stephiebees♥","steam_id":76561198021529860,"connected_time":772000000000,"state":"active","ping":105},{"user_id":30,"name":"Chicago Shoplifter","steam_id":76561197986530028,"connected_time":5140000000000,"state":"active","ping":100},{"user_id":57,"name":"denzell05","steam_id":76561198086987061,"connected_time":3308000000000,"state":"active","ping":104},{"user_id":54,"name":"Rick Assley","steam_id":76561198365019199,"connected_time":3657000000000,"state":"active","ping":61},{"user_id":79,"name":"Zymiren","steam_id":76561198054985471,"connected_time":1015000000000,"state":"active","ping":98},{"user_id":81,"name":"Pixel Beat","steam_id":76561198027624919,"connected_time":962000000000,"state":"active","ping":78},{"user_id":28,"name":"Tsars","steam_id":76561198220145115,"connected_time":5248000000000,"state":"active","ping":89},{"user_id":80,"name":"Deltaco","steam_id":76561198094572694,"connected_time":984000000000,"state":"active","ping":118},{"user_id":59,"name":"Kiss Master","steam_id":76561198289572271,"connected_time":3257000000000,"state":"active","ping":79},{"user_id":84,"name":"the BIG CHEESE","steam_id":76561198281735951,"connected_time":851000000000,"state":"active","ping":62}]},{"server_id":403,"name":"Uncletopia | Chicago | 4 | All Maps","name_short":"chi-4","host":"chi-1.us.uncletopia.com","port":27045,"enabled":true,"region":"us-central","cc":"us","latitude":41.881832,"longitude":-87.62318,"reserved":0,"last_update":"0001-01-01T00:00:00Z","name_a2s":"Uncletopia | Chicago | 4 | All Maps","protocol":17,"map":"pl_barnblitz","folder":"tf","game":"Team Fortress","app_id":440,"player_count":0,"max_players":24,"Bots":0,"server_type":"Dedicated","server_os":"Linux","password":true,"vac":true,"version":"7961495","steam_id":85568392924515193,"keywords":["nocrits","nodmgspread","payload","uncletopia"],"game_id":440,"stv_port":27046,"stv_name":"Uncletopia | Chicago | 4 | All Maps | STV","players":null},{"server_id":36,"name":"Uncletopia | Chicago | 5 | All Maps","name_short":"chi-5","host":"chi-2.us.uncletopia.com","port":27015,"enabled":true,"region":"us-central","cc":"us","latitude":41.881832,"longitude":-87.62318,"reserved":0,"last_update":"0001-01-01T00:00:00Z","name_a2s":"Uncletopia | Chicago | 5 | All Maps","protocol":17,"map":"koth_viaduct","folder":"tf","game":"Team Fortress","app_id":440,"player_count":0,"max_players":24,"Bots":0,"server_type":"Dedicated","server_os":"Linux","password":true,"vac":true,"version":"7961495","steam_id":85568392924866362,"keywords":["cp","nocrits","nodmgspread","uncletopia"],"game_id":440,"stv_port":27016,"stv_name":"Uncletopia | Chicago | 5 | All Maps | STV","players":null},{"server_id":37,"name":"Uncletopia | Chicago | 6 | All Maps","name_short":"chi-6","host":"chi-2.us.uncletopia.com","port":27025,"enabled":true,"region":"us-central","cc":"us","latitude":41.881832,"longitude":-87.62318,"reserved":0,"last_update":"0001-01-01T00:00:00Z","name_a2s":"Uncletopia | Chicago | 6 | All Maps","protocol":17,"map":"cp_snakewater_final1","folder":"tf","game":"Team Fortress","app_id":440,"player_count":23,"max_players":24,"Bots":0,"server_type":"Dedicated","server_os":"Linux","password":true,"vac":true,"version":"7961495","steam_id":85568392924866363,"keywords":["cp","nocrits","nodmgspread","uncletopia"],"game_id":440,"stv_port":27026,"stv_name":"Uncletopia | Chicago | 6 | All Maps | STV","players":[{"user_id":4,"name":"Carton","steam_id":76561198989473391,"connected_time":3535000000000,"state":"active","ping":66},{"user_id":40,"name":"Cwiishe","steam_id":76561199482943969,"connected_time":272000000000,"state":"active","ping":69},{"user_id":34,"name":"KyonHB","steam_id":76561198050311904,"connected_time":494000000000,"state":"active","ping":83},{"user_id":31,"name":"Chafn","steam_id":76561197969386702,"connected_time":824000000000,"state":"active","ping":100},{"user_id":9,"name":"Kindagoodplayer","steam_id":76561198814625843,"connected_time":1920000000000,"state":"active","ping":69},{"user_id":10,"name":"Bangushonkle","steam_id":76561198218887511,"connected_time":1869000000000,"state":"active","ping":93},{"user_id":11,"name":"BaraWolf","steam_id":76561198119677738,"connected_time":1766000000000,"state":"active","ping":101},{"user_id":32,"name":"Banks","steam_id":76561198276505537,"connected_time":631000000000,"state":"active","ping":72},{"user_id":14,"name":"Tabby!!!!","steam_id":76561198018288153,"connected_time":1688000000000,"state":"active","ping":43},{"user_id":41,"name":"SANGOMI","steam_id":76561199383217951,"connected_time":235000000000,"state":"active","ping":125},{"user_id":16,"name":"kolkon","steam_id":76561198073360267,"connected_time":1431000000000,"state":"active","ping":84},{"user_id":17,"name":"penguin heister","steam_id":76561198384120999,"connected_time":1346000000000,"state":"active","ping":70},{"user_id":35,"name":"Bamboozler","steam_id":76561198010860383,"connected_time":467000000000,"state":"active","ping":89},{"user_id":19,"name":"Missing Minus","steam_id":76561198120822928,"connected_time":1272000000000,"state":"active","ping":60},{"user_id":20,"name":"THE CUMEST LORD","steam_id":76561198061412592,"connected_time":1269000000000,"state":"active","ping":84},{"user_id":21,"name":"Big_Beans888","steam_id":76561198100822287,"connected_time":1251000000000,"state":"active","ping":117},{"user_id":22,"name":"RAMpageVII","steam_id":76561198055586643,"connected_time":1190000000000,"state":"active","ping":85},{"user_id":23,"name":"Literally a Trans Woman","steam_id":76561198054639925,"connected_time":1181000000000,"state":"active","ping":62},{"user_id":24,"name":"Gaming Grandpa","steam_id":76561198121418631,"connected_time":1176000000000,"state":"active","ping":60},{"user_id":25,"name":"Yukon Lil’ Man","steam_id":76561198129911964,"connected_time":1175000000000,"state":"active","ping":90},{"user_id":37,"name":"Vegerot","steam_id":76561197997843710,"connected_time":385000000000,"state":"active","ping":60},{"user_id":27,"name":"Okpar","steam_id":76561199221067945,"connected_time":1118000000000,"state":"active","ping":102},{"user_id":39,"name":"hank","steam_id":76561199041547921,"connected_time":356000000000,"state":"active","ping":76}]},{"server_id":38,"name":"Uncletopia | Chicago | 7 | Stopwatch","name_short":"chi-7","host":"chi-2.us.uncletopia.com","port":27035,"enabled":true,"region":"us-central","cc":"us","latitude":41.881832,"longitude":-87.62318,"reserved":0,"last_update":"0001-01-01T00:00:00Z","name_a2s":"Uncletopia | Chicago | 7 | Stopwatch","protocol":17,"map":"workshop/koth_product_final.ugc454272353","folder":"tf","game":"Team Fortress","app_id":440,"player_count":0,"max_players":24,"Bots":0,"server_type":"Dedicated","server_os":"Linux","password":true,"vac":true,"version":"7961495","steam_id":85568392924866364,"keywords":["cp","nocrits","nodmgspread","uncletopia"],"game_id":440,"stv_port":27036,"stv_name":"Uncletopia | Chicago | 7 | Stopwatch | STV","players":null},{"server_id":39,"name":"Uncletopia | Chicago | 8 | Community","name_short":"chi-8","host":"chi-2.us.uncletopia.com","port":27045,"enabled":true,"region":"us-central","cc":"us","latitude":41.881832,"longitude":-87.62318,"reserved":0,"last_update":"0001-01-01T00:00:00Z","name_a2s":"Uncletopia | Chicago | 8 | Community","protocol":17,"map":"pl_pier","folder":"tf","game":"Team Fortress","app_id":440,"player_count":0,"max_players":24,"Bots":0,"server_type":"Dedicated","server_os":"Linux","password":true,"vac":true,"version":"7961495","steam_id":85568392924866365,"keywords":["nocrits","nodmgspread","payload","uncletopia"],"game_id":440,"stv_port":27046,"stv_name":"Uncletopia | Chicago | 8 | Community | STV","players":null},{"server_id":8,"name":"Uncletopia | Dallas | 1 | All Maps","name_short":"dal-1","host":"dal-1.us.uncletopia.com","port":27015,"enabled":true,"region":"us-central","cc":"us","latitude":32.779167,"longitude":-96.80889,"reserved":0,"last_update":"0001-01-01T00:00:00Z","name_a2s":"Uncletopia | Dallas | 1 | All Maps","protocol":17,"map":"pl_barnblitz","folder":"tf","game":"Team Fortress","app_id":440,"player_count":0,"max_players":24,"Bots":0,"server_type":"Dedicated","server_os":"Linux","password":true,"vac":true,"version":"7961495","steam_id":85568392924469986,"keywords":["nocrits","nodmgspread","payload","uncletopia"],"game_id":440,"stv_port":27016,"stv_name":"Uncletopia | Dallas | 1 | All Maps | STV","players":null},{"server_id":108,"name":"Uncletopia | Dallas | 2 | All Maps","name_short":"dal-2","host":"dal-1.us.uncletopia.com","port":27025,"enabled":true,"region":"us-central","cc":"us","latitude":32.779167,"longitude":-96.80889,"reserved":0,"last_update":"0001-01-01T00:00:00Z","name_a2s":"Uncletopia | Dallas | 2 | All Maps","protocol":17,"map":"pl_snowycoast","folder":"tf","game":"Team Fortress","app_id":440,"player_count":0,"max_players":24,"Bots":0,"server_type":"Dedicated","server_os":"Linux","password":true,"vac":true,"version":"7961495","steam_id":85568392924469988,"keywords":["nocrits","nodmgspread","payload","uncletopia"],"game_id":440,"stv_port":27026,"stv_name":"Uncletopia | Dallas | 2 | All Maps | STV","players":null},{"server_id":404,"name":"Uncletopia | Dallas | 3 | All Maps","name_short":"dal-3","host":"dal-1.us.uncletopia.com","port":27035,"enabled":true,"region":"us-central","cc":"us","latitude":32.779167,"longitude":-96.80889,"reserved":0,"last_update":"0001-01-01T00:00:00Z","name_a2s":"Uncletopia | Dallas | 3 | All Maps","protocol":17,"map":"pl_badwater","folder":"tf","game":"Team Fortress","app_id":440,"player_count":0,"max_players":24,"Bots":0,"server_type":"Dedicated","server_os":"Linux","password":true,"vac":true,"version":"7961495","steam_id":85568392924515219,"keywords":["nocrits","nodmgspread","payload","uncletopia"],"game_id":440,"stv_port":27036,"stv_name":"Uncletopia | Dallas | 3 | All Maps | STV","players":null},{"server_id":405,"name":"Uncletopia | Dallas | 4 | Community","name_short":"dal-4","host":"dal-1.us.uncletopia.com","port":27045,"enabled":true,"region":"us-central","cc":"us","latitude":32.779167,"longitude":-96.80889,"reserved":0,"last_update":"0001-01-01T00:00:00Z","name_a2s":"Uncletopia | Dallas | 4 | Community","protocol":17,"map":"pl_pier","folder":"tf","game":"Team Fortress","app_id":440,"player_count":0,"max_players":24,"Bots":0,"server_type":"Dedicated","server_os":"Linux","password":true,"vac":true,"version":"7961495","steam_id":85568392924515220,"keywords":["nocrits","nodmgspread","payload","uncletopia"],"game_id":440,"stv_port":27046,"stv_name":"Uncletopia | Dallas | 4 | Community | STV","players":null},{"server_id":5,"name":"Uncletopia | Frankfurt | 1 | All Maps","name_short":"frk-1","host":"frk-1.de.uncletopia.com","port":27015,"enabled":true,"region":"eu","cc":"de","latitude":50.110924,"longitude":8.682127,"reserved":0,"last_update":"0001-01-01T00:00:00Z","name_a2s":"Uncletopia | Frankfurt | 1 | All Maps","protocol":17,"map":"cp_mercenarypark","folder":"tf","game":"Team Fortress","app_id":440,"player_count":24,"max_players":24,"Bots":0,"server_type":"Dedicated","server_os":"Linux","password":true,"vac":true,"version":"7961495","steam_id":85568392924469989,"keywords":["cp","nocrits","nodmgspread","uncletopia"],"game_id":440,"stv_port":27016,"stv_name":"Uncletopia | Frankfurt | 1 | All Maps | STV","players":[{"user_id":181,"name":"jekk.97","steam_id":76561198146961838,"connected_time":2030000000000,"state":"active","ping":107},{"user_id":156,"name":"Zaanx","steam_id":76561199125603907,"connected_time":4025000000000,"state":"active","ping":108},{"user_id":170,"name":"videogaming","steam_id":76561198818037965,"connected_time":2692000000000,"state":"active","ping":108},{"user_id":50,"name":"Alpi","steam_id":76561198106304435,"connected_time":10638000000000,"state":"active","ping":90},{"user_id":106,"name":"Dot","steam_id":76561198047299145,"connected_time":6583000000000,"state":"active","ping":75},{"user_id":195,"name":"Zm4j","steam_id":76561198259465946,"connected_time":411000000000,"state":"active","ping":72},{"user_id":198,"name":"M4 SOPMOD II Enjoyer","steam_id":76561198155176802,"connected_time":387000000000,"state":"active","ping":143},{"user_id":131,"name":"submackeen","steam_id":76561198799855913,"connected_time":5651000000000,"state":"active","ping":170},{"user_id":171,"name":"❤","steam_id":76561198798841999,"connected_time":2609000000000,"state":"active","ping":63},{"user_id":194,"name":"cosmetical","steam_id":76561198444036574,"connected_time":446000000000,"state":"active","ping":64},{"user_id":116,"name":"dnc about you, gopro","steam_id":76561199176835169,"connected_time":6438000000000,"state":"active","ping":65},{"user_id":196,"name":"engineer drip","steam_id":76561198991032570,"connected_time":407000000000,"state":"active","ping":91},{"user_id":197,"name":"void monad","steam_id":76561198117012334,"connected_time":399000000000,"state":"active","ping":93},{"user_id":199,"name":"Tuborg-","steam_id":76561198021552629,"connected_time":183000000000,"state":"active","ping":71},{"user_id":177,"name":"Will","steam_id":76561198173329977,"connected_time":2272000000000,"state":"active","ping":72},{"user_id":193,"name":"Mini","steam_id":76561197968634073,"connected_time":500000000000,"state":"active","ping":106},{"user_id":189,"name":"Gator","steam_id":76561198065624683,"connected_time":700000000000,"state":"active","ping":88},{"user_id":166,"name":"Imperial City Guard","steam_id":76561198083355845,"connected_time":2917000000000,"state":"active","ping":59},{"user_id":148,"name":"Bulyto","steam_id":76561198043205202,"connected_time":4733000000000,"state":"active","ping":69},{"user_id":138,"name":"madhead200","steam_id":76561198119498666,"connected_time":5419000000000,"state":"active","ping":80},{"user_id":185,"name":"N00BCSF","steam_id":76561198035530934,"connected_time":1727000000000,"state":"active","ping":75},{"user_id":184,"name":"Švarcas","steam_id":76561198841646694,"connected_time":1933000000000,"state":"active","ping":65},{"user_id":174,"name":"hipster_doofus","steam_id":76561197970902697,"connected_time":2412000000000,"state":"active","ping":70},{"user_id":191,"name":"Cookies and Bakies","steam_id":76561198017442928,"connected_time":672000000000,"state":"active","ping":58}]},{"server_id":110,"name":"Uncletopia | Frankfurt | 2 | All Maps","name_short":"frk-2","host":"frk-1.de.uncletopia.com","port":27025,"enabled":true,"region":"eu","cc":"de","latitude":50.110924,"longitude":8.682127,"reserved":0,"last_update":"0001-01-01T00:00:00Z","name_a2s":"Uncletopia | Frankfurt | 2 | All Maps","protocol":17,"map":"pl_borneo","folder":"tf","game":"Team Fortress","app_id":440,"player_count":24,"max_players":24,"Bots":0,"server_type":"Dedicated","server_os":"Linux","password":true,"vac":true,"version":"7961495","steam_id":85568392924469990,"keywords":["nocrits","nodmgspread","payload","uncletopia"],"game_id":440,"stv_port":27026,"stv_name":"Uncletopia | Frankfurt | 2 | All Maps | STV","players":[{"user_id":115,"name":"You know i had to do it to em","steam_id":76561198023884216,"connected_time":444000000000,"state":"active","ping":69},{"user_id":33,"name":"Veltek","steam_id":76561198112681438,"connected_time":3999000000000,"state":"active","ping":78},{"user_id":63,"name":".tv/red_naxela","steam_id":76561197998803950,"connected_time":2762000000000,"state":"active","ping":55},{"user_id":35,"name":"płó","steam_id":76561198286747891,"connected_time":3881000000000,"state":"active","ping":78},{"user_id":114,"name":"frontier best map","steam_id":76561198220348987,"connected_time":501000000000,"state":"active","ping":84},{"user_id":70,"name":"coffee","steam_id":76561198382387303,"connected_time":2344000000000,"state":"active","ping":82},{"user_id":61,"name":"Aver555","steam_id":76561198280370727,"connected_time":3062000000000,"state":"active","ping":57},{"user_id":118,"name":"FilipeskoBro  GameTame.com","steam_id":76561198831347261,"connected_time":388000000000,"state":"active","ping":53},{"user_id":72,"name":"xX_NoiceMaster69_Xx","steam_id":76561198179315669,"connected_time":2332000000000,"state":"active","ping":79},{"user_id":116,"name":"TheEventGuy","steam_id":76561197972797744,"connected_time":397000000000,"state":"active","ping":68},{"user_id":112,"name":"Spurt","steam_id":76561198078523852,"connected_time":739000000000,"state":"active","ping":56},{"user_id":117,"name":"Damin","steam_id":76561198288156612,"connected_time":390000000000,"state":"active","ping":48},{"user_id":119,"name":"Alekk","steam_id":76561198093533143,"connected_time":346000000000,"state":"active","ping":69},{"user_id":45,"name":"Kittisci","steam_id":76561198086690940,"connected_time":3574000000000,"state":"active","ping":60},{"user_id":65,"name":"Mind Fuzz","steam_id":76561198050079428,"connected_time":2540000000000,"state":"active","ping":97},{"user_id":47,"name":"Swift","steam_id":76561198194603287,"connected_time":3557000000000,"state":"active","ping":59},{"user_id":48,"name":"Eggcracker","steam_id":76561199274850641,"connected_time":3524000000000,"state":"active","ping":96},{"user_id":113,"name":"fireseNz^","steam_id":76561198401018345,"connected_time":709000000000,"state":"active","ping":86},{"user_id":81,"name":"Audrekas","steam_id":76561198797219460,"connected_time":1898000000000,"state":"active","ping":57},{"user_id":58,"name":"nikita buyanov","steam_id":76561198250731852,"connected_time":3328000000000,"state":"active","ping":58},{"user_id":92,"name":"daanvanliempt05","steam_id":76561198355398948,"connected_time":932000000000,"state":"active","ping":51},{"user_id":86,"name":"That Phlog mfer","steam_id":76561198050416948,"connected_time":1175000000000,"state":"active","ping":55},{"user_id":110,"name":"God's Goofiest Goober","steam_id":76561198103175187,"connected_time":794000000000,"state":"active","ping":63},{"user_id":104,"name":"finbar","steam_id":76561198056812396,"connected_time":875000000000,"state":"active","ping":77}]},{"server_id":308,"name":"Uncletopia | Frankfurt | 3 | All Maps","name_short":"frk-3","host":"frk-1.de.uncletopia.com","port":27035,"enabled":true,"region":"eu","cc":"de","latitude":50.110924,"longitude":8.682127,"reserved":0,"last_update":"0001-01-01T00:00:00Z","name_a2s":"Uncletopia | Frankfurt | 3 | All Maps","protocol":17,"map":"cp_sunshine","folder":"tf","game":"Team Fortress","app_id":440,"player_count":24,"max_players":24,"Bots":0,"server_type":"Dedicated","server_os":"Linux","password":true,"vac":true,"version":"7961495","steam_id":85568392924504274,"keywords":["cp","nocrits","nodmgspread","uncletopia"],"game_id":440,"stv_port":27036,"stv_name":"Uncletopia | Frankfurt | 3 | All Maps | STV","players":[{"user_id":104,"name":"im a girl","steam_id":76561198101995942,"connected_time":2260000000000,"state":"active","ping":70},{"user_id":121,"name":"AWP Bodyshot :) ❤","steam_id":76561198029928533,"connected_time":973000000000,"state":"active","ping":42},{"user_id":122,"name":"aaa","steam_id":76561198322459156,"connected_time":916000000000,"state":"active","ping":46},{"user_id":79,"name":"Na'vi Misato (by popular demand","steam_id":76561198130860698,"connected_time":3386000000000,"state":"active","ping":62},{"user_id":24,"name":"cotroD","steam_id":76561198130063938,"connected_time":8336000000000,"state":"active","ping":109},{"user_id":105,"name":"kiniènse?","steam_id":76561198177533491,"connected_time":2251000000000,"state":"active","ping":60},{"user_id":124,"name":"Favi","steam_id":76561198013236935,"connected_time":597000000000,"state":"active","ping":65},{"user_id":99,"name":"jeezo","steam_id":76561198123592400,"connected_time":2519000000000,"state":"active","ping":86},{"user_id":106,"name":"HUUUUUUUUUARSH","steam_id":76561198177660805,"connected_time":2239000000000,"state":"active","ping":53},{"user_id":125,"name":"Sleepy Joe","steam_id":76561198099433856,"connected_time":592000000000,"state":"active","ping":74},{"user_id":85,"name":"ash","steam_id":76561198004728744,"connected_time":3249000000000,"state":"active","ping":49},{"user_id":82,"name":"odeg","steam_id":76561198326615982,"connected_time":3317000000000,"state":"active","ping":67},{"user_id":118,"name":"why rum gone","steam_id":76561198158484784,"connected_time":1367000000000,"state":"active","ping":60},{"user_id":108,"name":"ピドラス","steam_id":76561198092463910,"connected_time":2179000000000,"state":"active","ping":69},{"user_id":110,"name":"Falfe","steam_id":76561199007446494,"connected_time":2010000000000,"state":"active","ping":71},{"user_id":50,"name":"Jahlil D'armequanius Finglenut","steam_id":76561198855897385,"connected_time":6003000000000,"state":"active","ping":66},{"user_id":116,"name":"Titut11","steam_id":76561198392505656,"connected_time":1404000000000,"state":"active","ping":68},{"user_id":115,"name":"Team Fortress 2","steam_id":76561198190936635,"connected_time":1466000000000,"state":"active","ping":62},{"user_id":114,"name":"Arsonist","steam_id":76561199087953833,"connected_time":1510000000000,"state":"active","ping":104},{"user_id":111,"name":"Local Toaster","steam_id":76561198323678206,"connected_time":1808000000000,"state":"active","ping":71},{"user_id":119,"name":"джегеми хэпкингс","steam_id":76561198131531394,"connected_time":1187000000000,"state":"active","ping":88},{"user_id":91,"name":"stuff liker","steam_id":76561198058012525,"connected_time":3075000000000,"state":"active","ping":50},{"user_id":107,"name":"Fly in Ointment","steam_id":76561198292003338,"connected_time":2236000000000,"state":"active","ping":69},{"user_id":126,"name":"EQPL aramyis","steam_id":76561199080688428,"connected_time":564000000000,"state":"active","ping":87}]},{"server_id":309,"name":"Uncletopia | Frankfurt | 4 | All Maps","name_short":"frk-4","host":"frk-1.de.uncletopia.com","port":27045,"enabled":true,"region":"eu","cc":"de","latitude":50.110924,"longitude":8.682127,"reserved":0,"last_update":"0001-01-01T00:00:00Z","name_a2s":"Uncletopia | Frankfurt | 4 | All Maps","protocol":17,"map":"pl_upward","folder":"tf","game":"Team Fortress","app_id":440,"player_count":24,"max_players":24,"Bots":0,"server_type":"Dedicated","server_os":"Linux","password":true,"vac":true,"version":"7961495","steam_id":85568392924504275,"keywords":["nocrits","nodmgspread","payload","uncletopia"],"game_id":440,"stv_port":27046,"stv_name":"Uncletopia | Frankfurt | 4 | All Maps | STV","players":[{"user_id":263,"name":"steinar","steam_id":76561198441857153,"connected_time":2075000000000,"state":"active","ping":77},{"user_id":213,"name":"DudeoftheRock","steam_id":76561198059401865,"connected_time":4985000000000,"state":"active","ping":83},{"user_id":252,"name":"Aven","steam_id":76561198974343597,"connected_time":2536000000000,"state":"active","ping":89},{"user_id":278,"name":"miiq130","steam_id":76561198188010666,"connected_time":674000000000,"state":"active","ping":75},{"user_id":200,"name":"Spinya","steam_id":76561198086653667,"connected_time":5125000000000,"state":"active","ping":61},{"user_id":261,"name":"Gruset","steam_id":76561198327512432,"connected_time":2151000000000,"state":"active","ping":70},{"user_id":206,"name":"Cabbch","steam_id":76561198045955679,"connected_time":5071000000000,"state":"active","ping":59},{"user_id":285,"name":"CerealKiller154","steam_id":76561198831177630,"connected_time":556000000000,"state":"active","ping":96},{"user_id":226,"name":"Finkaksu :3","steam_id":76561198201389163,"connected_time":3905000000000,"state":"active","ping":74},{"user_id":288,"name":"Pyrolander","steam_id":76561198050785450,"connected_time":428000000000,"state":"active","ping":56},{"user_id":268,"name":"Strafe","steam_id":76561198194054443,"connected_time":1887000000000,"state":"active","ping":58},{"user_id":229,"name":"Mister","steam_id":76561199049647854,"connected_time":3830000000000,"state":"active","ping":45},{"user_id":182,"name":"Lartsa","steam_id":76561198275690230,"connected_time":7012000000000,"state":"active","ping":100},{"user_id":193,"name":"Sherlock Bond","steam_id":76561198042045955,"connected_time":6133000000000,"state":"active","ping":43},{"user_id":280,"name":"PanPatrik","steam_id":76561198293331527,"connected_time":652000000000,"state":"active","ping":57},{"user_id":265,"name":"Goldoni","steam_id":76561198030223489,"connected_time":2050000000000,"state":"active","ping":85},{"user_id":281,"name":"xavier","steam_id":76561198076494034,"connected_time":640000000000,"state":"active","ping":57},{"user_id":283,"name":"Woman (Real)","steam_id":76561199151823932,"connected_time":619000000000,"state":"active","ping":75},{"user_id":272,"name":"Dommy","steam_id":76561197990864747,"connected_time":1530000000000,"state":"active","ping":58},{"user_id":222,"name":"lusy_marek","steam_id":76561199101571868,"connected_time":4197000000000,"state":"active","ping":89},{"user_id":284,"name":"Sybils","steam_id":76561198057898401,"connected_time":607000000000,"state":"active","ping":82},{"user_id":286,"name":"M1rkus","steam_id":76561198171215447,"connected_time":536000000000,"state":"active","ping":62},{"user_id":287,"name":"goop","steam_id":76561198190073005,"connected_time":434000000000,"state":"active","ping":57},{"user_id":270,"name":"Pumpkin Pie","steam_id":76561198115230959,"connected_time":1838000000000,"state":"active","ping":84}]},{"server_id":310,"name":"Uncletopia | Frankfurt | 5 | All Maps","name_short":"frk-5","host":"frk-1.de.uncletopia.com","port":27055,"enabled":true,"region":"eu","cc":"de","latitude":50.110924,"longitude":8.682127,"reserved":0,"last_update":"0001-01-01T00:00:00Z","name_a2s":"Uncletopia | Frankfurt | 5 | All Maps","protocol":17,"map":"pl_barnblitz","folder":"tf","game":"Team Fortress","app_id":440,"player_count":21,"max_players":24,"Bots":0,"server_type":"Dedicated","server_os":"Linux","password":true,"vac":true,"version":"7961495","steam_id":85568392924504277,"keywords":["nocrits","nodmgspread","payload","uncletopia"],"game_id":440,"stv_port":27056,"stv_name":"Uncletopia | Frankfurt | 5 | All Maps | STV","players":[{"user_id":167,"name":"Cypher","steam_id":76561197996967254,"connected_time":0,"state":"spawning","ping":26},{"user_id":148,"name":"Joo ♦","steam_id":76561197987609203,"connected_time":1036000000000,"state":"active","ping":75},{"user_id":149,"name":"Saame","steam_id":76561198215525976,"connected_time":1028000000000,"state":"active","ping":84},{"user_id":44,"name":"dingus deluxe","steam_id":76561198834355366,"connected_time":8436000000000,"state":"active","ping":149},{"user_id":150,"name":"lunaire","steam_id":76561198163344452,"connected_time":1023000000000,"state":"active","ping":76},{"user_id":94,"name":"Toasty5050","steam_id":76561198073540881,"connected_time":4653000000000,"state":"active","ping":45},{"user_id":137,"name":"Octafish","steam_id":76561198866038505,"connected_time":1818000000000,"state":"active","ping":131},{"user_id":92,"name":"Rimx","steam_id":76561198053034840,"connected_time":4764000000000,"state":"active","ping":87},{"user_id":111,"name":"SpineJuice","steam_id":76561199084272069,"connected_time":2725000000000,"state":"active","ping":63},{"user_id":151,"name":"Matteo Il Biondo","steam_id":76561198315389475,"connected_time":1015000000000,"state":"active","ping":70},{"user_id":152,"name":"hemp gruz","steam_id":76561198228941832,"connected_time":1012000000000,"state":"active","ping":75},{"user_id":159,"name":"SNESFlint","steam_id":76561198069358863,"connected_time":875000000000,"state":"active","ping":70},{"user_id":115,"name":"midlpsyzl47","steam_id":76561199475972637,"connected_time":2592000000000,"state":"active","ping":79},{"user_id":156,"name":"Golden Boy","steam_id":76561198987866839,"connected_time":910000000000,"state":"active","ping":61},{"user_id":145,"name":"oskaroku00","steam_id":76561199025360128,"connected_time":1369000000000,"state":"active","ping":75},{"user_id":160,"name":"Wild_Xray26","steam_id":76561198059386050,"connected_time":828000000000,"state":"active","ping":65},{"user_id":166,"name":"humble genius","steam_id":76561198243808680,"connected_time":1000000000,"state":"spawning","ping":39},{"user_id":142,"name":"Eno","steam_id":76561198387892963,"connected_time":1660000000000,"state":"active","ping":69},{"user_id":163,"name":"masuj","steam_id":76561197989139454,"connected_time":61000000000,"state":"active","ping":62},{"user_id":161,"name":"hud_saytext_time 0","steam_id":76561198010327228,"connected_time":692000000000,"state":"active","ping":53},{"user_id":155,"name":"Scandinavian sleeping and livin","steam_id":76561198241982958,"connected_time":941000000000,"state":"active","ping":96}]},{"server_id":311,"name":"Uncletopia | Frankfurt | 6 | All Maps","name_short":"frk-6","host":"frk-1.de.uncletopia.com","port":27065,"enabled":true,"region":"eu","cc":"de","latitude":50.110924,"longitude":8.682127,"reserved":0,"last_update":"0001-01-01T00:00:00Z","name_a2s":"Uncletopia | Frankfurt | 6 | All Maps","protocol":17,"map":"koth_harvest_final","folder":"tf","game":"Team Fortress","app_id":440,"player_count":24,"max_players":24,"Bots":0,"server_type":"Dedicated","server_os":"Linux","password":true,"vac":true,"version":"7961495","steam_id":85568392924504278,"keywords":["cp","nocrits","nodmgspread","uncletopia"],"game_id":440,"stv_port":27066,"stv_name":"Uncletopia | Frankfurt | 6 | All Maps | STV","players":[{"user_id":308,"name":"Honda Civic","steam_id":76561199012566222,"connected_time":3319000000000,"state":"active","ping":54},{"user_id":368,"name":"The Daniella","steam_id":76561198023075547,"connected_time":1096000000000,"state":"active","ping":61},{"user_id":364,"name":"caffreze","steam_id":76561198408988907,"connected_time":1196000000000,"state":"active","ping":89},{"user_id":362,"name":"Gorgeous George","steam_id":76561198144256544,"connected_time":1262000000000,"state":"active","ping":60},{"user_id":374,"name":"janny hater","steam_id":76561198260285179,"connected_time":537000000000,"state":"active","ping":97},{"user_id":377,"name":"Gangwolf","steam_id":76561198043868575,"connected_time":494000000000,"state":"active","ping":57},{"user_id":345,"name":"tensh1","steam_id":76561198282471866,"connected_time":1833000000000,"state":"active","ping":100},{"user_id":372,"name":"Flying skyhigh","steam_id":76561198372971096,"connected_time":617000000000,"state":"active","ping":77},{"user_id":379,"name":"Alyx","steam_id":76561198064654326,"connected_time":402000000000,"state":"active","ping":52},{"user_id":313,"name":"Amiriki","steam_id":76561198005050734,"connected_time":3113000000000,"state":"active","ping":64},{"user_id":373,"name":"Wir suchen dich!","steam_id":76561198307613521,"connected_time":580000000000,"state":"active","ping":45},{"user_id":302,"name":"Dr. Mario","steam_id":76561199125182282,"connected_time":3673000000000,"state":"active","ping":50},{"user_id":252,"name":"Del0Voi","steam_id":76561198866515088,"connected_time":6845000000000,"state":"active","ping":76},{"user_id":360,"name":"OctolingNexus","steam_id":76561199173732652,"connected_time":1329000000000,"state":"active","ping":56},{"user_id":341,"name":"Average meme enjoyer","steam_id":76561199087566663,"connected_time":2162000000000,"state":"active","ping":78},{"user_id":366,"name":"Mr'Sejd","steam_id":76561198079279279,"connected_time":1161000000000,"state":"active","ping":100},{"user_id":369,"name":"groyper_8814_bligger","steam_id":76561198276691164,"connected_time":837000000000,"state":"active","ping":77},{"user_id":281,"name":"Bobo","steam_id":76561198052308399,"connected_time":5008000000000,"state":"active","ping":58},{"user_id":327,"name":"Average Engineer Enjoyer","steam_id":76561198298618127,"connected_time":2507000000000,"state":"active","ping":49},{"user_id":365,"name":"Nikola","steam_id":76561198368324940,"connected_time":1193000000000,"state":"active","ping":75},{"user_id":380,"name":"Relix18144","steam_id":76561199202454318,"connected_time":349000000000,"state":"active","ping":81},{"user_id":361,"name":"Hugh","steam_id":76561198976348754,"connected_time":1320000000000,"state":"active","ping":59},{"user_id":381,"name":"Jack","steam_id":76561198079575891,"connected_time":253000000000,"state":"active","ping":70},{"user_id":378,"name":"tealoverr.190","steam_id":76561199028497703,"connected_time":458000000000,"state":"active","ping":105}]},{"server_id":23,"name":"Uncletopia | Frankfurt | 7 | Stopwatch","name_short":"frk-7","host":"frk-1.de.uncletopia.com","port":27075,"enabled":true,"region":"eu","cc":"de","latitude":50.110924,"longitude":8.682127,"reserved":0,"last_update":"0001-01-01T00:00:00Z","name_a2s":"Uncletopia | Frankfurt | 7 | Stopwatch","protocol":17,"map":"workshop/koth_bagel_rc6.ugc2514036946","folder":"tf","game":"Team Fortress","app_id":440,"player_count":0,"max_players":24,"Bots":0,"server_type":"Dedicated","server_os":"Linux","password":true,"vac":true,"version":"7961495","steam_id":85568392924742827,"keywords":["cp","nocrits","nodmgspread","uncletopia"],"game_id":440,"stv_port":27076,"stv_name":"Uncletopia | Frankfurt | 7 | Stopwatch | STV","players":null},{"server_id":24,"name":"Uncletopia | Frankfurt | 8 | Community","name_short":"frk-8","host":"frk-1.de.uncletopia.com","port":27085,"enabled":true,"region":"eu","cc":"de","latitude":50.110924,"longitude":8.682127,"reserved":0,"last_update":"0001-01-01T00:00:00Z","name_a2s":"Uncletopia | Frankfurt | 8 | Community","protocol":17,"map":"workshop/cp_coilblaze_rc7.ugc1272700588","folder":"tf","game":"Team Fortress","app_id":440,"player_count":0,"max_players":24,"Bots":0,"server_type":"Dedicated","server_os":"Linux","password":true,"vac":true,"version":"7961495","steam_id":85568392924742828,"keywords":["cp","nocrits","nodmgspread","uncletopia"],"game_id":440,"stv_port":27086,"stv_name":"Uncletopia | Frankfurt | 8 | Community | STV","players":null},{"server_id":202,"name":"Uncletopia | Hong Kong | 1 | All Maps","name_short":"hgk-1","host":"hgk-1.hk.uncletopia.com","port":27015,"enabled":true,"region":"asia","cc":"hk","latitude":22.302711,"longitude":114.177216,"reserved":0,"last_update":"0001-01-01T00:00:00Z","name_a2s":"Uncletopia | Hong Kong | 1 | All Maps","protocol":17,"map":"cp_altitude","folder":"tf","game":"Team Fortress","app_id":440,"player_count":24,"max_players":24,"Bots":0,"server_type":"Dedicated","server_os":"Linux","password":true,"vac":true,"version":"7961495","steam_id":85568392924494504,"keywords":["cp","nocrits","nodmgspread","uncletopia"],"game_id":440,"stv_port":27016,"stv_name":"Uncletopia | Hong Kong | 1 | All Maps | STV","players":[{"user_id":524,"name":"2746","steam_id":76561199390507975,"connected_time":1704000000000,"state":"active","ping":52},{"user_id":459,"name":"pyroman51","steam_id":76561198074339034,"connected_time":6463000000000,"state":"active","ping":73},{"user_id":496,"name":"⬞","steam_id":76561199373637717,"connected_time":2370000000000,"state":"active","ping":73},{"user_id":474,"name":"pison","steam_id":76561198992723983,"connected_time":4592000000000,"state":"active","ping":95},{"user_id":494,"name":"Milf (The fan O'Milk)","steam_id":76561198213031155,"connected_time":2851000000000,"state":"active","ping":94},{"user_id":529,"name":"左 辙","steam_id":76561198202460529,"connected_time":433000000000,"state":"active","ping":101},{"user_id":478,"name":"v1.","steam_id":76561198037571054,"connected_time":3977000000000,"state":"active","ping":42},{"user_id":490,"name":"spinach (old mouse)","steam_id":76561198042539541,"connected_time":3096000000000,"state":"active","ping":79},{"user_id":530,"name":"BombZAustranium","steam_id":76561199029964552,"connected_time":420000000000,"state":"active","ping":67},{"user_id":492,"name":"vintage","steam_id":76561198230213828,"connected_time":3092000000000,"state":"active","ping":64},{"user_id":493,"name":"LEGS","steam_id":76561199111623890,"connected_time":3056000000000,"state":"active","ping":67},{"user_id":356,"name":"mutwo","steam_id":76561198077043500,"connected_time":7697000000000,"state":"active","ping":78},{"user_id":498,"name":"Sgt・BEHOZUN","steam_id":76561198152362492,"connected_time":2325000000000,"state":"active","ping":159},{"user_id":245,"name":"birdo","steam_id":76561199206075827,"connected_time":11455000000000,"state":"active","ping":91},{"user_id":470,"name":"Lu ✿","steam_id":76561198320532821,"connected_time":4719000000000,"state":"active","ping":63},{"user_id":532,"name":"Ivy","steam_id":76561198400698408,"connected_time":375000000000,"state":"active","ping":96},{"user_id":463,"name":"P","steam_id":76561198304514505,"connected_time":5833000000000,"state":"active","ping":85},{"user_id":533,"name":"Kpba32(Lego)","steam_id":76561198051927766,"connected_time":373000000000,"state":"active","ping":114},{"user_id":195,"name":"xXx_420_Tr!ckSt@bb3R_360_xXx","steam_id":76561198833527091,"connected_time":14940000000000,"state":"active","ping":105},{"user_id":482,"name":"pspsps miming","steam_id":76561198337154745,"connected_time":3120000000000,"state":"active","ping":128},{"user_id":349,"name":"Cheesey","steam_id":76561198975684137,"connected_time":7829000000000,"state":"active","ping":86},{"user_id":224,"name":"tuna.mp4","steam_id":76561199166987061,"connected_time":13466000000000,"state":"active","ping":70},{"user_id":523,"name":"Fhone","steam_id":76561199198665314,"connected_time":1770000000000,"state":"active","ping":96},{"user_id":488,"name":"sierra","steam_id":76561197969873415,"connected_time":3106000000000,"state":"active","ping":103}]},{"server_id":1,"name":"Uncletopia | Los Angeles | 1 | All Maps","name_short":"lax-1","host":"lax-1.us.uncletopia.com","port":27015,"enabled":true,"region":"us-west","cc":"us","latitude":33.94279,"longitude":-118.41004,"reserved":0,"last_update":"0001-01-01T00:00:00Z","name_a2s":"Uncletopia | Los Angeles | 1 | All Maps","protocol":17,"map":"pl_snowycoast","folder":"tf","game":"Team Fortress","app_id":440,"player_count":0,"max_players":24,"Bots":0,"server_type":"Dedicated","server_os":"Linux","password":true,"vac":true,"version":"7961495","steam_id":85568392924469991,"keywords":["nocrits","nodmgspread","payload","uncletopia"],"game_id":440,"stv_port":27016,"stv_name":"Uncletopia | Los Angeles | 1 | All Maps | STV","players":null},{"server_id":112,"name":"Uncletopia | Los Angeles | 2 | All Maps","name_short":"lax-2","host":"lax-1.us.uncletopia.com","port":27025,"enabled":true,"region":"us-west","cc":"us","latitude":33.94279,"longitude":-118.41004,"reserved":0,"last_update":"0001-01-01T00:00:00Z","name_a2s":"Uncletopia | Los Angeles | 2 | All Maps","protocol":17,"map":"cp_mountainlab","folder":"tf","game":"Team Fortress","app_id":440,"player_count":0,"max_players":24,"Bots":0,"server_type":"Dedicated","server_os":"Linux","password":true,"vac":true,"version":"7961495","steam_id":85568392924469992,"keywords":["cp","nocrits","nodmgspread","uncletopia"],"game_id":440,"stv_port":27026,"stv_name":"Uncletopia | Los Angeles | 2 | All Maps | STV","players":null},{"server_id":324,"name":"Uncletopia | Los Angeles | 3 | All Maps","name_short":"lax-3","host":"lax-1.us.uncletopia.com","port":27035,"enabled":true,"region":"us-west","cc":"us","latitude":33.94279,"longitude":-118.41004,"reserved":0,"last_update":"0001-01-01T00:00:00Z","name_a2s":"Uncletopia | Los Angeles | 3 | All Maps","protocol":17,"map":"pl_frontier_final","folder":"tf","game":"Team Fortress","app_id":440,"player_count":0,"max_players":24,"Bots":0,"server_type":"Dedicated","server_os":"Linux","password":true,"vac":true,"version":"7961495","steam_id":85568392924510198,"keywords":["nocrits","nodmgspread","payload","uncletopia"],"game_id":440,"stv_port":27036,"stv_name":"Uncletopia | Los Angeles | 3 | All Maps | STV","players":null},{"server_id":25,"name":"Uncletopia | Los Angeles | 4 | Stopwatch","name_short":"lax-4","host":"lax-1.us.uncletopia.com","port":27045,"enabled":true,"region":"us-west","cc":"us","latitude":33.94279,"longitude":-118.41004,"reserved":0,"last_update":"0001-01-01T00:00:00Z","name_a2s":"Uncletopia | Los Angeles | 4 | Stopwatch","protocol":17,"map":"pl_barnblitz","folder":"tf","game":"Team Fortress","app_id":440,"player_count":0,"max_players":24,"Bots":0,"server_type":"Dedicated","server_os":"Linux","password":true,"vac":true,"version":"7961495","steam_id":85568392924510199,"keywords":["nocrits","nodmgspread","payload","uncletopia"],"game_id":440,"stv_port":27046,"stv_name":"Uncletopia | Los Angeles | 4 | Stopwatch | STV","players":null},{"server_id":11,"name":"Uncletopia | London | 1 | All Maps","name_short":"lon-1","host":"lon-1.uk.uncletopia.com","port":27015,"enabled":true,"region":"eu","cc":"gb","latitude":51.509865,"longitude":-0.118092,"reserved":0,"last_update":"0001-01-01T00:00:00Z","name_a2s":"Uncletopia | London | 1 | All Maps","protocol":17,"map":"pl_frontier_final","folder":"tf","game":"Team Fortress","app_id":440,"player_count":24,"max_players":24,"Bots":0,"server_type":"Dedicated","server_os":"Linux","password":true,"vac":true,"version":"7961495","steam_id":85568392924367362,"keywords":["nocrits","nodmgspread","payload","uncletopia"],"game_id":440,"stv_port":27016,"stv_name":"Uncletopia | London | 1 | All Maps | STV","players":[{"user_id":420,"name":"eMcP","steam_id":76561198382509396,"connected_time":363000000000,"state":"active","ping":81},{"user_id":422,"name":"DrExplosive","steam_id":76561198063678579,"connected_time":267000000000,"state":"active","ping":45},{"user_id":412,"name":"The_Jaystone","steam_id":76561198126280691,"connected_time":708000000000,"state":"active","ping":35},{"user_id":402,"name":"olli","steam_id":76561198028769326,"connected_time":1827000000000,"state":"active","ping":73},{"user_id":414,"name":"MALYAS","steam_id":76561198080622484,"connected_time":500000000000,"state":"active","ping":64},{"user_id":421,"name":"The man from the window","steam_id":76561198055949151,"connected_time":355000000000,"state":"active","ping":45},{"user_id":415,"name":"The Bread Bringer","steam_id":76561198264079743,"connected_time":480000000000,"state":"active","ping":46},{"user_id":400,"name":"godmodule","steam_id":76561198165995444,"connected_time":1934000000000,"state":"active","ping":81},{"user_id":407,"name":"[UwU] Blackblood909","steam_id":76561198079427660,"connected_time":1290000000000,"state":"active","ping":83},{"user_id":401,"name":"mesλ","steam_id":76561198324582918,"connected_time":1897000000000,"state":"active","ping":103},{"user_id":384,"name":"hero","steam_id":76561198338943416,"connected_time":3610000000000,"state":"active","ping":71},{"user_id":413,"name":"whimsy.","steam_id":76561198878171763,"connected_time":594000000000,"state":"active","ping":50},{"user_id":419,"name":"Slazaa","steam_id":76561197993252446,"connected_time":436000000000,"state":"active","ping":47},{"user_id":347,"name":"Greenmaker","steam_id":76561198060466591,"connected_time":5760000000000,"state":"active","ping":85},{"user_id":403,"name":"Unpaid Taxes","steam_id":76561198167104693,"connected_time":1827000000000,"state":"active","ping":45},{"user_id":396,"name":"Femboy Thighs","steam_id":76561198115496457,"connected_time":2468000000000,"state":"active","ping":37},{"user_id":410,"name":"oloar242","steam_id":76561198798904576,"connected_time":827000000000,"state":"active","ping":85},{"user_id":417,"name":"Palex","steam_id":76561198093219465,"connected_time":455000000000,"state":"active","ping":39},{"user_id":409,"name":"Supev","steam_id":76561198060158253,"connected_time":854000000000,"state":"active","ping":54},{"user_id":357,"name":"Mintme","steam_id":76561199033531922,"connected_time":5579000000000,"state":"active","ping":43},{"user_id":389,"name":"Ramza","steam_id":76561197978427096,"connected_time":3044000000000,"state":"active","ping":69},{"user_id":405,"name":"mbappe buddy","steam_id":76561197988733568,"connected_time":1700000000000,"state":"active","ping":62},{"user_id":404,"name":"Coup de Grass","steam_id":76561198011643226,"connected_time":1820000000000,"state":"active","ping":137},{"user_id":383,"name":"Mario","steam_id":76561198053838936,"connected_time":3832000000000,"state":"active","ping":90}]},{"server_id":114,"name":"Uncletopia | London | 2 | All Maps","name_short":"lon-2","host":"lon-1.uk.uncletopia.com","port":27025,"enabled":true,"region":"eu","cc":"gb","latitude":51.509865,"longitude":-0.118092,"reserved":0,"last_update":"0001-01-01T00:00:00Z","name_a2s":"Uncletopia | London | 2 | All Maps","protocol":17,"map":"cp_process_final","folder":"tf","game":"Team Fortress","app_id":440,"player_count":24,"max_players":24,"Bots":0,"server_type":"Dedicated","server_os":"Linux","password":true,"vac":true,"version":"7961495","steam_id":85568392924470941,"keywords":["cp","nocrits","nodmgspread","uncletopia"],"game_id":440,"stv_port":27026,"stv_name":"Uncletopia | London | 2 | All Maps | STV","players":[{"user_id":243,"name":"- 84n4n3n8r07 -","steam_id":76561198047887705,"connected_time":519000000000,"state":"active","ping":55},{"user_id":212,"name":"ornithology 1:1","steam_id":76561198097239850,"connected_time":2922000000000,"state":"active","ping":62},{"user_id":244,"name":"my mom","steam_id":76561199225201569,"connected_time":505000000000,"state":"active","ping":114},{"user_id":224,"name":"Xipheria","steam_id":76561198077414706,"connected_time":1760000000000,"state":"active","ping":80},{"user_id":225,"name":"GROMBRINDAL, THE WHITE DWARF","steam_id":76561198305487648,"connected_time":1755000000000,"state":"active","ping":150},{"user_id":204,"name":"Noku","steam_id":76561199244666974,"connected_time":3350000000000,"state":"active","ping":74},{"user_id":222,"name":"Flying Squirrel","steam_id":76561198005202791,"connected_time":1860000000000,"state":"active","ping":80},{"user_id":218,"name":"Scottishwolf12","steam_id":76561199263476623,"connected_time":2425000000000,"state":"active","ping":84},{"user_id":240,"name":"Sheen (Khang)","steam_id":76561198371062974,"connected_time":909000000000,"state":"active","ping":92},{"user_id":226,"name":"Draco","steam_id":76561198031226933,"connected_time":1744000000000,"state":"active","ping":59},{"user_id":246,"name":"Reomk","steam_id":76561198309314129,"connected_time":379000000000,"state":"active","ping":77},{"user_id":247,"name":"Cheese","steam_id":76561198146419076,"connected_time":288000000000,"state":"active","ping":76},{"user_id":194,"name":"Jonkheervanflep","steam_id":76561198006853101,"connected_time":3887000000000,"state":"active","ping":71},{"user_id":229,"name":"Kamanie","steam_id":76561198135448255,"connected_time":1711000000000,"state":"active","ping":61},{"user_id":237,"name":"Alter","steam_id":76561199135934698,"connected_time":1018000000000,"state":"active","ping":93},{"user_id":235,"name":"Udinese Dion","steam_id":76561198067931573,"connected_time":1383000000000,"state":"active","ping":56},{"user_id":234,"name":"japjao","steam_id":76561199230386527,"connected_time":1487000000000,"state":"active","ping":52},{"user_id":228,"name":"Vix The Vulpix","steam_id":76561198292181452,"connected_time":1728000000000,"state":"active","ping":155},{"user_id":205,"name":"gamerkiddo","steam_id":76561198047380360,"connected_time":3296000000000,"state":"active","ping":60},{"user_id":230,"name":"summer","steam_id":76561198170056395,"connected_time":1664000000000,"state":"active","ping":59},{"user_id":158,"name":"Mega Man Legends 3","steam_id":76561198014110199,"connected_time":6489000000000,"state":"active","ping":44},{"user_id":242,"name":"JC","steam_id":76561198029213352,"connected_time":566000000000,"state":"active","ping":45},{"user_id":231,"name":"Fish_n_Chips","steam_id":76561199039556489,"connected_time":1646000000000,"state":"active","ping":98},{"user_id":232,"name":"alibi","steam_id":76561198079490000,"connected_time":1644000000000,"state":"active","ping":55}]},{"server_id":320,"name":"Uncletopia | London | 3 | All Maps","name_short":"lon-3","host":"lon-1.uk.uncletopia.com","port":27035,"enabled":true,"region":"eu","cc":"gb","latitude":51.509865,"longitude":-0.118092,"reserved":0,"last_update":"0001-01-01T00:00:00Z","name_a2s":"Uncletopia | London | 3 | All Maps","protocol":17,"map":"pl_upward","folder":"tf","game":"Team Fortress","app_id":440,"player_count":24,"max_players":24,"Bots":0,"server_type":"Dedicated","server_os":"Linux","password":true,"vac":true,"version":"7961495","steam_id":85568392924510192,"keywords":["nocrits","nodmgspread","payload","uncletopia"],"game_id":440,"stv_port":27036,"stv_name":"Uncletopia | London | 3 | All Maps | STV","players":[{"user_id":134,"name":"منحرف لكن محترف","steam_id":76561198143222686,"connected_time":4728000000000,"state":"active","ping":105},{"user_id":170,"name":"95 dollar egg","steam_id":76561198280507478,"connected_time":1344000000000,"state":"active","ping":63},{"user_id":186,"name":"Destiny","steam_id":76561198023243402,"connected_time":49000000000,"state":"active","ping":77},{"user_id":132,"name":"Apollo17","steam_id":76561198886930836,"connected_time":4855000000000,"state":"active","ping":88},{"user_id":175,"name":"walluu","steam_id":76561198121830870,"connected_time":1073000000000,"state":"active","ping":75},{"user_id":165,"name":"Mr_Pulse_","steam_id":76561198095001602,"connected_time":2028000000000,"state":"active","ping":117},{"user_id":83,"name":"Chris","steam_id":76561198179791702,"connected_time":8281000000000,"state":"active","ping":180},{"user_id":176,"name":"Sir Crust","steam_id":76561199122077146,"connected_time":1068000000000,"state":"active","ping":57},{"user_id":171,"name":"Pastoss","steam_id":76561198379098260,"connected_time":1127000000000,"state":"active","ping":59},{"user_id":166,"name":"Gintonas","steam_id":76561198043837552,"connected_time":1997000000000,"state":"active","ping":84},{"user_id":184,"name":"Dan","steam_id":76561198289353288,"connected_time":444000000000,"state":"active","ping":53},{"user_id":172,"name":"glyph","steam_id":76561197980736364,"connected_time":1125000000000,"state":"active","ping":80},{"user_id":110,"name":"Quote","steam_id":76561198170090267,"connected_time":6034000000000,"state":"active","ping":88},{"user_id":144,"name":"GoblinGaming","steam_id":76561198360395476,"connected_time":4351000000000,"state":"active","ping":44},{"user_id":155,"name":"fluffy474","steam_id":76561198375486320,"connected_time":3063000000000,"state":"active","ping":62},{"user_id":183,"name":"Captain Puddleboat","steam_id":76561198053913970,"connected_time":751000000000,"state":"active","ping":52},{"user_id":182,"name":"Stanislavthewarcriminal","steam_id":76561199096430955,"connected_time":772000000000,"state":"active","ping":85},{"user_id":151,"name":"vomitlust","steam_id":76561197994492154,"connected_time":3293000000000,"state":"active","ping":81},{"user_id":181,"name":"w+m1","steam_id":76561198010428082,"connected_time":783000000000,"state":"active","ping":76},{"user_id":55,"name":"perry the platypus","steam_id":76561199379159771,"connected_time":11483000000000,"state":"active","ping":149},{"user_id":169,"name":"Eric Catman","steam_id":76561198802117294,"connected_time":1763000000000,"state":"active","ping":67},{"user_id":146,"name":"sv_MrGibbs","steam_id":76561198114071972,"connected_time":4344000000000,"state":"active","ping":50},{"user_id":173,"name":"Plep","steam_id":76561198840259819,"connected_time":1119000000000,"state":"active","ping":59},{"user_id":180,"name":"LEGEND FUMO.","steam_id":76561198061033903,"connected_time":916000000000,"state":"active","ping":56}]},{"server_id":321,"name":"Uncletopia | London | 4 | All Maps","name_short":"lon-4","host":"lon-1.uk.uncletopia.com","port":27045,"enabled":true,"region":"eu","cc":"gb","latitude":51.509865,"longitude":-0.118092,"reserved":0,"last_update":"0001-01-01T00:00:00Z","name_a2s":"Uncletopia | London | 4 | All Maps","protocol":17,"map":"pl_badwater","folder":"tf","game":"Team Fortress","app_id":440,"player_count":24,"max_players":24,"Bots":0,"server_type":"Dedicated","server_os":"Linux","password":true,"vac":true,"version":"7961495","steam_id":85568392924510193,"keywords":["nocrits","nodmgspread","payload","uncletopia"],"game_id":440,"stv_port":27046,"stv_name":"Uncletopia | London | 4 | All Maps | STV","players":[{"user_id":244,"name":"Purple Soup :D","steam_id":76561198985100366,"connected_time":1731000000000,"state":"active","ping":92},{"user_id":265,"name":"Tuosan","steam_id":76561198062611429,"connected_time":216000000000,"state":"active","ping":76},{"user_id":264,"name":"Tywhip","steam_id":76561199207545191,"connected_time":233000000000,"state":"active","ping":59},{"user_id":236,"name":"Fat Pigeon","steam_id":76561198817940142,"connected_time":1906000000000,"state":"active","ping":47},{"user_id":129,"name":"Marukuso","steam_id":76561198154229845,"connected_time":6195000000000,"state":"active","ping":56},{"user_id":272,"name":"jon from grafield","steam_id":76561198959831697,"connected_time":90000000000,"state":"active","ping":70},{"user_id":238,"name":"Nittugai","steam_id":76561198067366462,"connected_time":1846000000000,"state":"active","ping":60},{"user_id":261,"name":"rets_","steam_id":76561198061551392,"connected_time":789000000000,"state":"active","ping":60},{"user_id":262,"name":"Soerlssoelssöen","steam_id":76561197993060585,"connected_time":687000000000,"state":"active","ping":80},{"user_id":218,"name":"tis but a scratch","steam_id":76561198452111945,"connected_time":2482000000000,"state":"active","ping":46},{"user_id":267,"name":"Ecin","steam_id":76561198816655769,"connected_time":190000000000,"state":"active","ping":69},{"user_id":263,"name":"TangerineTimmy1729","steam_id":76561198089478290,"connected_time":643000000000,"state":"active","ping":38},{"user_id":205,"name":"Sir Cauterize","steam_id":76561198047079422,"connected_time":2876000000000,"state":"active","ping":51},{"user_id":258,"name":"beardeath","steam_id":76561199064688448,"connected_time":1077000000000,"state":"active","ping":84},{"user_id":239,"name":"lulu","steam_id":76561199147764133,"connected_time":1799000000000,"state":"active","ping":77},{"user_id":103,"name":"kat","steam_id":76561198879664338,"connected_time":7490000000000,"state":"active","ping":72},{"user_id":134,"name":"Rin-Nakaret","steam_id":76561197971051188,"connected_time":6079000000000,"state":"active","ping":52},{"user_id":260,"name":"Jucatron","steam_id":76561198044259577,"connected_time":932000000000,"state":"active","ping":94},{"user_id":113,"name":"Xtis","steam_id":76561198043837480,"connected_time":7140000000000,"state":"active","ping":61},{"user_id":106,"name":"Sham!","steam_id":76561198050434275,"connected_time":7452000000000,"state":"active","ping":60},{"user_id":270,"name":"aja","steam_id":76561198972253395,"connected_time":156000000000,"state":"active","ping":58},{"user_id":269,"name":"pothes1","steam_id":76561198195058302,"connected_time":185000000000,"state":"active","ping":78},{"user_id":206,"name":"Oye Manzana!","steam_id":76561198374605382,"connected_time":2867000000000,"state":"active","ping":116},{"user_id":159,"name":"azzy","steam_id":76561198061293740,"connected_time":3801000000000,"state":"active","ping":83}]},{"server_id":21,"name":"Uncletopia | London | 5 | All Maps","name_short":"lon-5","host":"lon-1.uk.uncletopia.com","port":27055,"enabled":true,"region":"eu","cc":"gb","latitude":51.509865,"longitude":-0.118092,"reserved":0,"last_update":"0001-01-01T00:00:00Z","name_a2s":"Uncletopia | London | 5 | All Maps","protocol":17,"map":"koth_lakeside_final","folder":"tf","game":"Team Fortress","app_id":440,"player_count":2,"max_players":24,"Bots":0,"server_type":"Dedicated","server_os":"Linux","password":true,"vac":true,"version":"7961495","steam_id":85568392924742829,"keywords":["cp","nocrits","nodmgspread","uncletopia"],"game_id":440,"stv_port":27056,"stv_name":"Uncletopia | London | 5 | All Maps | STV","players":[{"user_id":19,"name":"Lensy","steam_id":76561198124442128,"connected_time":48000000000,"state":"active","ping":40},{"user_id":20,"name":"A Giant Girl Scout","steam_id":76561199160429755,"connected_time":1000000000,"state":"spawning","ping":118}]},{"server_id":22,"name":"Uncletopia | London | 6 | All Maps","name_short":"lon-6","host":"lon-1.uk.uncletopia.com","port":27065,"enabled":true,"region":"eu","cc":"gb","latitude":51.509865,"longitude":-0.118092,"reserved":0,"last_update":"0001-01-01T00:00:00Z","name_a2s":"Uncletopia | London | 6 | All Maps","protocol":17,"map":"pl_pier","folder":"tf","game":"Team Fortress","app_id":440,"player_count":24,"max_players":24,"Bots":0,"server_type":"Dedicated","server_os":"Linux","password":true,"vac":true,"version":"7961495","steam_id":85568392924742830,"keywords":["nocrits","nodmgspread","payload","uncletopia"],"game_id":440,"stv_port":27066,"stv_name":"Uncletopia | London | 6 | All Maps | STV","players":[{"user_id":142,"name":"justblade","steam_id":76561199023679308,"connected_time":214000000000,"state":"active","ping":51},{"user_id":124,"name":"JamesPepega","steam_id":76561198019156154,"connected_time":1375000000000,"state":"active","ping":84},{"user_id":55,"name":"rickyrickyricky","steam_id":76561198041765918,"connected_time":6567000000000,"state":"active","ping":166},{"user_id":128,"name":"Bottle O' Scrumpy","steam_id":76561199244250562,"connected_time":722000000000,"state":"active","ping":102},{"user_id":104,"name":"A Very Disappointing Salad","steam_id":76561198020277939,"connected_time":3122000000000,"state":"active","ping":54},{"user_id":143,"name":"Hexagon","steam_id":76561198151205758,"connected_time":211000000000,"state":"active","ping":57},{"user_id":127,"name":"Miyck","steam_id":76561198100934403,"connected_time":743000000000,"state":"active","ping":74},{"user_id":87,"name":"Evil","steam_id":76561198080015327,"connected_time":4513000000000,"state":"active","ping":34},{"user_id":113,"name":"jfrizzle420","steam_id":76561198105544691,"connected_time":2482000000000,"state":"active","ping":165},{"user_id":147,"name":"TOP G","steam_id":76561198138928548,"connected_time":155000000000,"state":"active","ping":64},{"user_id":130,"name":"fl1p","steam_id":76561198148565659,"connected_time":692000000000,"state":"active","ping":76},{"user_id":145,"name":"Abska","steam_id":76561198118323803,"connected_time":166000000000,"state":"active","ping":108},{"user_id":121,"name":"highest noon","steam_id":76561199103959197,"connected_time":1779000000000,"state":"active","ping":102},{"user_id":149,"name":"BurningJoke","steam_id":76561199014358707,"connected_time":96000000000,"state":"active","ping":59},{"user_id":136,"name":"super omega chimp","steam_id":76561198053929269,"connected_time":462000000000,"state":"active","ping":94},{"user_id":119,"name":"Dromeka","steam_id":76561198963557200,"connected_time":2157000000000,"state":"active","ping":58},{"user_id":86,"name":"ttv/SimplyJeevs","steam_id":76561198060545372,"connected_time":4528000000000,"state":"active","ping":61},{"user_id":148,"name":"TнundeгCuпт","steam_id":76561198135091800,"connected_time":124000000000,"state":"active","ping":60},{"user_id":102,"name":"krafno-lomac2006","steam_id":76561198808332971,"connected_time":3601000000000,"state":"active","ping":74},{"user_id":88,"name":"else1","steam_id":76561197996558319,"connected_time":4503000000000,"state":"active","ping":89},{"user_id":112,"name":"ThatTFguy","steam_id":76561198056794321,"connected_time":2609000000000,"state":"active","ping":58},{"user_id":146,"name":"1312589","steam_id":76561198079293782,"connected_time":161000000000,"state":"active","ping":62},{"user_id":137,"name":"Bump the Younger","steam_id":76561198036900460,"connected_time":459000000000,"state":"active","ping":65},{"user_id":134,"name":"Pingus","steam_id":76561198164880756,"connected_time":655000000000,"state":"active","ping":72}]},{"server_id":40,"name":"Uncletopia | London | 7 | Stopwatch","name_short":"lon-7","host":"lon-1.uk.uncletopia.com","port":27075,"enabled":true,"region":"eu","cc":"gb","latitude":51.509865,"longitude":-0.118092,"reserved":0,"last_update":"0001-01-01T00:00:00Z","name_a2s":"Uncletopia | London | 7 | Stopwatch","protocol":17,"map":"workshop/koth_bagel_rc6.ugc2514036946","folder":"tf","game":"Team Fortress","app_id":440,"player_count":0,"max_players":24,"Bots":0,"server_type":"Dedicated","server_os":"Linux","password":true,"vac":true,"version":"7961495","steam_id":85568392924964314,"keywords":["cp","nocrits","nodmgspread","uncletopia"],"game_id":440,"stv_port":27076,"stv_name":"Uncletopia | London | 7 | Stopwatch | STV","players":null},{"server_id":41,"name":"Uncletopia | London | 8 | Community","name_short":"lon-8","host":"lon-1.uk.uncletopia.com","port":27085,"enabled":true,"region":"eu","cc":"gb","latitude":51.509865,"longitude":-0.118092,"reserved":0,"last_update":"0001-01-01T00:00:00Z","name_a2s":"Uncletopia | London | 8 | Community","protocol":17,"map":"workshop/koth_ramjam_rc1.ugc459778887","folder":"tf","game":"Team Fortress","app_id":440,"player_count":0,"max_players":24,"Bots":0,"server_type":"Dedicated","server_os":"Linux","password":true,"vac":true,"version":"7961495","steam_id":85568392924964315,"keywords":["cp","nocrits","nodmgspread","uncletopia"],"game_id":440,"stv_port":27086,"stv_name":"Uncletopia | London | 8 | Community | STV","players":null},{"server_id":300,"name":"Uncletopia | Montréal | 1 | One Thousand Uncles","name_short":"mtl-1","host":"mtl-1.ca.uncletopia.com","port":27015,"enabled":true,"region":"us-east","cc":"ca","latitude":45.50889,"longitude":-73.56167,"reserved":0,"last_update":"0001-01-01T00:00:00Z","name_a2s":"","protocol":0,"map":"","folder":"","game":"","app_id":0,"player_count":8,"max_players":0,"Bots":0,"server_type":"","server_os":"","password":false,"vac":false,"version":"","steam_id":0,"keywords":null,"game_id":0,"stv_port":0,"stv_name":"","players":[{"user_id":46,"name":"puffy","steam_id":76561198411347037,"connected_time":1151000000000,"state":"active","ping":59},{"user_id":47,"name":"Shadowwalker","steam_id":76561198344642637,"connected_time":939000000000,"state":"active","ping":86},{"user_id":52,"name":"Soviet Hoovy™","steam_id":76561198367792271,"connected_time":217000000000,"state":"active","ping":56},{"user_id":23,"name":"Sussin'","steam_id":76561198059813696,"connected_time":2276000000000,"state":"active","ping":72},{"user_id":24,"name":"manbearswineflu","steam_id":76561198083945137,"connected_time":2187000000000,"state":"active","ping":68},{"user_id":26,"name":"DeepDive","steam_id":76561198140542184,"connected_time":1985000000000,"state":"active","ping":64},{"user_id":49,"name":"Consolidated Fart","steam_id":76561198924101909,"connected_time":782000000000,"state":"active","ping":272},{"user_id":50,"name":"Bobby Bigman","steam_id":76561198044679656,"connected_time":692000000000,"state":"active","ping":276}]},{"server_id":301,"name":"Uncletopia | Montréal | 2 | One Thousand Uncles","name_short":"mtl-2","host":"mtl-1.ca.uncletopia.com","port":27025,"enabled":true,"region":"us-east","cc":"ca","latitude":45.50889,"longitude":-73.56167,"reserved":0,"last_update":"0001-01-01T00:00:00Z","name_a2s":"","protocol":0,"map":"","folder":"","game":"","app_id":0,"player_count":0,"max_players":0,"Bots":0,"server_type":"","server_os":"","password":false,"vac":false,"version":"","steam_id":0,"keywords":null,"game_id":0,"stv_port":0,"stv_name":"","players":null},{"server_id":302,"name":"Uncletopia | Montréal | 3 | One Thousand Uncles","name_short":"mtl-3","host":"mtl-1.ca.uncletopia.com","port":27035,"enabled":true,"region":"us-east","cc":"ca","latitude":45.50889,"longitude":-73.56167,"reserved":0,"last_update":"0001-01-01T00:00:00Z","name_a2s":"","protocol":0,"map":"","folder":"","game":"","app_id":0,"player_count":0,"max_players":0,"Bots":0,"server_type":"","server_os":"","password":false,"vac":false,"version":"","steam_id":0,"keywords":null,"game_id":0,"stv_port":0,"stv_name":"","players":null},{"server_id":13,"name":"Uncletopia | New York City | 1 | All Maps","name_short":"nyc-1","host":"nyc-1.us.uncletopia.com","port":27015,"enabled":true,"region":"us-east","cc":"us","latitude":40.73061,"longitude":-73.93524,"reserved":0,"last_update":"0001-01-01T00:00:00Z","name_a2s":"Uncletopia | New York City | 1 | All Maps","protocol":17,"map":"koth_lakeside_final","folder":"tf","game":"Team Fortress","app_id":440,"player_count":0,"max_players":24,"Bots":0,"server_type":"Dedicated","server_os":"Linux","password":true,"vac":true,"version":"7961495","steam_id":85568392924469993,"keywords":["cp","nocrits","nodmgspread","uncletopia"],"game_id":440,"stv_port":27016,"stv_name":"Uncletopia | New York City | 1 | All Maps | STV","players":null},{"server_id":14,"name":"Uncletopia | New York City | 2 | All Maps","name_short":"nyc-2","host":"nyc-1.us.uncletopia.com","port":27025,"enabled":true,"region":"us-east","cc":"us","latitude":40.73061,"longitude":-73.93524,"reserved":0,"last_update":"0001-01-01T00:00:00Z","name_a2s":"Uncletopia | New York City | 2 | All Maps","protocol":17,"map":"pl_snowycoast","folder":"tf","game":"Team Fortress","app_id":440,"player_count":5,"max_players":24,"Bots":0,"server_type":"Dedicated","server_os":"Linux","password":true,"vac":true,"version":"7961495","steam_id":85568392924469994,"keywords":["nocrits","nodmgspread","payload","uncletopia"],"game_id":440,"stv_port":27026,"stv_name":"Uncletopia | New York City | 2 | All Maps | STV","players":[{"user_id":8,"name":"BluNight","steam_id":76561198037116567,"connected_time":302000000000,"state":"active","ping":133},{"user_id":7,"name":"ChickenFriar","steam_id":76561199119888114,"connected_time":510000000000,"state":"active","ping":68},{"user_id":12,"name":"johs","steam_id":76561198827312411,"connected_time":11000000000,"state":"spawning","ping":60},{"user_id":9,"name":"CoolMan5x","steam_id":76561199122070273,"connected_time":147000000000,"state":"active","ping":92},{"user_id":10,"name":"vastrobotmax","steam_id":76561198417110724,"connected_time":104000000000,"state":"active","ping":69}]},{"server_id":15,"name":"Uncletopia | New York City | 3 | Stopwatch","name_short":"nyc-3","host":"nyc-1.us.uncletopia.com","port":27035,"enabled":true,"region":"us-east","cc":"us","latitude":40.73061,"longitude":-73.93524,"reserved":0,"last_update":"0001-01-01T00:00:00Z","name_a2s":"Uncletopia | New York City | 3 | Stopwatch","protocol":17,"map":"workshop/cp_process_f12.ugc2302948105","folder":"tf","game":"Team Fortress","app_id":440,"player_count":0,"max_players":24,"Bots":0,"server_type":"Dedicated","server_os":"Linux","password":true,"vac":true,"version":"7961495","steam_id":85568392924742820,"keywords":["cp","nocrits","nodmgspread","uncletopia"],"game_id":440,"stv_port":27036,"stv_name":"Uncletopia | New York City | 3 | Stopwatch | STV","players":null},{"server_id":16,"name":"Uncletopia | New York City | 4 | Community","name_short":"nyc-4","host":"nyc-1.us.uncletopia.com","port":27045,"enabled":true,"region":"us-east","cc":"us","latitude":40.73061,"longitude":-73.93524,"reserved":0,"last_update":"0001-01-01T00:00:00Z","name_a2s":"Uncletopia | New York City | 4 | Community","protocol":17,"map":"workshop/koth_synthetic_rc6a.ugc1549817316","folder":"tf","game":"Team Fortress","app_id":440,"player_count":0,"max_players":24,"Bots":0,"server_type":"Dedicated","server_os":"Linux","password":true,"vac":true,"version":"7961495","steam_id":85568392924742821,"keywords":["cp","nocrits","nodmgspread","uncletopia"],"game_id":440,"stv_port":27046,"stv_name":"Uncletopia | New York City | 4 | Community | STV","players":null},{"server_id":142,"name":"Uncletopia | São Paulo | 1 | All Maps","name_short":"sao-1","host":"sao-1.br.uncletopia.com","port":27015,"enabled":true,"region":"sa","cc":"br","latitude":-23.533773,"longitude":-46.62529,"reserved":0,"last_update":"0001-01-01T00:00:00Z","name_a2s":"Uncletopia | São Paulo | 1 | All Maps","protocol":17,"map":"cp_mountainlab","folder":"tf","game":"Team Fortress","app_id":440,"player_count":0,"max_players":24,"Bots":0,"server_type":"Dedicated","server_os":"Linux","password":true,"vac":true,"version":"7961495","steam_id":85568392924469996,"keywords":["cp","nocrits","nodmgspread","uncletopia"],"game_id":440,"stv_port":27016,"stv_name":"Uncletopia | São Paulo | 1 | All Maps | STV","players":null},{"server_id":143,"name":"Uncletopia | São Paulo | 2 | Community","name_short":"sao-2","host":"sao-2.br.uncletopia.com","port":27015,"enabled":true,"region":"sa","cc":"br","latitude":-23.533773,"longitude":-46.62529,"reserved":0,"last_update":"0001-01-01T00:00:00Z","name_a2s":"Uncletopia | São Paulo | 2 | Community","protocol":17,"map":"pl_badwater","folder":"tf","game":"Team Fortress","app_id":440,"player_count":0,"max_players":24,"Bots":0,"server_type":"Dedicated","server_os":"Linux","password":true,"vac":true,"version":"7961495","steam_id":85568392924485349,"keywords":["nocrits","nodmgspread","payload","uncletopia"],"game_id":440,"stv_port":27016,"stv_name":"Uncletopia | São Paulo | 2 | Community | STV","players":null},{"server_id":7,"name":"Uncletopia | Seattle | 1 | All Maps","name_short":"sea-1","host":"sea-1.us.uncletopia.com","port":27015,"enabled":true,"region":"us-west","cc":"us","latitude":47.608013,"longitude":-122.33517,"reserved":0,"last_update":"0001-01-01T00:00:00Z","name_a2s":"Uncletopia | Seattle | 1 | All Maps","protocol":17,"map":"pl_pier","folder":"tf","game":"Team Fortress","app_id":440,"player_count":1,"max_players":24,"Bots":0,"server_type":"Dedicated","server_os":"Linux","password":true,"vac":true,"version":"7961495","steam_id":85568392924469997,"keywords":["nocrits","nodmgspread","payload","uncletopia"],"game_id":440,"stv_port":27016,"stv_name":"Uncletopia | Seattle | 1 | All Maps | STV","players":[{"user_id":4,"name":"HailedClown","steam_id":76561199225239977,"connected_time":784000000000,"state":"active","ping":59}]},{"server_id":119,"name":"Uncletopia | Seattle | 2 | All Maps","name_short":"sea-2","host":"sea-1.us.uncletopia.com","port":27025,"enabled":true,"region":"us-west","cc":"us","latitude":47.608013,"longitude":-122.33517,"reserved":0,"last_update":"0001-01-01T00:00:00Z","name_a2s":"Uncletopia | Seattle | 2 | All Maps","protocol":17,"map":"cp_process_final","folder":"tf","game":"Team Fortress","app_id":440,"player_count":0,"max_players":24,"Bots":0,"server_type":"Dedicated","server_os":"Linux","password":true,"vac":true,"version":"7961495","steam_id":85568392924469998,"keywords":["cp","nocrits","nodmgspread","uncletopia"],"game_id":440,"stv_port":27026,"stv_name":"Uncletopia | Seattle | 2 | All Maps | STV","players":null},{"server_id":406,"name":"Uncletopia | Seattle | 3 | Stopwatch","name_short":"sea-3","host":"sea-1.us.uncletopia.com","port":27035,"enabled":true,"region":"us-west","cc":"us","latitude":47.608013,"longitude":-122.33517,"reserved":0,"last_update":"0001-01-01T00:00:00Z","name_a2s":"Uncletopia | Seattle | 3 | Stopwatch","protocol":17,"map":"pl_pier","folder":"tf","game":"Team Fortress","app_id":440,"player_count":0,"max_players":24,"Bots":0,"server_type":"Dedicated","server_os":"Linux","password":true,"vac":true,"version":"7961495","steam_id":85568392924515217,"keywords":["nocrits","nodmgspread","payload","uncletopia"],"game_id":440,"stv_port":27036,"stv_name":"Uncletopia | Seattle | 3 | Stopwatch | STV","players":null},{"server_id":17,"name":"Uncletopia | San Francisco | 1 | All Maps","name_short":"sfo-1","host":"sfo-1.us.uncletopia.com","port":27015,"enabled":true,"region":"us-west","cc":"us","latitude":37.77397,"longitude":-122.4313,"reserved":0,"last_update":"0001-01-01T00:00:00Z","name_a2s":"Uncletopia | San Francisco | 1 | All Maps","protocol":17,"map":"koth_cascade","folder":"tf","game":"Team Fortress","app_id":440,"player_count":0,"max_players":24,"Bots":0,"server_type":"Dedicated","server_os":"Linux","password":true,"vac":true,"version":"7961495","steam_id":85568392924469999,"keywords":["cp","nocrits","nodmgspread","uncletopia"],"game_id":440,"stv_port":27016,"stv_name":"Uncletopia | San Francisco | 1 | All Maps | STV","players":null},{"server_id":18,"name":"Uncletopia | San Francisco | 2 | All Maps","name_short":"sfo-2","host":"sfo-1.us.uncletopia.com","port":27025,"enabled":true,"region":"us-west","cc":"us","latitude":37.77397,"longitude":-122.4313,"reserved":0,"last_update":"0001-01-01T00:00:00Z","name_a2s":"Uncletopia | San Francisco | 2 | All Maps","protocol":17,"map":"cp_dustbowl","folder":"tf","game":"Team Fortress","app_id":440,"player_count":0,"max_players":24,"Bots":0,"server_type":"Dedicated","server_os":"Linux","password":true,"vac":true,"version":"7961495","steam_id":85568392924470000,"keywords":["cp","nocrits","nodmgspread","uncletopia"],"game_id":440,"stv_port":27026,"stv_name":"Uncletopia | San Francisco | 2 | All Maps | STV","players":null},{"server_id":19,"name":"Uncletopia | San Francisco | 3 | Stopwatch","name_short":"sfo-3","host":"sfo-1.us.uncletopia.com","port":27035,"enabled":true,"region":"us-west","cc":"us","latitude":37.77397,"longitude":-122.4313,"reserved":0,"last_update":"0001-01-01T00:00:00Z","name_a2s":"Uncletopia | San Francisco | 3 | Stopwatch","protocol":17,"map":"pl_pier","folder":"tf","game":"Team Fortress","app_id":440,"player_count":0,"max_players":24,"Bots":0,"server_type":"Dedicated","server_os":"Linux","password":true,"vac":true,"version":"7961495","steam_id":85568392924742824,"keywords":["nocrits","nodmgspread","payload","uncletopia"],"game_id":440,"stv_port":27036,"stv_name":"Uncletopia | San Francisco | 3 | Stopwatch | STV","players":null},{"server_id":20,"name":"Uncletopia | San Francisco | 4 | Community","name_short":"sfo-4","host":"sfo-1.us.uncletopia.com","port":27045,"enabled":true,"region":"us-west","cc":"us","latitude":37.77397,"longitude":-122.4313,"reserved":0,"last_update":"0001-01-01T00:00:00Z","name_a2s":"Uncletopia | San Francisco | 4 | Community","protocol":17,"map":"pl_pier","folder":"tf","game":"Team Fortress","app_id":440,"player_count":0,"max_players":24,"Bots":0,"server_type":"Dedicated","server_os":"Linux","password":true,"vac":true,"version":"7961495","steam_id":85568392924742826,"keywords":["nocrits","nodmgspread","payload","uncletopia"],"game_id":440,"stv_port":27046,"stv_name":"Uncletopia | San Francisco | 4 | Community | STV","players":null},{"server_id":141,"name":"Uncletopia | Sydney | 1 | All Maps","name_short":"syd-1","host":"syd-1.au.uncletopia.com","port":27015,"enabled":true,"region":"au","cc":"au","latitude":-33.865143,"longitude":151.2099,"reserved":0,"last_update":"0001-01-01T00:00:00Z","name_a2s":"Uncletopia | Sydney | 1 | All Maps","protocol":17,"map":"koth_viaduct","folder":"tf","game":"Team Fortress","app_id":440,"player_count":0,"max_players":24,"Bots":0,"server_type":"Dedicated","server_os":"Linux","password":true,"vac":true,"version":"7961495","steam_id":85568392924470001,"keywords":["cp","nocrits","nodmgspread","uncletopia"],"game_id":440,"stv_port":27016,"stv_name":"Uncletopia | Sydney | 1 | All Maps | STV","players":null},{"server_id":123,"name":"Uncletopia | Sydney | 2 | All Maps","name_short":"syd-2","host":"syd-1.au.uncletopia.com","port":27025,"enabled":true,"region":"au","cc":"au","latitude":-33.865143,"longitude":151.2099,"reserved":0,"last_update":"0001-01-01T00:00:00Z","name_a2s":"Uncletopia | Sydney | 2 | All Maps","protocol":17,"map":"pl_frontier_final","folder":"tf","game":"Team Fortress","app_id":440,"player_count":24,"max_players":24,"Bots":0,"server_type":"Dedicated","server_os":"Linux","password":true,"vac":true,"version":"7961495","steam_id":85568392924470002,"keywords":["nocrits","nodmgspread","payload","uncletopia"],"game_id":440,"stv_port":27026,"stv_name":"Uncletopia | Sydney | 2 | All Maps | STV","players":[{"user_id":343,"name":"NORKIE","steam_id":76561198027693856,"connected_time":2599000000000,"state":"active","ping":89},{"user_id":339,"name":"WikkyD","steam_id":76561198043452962,"connected_time":2873000000000,"state":"active","ping":66},{"user_id":355,"name":"{Azura Sarah}","steam_id":76561197989210208,"connected_time":1746000000000,"state":"active","ping":52},{"user_id":356,"name":"yilli_","steam_id":76561198210960700,"connected_time":1737000000000,"state":"active","ping":51},{"user_id":342,"name":"Araxamas","steam_id":76561198014474886,"connected_time":2759000000000,"state":"active","ping":99},{"user_id":266,"name":"Chez","steam_id":76561198089925051,"connected_time":6084000000000,"state":"active","ping":88},{"user_id":366,"name":"soupy","steam_id":76561198073734936,"connected_time":1112000000000,"state":"active","ping":90},{"user_id":234,"name":"ash :)","steam_id":76561198127508905,"connected_time":7740000000000,"state":"active","ping":38},{"user_id":358,"name":"DeadX","steam_id":76561198158096860,"connected_time":1580000000000,"state":"active","ping":62},{"user_id":330,"name":"♥ BILL!!! ♥","steam_id":76561198066726621,"connected_time":4131000000000,"state":"active","ping":44},{"user_id":359,"name":"AceChillus","steam_id":76561198178119043,"connected_time":1537000000000,"state":"active","ping":44},{"user_id":362,"name":"The Goon","steam_id":76561198434696450,"connected_time":1352000000000,"state":"active","ping":163},{"user_id":323,"name":"Selling Anti-Matter for $543","steam_id":76561198070708382,"connected_time":4683000000000,"state":"active","ping":46},{"user_id":313,"name":"LightningBlock","steam_id":76561198289997742,"connected_time":5241000000000,"state":"active","ping":38},{"user_id":341,"name":"strogan my beef til im off","steam_id":76561198127848228,"connected_time":2829000000000,"state":"active","ping":65},{"user_id":363,"name":"lil tecca","steam_id":76561198073390595,"connected_time":1293000000000,"state":"active","ping":50},{"user_id":370,"name":"hive","steam_id":76561199099744527,"connected_time":427000000000,"state":"active","ping":52},{"user_id":348,"name":"ShiftAU","steam_id":76561198036359969,"connected_time":2277000000000,"state":"active","ping":60},{"user_id":324,"name":"Lincoln2603","steam_id":76561198170236666,"connected_time":4682000000000,"state":"active","ping":44},{"user_id":365,"name":"oldbie","steam_id":76561198053297711,"connected_time":1252000000000,"state":"active","ping":69},{"user_id":337,"name":"҂Storm","steam_id":76561198073213264,"connected_time":3219000000000,"state":"active","ping":49},{"user_id":368,"name":"Perplexia","steam_id":76561198012215739,"connected_time":1016000000000,"state":"active","ping":78},{"user_id":371,"name":"adam","steam_id":76561198087803935,"connected_time":427000000000,"state":"active","ping":48},{"user_id":262,"name":"Griffin","steam_id":76561198024926514,"connected_time":6282000000000,"state":"active","ping":87}]},{"server_id":395,"name":"Uncletopia | Sydney | 3 | All Maps","name_short":"syd-3","host":"syd-1.au.uncletopia.com","port":27035,"enabled":true,"region":"au","cc":"au","latitude":-33.865143,"longitude":151.2099,"reserved":0,"last_update":"0001-01-01T00:00:00Z","name_a2s":"Uncletopia | Sydney | 3 | All Maps","protocol":17,"map":"koth_lakeside_final","folder":"tf","game":"Team Fortress","app_id":440,"player_count":0,"max_players":24,"Bots":0,"server_type":"Dedicated","server_os":"Linux","password":true,"vac":true,"version":"7961495","steam_id":85568392925194467,"keywords":["cp","nocrits","nodmgspread","uncletopia"],"game_id":440,"stv_port":27036,"stv_name":"Uncletopia | Sydney | 3 | All Maps | STV","players":null},{"server_id":396,"name":"Uncletopia | Sydney | 4 | All Maps","name_short":"syd-4","host":"syd-1.au.uncletopia.com","port":27045,"enabled":true,"region":"au","cc":"au","latitude":-33.865143,"longitude":151.2099,"reserved":0,"last_update":"0001-01-01T00:00:00Z","name_a2s":"Uncletopia | Sydney | 4 | All Maps","protocol":17,"map":"koth_highpass","folder":"tf","game":"Team Fortress","app_id":440,"player_count":0,"max_players":24,"Bots":0,"server_type":"Dedicated","server_os":"Linux","password":true,"vac":true,"version":"7961495","steam_id":85568392925397958,"keywords":["cp","nocrits","nodmgspread","uncletopia"],"game_id":440,"stv_port":27046,"stv_name":"Uncletopia | Sydney | 4 | All Maps | STV","players":null},{"server_id":58,"name":"Uncletopia | Sydney | 5 | Stopwatch","name_short":"syd-5","host":"syd-1.au.uncletopia.com","port":27055,"enabled":true,"region":"au","cc":"au","latitude":-33.865143,"longitude":151.2099,"reserved":0,"last_update":"0001-01-01T00:00:00Z","name_a2s":"Uncletopia | Sydney | 5 | Stopwatch","protocol":17,"map":"koth_highpass","folder":"tf","game":"Team Fortress","app_id":440,"player_count":0,"max_players":24,"Bots":0,"server_type":"Dedicated","server_os":"Linux","password":true,"vac":true,"version":"7961495","steam_id":85568392925397959,"keywords":["cp","nocrits","nodmgspread","uncletopia"],"game_id":440,"stv_port":27056,"stv_name":"Uncletopia | Sydney | 5 | Stopwatch | STV","players":null},{"server_id":59,"name":"Uncletopia | Sydney | 6 | Community","name_short":"syd-6","host":"syd-1.au.uncletopia.com","port":27065,"enabled":true,"region":"au","cc":"au","latitude":-33.865143,"longitude":151.2099,"reserved":0,"last_update":"0001-01-01T00:00:00Z","name_a2s":"Uncletopia | Sydney | 6 | Community","protocol":17,"map":"workshop/pl_fifthcurve_rc1.ugc648227046","folder":"tf","game":"Team Fortress","app_id":440,"player_count":0,"max_players":24,"Bots":0,"server_type":"Dedicated","server_os":"Linux","password":true,"vac":true,"version":"7961495","steam_id":85568392925397960,"keywords":["nocrits","nodmgspread","payload","uncletopia"],"game_id":440,"stv_port":27066,"stv_name":"Uncletopia | Sydney | 6 | Community | STV","players":null},{"server_id":49,"name":"Uncletopia | Warsaw | 1 | One Thousand Uncles","name_short":"waw-1","host":"waw-1.pl.uncletopia.com","port":27015,"enabled":true,"region":"eu","cc":"pl","latitude":52.2297,"longitude":21.017532,"reserved":0,"last_update":"0001-01-01T00:00:00Z","name_a2s":"Uncletopia | Warsaw | 1 | One Thousand Uncles","protocol":17,"map":"cp_egypt_final","folder":"tf","game":"Team Fortress","app_id":440,"player_count":29,"max_players":32,"Bots":16,"server_type":"Dedicated","server_os":"Linux","password":true,"vac":true,"version":"7961495","steam_id":85568392925397850,"keywords":["alltalk","bots","cp","danepve","increased_maxplayers","nocrits","norespawntime","uncletopia"],"game_id":440,"stv_port":0,"stv_name":"","players":[{"user_id":309,"name":"Денис Базука","steam_id":76561198835849082,"connected_time":5355000000000,"state":"active","ping":65},{"user_id":388,"name":"bonour74","steam_id":76561199089910337,"connected_time":1378000000000,"state":"active","ping":196},{"user_id":416,"name":"KENZO","steam_id":76561197993520279,"connected_time":443000000000,"state":"active","ping":72},{"user_id":421,"name":"Kreld","steam_id":76561198047794615,"connected_time":92000000000,"state":"active","ping":90},{"user_id":418,"name":"(っ◔◡◔)っ ♥ 無邪気","steam_id":76561199096911882,"connected_time":339000000000,"state":"active","ping":90},{"user_id":389,"name":"BigAA","steam_id":76561199477658677,"connected_time":1333000000000,"state":"active","ping":92},{"user_id":392,"name":"womandestroyer2006","steam_id":76561198173325629,"connected_time":1031000000000,"state":"active","ping":130},{"user_id":422,"name":"CouchPotato","steam_id":76561198849369915,"connected_time":43000000000,"state":"active","ping":65},{"user_id":306,"name":"Uncle Ando","steam_id":76561197994056083,"connected_time":6295000000000,"state":"active","ping":73},{"user_id":312,"name":"?TheEnd","steam_id":76561198055280327,"connected_time":4930000000000,"state":"active","ping":53},{"user_id":383,"name":"white_foxx_","steam_id":76561199142643747,"connected_time":1770000000000,"state":"active","ping":57},{"user_id":243,"name":"Gamer_X","steam_id":76561198085349286,"connected_time":10319000000000,"state":"active","ping":96},{"user_id":336,"name":"Oxouggoss","steam_id":76561198096187461,"connected_time":3574000000000,"state":"active","ping":84}]},{"server_id":50,"name":"Uncletopia | Warsaw | 2 | One Thousand Uncles","name_short":"waw-2","host":"waw-1.pl.uncletopia.com","port":27025,"enabled":true,"region":"eu","cc":"pl","latitude":52.2297,"longitude":21.017532,"reserved":0,"last_update":"0001-01-01T00:00:00Z","name_a2s":"Uncletopia | Warsaw | 2 | One Thousand Uncles","protocol":17,"map":"pl_chilly","folder":"tf","game":"Team Fortress","app_id":440,"player_count":29,"max_players":32,"Bots":16,"server_type":"Dedicated","server_os":"Linux","password":true,"vac":true,"version":"7961495","steam_id":85568392925397851,"keywords":["alltalk","bots","danepve","increased_maxplayers","nocrits","norespawntime","payload","uncletopia"],"game_id":440,"stv_port":0,"stv_name":"","players":[{"user_id":145,"name":"Dmitry Kerman","steam_id":76561198300020540,"connected_time":5158000000000,"state":"active","ping":85},{"user_id":179,"name":"Lukas","steam_id":76561198009118452,"connected_time":997000000000,"state":"active","ping":67},{"user_id":173,"name":"TERRORIST","steam_id":76561199096023182,"connected_time":2062000000000,"state":"active","ping":99},{"user_id":174,"name":"Anubito","steam_id":76561199480459323,"connected_time":2046000000000,"state":"active","ping":93},{"user_id":175,"name":"[SQ UA] MartianDill","steam_id":76561198405382822,"connected_time":1635000000000,"state":"active","ping":54},{"user_id":176,"name":"Error","steam_id":76561199196557511,"connected_time":1446000000000,"state":"active","ping":474},{"user_id":201,"name":"Berserker","steam_id":76561198411142951,"connected_time":162000000000,"state":"active","ping":95},{"user_id":202,"name":"Gustavo_Fring_6969","steam_id":76561199373610279,"connected_time":138000000000,"state":"active","ping":109},{"user_id":182,"name":"Max Power","steam_id":76561198019269089,"connected_time":465000000000,"state":"active","ping":60},{"user_id":183,"name":"Loo32","steam_id":76561199094568704,"connected_time":451000000000,"state":"active","ping":74},{"user_id":204,"name":"Azurh","steam_id":76561199330143102,"connected_time":100000000000,"state":"active","ping":50},{"user_id":205,"name":"nicssd108","steam_id":76561199405473913,"connected_time":22000000000,"state":"spawning","ping":107},{"user_id":206,"name":"Nikt Ważny (F2P)","steam_id":76561199273293257,"connected_time":18000000000,"state":"spawning","ping":86}]},{"server_id":51,"name":"Uncletopia | Warsaw | 3 | All Maps","name_short":"waw-3","host":"waw-1.pl.uncletopia.com","port":27035,"enabled":true,"region":"eu","cc":"pl","latitude":52.2297,"longitude":21.017532,"reserved":0,"last_update":"0001-01-01T00:00:00Z","name_a2s":"Uncletopia | Warsaw | 3 | All Maps","protocol":17,"map":"plr_pipeline","folder":"tf","game":"Team Fortress","app_id":440,"player_count":0,"max_players":24,"Bots":0,"server_type":"Dedicated","server_os":"Linux","password":true,"vac":true,"version":"7961495","steam_id":85568392925397852,"keywords":["nocrits","nodmgspread","payload","uncletopia"],"game_id":440,"stv_port":27036,"stv_name":"Uncletopia | Warsaw | 3 | All Maps | STV","players":null},{"server_id":52,"name":"Uncletopia | Warsaw | 4 | All Maps","name_short":"waw-4","host":"waw-1.pl.uncletopia.com","port":27045,"enabled":true,"region":"eu","cc":"pl","latitude":52.2297,"longitude":21.017532,"reserved":0,"last_update":"0001-01-01T00:00:00Z","name_a2s":"Uncletopia | Warsaw | 4 | All Maps","protocol":17,"map":"cp_coldfront","folder":"tf","game":"Team Fortress","app_id":440,"player_count":0,"max_players":24,"Bots":0,"server_type":"Dedicated","server_os":"Linux","password":true,"vac":true,"version":"7961495","steam_id":85568392925397853,"keywords":["cp","nocrits","nodmgspread","uncletopia"],"game_id":440,"stv_port":27046,"stv_name":"Uncletopia | Warsaw | 4 | All Maps | STV","players":null},{"server_id":53,"name":"Uncletopia | Warsaw | 5 | Stopwatch","name_short":"waw-5","host":"waw-1.pl.uncletopia.com","port":27055,"enabled":true,"region":"eu","cc":"pl","latitude":52.2297,"longitude":21.017532,"reserved":0,"last_update":"0001-01-01T00:00:00Z","name_a2s":"Uncletopia | Warsaw | 5 | Stopwatch","protocol":17,"map":"workshop/koth_ashville_final.ugc2130459942","folder":"tf","game":"Team Fortress","app_id":440,"player_count":0,"max_players":24,"Bots":0,"server_type":"Dedicated","server_os":"Linux","password":true,"vac":true,"version":"7961495","steam_id":85568392925397854,"keywords":["cp","nocrits","nodmgspread","uncletopia"],"game_id":440,"stv_port":27056,"stv_name":"Uncletopia | Warsaw | 5 | Stopwatch | STV","players":null},{"server_id":54,"name":"Uncletopia | Warsaw | 6 | Community","name_short":"waw-6","host":"waw-1.pl.uncletopia.com","port":27065,"enabled":true,"region":"eu","cc":"pl","latitude":52.2297,"longitude":21.017532,"reserved":0,"last_update":"0001-01-01T00:00:00Z","name_a2s":"Uncletopia | Warsaw | 6 | Community","protocol":17,"map":"workshop/cp_mannbase_rc2a.ugc1900737467","folder":"tf","game":"Team Fortress","app_id":440,"player_count":0,"max_players":24,"Bots":0,"server_type":"Dedicated","server_os":"Linux","password":true,"vac":true,"version":"7961495","steam_id":85568392925397856,"keywords":["cp","nocrits","nodmgspread","uncletopia"],"game_id":440,"stv_port":27066,"stv_name":"Uncletopia | Warsaw | 6 | Community | STV","players":null}]}