{"status":true,"message":"","result":[{"server_id":9,"name":"Uncletopia | Atlanta | 1 | All Maps","name_short":"atl-1","host":"atl-1.us.uncletopia.com","port":27015,"enabled":true,"region":"us-east","cc":"us","latitude":33.753746,"longitude":-84.38633,"reserved":0,"last_update":"0001-01-01T00:00:00Z","name_a2s":"Uncletopia | Atlanta | 1 | All Maps","protocol":17,"map":"koth_lakeside_final","folder":"tf","game":"Team Fortress","app_id":440,"player_count":0,"max_players":24,"Bots":0,"server_type":"Dedicated","server_os":"Linux","password":true,"vac":true,"version":"7757534","steam_id":85568392924469982,"keywords":["cp","nocrits","nodmgspread","uncletopia"],"game_id":440,"stv_port":27016,"stv_name":"Uncletopia | Atlanta | 1 | All Maps | STV","players":null},{"server_id":400,"name":"Uncletopia | Atlanta | 3 | Stopwatch Beta","name_short":"atl-3","host":"atl-1.us.uncletopia.com","port":27035,"enabled":true,"region":"us-east","cc":"us","latitude":33.753746,"longitude":-84.38633,"reserved":0,"last_update":"0001-01-01T00:00:00Z","name_a2s":"Uncletopia | Atlanta | 3 | Stopwatch Beta","protocol":17,"map":"pl_upward","folder":"tf","game":"Team Fortress","app_id":440,"player_count":0,"max_players":24,"Bots":0,"server_type":"Dedicated","server_os":"Linux","password":true,"vac":true,"version":"7757534","steam_id":85568392924515187,"keywords":["nocrits","nodmgspread","payload","uncletopia"],"game_id":440,"stv_port":27036,"stv_name":"Uncletopia | Atlanta | 3 | Stopwatch Beta | STV","players":null},{"server_id":401,"name":"Uncletopia | Atlanta | 4 | No Payload","name_short":"atl-4","host":"atl-1.us.uncletopia.com","port":27045,"enabled":true,"region":"us-east","cc":"us","latitude":33.753746,"longitude":-84.38633,"reserved":0,"last_update":"0001-01-01T00:00:00Z","name_a2s":"Uncletopia | Atlanta | 4 | No Payload","protocol":17,"map":"pl_pier","folder":"tf","game":"Team Fortress","app_id":440,"player_count":0,"max_players":24,"Bots":0,"server_type":"Dedicated","server_os":"Linux","password":true,"vac":true,"version":"7723704","steam_id":85568392924515188,"keywords":["nocrits","nodmgspread","payload","uncletopia"],"game_id":440,"stv_port":27046,"stv_name":"Uncletopia | Atlanta | 4 | No Payload | STV","players":null},{"server_id":2,"name":"Uncletopia | Chicago | 1 | All Maps","name_short":"chi-1","host":"chi-1.us.uncletopia.com","port":27015,"enabled":true,"region":"us-central","cc":"us","latitude":41.881832,"longitude":-87.62318,"reserved":0,"last_update":"0001-01-01T00:00:00Z","name_a2s":"Uncletopia | Chicago | 1 | All Maps","protocol":17,"map":"cp_steel","folder":"tf","game":"Team Fortress","app_id":440,"player_count":24,"max_players":24,"Bots":0,"server_type":"Dedicated","server_os":"Linux","password":true,"vac":true,"version":"7757534","steam_id":85568392924469984,"keywords":["cp","nocrits","nodmgspread","uncletopia"],"game_id":440,"stv_port":27016,"stv_name":"Uncletopia | Chicago | 1 | All Maps | STV","players":[{"user_id":70,"name":"Drachma","steam_id":76561198007310514,"connected_time":2077000000000,"state":"active","ping":57},{"user_id":53,"name":"Mattron1","steam_id":76561198012270524,"connected_time":2771000000000,"state":"active","ping":85},{"user_id":87,"name":"jimbo","steam_id":76561198046059770,"connected_time":323000000000,"state":"active","ping":60},{"user_id":88,"name":"richard clock","steam_id":76561198048455671,"connected_time":322000000000,"state":"active","ping":47},{"user_id":7,"name":"Y0C0 B3NITO","steam_id":76561198072200952,"connected_time":6731000000000,"state":"active","ping":100},{"user_id":8,"name":"SuperJagops","steam_id":76561198034689716,"connected_time":6727000000000,"state":"active","ping":63},{"user_id":80,"name":"MyamE","steam_id":76561198133278462,"connected_time":933000000000,"state":"active","ping":87},{"user_id":83,"name":"barbara","steam_id":76561198072417792,"connected_time":339000000000,"state":"active","ping":82},{"user_id":52,"name":"Big Phony","steam_id":76561199092395311,"connected_time":2844000000000,"state":"active","ping":60},{"user_id":84,"name":"Kiss Master","steam_id":76561198289572271,"connected_time":338000000000,"state":"active","ping":74},{"user_id":66,"name":"Abbashea","steam_id":76561199182136969,"connected_time":2161000000000,"state":"active","ping":81},{"user_id":16,"name":"shaderoses","steam_id":76561198070800500,"connected_time":6708000000000,"state":"active","ping":64},{"user_id":60,"name":"hamal cine","steam_id":76561198079619374,"connected_time":2413000000000,"state":"active","ping":85},{"user_id":57,"name":"Jelqing Table","steam_id":76561198051373750,"connected_time":2427000000000,"state":"active","ping":71},{"user_id":79,"name":"1Cream","steam_id":76561198059743498,"connected_time":1057000000000,"state":"active","ping":54},{"user_id":93,"name":"Inpecular (Travis)","steam_id":76561198096571237,"connected_time":228000000000,"state":"active","ping":87},{"user_id":91,"name":"Pixler544","steam_id":76561198240575132,"connected_time":283000000000,"state":"active","ping":87},{"user_id":68,"name":"Engee homie","steam_id":76561199025387547,"connected_time":2130000000000,"state":"active","ping":78},{"user_id":85,"name":"Strange Festive Femboy","steam_id":76561198050385093,"connected_time":338000000000,"state":"active","ping":78},{"user_id":26,"name":"Coffee with a Stranger","steam_id":76561198307422313,"connected_time":6593000000000,"state":"active","ping":70},{"user_id":59,"name":"|AG| Level","steam_id":76561198063633592,"connected_time":2414000000000,"state":"active","ping":74},{"user_id":94,"name":"i will salt your canker sores","steam_id":76561198067994868,"connected_time":6000000000,"state":"spawning","ping":58},{"user_id":76,"name":"blazzeh","steam_id":76561198053407069,"connected_time":1429000000000,"state":"active","ping":88},{"user_id":74,"name":"Dangerous Kliff","steam_id":76561198961326131,"connected_time":1610000000000,"state":"active","ping":55}]},{"server_id":106,"name":"Uncletopia | Chicago | 2 | All Maps","name_short":"chi-2","host":"chi-1.us.uncletopia.com","port":27025,"enabled":true,"region":"us-central","cc":"us","latitude":41.881832,"longitude":-87.62318,"reserved":0,"last_update":"0001-01-01T00:00:00Z","name_a2s":"Uncletopia | Chicago | 2 | All Maps","protocol":17,"map":"koth_lakeside_final","folder":"tf","game":"Team Fortress","app_id":440,"player_count":0,"max_players":24,"Bots":0,"server_type":"Dedicated","server_os":"Linux","password":true,"vac":true,"version":"7757534","steam_id":85568392924469985,"keywords":["cp","nocrits","nodmgspread","uncletopia"],"game_id":440,"stv_port":27026,"stv_name":"Uncletopia | Chicago | 2 | All Maps | STV","players":null},{"server_id":402,"name":"Uncletopia | Chicago | 3 | All Maps","name_short":"chi-3","host":"chi-1.us.uncletopia.com","port":27035,"enabled":true,"region":"us-central","cc":"us","latitude":41.881832,"longitude":-87.62318,"reserved":0,"last_update":"0001-01-01T00:00:00Z","name_a2s":"Uncletopia | Chicago | 3 | All Maps","protocol":17,"map":"cp_mountainlab","folder":"tf","game":"Team Fortress","app_id":440,"player_count":0,"max_players":24,"Bots":0,"server_type":"Dedicated","server_os":"Linux","password":true,"vac":true,"version":"7757534","steam_id":85568392924515191,"keywords":["cp","nocrits","nodmgspread","uncletopia"],"game_id":440,"stv_port":27036,"stv_name":"Uncletopia | Chicago | 3 | All Maps | STV","players":null},{"server_id":403,"name":"Uncletopia | Chicago | 4 | All Maps","name_short":"chi-4","host":"chi-1.us.uncletopia.com","port":27045,"enabled":true,"region":"us-central","cc":"us","latitude":41.881832,"longitude":-87.62318,"reserved":0,"last_update":"0001-01-01T00:00:00Z","name_a2s":"Uncletopia | Chicago | 4 | All Maps","protocol":17,"map":"pl_pier","folder":"tf","game":"Team Fortress","app_id":440,"player_count":0,"max_players":24,"Bots":0,"server_type":"Dedicated","server_os":"Linux","password":true,"vac":true,"version":"7757534","steam_id":85568392924515193,"keywords":["nocrits","nodmgspread","payload","uncletopia"],"game_id":440,"stv_port":27046,"stv_name":"Uncletopia | Chicago | 4 | All Maps | STV","players":null},{"server_id":36,"name":"Uncletopia | Chicago | 5 | All Maps","name_short":"chi-5","host":"chi-2.us.uncletopia.com","port":27015,"enabled":true,"region":"us-central","cc":"us","latitude":41.881832,"longitude":-87.62318,"reserved":0,"last_update":"0001-01-01T00:00:00Z","name_a2s":"Uncletopia | Chicago | 5 | All Maps","protocol":17,"map":"koth_cascade","folder":"tf","game":"Team Fortress","app_id":440,"player_count":0,"max_players":24,"Bots":0,"server_type":"Dedicated","server_os":"Linux","password":true,"vac":true,"version":"7757534","steam_id":85568392924866362,"keywords":["cp","nocrits","nodmgspread","uncletopia"],"game_id":440,"stv_port":27016,"stv_name":"Uncletopia | Chicago | 5 | All Maps | STV","players":null},{"server_id":37,"name":"Uncletopia | Chicago | 6 | All Maps","name_short":"chi-6","host":"chi-2.us.uncletopia.com","port":27025,"enabled":true,"region":"us-central","cc":"us","latitude":41.881832,"longitude":-87.62318,"reserved":0,"last_update":"0001-01-01T00:00:00Z","name_a2s":"Uncletopia | Chicago | 6 | All Maps","protocol":17,"map":"cp_snakewater_final1","folder":"tf","game":"Team Fortress","app_id":440,"player_count":0,"max_players":24,"Bots":0,"server_type":"Dedicated","server_os":"Linux","password":true,"vac":true,"version":"7757534","steam_id":85568392924866363,"keywords":["cp","nocrits","nodmgspread","uncletopia"],"game_id":440,"stv_port":27026,"stv_name":"Uncletopia | Chicago | 6 | All Maps | STV","players":null},{"server_id":38,"name":"Uncletopia | Chicago | 7 | Stopwatch Beta","name_short":"chi-7","host":"chi-2.us.uncletopia.com","port":27035,"enabled":true,"region":"us-central","cc":"us","latitude":41.881832,"longitude":-87.62318,"reserved":0,"last_update":"0001-01-01T00:00:00Z","name_a2s":"Uncletopia | Chicago | 7 | Stopwatch Beta","protocol":17,"map":"cp_sunshine","folder":"tf","game":"Team Fortress","app_id":440,"player_count":0,"max_players":24,"Bots":0,"server_type":"Dedicated","server_os":"Linux","password":true,"vac":true,"version":"7757534","steam_id":85568392924866364,"keywords":["cp","nocrits","nodmgspread","uncletopia"],"game_id":440,"stv_port":27036,"stv_name":"Uncletopia | Chicago | 7 | Stopwatch Beta | STV","players":null},{"server_id":39,"name":"Uncletopia | Chicago | 8 | Community","name_short":"chi-8","host":"chi-2.us.uncletopia.com","port":27045,"enabled":true,"region":"us-central","cc":"us","latitude":41.881832,"longitude":-87.62318,"reserved":0,"last_update":"0001-01-01T00:00:00Z","name_a2s":"Uncletopia | Chicago | 8 | Community","protocol":17,"map":"pl_pier","folder":"tf","game":"Team Fortress","app_id":440,"player_count":0,"max_players":24,"Bots":0,"server_type":"Dedicated","server_os":"Linux","password":true,"vac":true,"version":"7757534","steam_id":85568392924866365,"keywords":["nocrits","nodmgspread","payload","uncletopia"],"game_id":440,"stv_port":27046,"stv_name":"Uncletopia | Chicago | 8 | Community | STV","players":null},{"server_id":8,"name":"Uncletopia | Dallas | 1 | All Maps","name_short":"dal-1","host":"dal-1.us.uncletopia.com","port":27015,"enabled":true,"region":"us-central","cc":"us","latitude":32.779167,"longitude":-96.80889,"reserved":0,"last_update":"0001-01-01T00:00:00Z","name_a2s":"Uncletopia | Dallas | 1 | All Maps","protocol":17,"map":"pl_snowycoast","folder":"tf","game":"Team Fortress","app_id":440,"player_count":9,"max_players":24,"Bots":0,"server_type":"Dedicated","server_os":"Linux","password":true,"vac":true,"version":"7757534","steam_id":85568392924469986,"keywords":["nocrits","nodmgspread","payload","uncletopia"],"game_id":440,"stv_port":27016,"stv_name":"Uncletopia | Dallas | 1 | All Maps | STV","players":[{"user_id":11,"name":"A Gamer [F2P]","steam_id":76561198138712892,"connected_time":928000000000,"state":"active","ping":31},{"user_id":12,"name":"the merchant from RE4","steam_id":76561199121285443,"connected_time":718000000000,"state":"active","ping":75},{"user_id":14,"name":"SOULDOG","steam_id":76561199212057006,"connected_time":630000000000,"state":"active","ping":431},{"user_id":15,"name":"DJpocalypse","steam_id":76561199230125964,"connected_time":360000000000,"state":"active","ping":91},{"user_id":16,"name":"FMG8","steam_id":76561199149971166,"connected_time":336000000000,"state":"active","ping":86},{"user_id":17,"name":"Cherri.mp4","steam_id":76561198867419734,"connected_time":317000000000,"state":"active","ping":75},{"user_id":18,"name":"MrrPickle","steam_id":76561198122046514,"connected_time":296000000000,"state":"active","ping":84},{"user_id":19,"name":"Bobby","steam_id":76561198164004939,"connected_time":181000000000,"state":"active","ping":100},{"user_id":20,"name":"y inverted gameplay","steam_id":76561199085931379,"connected_time":140000000000,"state":"active","ping":68}]},{"server_id":108,"name":"Uncletopia | Dallas | 2 | All Maps","name_short":"dal-2","host":"dal-1.us.uncletopia.com","port":27025,"enabled":true,"region":"us-central","cc":"us","latitude":32.779167,"longitude":-96.80889,"reserved":0,"last_update":"0001-01-01T00:00:00Z","name_a2s":"Uncletopia | Dallas | 2 | All Maps","protocol":17,"map":"koth_highpass","folder":"tf","game":"Team Fortress","app_id":440,"player_count":0,"max_players":24,"Bots":0,"server_type":"Dedicated","server_os":"Linux","password":true,"vac":true,"version":"7757534","steam_id":85568392924469988,"keywords":["cp","nocrits","nodmgspread","uncletopia"],"game_id":440,"stv_port":27026,"stv_name":"Uncletopia | Dallas | 2 | All Maps | STV","players":null},{"server_id":5,"name":"Uncletopia | Frankfurt | 1 | All Maps","name_short":"frk-1","host":"frk-1.de.uncletopia.com","port":27015,"enabled":true,"region":"eu","cc":"de","latitude":50.110924,"longitude":8.682127,"reserved":0,"last_update":"0001-01-01T00:00:00Z","name_a2s":"Uncletopia | Frankfurt | 1 | All Maps","protocol":17,"map":"pl_upward","folder":"tf","game":"Team Fortress","app_id":440,"player_count":23,"max_players":24,"Bots":0,"server_type":"Dedicated","server_os":"Linux","password":true,"vac":true,"version":"7757534","steam_id":85568392924469989,"keywords":["nocrits","nodmgspread","payload","uncletopia"],"game_id":440,"stv_port":27016,"stv_name":"Uncletopia | Frankfurt | 1 | All Maps | STV","players":[{"user_id":275,"name":"kase1OOO","steam_id":76561199230550975,"connected_time":941000000000,"state":"active","ping":51},{"user_id":272,"name":"The Big Orange","steam_id":76561199021476227,"connected_time":1032000000000,"state":"active","ping":72},{"user_id":264,"name":"Lukero","steam_id":76561198301594341,"connected_time":1419000000000,"state":"active","ping":63},{"user_id":273,"name":"the","steam_id":76561198293567489,"connected_time":1029000000000,"state":"active","ping":70},{"user_id":307,"name":"mid gash","steam_id":76561198064130889,"connected_time":3000000000,"state":"spawning","ping":59},{"user_id":299,"name":"Kati","steam_id":76561198007231088,"connected_time":282000000000,"state":"active","ping":56},{"user_id":262,"name":"PilloF","steam_id":76561198088635943,"connected_time":1538000000000,"state":"active","ping":80},{"user_id":304,"name":"We are in a world of magic","steam_id":76561198104745492,"connected_time":80000000000,"state":"active","ping":180},{"user_id":298,"name":":)","steam_id":76561198103988618,"connected_time":345000000000,"state":"active","ping":65},{"user_id":306,"name":"bananen pizza","steam_id":76561199212990079,"connected_time":36000000000,"state":"active","ping":61},{"user_id":284,"name":"Amon Gus","steam_id":76561199094540960,"connected_time":561000000000,"state":"active","ping":56},{"user_id":302,"name":"JohnTraveltime","steam_id":76561199244281754,"connected_time":230000000000,"state":"active","ping":80},{"user_id":282,"name":"Why?","steam_id":76561198970833545,"connected_time":672000000000,"state":"active","ping":84},{"user_id":285,"name":"Kolar","steam_id":76561198108583895,"connected_time":558000000000,"state":"active","ping":45},{"user_id":291,"name":"Rezkey","steam_id":76561198206079048,"connected_time":478000000000,"state":"active","ping":46},{"user_id":287,"name":"aspect","steam_id":76561198315032412,"connected_time":556000000000,"state":"active","ping":58},{"user_id":288,"name":"fried","steam_id":76561198307522022,"connected_time":552000000000,"state":"active","ping":45},{"user_id":303,"name":"Sir Kiops","steam_id":76561198022769275,"connected_time":210000000000,"state":"active","ping":110},{"user_id":248,"name":"Moobin","steam_id":76561198099999156,"connected_time":3009000000000,"state":"active","ping":72},{"user_id":293,"name":"Packet","steam_id":76561199173195875,"connected_time":442000000000,"state":"active","ping":88},{"user_id":294,"name":"Bill_nye","steam_id":76561199216249214,"connected_time":439000000000,"state":"active","ping":140},{"user_id":296,"name":"Dimitri_612","steam_id":76561199223984137,"connected_time":395000000000,"state":"active","ping":45},{"user_id":297,"name":"sleuth","steam_id":76561198102752414,"connected_time":392000000000,"state":"active","ping":51}]},{"server_id":110,"name":"Uncletopia | Frankfurt | 2 | All Maps","name_short":"frk-2","host":"frk-1.de.uncletopia.com","port":27025,"enabled":true,"region":"eu","cc":"de","latitude":50.110924,"longitude":8.682127,"reserved":0,"last_update":"0001-01-01T00:00:00Z","name_a2s":"Uncletopia | Frankfurt | 2 | All Maps","protocol":17,"map":"pl_thundermountain","folder":"tf","game":"Team Fortress","app_id":440,"player_count":24,"max_players":24,"Bots":0,"server_type":"Dedicated","server_os":"Linux","password":true,"vac":true,"version":"7757534","steam_id":85568392924469990,"keywords":["nocrits","nodmgspread","payload","uncletopia"],"game_id":440,"stv_port":27026,"stv_name":"Uncletopia | Frankfurt | 2 | All Maps | STV","players":[{"user_id":268,"name":"Dr. Mario","steam_id":76561199125182282,"connected_time":382000000000,"state":"active","ping":47},{"user_id":248,"name":"Ates164","steam_id":76561199123074978,"connected_time":1690000000000,"state":"active","ping":55},{"user_id":266,"name":"Ander Escobar","steam_id":76561198335366902,"connected_time":562000000000,"state":"active","ping":100},{"user_id":271,"name":"Montrose","steam_id":76561198338911736,"connected_time":251000000000,"state":"active","ping":176},{"user_id":137,"name":"Tynnyri","steam_id":76561198075516541,"connected_time":8134000000000,"state":"active","ping":98},{"user_id":213,"name":"antlionguard","steam_id":76561198072747143,"connected_time":4294000000000,"state":"active","ping":90},{"user_id":267,"name":"TRVeloッ","steam_id":76561198280065050,"connected_time":450000000000,"state":"active","ping":129},{"user_id":270,"name":"Sniffz_2","steam_id":76561199433459491,"connected_time":298000000000,"state":"active","ping":67},{"user_id":239,"name":"critical hit enthusiast","steam_id":76561198233759232,"connected_time":2003000000000,"state":"active","ping":60},{"user_id":256,"name":"*^.^*","steam_id":76561198343506483,"connected_time":1318000000000,"state":"active","ping":90},{"user_id":272,"name":"System","steam_id":76561199442503973,"connected_time":249000000000,"state":"active","ping":46},{"user_id":264,"name":"Leibeigener","steam_id":76561199275478305,"connected_time":745000000000,"state":"active","ping":44},{"user_id":232,"name":"lvl. 50 honkler","steam_id":76561198061688660,"connected_time":2691000000000,"state":"active","ping":102},{"user_id":262,"name":"Fran","steam_id":76561199070516960,"connected_time":883000000000,"state":"active","ping":61},{"user_id":259,"name":".cheesmo","steam_id":76561199130359300,"connected_time":1149000000000,"state":"active","ping":90},{"user_id":273,"name":"lordwiadron420","steam_id":76561198073309557,"connected_time":239000000000,"state":"active","ping":74},{"user_id":263,"name":"whoppr","steam_id":76561198886757115,"connected_time":802000000000,"state":"active","ping":63},{"user_id":274,"name":"Autistic weeb","steam_id":76561198046786913,"connected_time":235000000000,"state":"active","ping":67},{"user_id":236,"name":"Mata","steam_id":76561198308191713,"connected_time":2138000000000,"state":"active","ping":58},{"user_id":258,"name":"Laki","steam_id":76561198126078953,"connected_time":1270000000000,"state":"active","ping":117},{"user_id":275,"name":"GRcrafter","steam_id":76561198372186715,"connected_time":233000000000,"state":"active","ping":102},{"user_id":276,"name":"Raulca25","steam_id":76561199068256964,"connected_time":217000000000,"state":"active","ping":89},{"user_id":277,"name":"Zombie LeChuck","steam_id":76561198263049079,"connected_time":209000000000,"state":"active","ping":59},{"user_id":278,"name":"lun4tic","steam_id":76561198850496647,"connected_time":208000000000,"state":"active","ping":61}]},{"server_id":308,"name":"Uncletopia | Frankfurt | 3 | All Maps","name_short":"frk-3","host":"frk-1.de.uncletopia.com","port":27035,"enabled":true,"region":"eu","cc":"de","latitude":50.110924,"longitude":8.682127,"reserved":0,"last_update":"0001-01-01T00:00:00Z","name_a2s":"Uncletopia | Frankfurt | 3 | All Maps","protocol":17,"map":"koth_highpass","folder":"tf","game":"Team Fortress","app_id":440,"player_count":0,"max_players":24,"Bots":0,"server_type":"Dedicated","server_os":"Linux","password":true,"vac":true,"version":"7757534","steam_id":85568392924504274,"keywords":["cp","nocrits","nodmgspread","uncletopia"],"game_id":440,"stv_port":27036,"stv_name":"Uncletopia | Frankfurt | 3 | All Maps | STV","players":null},{"server_id":309,"name":"Uncletopia | Frankfurt | 4 | All Maps","name_short":"frk-4","host":"frk-1.de.uncletopia.com","port":27045,"enabled":true,"region":"eu","cc":"de","latitude":50.110924,"longitude":8.682127,"reserved":0,"last_update":"0001-01-01T00:00:00Z","name_a2s":"Uncletopia | Frankfurt | 4 | All Maps","protocol":17,"map":"pl_snowycoast","folder":"tf","game":"Team Fortress","app_id":440,"player_count":0,"max_players":24,"Bots":0,"server_type":"Dedicated","server_os":"Linux","password":true,"vac":true,"version":"7757534","steam_id":85568392924504275,"keywords":["nocrits","nodmgspread","payload","uncletopia"],"game_id":440,"stv_port":27046,"stv_name":"Uncletopia | Frankfurt | 4 | All Maps | STV","players":null},{"server_id":310,"name":"Uncletopia | Frankfurt | 5 | All Maps","name_short":"frk-5","host":"frk-1.de.uncletopia.com","port":27055,"enabled":true,"region":"eu","cc":"de","latitude":50.110924,"longitude":8.682127,"reserved":0,"last_update":"0001-01-01T00:00:00Z","name_a2s":"Uncletopia | Frankfurt | 5 | All Maps","protocol":17,"map":"pl_badwater","folder":"tf","game":"Team Fortress","app_id":440,"player_count":24,"max_players":24,"Bots":0,"server_type":"Dedicated","server_os":"Linux","password":true,"vac":true,"version":"7757534","steam_id":85568392924504277,"keywords":["nocrits","nodmgspread","payload","uncletopia"],"game_id":440,"stv_port":27056,"stv_name":"Uncletopia | Frankfurt | 5 | All Maps | STV","players":[{"user_id":8,"name":"richardhpg","steam_id":76561199027087074,"connected_time":3628000000000,"state":"active","ping":60},{"user_id":60,"name":"Nanitus","steam_id":76561198241772340,"connected_time":460000000000,"state":"active","ping":102},{"user_id":58,"name":"(wm) Das Fleisch","steam_id":76561198001250715,"connected_time":508000000000,"state":"active","ping":54},{"user_id":40,"name":"Dolcelatte","steam_id":76561198038501770,"connected_time":1651000000000,"state":"active","ping":55},{"user_id":41,"name":"Kvicha Kvaratskhelia","steam_id":76561198179339326,"connected_time":1634000000000,"state":"active","ping":86},{"user_id":64,"name":"Minimi","steam_id":76561198873850443,"connected_time":121000000000,"state":"active","ping":60},{"user_id":66,"name":"heavy sings (real)","steam_id":76561199023804405,"connected_time":67000000000,"state":"active","ping":75},{"user_id":59,"name":"󠀡󠀡","steam_id":76561198015585266,"connected_time":505000000000,"state":"active","ping":74},{"user_id":44,"name":"DeCypher","steam_id":76561198171992619,"connected_time":1550000000000,"state":"active","ping":61},{"user_id":22,"name":"NABER","steam_id":76561198831465151,"connected_time":2468000000000,"state":"active","ping":78},{"user_id":62,"name":"Tsar Bombastic","steam_id":76561198185444307,"connected_time":142000000000,"state":"active","ping":53},{"user_id":63,"name":"Booba","steam_id":76561198433903732,"connected_time":142000000000,"state":"active","ping":93},{"user_id":25,"name":"Guy with squares as username","steam_id":76561198269524918,"connected_time":2296000000000,"state":"active","ping":58},{"user_id":61,"name":"onku","steam_id":76561199230709660,"connected_time":343000000000,"state":"active","ping":46},{"user_id":27,"name":"toothpaste vaper","steam_id":76561198078458780,"connected_time":2169000000000,"state":"active","ping":50},{"user_id":29,"name":"this is a cat","steam_id":76561199407659065,"connected_time":2078000000000,"state":"active","ping":132},{"user_id":54,"name":"-makina","steam_id":76561198273042780,"connected_time":1187000000000,"state":"active","ping":60},{"user_id":31,"name":"Sprottel","steam_id":76561198362958293,"connected_time":2000000000000,"state":"active","ping":46},{"user_id":46,"name":"Dangerousbros","steam_id":76561198088952519,"connected_time":1477000000000,"state":"active","ping":45},{"user_id":45,"name":"ZazyLou_","steam_id":76561198411134617,"connected_time":1530000000000,"state":"active","ping":67},{"user_id":34,"name":"Stabbyratbag","steam_id":76561198119531916,"connected_time":1903000000000,"state":"active","ping":59},{"user_id":67,"name":"Farmercy","steam_id":76561198000038039,"connected_time":39000000000,"state":"active","ping":60},{"user_id":57,"name":"Sandvich Gaming","steam_id":76561199079493666,"connected_time":741000000000,"state":"active","ping":99},{"user_id":37,"name":"SirNeeco \u003c3","steam_id":76561198103014203,"connected_time":1860000000000,"state":"active","ping":56}]},{"server_id":311,"name":"Uncletopia | Frankfurt | 6 | All Maps","name_short":"frk-6","host":"frk-1.de.uncletopia.com","port":27065,"enabled":true,"region":"eu","cc":"de","latitude":50.110924,"longitude":8.682127,"reserved":0,"last_update":"0001-01-01T00:00:00Z","name_a2s":"Uncletopia | Frankfurt | 6 | All Maps","protocol":17,"map":"cp_snakewater_final1","folder":"tf","game":"Team Fortress","app_id":440,"player_count":3,"max_players":24,"Bots":0,"server_type":"Dedicated","server_os":"Linux","password":true,"vac":true,"version":"7757534","steam_id":85568392924504278,"keywords":["cp","nocrits","nodmgspread","uncletopia"],"game_id":440,"stv_port":27066,"stv_name":"Uncletopia | Frankfurt | 6 | All Maps | STV","players":[{"user_id":17,"name":"uzuki95","steam_id":76561199076733290,"connected_time":2921000000000,"state":"active","ping":51},{"user_id":18,"name":"Xentax5","steam_id":76561198975729084,"connected_time":2920000000000,"state":"active","ping":56},{"user_id":25,"name":"heyjohn14","steam_id":76561198840831773,"connected_time":431000000000,"state":"active","ping":87}]},{"server_id":23,"name":"Uncletopia | Frankfurt | 7 | Stopwatch Beta","name_short":"frk-7","host":"frk-1.de.uncletopia.com","port":27075,"enabled":true,"region":"eu","cc":"de","latitude":50.110924,"longitude":8.682127,"reserved":0,"last_update":"0001-01-01T00:00:00Z","name_a2s":"Uncletopia | Frankfurt | 7 | Stopwatch Beta","protocol":17,"map":"pl_borneo","folder":"tf","game":"Team Fortress","app_id":440,"player_count":0,"max_players":24,"Bots":0,"server_type":"Dedicated","server_os":"Linux","password":true,"vac":true,"version":"7757534","steam_id":85568392924742827,"keywords":["nocrits","nodmgspread","payload","uncletopia"],"game_id":440,"stv_port":27076,"stv_name":"Uncletopia | Frankfurt | 7 | Stopwatch Beta | STV","players":null},{"server_id":24,"name":"Uncletopia | Frankfurt | 8 | Community","name_short":"frk-8","host":"frk-1.de.uncletopia.com","port":27085,"enabled":true,"region":"eu","cc":"de","latitude":50.110924,"longitude":8.682127,"reserved":0,"last_update":"0001-01-01T00:00:00Z","name_a2s":"Uncletopia | Frankfurt | 8 | Community","protocol":17,"map":"koth_cascade","folder":"tf","game":"Team Fortress","app_id":440,"player_count":0,"max_players":24,"Bots":0,"server_type":"Dedicated","server_os":"Linux","password":true,"vac":true,"version":"7757534","steam_id":85568392924742828,"keywords":["cp","nocrits","nodmgspread","uncletopia"],"game_id":440,"stv_port":27086,"stv_name":"Uncletopia | Frankfurt | 8 | Community | STV","players":null},{"server_id":202,"name":"Uncletopia | Hong Kong | 1 | All Maps","name_short":"hgk-1","host":"hgk-1.hk.uncletopia.com","port":27015,"enabled":true,"region":"asia","cc":"hk","latitude":22.302711,"longitude":114.177216,"reserved":0,"last_update":"0001-01-01T00:00:00Z","name_a2s":"Uncletopia | Hong Kong | 1 | All Maps","protocol":17,"map":"pl_pier","folder":"tf","game":"Team Fortress","app_id":440,"player_count":25,"max_players":24,"Bots":0,"server_type":"Dedicated","server_os":"Linux","password":true,"vac":true,"version":"7757534","steam_id":85568392924494504,"keywords":["nocrits","nodmgspread","payload","uncletopia"],"game_id":440,"stv_port":27016,"stv_name":"Uncletopia | Hong Kong | 1 | All Maps | STV","players":[{"user_id":618,"name":"silverhouse7","steam_id":76561198349634906,"connected_time":1087000000000,"state":"active","ping":74},{"user_id":651,"name":"Rudy","steam_id":76561198089227368,"connected_time":485000000000,"state":"active","ping":112},{"user_id":518,"name":":D","steam_id":76561198009692495,"connected_time":2756000000000,"state":"active","ping":75},{"user_id":654,"name":"doctor morbin' (real)","steam_id":76561199365241695,"connected_time":468000000000,"state":"active","ping":78},{"user_id":659,"name":"gilsomnia","steam_id":76561198830813639,"connected_time":401000000000,"state":"active","ping":126},{"user_id":438,"name":"Corhix","steam_id":76561198968706355,"connected_time":6412000000000,"state":"active","ping":53},{"user_id":624,"name":"PyroByte","steam_id":76561198272083196,"connected_time":970000000000,"state":"active","ping":65},{"user_id":448,"name":"uptriste","steam_id":76561198158666692,"connected_time":5658000000000,"state":"active","ping":34},{"user_id":573,"name":"JayJ","steam_id":76561198324008555,"connected_time":1869000000000,"state":"active","ping":101},{"user_id":561,"name":"8091573212","steam_id":76561198968776439,"connected_time":1972000000000,"state":"active","ping":87},{"user_id":459,"name":"SunShine","steam_id":76561198323642446,"connected_time":4726000000000,"state":"active","ping":106},{"user_id":507,"name":"mspwurb","steam_id":76561199089208647,"connected_time":2978000000000,"state":"active","ping":88},{"user_id":576,"name":"Turbo.RF4","steam_id":76561199061012484,"connected_time":1787000000000,"state":"active","ping":61},{"user_id":465,"name":"A Toilet","steam_id":76561198148278657,"connected_time":4253000000000,"state":"active","ping":203},{"user_id":676,"name":":)","steam_id":76561198437941450,"connected_time":145000000000,"state":"active","ping":86},{"user_id":466,"name":"Zacy","steam_id":76561198114841670,"connected_time":4253000000000,"state":"active","ping":69},{"user_id":565,"name":"eeeeeee","steam_id":76561199205561410,"connected_time":1936000000000,"state":"active","ping":117},{"user_id":591,"name":"mister beast","steam_id":76561198346128694,"connected_time":1533000000000,"state":"active","ping":82},{"user_id":566,"name":"Sex","steam_id":76561198871697359,"connected_time":1933000000000,"state":"active","ping":79},{"user_id":596,"name":"heaviest f2p","steam_id":76561199209331489,"connected_time":1404000000000,"state":"active","ping":111},{"user_id":610,"name":"RinRin the pansexual witch","steam_id":76561199024333803,"connected_time":1254000000000,"state":"active","ping":110},{"user_id":570,"name":"母の肉団子","steam_id":76561198069561896,"connected_time":1904000000000,"state":"active","ping":37},{"user_id":657,"name":"Saffron","steam_id":76561199025320247,"connected_time":431000000000,"state":"active","ping":72},{"user_id":662,"name":"AmaiToxic","steam_id":76561199122491157,"connected_time":361000000000,"state":"active","ping":179},{"user_id":560,"name":"p1st0n","steam_id":76561198992723983,"connected_time":1980000000000,"state":"active","ping":92}]},{"server_id":1,"name":"Uncletopia | Los Angeles | 1 | All Maps","name_short":"lax-1","host":"lax-1.us.uncletopia.com","port":27015,"enabled":true,"region":"us-west","cc":"us","latitude":33.94279,"longitude":-118.41004,"reserved":0,"last_update":"0001-01-01T00:00:00Z","name_a2s":"Uncletopia | Los Angeles | 1 | All Maps","protocol":17,"map":"cp_sunshine","folder":"tf","game":"Team Fortress","app_id":440,"player_count":0,"max_players":24,"Bots":0,"server_type":"Dedicated","server_os":"Linux","password":true,"vac":true,"version":"7757534","steam_id":85568392924469991,"keywords":["cp","nocrits","nodmgspread","uncletopia"],"game_id":440,"stv_port":27016,"stv_name":"Uncletopia | Los Angeles | 1 | All Maps | STV","players":null},{"server_id":112,"name":"Uncletopia | Los Angeles | 2 | All Maps","name_short":"lax-2","host":"lax-1.us.uncletopia.com","port":27025,"enabled":true,"region":"us-west","cc":"us","latitude":33.94279,"longitude":-118.41004,"reserved":0,"last_update":"0001-01-01T00:00:00Z","name_a2s":"Uncletopia | Los Angeles | 2 | All Maps","protocol":17,"map":"pl_borneo","folder":"tf","game":"Team Fortress","app_id":440,"player_count":0,"max_players":24,"Bots":0,"server_type":"Dedicated","server_os":"Linux","password":true,"vac":true,"version":"7757534","steam_id":85568392924469992,"keywords":["nocrits","nodmgspread","payload","uncletopia"],"game_id":440,"stv_port":27026,"stv_name":"Uncletopia | Los Angeles | 2 | All Maps | STV","players":null},{"server_id":324,"name":"Uncletopia | Los Angeles | 3 | All Maps","name_short":"lax-3","host":"lax-1.us.uncletopia.com","port":27035,"enabled":true,"region":"us-west","cc":"us","latitude":33.94279,"longitude":-118.41004,"reserved":0,"last_update":"0001-01-01T00:00:00Z","name_a2s":"Uncletopia | Los Angeles | 3 | All Maps","protocol":17,"map":"cp_sunshine","folder":"tf","game":"Team Fortress","app_id":440,"player_count":0,"max_players":24,"Bots":0,"server_type":"Dedicated","server_os":"Linux","password":true,"vac":true,"version":"7757534","steam_id":85568392924510198,"keywords":["cp","nocrits","nodmgspread","uncletopia"],"game_id":440,"stv_port":27036,"stv_name":"Uncletopia | Los Angeles | 3 | All Maps | STV","players":null},{"server_id":25,"name":"Uncletopia | Los Angeles | 4 | Stopwatch Beta","name_short":"lax-4","host":"lax-1.us.uncletopia.com","port":27045,"enabled":true,"region":"us-west","cc":"us","latitude":33.94279,"longitude":-118.41004,"reserved":0,"last_update":"0001-01-01T00:00:00Z","name_a2s":"Uncletopia | Los Angeles | 4 | Stopwatch Beta","protocol":17,"map":"koth_viaduct","folder":"tf","game":"Team Fortress","app_id":440,"player_count":0,"max_players":24,"Bots":0,"server_type":"Dedicated","server_os":"Linux","password":true,"vac":true,"version":"7757534","steam_id":85568392924510199,"keywords":["cp","nocrits","nodmgspread","uncletopia"],"game_id":440,"stv_port":27046,"stv_name":"Uncletopia | Los Angeles | 4 | Stopwatch Beta | STV","players":null},{"server_id":11,"name":"Uncletopia | London | 1 | All Maps","name_short":"lon-1","host":"lon-1.uk.uncletopia.com","port":27015,"enabled":true,"region":"eu","cc":"gb","latitude":51.509865,"longitude":-0.118092,"reserved":0,"last_update":"0001-01-01T00:00:00Z","name_a2s":"Uncletopia | London | 1 | All Maps","protocol":17,"map":"cp_sunshine","folder":"tf","game":"Team Fortress","app_id":440,"player_count":21,"max_players":24,"Bots":0,"server_type":"Dedicated","server_os":"Linux","password":true,"vac":true,"version":"7757534","steam_id":85568392924367362,"keywords":["cp","nocrits","nodmgspread","uncletopia"],"game_id":440,"stv_port":27016,"stv_name":"Uncletopia | London | 1 | All Maps | STV","players":[{"user_id":275,"name":"stonebum","steam_id":76561198057004606,"connected_time":851000000000,"state":"active","ping":55},{"user_id":283,"name":"Whirlwind","steam_id":76561198942024930,"connected_time":757000000000,"state":"active","ping":110},{"user_id":290,"name":"fénix","steam_id":76561198083199151,"connected_time":109000000000,"state":"active","ping":56},{"user_id":286,"name":"Sipsu","steam_id":76561198059424107,"connected_time":549000000000,"state":"active","ping":77},{"user_id":288,"name":"Scutchy","steam_id":76561198104431220,"connected_time":180000000000,"state":"active","ping":55},{"user_id":278,"name":"Cossack","steam_id":76561198076661772,"connected_time":813000000000,"state":"active","ping":85},{"user_id":258,"name":"Freeman","steam_id":76561198094288793,"connected_time":2210000000000,"state":"active","ping":65},{"user_id":279,"name":"Guru","steam_id":76561198093853069,"connected_time":812000000000,"state":"active","ping":60},{"user_id":256,"name":"Autumnsky","steam_id":76561198055161203,"connected_time":2268000000000,"state":"active","ping":60},{"user_id":254,"name":"asdlækasd 70 FPS KING","steam_id":76561198870764276,"connected_time":2293000000000,"state":"active","ping":60},{"user_id":287,"name":"Aaron","steam_id":76561197990046953,"connected_time":222000000000,"state":"active","ping":71},{"user_id":255,"name":"SoupER","steam_id":76561198063056668,"connected_time":2284000000000,"state":"active","ping":46},{"user_id":281,"name":"Shelly1052","steam_id":76561199043551053,"connected_time":790000000000,"state":"active","ping":37},{"user_id":273,"name":"Vinhal Keller","steam_id":76561198145589528,"connected_time":1120000000000,"state":"active","ping":58},{"user_id":292,"name":"GAME GAMING","steam_id":76561199222119901,"connected_time":58000000000,"state":"active","ping":186},{"user_id":244,"name":"MaypulSoyrup","steam_id":76561199213966821,"connected_time":2555000000000,"state":"active","ping":72},{"user_id":217,"name":"OH_","steam_id":76561197986134103,"connected_time":4845000000000,"state":"active","ping":35},{"user_id":264,"name":"TETRAGRAMMATON","steam_id":76561198286085100,"connected_time":2015000000000,"state":"active","ping":86},{"user_id":247,"name":"suna militisto","steam_id":76561198352926998,"connected_time":2372000000000,"state":"active","ping":105},{"user_id":274,"name":"✪ qua ✪","steam_id":76561198066408333,"connected_time":868000000000,"state":"active","ping":86},{"user_id":285,"name":"poopless joe","steam_id":76561198133532980,"connected_time":596000000000,"state":"active","ping":48}]},{"server_id":114,"name":"Uncletopia | London | 2 | All Maps","name_short":"lon-2","host":"lon-1.uk.uncletopia.com","port":27025,"enabled":true,"region":"eu","cc":"gb","latitude":51.509865,"longitude":-0.118092,"reserved":0,"last_update":"0001-01-01T00:00:00Z","name_a2s":"Uncletopia | London | 2 | All Maps","protocol":17,"map":"pl_snowycoast","folder":"tf","game":"Team Fortress","app_id":440,"player_count":24,"max_players":24,"Bots":0,"server_type":"Dedicated","server_os":"Linux","password":true,"vac":true,"version":"7757534","steam_id":85568392924470941,"keywords":["nocrits","nodmgspread","payload","uncletopia"],"game_id":440,"stv_port":27026,"stv_name":"Uncletopia | London | 2 | All Maps | STV","players":[{"user_id":365,"name":"Ma͡xim͜us","steam_id":76561197970986094,"connected_time":4305000000000,"state":"active","ping":61},{"user_id":407,"name":"dr drip.","steam_id":76561198393681429,"connected_time":2241000000000,"state":"active","ping":132},{"user_id":436,"name":"bad at tf2 episode 2","steam_id":76561198002451113,"connected_time":667000000000,"state":"active","ping":98},{"user_id":424,"name":"kbbq","steam_id":76561198346638308,"connected_time":1148000000000,"state":"active","ping":59},{"user_id":423,"name":"skilltissues","steam_id":76561198025828664,"connected_time":1166000000000,"state":"active","ping":59},{"user_id":425,"name":"Joeseph Gobble Dick","steam_id":76561199011576146,"connected_time":1117000000000,"state":"active","ping":64},{"user_id":437,"name":"Fish 'n' Chips","steam_id":76561198033476886,"connected_time":660000000000,"state":"active","ping":50},{"user_id":438,"name":"lerodai","steam_id":76561199084810384,"connected_time":658000000000,"state":"active","ping":132},{"user_id":418,"name":"Lucky Luke","steam_id":76561198194287034,"connected_time":1527000000000,"state":"active","ping":97},{"user_id":312,"name":"john fortress","steam_id":76561198013237629,"connected_time":7812000000000,"state":"active","ping":81},{"user_id":402,"name":"Rapar","steam_id":76561198140741944,"connected_time":2595000000000,"state":"active","ping":133},{"user_id":376,"name":"Swayer","steam_id":76561198056192460,"connected_time":3872000000000,"state":"active","ping":62},{"user_id":412,"name":"TheKindleTheory","steam_id":76561198010230101,"connected_time":1989000000000,"state":"active","ping":55},{"user_id":427,"name":"Acidpets","steam_id":76561198875421227,"connected_time":1066000000000,"state":"active","ping":58},{"user_id":439,"name":"Miton","steam_id":76561197970323209,"connected_time":653000000000,"state":"active","ping":90},{"user_id":428,"name":"swueuws","steam_id":76561198020716743,"connected_time":1032000000000,"state":"active","ping":64},{"user_id":440,"name":"average neko lover","steam_id":76561198315388141,"connected_time":261000000000,"state":"active","ping":44},{"user_id":374,"name":"Thesis","steam_id":76561199308784371,"connected_time":4037000000000,"state":"active","ping":58},{"user_id":430,"name":"Stoned","steam_id":76561198334592485,"connected_time":1005000000000,"state":"active","ping":84},{"user_id":431,"name":"Natpad","steam_id":76561198842124497,"connected_time":990000000000,"state":"active","ping":71},{"user_id":421,"name":"LordTrap.exe","steam_id":76561198318089716,"connected_time":1413000000000,"state":"active","ping":49},{"user_id":432,"name":"Remyie","steam_id":76561198131031404,"connected_time":948000000000,"state":"active","ping":92},{"user_id":400,"name":"Uncle Owen","steam_id":76561198157999291,"connected_time":2945000000000,"state":"active","ping":83},{"user_id":435,"name":"PrivatePengu","steam_id":76561198100112667,"connected_time":718000000000,"state":"active","ping":58}]},{"server_id":320,"name":"Uncletopia | London | 3 | All Maps","name_short":"lon-3","host":"lon-1.uk.uncletopia.com","port":27035,"enabled":true,"region":"eu","cc":"gb","latitude":51.509865,"longitude":-0.118092,"reserved":0,"last_update":"0001-01-01T00:00:00Z","name_a2s":"Uncletopia | London | 3 | All Maps","protocol":17,"map":"pl_borneo","folder":"tf","game":"Team Fortress","app_id":440,"player_count":23,"max_players":24,"Bots":0,"server_type":"Dedicated","server_os":"Linux","password":true,"vac":true,"version":"7757534","steam_id":85568392924510192,"keywords":["nocrits","nodmgspread","payload","uncletopia"],"game_id":440,"stv_port":27036,"stv_name":"Uncletopia | London | 3 | All Maps | STV","players":[{"user_id":87,"name":"hmscole09","steam_id":76561198811362788,"connected_time":4661000000000,"state":"active","ping":56},{"user_id":115,"name":".::[SerafeTTiN]::.","steam_id":76561198009471724,"connected_time":1970000000000,"state":"active","ping":91},{"user_id":107,"name":"bANji","steam_id":76561198108898161,"connected_time":2760000000000,"state":"active","ping":56},{"user_id":71,"name":"Pan Pan","steam_id":76561199074670515,"connected_time":5609000000000,"state":"active","ping":85},{"user_id":121,"name":"Zetself","steam_id":76561198085251568,"connected_time":1628000000000,"state":"active","ping":67},{"user_id":136,"name":"TK","steam_id":76561199384193338,"connected_time":972000000000,"state":"active","ping":69},{"user_id":97,"name":"Gnarville","steam_id":76561198006373329,"connected_time":4401000000000,"state":"active","ping":47},{"user_id":131,"name":"Firms","steam_id":76561198845453012,"connected_time":1091000000000,"state":"active","ping":74},{"user_id":90,"name":"rat performance","steam_id":76561198065854668,"connected_time":4564000000000,"state":"active","ping":40},{"user_id":140,"name":"triangle","steam_id":76561198046838168,"connected_time":15000000000,"state":"active","ping":59},{"user_id":128,"name":"X45Y","steam_id":76561198112534025,"connected_time":1135000000000,"state":"active","ping":47},{"user_id":110,"name":"SexyHotChocolate","steam_id":76561198164087698,"connected_time":2499000000000,"state":"active","ping":88},{"user_id":93,"name":"big retard player","steam_id":76561198342570528,"connected_time":4534000000000,"state":"active","ping":60},{"user_id":139,"name":"Cars","steam_id":76561198173329977,"connected_time":224000000000,"state":"active","ping":48},{"user_id":113,"name":"Mao Zedong","steam_id":76561198347020945,"connected_time":2274000000000,"state":"active","ping":91},{"user_id":133,"name":"Bounter","steam_id":76561198072614188,"connected_time":1061000000000,"state":"active","ping":76},{"user_id":124,"name":"yuta","steam_id":76561198077922992,"connected_time":1534000000000,"state":"active","ping":39},{"user_id":111,"name":"mumbler","steam_id":76561197970641239,"connected_time":2459000000000,"state":"active","ping":60},{"user_id":120,"name":"jge","steam_id":76561198123186387,"connected_time":1725000000000,"state":"active","ping":66},{"user_id":116,"name":"Anri Okita's Massive Milkers","steam_id":76561199186352720,"connected_time":1929000000000,"state":"active","ping":53},{"user_id":95,"name":"Laiker","steam_id":76561198163560309,"connected_time":4529000000000,"state":"active","ping":60},{"user_id":117,"name":"Kraiti","steam_id":76561198847296908,"connected_time":1923000000000,"state":"active","ping":84},{"user_id":138,"name":"Mr. Pickles #SaveTF2","steam_id":76561199210183560,"connected_time":327000000000,"state":"active","ping":141}]},{"server_id":321,"name":"Uncletopia | London | 4 | All Maps","name_short":"lon-4","host":"lon-1.uk.uncletopia.com","port":27045,"enabled":true,"region":"eu","cc":"gb","latitude":51.509865,"longitude":-0.118092,"reserved":0,"last_update":"0001-01-01T00:00:00Z","name_a2s":"Uncletopia | London | 4 | All Maps","protocol":17,"map":"pl_badwater","folder":"tf","game":"Team Fortress","app_id":440,"player_count":24,"max_players":24,"Bots":0,"server_type":"Dedicated","server_os":"Linux","password":true,"vac":true,"version":"7757534","steam_id":85568392924510193,"keywords":["nocrits","nodmgspread","payload","uncletopia"],"game_id":440,"stv_port":27046,"stv_name":"Uncletopia | London | 4 | All Maps | STV","players":[{"user_id":69,"name":"Miles","steam_id":76561198084891833,"connected_time":861000000000,"state":"active","ping":50},{"user_id":73,"name":"The Weakest Brazilian Male","steam_id":76561198273215396,"connected_time":611000000000,"state":"active","ping":35},{"user_id":6,"name":"Daud","steam_id":76561199177668753,"connected_time":6134000000000,"state":"active","ping":42},{"user_id":42,"name":"barry","steam_id":76561198324316160,"connected_time":2456000000000,"state":"active","ping":59},{"user_id":53,"name":"Blacksheep","steam_id":76561198019621063,"connected_time":1536000000000,"state":"active","ping":54},{"user_id":49,"name":"big hoops","steam_id":76561198004703799,"connected_time":1919000000000,"state":"active","ping":45},{"user_id":79,"name":"gouvie1","steam_id":76561198346584425,"connected_time":162000000000,"state":"active","ping":77},{"user_id":74,"name":"pepper","steam_id":76561198059782462,"connected_time":526000000000,"state":"active","ping":60},{"user_id":80,"name":"FairlyFatFungus","steam_id":76561199152828854,"connected_time":161000000000,"state":"active","ping":54},{"user_id":81,"name":"Kahvi","steam_id":76561198723244199,"connected_time":157000000000,"state":"active","ping":75},{"user_id":77,"name":"The Dark Destoryer","steam_id":76561198831440921,"connected_time":336000000000,"state":"active","ping":23},{"user_id":75,"name":"the joy of recycling","steam_id":76561198415564349,"connected_time":525000000000,"state":"active","ping":62},{"user_id":45,"name":"Skeletros","steam_id":76561198130969152,"connected_time":2324000000000,"state":"active","ping":151},{"user_id":37,"name":"Banehallow","steam_id":76561198020385353,"connected_time":2856000000000,"state":"active","ping":69},{"user_id":82,"name":"jovi_","steam_id":76561198449280552,"connected_time":147000000000,"state":"active","ping":53},{"user_id":83,"name":"Catface","steam_id":76561198963378933,"connected_time":144000000000,"state":"active","ping":44},{"user_id":60,"name":"jabar7","steam_id":76561198055137986,"connected_time":1392000000000,"state":"active","ping":75},{"user_id":61,"name":"Printypro","steam_id":76561199063254804,"connected_time":1333000000000,"state":"active","ping":170},{"user_id":86,"name":"LengthyFollicle","steam_id":76561198041266132,"connected_time":28000000000,"state":"active","ping":165},{"user_id":63,"name":"silicon based life form","steam_id":76561199127121346,"connected_time":1276000000000,"state":"active","ping":54},{"user_id":64,"name":"Een schaap zonder slaap","steam_id":76561198084808410,"connected_time":1274000000000,"state":"active","ping":56},{"user_id":71,"name":"Edla","steam_id":76561198062815315,"connected_time":711000000000,"state":"active","ping":109},{"user_id":84,"name":"Priceybay","steam_id":76561198055389492,"connected_time":139000000000,"state":"active","ping":37},{"user_id":85,"name":"Saint","steam_id":76561198003296382,"connected_time":118000000000,"state":"active","ping":79}]},{"server_id":21,"name":"Uncletopia | London | 5 | All Maps","name_short":"lon-5","host":"lon-1.uk.uncletopia.com","port":27055,"enabled":true,"region":"eu","cc":"gb","latitude":51.509865,"longitude":-0.118092,"reserved":0,"last_update":"0001-01-01T00:00:00Z","name_a2s":"Uncletopia | London | 5 | All Maps","protocol":17,"map":"cp_dustbowl","folder":"tf","game":"Team Fortress","app_id":440,"player_count":3,"max_players":24,"Bots":0,"server_type":"Dedicated","server_os":"Linux","password":true,"vac":true,"version":"7757534","steam_id":85568392924742829,"keywords":["cp","nocrits","nodmgspread","uncletopia"],"game_id":440,"stv_port":27056,"stv_name":"Uncletopia | London | 5 | All Maps | STV","players":[{"user_id":24,"name":"Beansman","steam_id":76561199181417898,"connected_time":399000000000,"state":"active","ping":58},{"user_id":25,"name":"agenthero9","steam_id":76561198796328190,"connected_time":368000000000,"state":"active","ping":54},{"user_id":26,"name":"_Oskar_","steam_id":76561199021840818,"connected_time":191000000000,"state":"active","ping":58}]},{"server_id":22,"name":"Uncletopia | London | 6 | All Maps","name_short":"lon-6","host":"lon-1.uk.uncletopia.com","port":27065,"enabled":true,"region":"eu","cc":"gb","latitude":51.509865,"longitude":-0.118092,"reserved":0,"last_update":"0001-01-01T00:00:00Z","name_a2s":"Uncletopia | London | 6 | All Maps","protocol":17,"map":"cp_altitude","folder":"tf","game":"Team Fortress","app_id":440,"player_count":24,"max_players":24,"Bots":0,"server_type":"Dedicated","server_os":"Linux","password":true,"vac":true,"version":"7757534","steam_id":85568392924742830,"keywords":["cp","nocrits","nodmgspread","uncletopia"],"game_id":440,"stv_port":27066,"stv_name":"Uncletopia | London | 6 | All Maps | STV","players":[{"user_id":226,"name":"Dude Time","steam_id":76561198092991160,"connected_time":168000000000,"state":"active","ping":165},{"user_id":227,"name":"Marl Karx","steam_id":76561198396797516,"connected_time":147000000000,"state":"active","ping":62},{"user_id":216,"name":"pizza time","steam_id":76561199015899793,"connected_time":1032000000000,"state":"active","ping":53},{"user_id":212,"name":"Fuvuk","steam_id":76561198044458593,"connected_time":1320000000000,"state":"active","ping":100},{"user_id":155,"name":"X-tis","steam_id":76561198043837480,"connected_time":4623000000000,"state":"active","ping":65},{"user_id":205,"name":"Fat Pigeon","steam_id":76561198817940142,"connected_time":1941000000000,"state":"active","ping":45},{"user_id":204,"name":"Laxslow","steam_id":76561198065361846,"connected_time":1948000000000,"state":"active","ping":67},{"user_id":220,"name":"Nonhuman","steam_id":76561198062002340,"connected_time":653000000000,"state":"active","ping":89},{"user_id":209,"name":"wicc","steam_id":76561198893915644,"connected_time":1612000000000,"state":"active","ping":75},{"user_id":210,"name":"LOBZIK","steam_id":76561198114830120,"connected_time":1611000000000,"state":"active","ping":79},{"user_id":221,"name":"D3m0no","steam_id":76561198183267067,"connected_time":642000000000,"state":"active","ping":60},{"user_id":108,"name":"Fit Crow mark","steam_id":76561198309246388,"connected_time":7664000000000,"state":"active","ping":54},{"user_id":164,"name":"Crab","steam_id":76561198366797226,"connected_time":4196000000000,"state":"active","ping":99},{"user_id":177,"name":"Madree","steam_id":76561199443143457,"connected_time":3680000000000,"state":"active","ping":105},{"user_id":213,"name":"Ripper","steam_id":76561197977547003,"connected_time":1309000000000,"state":"active","ping":89},{"user_id":219,"name":"beurgeur","steam_id":76561198872426314,"connected_time":672000000000,"state":"active","ping":38},{"user_id":223,"name":"drew","steam_id":76561198012304706,"connected_time":598000000000,"state":"active","ping":107},{"user_id":218,"name":"Minigrim0","steam_id":76561198087819466,"connected_time":778000000000,"state":"active","ping":79},{"user_id":228,"name":"Sverhrazym","steam_id":76561198868708664,"connected_time":12000000000,"state":"spawning","ping":98},{"user_id":183,"name":"Xilef TV","steam_id":76561198454267023,"connected_time":3323000000000,"state":"active","ping":105},{"user_id":214,"name":"FackaYou","steam_id":76561198193036090,"connected_time":1254000000000,"state":"active","ping":65},{"user_id":224,"name":"FluiDCobRa™","steam_id":76561198142461723,"connected_time":590000000000,"state":"active","ping":108},{"user_id":173,"name":"InsectKing","steam_id":76561199013519071,"connected_time":4036000000000,"state":"active","ping":41},{"user_id":181,"name":"Bruschetta","steam_id":76561198251927162,"connected_time":3561000000000,"state":"active","ping":73}]},{"server_id":40,"name":"Uncletopia | London | 7 | No Payload","name_short":"lon-7","host":"lon-1.uk.uncletopia.com","port":27075,"enabled":true,"region":"eu","cc":"gb","latitude":51.509865,"longitude":-0.118092,"reserved":0,"last_update":"0001-01-01T00:00:00Z","name_a2s":"Uncletopia | London | 7 | No Payload","protocol":17,"map":"cp_badlands","folder":"tf","game":"Team Fortress","app_id":440,"player_count":21,"max_players":24,"Bots":0,"server_type":"Dedicated","server_os":"Linux","password":true,"vac":true,"version":"7757534","steam_id":85568392924964314,"keywords":["cp","nocrits","nodmgspread","uncletopia"],"game_id":440,"stv_port":27076,"stv_name":"Uncletopia | London | 7 | No Payload | STV","players":[{"user_id":215,"name":"n-ski","steam_id":76561198020550849,"connected_time":281000000000,"state":"active","ping":84},{"user_id":192,"name":"TsSAR","steam_id":76561199167124836,"connected_time":588000000000,"state":"active","ping":112},{"user_id":203,"name":"domingamin","steam_id":76561198846466054,"connected_time":355000000000,"state":"active","ping":101},{"user_id":200,"name":"Digio","steam_id":76561199065101964,"connected_time":403000000000,"state":"active","ping":95},{"user_id":193,"name":"FUKAYU","steam_id":76561198380484033,"connected_time":571000000000,"state":"active","ping":47},{"user_id":210,"name":"Castellan","steam_id":76561197994861142,"connected_time":304000000000,"state":"active","ping":57},{"user_id":218,"name":"Giclas.","steam_id":76561198061187364,"connected_time":161000000000,"state":"active","ping":45},{"user_id":197,"name":"BroDuck","steam_id":76561198000217789,"connected_time":478000000000,"state":"active","ping":122},{"user_id":219,"name":"mesoni","steam_id":76561199141290973,"connected_time":89000000000,"state":"active","ping":104},{"user_id":198,"name":"Onion","steam_id":76561198050584704,"connected_time":446000000000,"state":"active","ping":64},{"user_id":202,"name":"Minge Wizard","steam_id":76561198088784826,"connected_time":387000000000,"state":"active","ping":52},{"user_id":201,"name":"Ram sayed","steam_id":76561198368091695,"connected_time":403000000000,"state":"active","ping":190},{"user_id":205,"name":"Saab 39 JAS Gripen","steam_id":76561198086672145,"connected_time":349000000000,"state":"active","ping":85},{"user_id":206,"name":"vandeventerejona","steam_id":76561199467939786,"connected_time":346000000000,"state":"active","ping":61},{"user_id":162,"name":"Flare","steam_id":76561198039098320,"connected_time":3073000000000,"state":"active","ping":55},{"user_id":216,"name":"kill john lennon","steam_id":76561198452111945,"connected_time":280000000000,"state":"active","ping":45},{"user_id":208,"name":"Elmar.","steam_id":76561198082213179,"connected_time":320000000000,"state":"active","ping":55},{"user_id":212,"name":"Dunya","steam_id":76561198041371314,"connected_time":296000000000,"state":"active","ping":124},{"user_id":189,"name":"SaiMoen","steam_id":76561198355717195,"connected_time":796000000000,"state":"active","ping":49},{"user_id":211,"name":"Cosmetic brain","steam_id":76561198055936410,"connected_time":303000000000,"state":"active","ping":74},{"user_id":217,"name":"enesven","steam_id":76561199466839845,"connected_time":263000000000,"state":"active","ping":86}]},{"server_id":41,"name":"Uncletopia | London | 8 | Community","name_short":"lon-8","host":"lon-1.uk.uncletopia.com","port":27085,"enabled":true,"region":"eu","cc":"gb","latitude":51.509865,"longitude":-0.118092,"reserved":0,"last_update":"0001-01-01T00:00:00Z","name_a2s":"Uncletopia | London | 8 | Community","protocol":17,"map":"workshop/koth_ashville_final.ugc2130459942","folder":"tf","game":"Team Fortress","app_id":440,"player_count":0,"max_players":24,"Bots":0,"server_type":"Dedicated","server_os":"Linux","password":true,"vac":true,"version":"7757534","steam_id":85568392924964315,"keywords":["cp","nocrits","nodmgspread","uncletopia"],"game_id":440,"stv_port":27086,"stv_name":"Uncletopia | London | 8 | Community | STV","players":null},{"server_id":300,"name":"Uncletopia | Montréal | 1 | All Maps","name_short":"mtl-1","host":"mtl-1.ca.uncletopia.com","port":27015,"enabled":true,"region":"us-east","cc":"ca","latitude":45.50889,"longitude":-73.56167,"reserved":0,"last_update":"0001-01-01T00:00:00Z","name_a2s":"Uncletopia | Montréal | 1 | All Maps","protocol":17,"map":"koth_cascade","folder":"tf","game":"Team Fortress","app_id":440,"player_count":0,"max_players":24,"Bots":0,"server_type":"Dedicated","server_os":"Linux","password":true,"vac":true,"version":"7757534","steam_id":85568392924500087,"keywords":["cp","nocrits","nodmgspread","uncletopia"],"game_id":440,"stv_port":27016,"stv_name":"Uncletopia | Montréal | 1 | All Maps | STV","players":null},{"server_id":301,"name":"Uncletopia | Montréal | 2 | All Maps","name_short":"mtl-2","host":"mtl-1.ca.uncletopia.com","port":27025,"enabled":true,"region":"us-east","cc":"ca","latitude":45.50889,"longitude":-73.56167,"reserved":0,"last_update":"0001-01-01T00:00:00Z","name_a2s":"Uncletopia | Montréal | 2 | All Maps","protocol":17,"map":"pl_borneo","folder":"tf","game":"Team Fortress","app_id":440,"player_count":0,"max_players":24,"Bots":0,"server_type":"Dedicated","server_os":"Linux","password":true,"vac":true,"version":"7757534","steam_id":85568392924500088,"keywords":["nocrits","nodmgspread","payload","uncletopia"],"game_id":440,"stv_port":27026,"stv_name":"Uncletopia | Montréal | 2 | All Maps | STV","players":null},{"server_id":302,"name":"Uncletopia | Montréal | 3 | All Maps","name_short":"mtl-3","host":"mtl-1.ca.uncletopia.com","port":27035,"enabled":true,"region":"us-east","cc":"ca","latitude":45.50889,"longitude":-73.56167,"reserved":0,"last_update":"0001-01-01T00:00:00Z","name_a2s":"Uncletopia | Montréal | 3 | All Maps","protocol":17,"map":"cp_sunshine","folder":"tf","game":"Team Fortress","app_id":440,"player_count":0,"max_players":24,"Bots":0,"server_type":"Dedicated","server_os":"Linux","password":true,"vac":true,"version":"7757534","steam_id":85568392924500089,"keywords":["cp","nocrits","nodmgspread","uncletopia"],"game_id":440,"stv_port":27036,"stv_name":"Uncletopia | Montréal | 3 | All Maps | STV","players":null},{"server_id":303,"name":"Uncletopia | Montréal | 4 | No Payload","name_short":"mtl-4","host":"mtl-1.ca.uncletopia.com","port":27045,"enabled":true,"region":"us-east","cc":"ca","latitude":45.50889,"longitude":-73.56167,"reserved":0,"last_update":"0001-01-01T00:00:00Z","name_a2s":"Uncletopia | Montréal | 4 | No Payload","protocol":17,"map":"koth_lakeside_final","folder":"tf","game":"Team Fortress","app_id":440,"player_count":0,"max_players":24,"Bots":0,"server_type":"Dedicated","server_os":"Linux","password":true,"vac":true,"version":"7757534","steam_id":85568392924500090,"keywords":["cp","nocrits","nodmgspread","uncletopia"],"game_id":440,"stv_port":27046,"stv_name":"Uncletopia | Montréal | 4 | No Payload | STV","players":null},{"server_id":13,"name":"Uncletopia | New York City | 1 | All Maps","name_short":"nyc-1","host":"nyc-1.us.uncletopia.com","port":27015,"enabled":true,"region":"us-east","cc":"us","latitude":40.73061,"longitude":-73.93524,"reserved":0,"last_update":"0001-01-01T00:00:00Z","name_a2s":"Uncletopia | New York City | 1 | All Maps","protocol":17,"map":"pl_borneo","folder":"tf","game":"Team Fortress","app_id":440,"player_count":0,"max_players":24,"Bots":0,"server_type":"Dedicated","server_os":"Linux","password":true,"vac":true,"version":"7757534","steam_id":85568392924469993,"keywords":["nocrits","nodmgspread","payload","uncletopia"],"game_id":440,"stv_port":27016,"stv_name":"Uncletopia | New York City | 1 | All Maps | STV","players":null},{"server_id":14,"name":"Uncletopia | New York City | 2 | All Maps","name_short":"nyc-2","host":"nyc-1.us.uncletopia.com","port":27025,"enabled":true,"region":"us-east","cc":"us","latitude":40.73061,"longitude":-73.93524,"reserved":0,"last_update":"0001-01-01T00:00:00Z","name_a2s":"Uncletopia | New York City | 2 | All Maps","protocol":17,"map":"pl_snowycoast","folder":"tf","game":"Team Fortress","app_id":440,"player_count":0,"max_players":24,"Bots":0,"server_type":"Dedicated","server_os":"Linux","password":true,"vac":true,"version":"7757534","steam_id":85568392924469994,"keywords":["nocrits","nodmgspread","payload","uncletopia"],"game_id":440,"stv_port":27026,"stv_name":"Uncletopia | New York City | 2 | All Maps | STV","players":null},{"server_id":15,"name":"Uncletopia | New York City | 3 | Stopwatch Beta","name_short":"nyc-3","host":"nyc-1.us.uncletopia.com","port":27035,"enabled":true,"region":"us-east","cc":"us","latitude":40.73061,"longitude":-73.93524,"reserved":0,"last_update":"0001-01-01T00:00:00Z","name_a2s":"Uncletopia | New York City | 3 | Stopwatch Beta","protocol":17,"map":"koth_lakeside_final","folder":"tf","game":"Team Fortress","app_id":440,"player_count":0,"max_players":24,"Bots":0,"server_type":"Dedicated","server_os":"Linux","password":true,"vac":true,"version":"7757534","steam_id":85568392924742820,"keywords":["cp","nocrits","nodmgspread","uncletopia"],"game_id":440,"stv_port":27036,"stv_name":"Uncletopia | New York City | 3 | Stopwatch Beta | STV","players":null},{"server_id":16,"name":"Uncletopia | New York City | 4 | Community","name_short":"nyc-4","host":"nyc-1.us.uncletopia.com","port":27045,"enabled":true,"region":"us-east","cc":"us","latitude":40.73061,"longitude":-73.93524,"reserved":0,"last_update":"0001-01-01T00:00:00Z","name_a2s":"Uncletopia | New York City | 4 | Community","protocol":17,"map":"workshop/pl_barnblitz_pro7.ugc582280235","folder":"tf","game":"Team Fortress","app_id":440,"player_count":0,"max_players":24,"Bots":0,"server_type":"Dedicated","server_os":"Linux","password":true,"vac":true,"version":"7757534","steam_id":85568392924742821,"keywords":["nocrits","nodmgspread","payload","uncletopia"],"game_id":440,"stv_port":27046,"stv_name":"Uncletopia | New York City | 4 | Community | STV","players":null},{"server_id":142,"name":"Uncletopia | São Paulo | 1 | All Maps","name_short":"sao-1","host":"sao-1.br.uncletopia.com","port":27015,"enabled":true,"region":"sa","cc":"br","latitude":-23.533773,"longitude":-46.62529,"reserved":0,"last_update":"0001-01-01T00:00:00Z","name_a2s":"Uncletopia | São Paulo | 1 | All Maps","protocol":17,"map":"pl_barnblitz","folder":"tf","game":"Team Fortress","app_id":440,"player_count":0,"max_players":24,"Bots":0,"server_type":"Dedicated","server_os":"Linux","password":true,"vac":true,"version":"7757534","steam_id":85568392924469996,"keywords":["nocrits","nodmgspread","payload","uncletopia"],"game_id":440,"stv_port":27016,"stv_name":"Uncletopia | São Paulo | 1 | All Maps | STV","players":null},{"server_id":143,"name":"Uncletopia | São Paulo | 2 | All Maps","name_short":"sao-2","host":"sao-2.br.uncletopia.com","port":27015,"enabled":true,"region":"sa","cc":"br","latitude":-23.533773,"longitude":-46.62529,"reserved":0,"last_update":"0001-01-01T00:00:00Z","name_a2s":"Uncletopia | São Paulo | 2 | All Maps","protocol":17,"map":"cp_altitude","folder":"tf","game":"Team Fortress","app_id":440,"player_count":0,"max_players":24,"Bots":0,"server_type":"Dedicated","server_os":"Linux","password":true,"vac":true,"version":"7757534","steam_id":85568392924485349,"keywords":["cp","nocrits","nodmgspread","uncletopia"],"game_id":440,"stv_port":27016,"stv_name":"Uncletopia | São Paulo | 2 | All Maps | STV","players":null},{"server_id":7,"name":"Uncletopia | Seattle | 1 | All Maps","name_short":"sea-1","host":"sea-1.us.uncletopia.com","port":27015,"enabled":true,"region":"us-west","cc":"us","latitude":47.608013,"longitude":-122.33517,"reserved":0,"last_update":"0001-01-01T00:00:00Z","name_a2s":"Uncletopia | Seattle | 1 | All Maps","protocol":17,"map":"pl_badwater","folder":"tf","game":"Team Fortress","app_id":440,"player_count":24,"max_players":24,"Bots":0,"server_type":"Dedicated","server_os":"Linux","password":true,"vac":true,"version":"7757534","steam_id":85568392924469997,"keywords":["nocrits","nodmgspread","payload","uncletopia"],"game_id":440,"stv_port":27016,"stv_name":"Uncletopia | Seattle | 1 | All Maps | STV","players":[{"user_id":1127,"name":"pandora da king","steam_id":76561198075490385,"connected_time":3070000000000,"state":"active","ping":73},{"user_id":1118,"name":"spimtmot733","steam_id":76561199029189825,"connected_time":3298000000000,"state":"active","ping":128},{"user_id":1154,"name":"Tom","steam_id":76561198070630154,"connected_time":420000000000,"state":"active","ping":74},{"user_id":1141,"name":"rice white","steam_id":76561198320732910,"connected_time":1156000000000,"state":"active","ping":125},{"user_id":1140,"name":"WeAreTheSpirits","steam_id":76561198191555728,"connected_time":1198000000000,"state":"active","ping":63},{"user_id":1120,"name":"carmillaluvr1334","steam_id":76561198325306660,"connected_time":3256000000000,"state":"active","ping":50},{"user_id":1121,"name":"Drift Stick","steam_id":76561198847048304,"connected_time":3248000000000,"state":"active","ping":56},{"user_id":1137,"name":"broos","steam_id":76561198061648271,"connected_time":2040000000000,"state":"active","ping":102},{"user_id":1151,"name":"linux_lover","steam_id":76561197977079890,"connected_time":869000000000,"state":"active","ping":120},{"user_id":1129,"name":"pinglefingle","steam_id":76561198216580197,"connected_time":3043000000000,"state":"active","ping":114},{"user_id":1073,"name":"SPACECOWBOY","steam_id":76561199093645953,"connected_time":5447000000000,"state":"active","ping":50},{"user_id":1155,"name":"Shaggy","steam_id":76561198441184082,"connected_time":254000000000,"state":"active","ping":103},{"user_id":1143,"name":"phyonic","steam_id":76561198059183301,"connected_time":1104000000000,"state":"active","ping":100},{"user_id":1125,"name":"samjunes90","steam_id":76561199235316419,"connected_time":3168000000000,"state":"active","ping":104},{"user_id":1144,"name":"Strongman","steam_id":76561198088318074,"connected_time":1102000000000,"state":"active","ping":100},{"user_id":1156,"name":"Bagaboned","steam_id":76561198043761335,"connected_time":247000000000,"state":"active","ping":46},{"user_id":1147,"name":"ZeFizzyPop™","steam_id":76561198258104981,"connected_time":1029000000000,"state":"active","ping":105},{"user_id":1148,"name":"Rude Boi","steam_id":76561198377201388,"connected_time":1005000000000,"state":"active","ping":75},{"user_id":1051,"name":"jared, 19","steam_id":76561198165847261,"connected_time":7046000000000,"state":"active","ping":45},{"user_id":1150,"name":"Dad Rock Deluxe","steam_id":76561198051224819,"connected_time":939000000000,"state":"active","ping":90},{"user_id":1134,"name":"square-","steam_id":76561198058143770,"connected_time":2856000000000,"state":"active","ping":89},{"user_id":1100,"name":"dosimeter","steam_id":76561198039608940,"connected_time":4325000000000,"state":"active","ping":134},{"user_id":1139,"name":"Meh but good","steam_id":76561199005772246,"connected_time":1721000000000,"state":"active","ping":116},{"user_id":1153,"name":"huh","steam_id":76561198272057200,"connected_time":688000000000,"state":"active","ping":66}]},{"server_id":119,"name":"Uncletopia | Seattle | 2 | All Maps","name_short":"sea-2","host":"sea-1.us.uncletopia.com","port":27025,"enabled":true,"region":"us-west","cc":"us","latitude":47.608013,"longitude":-122.33517,"reserved":0,"last_update":"0001-01-01T00:00:00Z","name_a2s":"Uncletopia | Seattle | 2 | All Maps","protocol":17,"map":"koth_cascade","folder":"tf","game":"Team Fortress","app_id":440,"player_count":0,"max_players":24,"Bots":0,"server_type":"Dedicated","server_os":"Linux","password":true,"vac":true,"version":"7757534","steam_id":85568392924469998,"keywords":["cp","nocrits","nodmgspread","uncletopia"],"game_id":440,"stv_port":27026,"stv_name":"Uncletopia | Seattle | 2 | All Maps | STV","players":null},{"server_id":406,"name":"Uncletopia | Seattle | 3 | Stopwatch Beta","name_short":"sea-3","host":"sea-1.us.uncletopia.com","port":27035,"enabled":true,"region":"us-west","cc":"us","latitude":47.608013,"longitude":-122.33517,"reserved":0,"last_update":"0001-01-01T00:00:00Z","name_a2s":"Uncletopia | Seattle | 3 | Stopwatch Beta","protocol":17,"map":"workshop/koth_bagel_rc5.ugc2514036946","folder":"tf","game":"Team Fortress","app_id":440,"player_count":0,"max_players":24,"Bots":0,"server_type":"Dedicated","server_os":"Linux","password":true,"vac":true,"version":"7757534","steam_id":85568392924515217,"keywords":["cp","nocrits","nodmgspread","uncletopia"],"game_id":440,"stv_port":27036,"stv_name":"Uncletopia | Seattle | 3 | Stopwatch Beta | STV","players":null},{"server_id":17,"name":"Uncletopia | San Francisco | 1 | All Maps","name_short":"sfo-1","host":"sfo-1.us.uncletopia.com","port":27015,"enabled":true,"region":"us-west","cc":"us","latitude":37.77397,"longitude":-122.4313,"reserved":0,"last_update":"0001-01-01T00:00:00Z","name_a2s":"Uncletopia | San Francisco | 1 | All Maps","protocol":17,"map":"koth_highpass","folder":"tf","game":"Team Fortress","app_id":440,"player_count":0,"max_players":24,"Bots":0,"server_type":"Dedicated","server_os":"Linux","password":true,"vac":true,"version":"7757534","steam_id":85568392924469999,"keywords":["cp","nocrits","nodmgspread","uncletopia"],"game_id":440,"stv_port":27016,"stv_name":"Uncletopia | San Francisco | 1 | All Maps | STV","players":null},{"server_id":18,"name":"Uncletopia | San Francisco | 2 | All Maps","name_short":"sfo-2","host":"sfo-1.us.uncletopia.com","port":27025,"enabled":true,"region":"us-west","cc":"us","latitude":37.77397,"longitude":-122.4313,"reserved":0,"last_update":"0001-01-01T00:00:00Z","name_a2s":"Uncletopia | San Francisco | 2 | All Maps","protocol":17,"map":"koth_highpass","folder":"tf","game":"Team Fortress","app_id":440,"player_count":0,"max_players":24,"Bots":0,"server_type":"Dedicated","server_os":"Linux","password":true,"vac":true,"version":"7757534","steam_id":85568392924470000,"keywords":["cp","nocrits","nodmgspread","uncletopia"],"game_id":440,"stv_port":27026,"stv_name":"Uncletopia | San Francisco | 2 | All Maps | STV","players":null},{"server_id":19,"name":"Uncletopia | San Francisco | 3 | Stopwatch Beta","name_short":"sfo-3","host":"sfo-1.us.uncletopia.com","port":27035,"enabled":true,"region":"us-west","cc":"us","latitude":37.77397,"longitude":-122.4313,"reserved":0,"last_update":"0001-01-01T00:00:00Z","name_a2s":"Uncletopia | San Francisco | 3 | Stopwatch Beta","protocol":17,"map":"koth_viaduct","folder":"tf","game":"Team Fortress","app_id":440,"player_count":0,"max_players":24,"Bots":0,"server_type":"Dedicated","server_os":"Linux","password":true,"vac":true,"version":"7757534","steam_id":85568392924742824,"keywords":["cp","nocrits","nodmgspread","uncletopia"],"game_id":440,"stv_port":27036,"stv_name":"Uncletopia | San Francisco | 3 | Stopwatch Beta | STV","players":null},{"server_id":20,"name":"Uncletopia | San Francisco | 4 | Community","name_short":"sfo-4","host":"sfo-1.us.uncletopia.com","port":27045,"enabled":true,"region":"us-west","cc":"us","latitude":37.77397,"longitude":-122.4313,"reserved":0,"last_update":"0001-01-01T00:00:00Z","name_a2s":"Uncletopia | San Francisco | 4 | Community","protocol":17,"map":"workshop/pl_cactuscanyon_redux_rc4b.ugc2579644293","folder":"tf","game":"Team Fortress","app_id":440,"player_count":2,"max_players":24,"Bots":0,"server_type":"Dedicated","server_os":"Linux","password":true,"vac":true,"version":"7757534","steam_id":85568392924742826,"keywords":["nocrits","nodmgspread","payload","uncletopia"],"game_id":440,"stv_port":27046,"stv_name":"Uncletopia | San Francisco | 4 | Community | STV","players":[{"user_id":21,"name":"Sly Marbo","steam_id":76561198135271741,"connected_time":160000000000,"state":"active","ping":61},{"user_id":22,"name":"The Broken Lightbulb","steam_id":76561198141566312,"connected_time":105000000000,"state":"active","ping":60}]},{"server_id":141,"name":"Uncletopia | Sydney | 1 | All Maps","name_short":"syd-1","host":"syd-1.au.uncletopia.com","port":27015,"enabled":true,"region":"au","cc":"au","latitude":-33.865143,"longitude":151.2099,"reserved":0,"last_update":"0001-01-01T00:00:00Z","name_a2s":"Uncletopia | Sydney | 1 | All Maps","protocol":17,"map":"koth_viaduct","folder":"tf","game":"Team Fortress","app_id":440,"player_count":0,"max_players":24,"Bots":0,"server_type":"Dedicated","server_os":"Linux","password":true,"vac":true,"version":"7757534","steam_id":85568392924470001,"keywords":["cp","nocrits","nodmgspread","uncletopia"],"game_id":440,"stv_port":27016,"stv_name":"Uncletopia | Sydney | 1 | All Maps | STV","players":null},{"server_id":123,"name":"Uncletopia | Sydney | 2 | All Maps","name_short":"syd-2","host":"syd-1.au.uncletopia.com","port":27025,"enabled":true,"region":"au","cc":"au","latitude":-33.865143,"longitude":151.2099,"reserved":0,"last_update":"0001-01-01T00:00:00Z","name_a2s":"Uncletopia | Sydney | 2 | All Maps","protocol":17,"map":"koth_highpass","folder":"tf","game":"Team Fortress","app_id":440,"player_count":0,"max_players":24,"Bots":0,"server_type":"Dedicated","server_os":"Linux","password":true,"vac":true,"version":"7757534","steam_id":85568392924470002,"keywords":["cp","nocrits","nodmgspread","uncletopia"],"game_id":440,"stv_port":27026,"stv_name":"Uncletopia | Sydney | 2 | All Maps | STV","players":null},{"server_id":395,"name":"Uncletopia | Sydney | 3 | All Maps","name_short":"syd-3","host":"syd-1.au.uncletopia.com","port":27035,"enabled":true,"region":"au","cc":"au","latitude":-33.865143,"longitude":151.2099,"reserved":0,"last_update":"0001-01-01T00:00:00Z","name_a2s":"Uncletopia | Sydney | 3 | All Maps","protocol":17,"map":"pl_pier","folder":"tf","game":"Team Fortress","app_id":440,"player_count":18,"max_players":24,"Bots":0,"server_type":"Dedicated","server_os":"Linux","password":true,"vac":true,"version":"7757534","steam_id":85568392925194467,"keywords":["nocrits","nodmgspread","payload","uncletopia"],"game_id":440,"stv_port":27036,"stv_name":"Uncletopia | Sydney | 3 | All Maps | STV","players":[{"user_id":235,"name":"Neoplix","steam_id":76561199012756422,"connected_time":324000000000,"state":"active","ping":264},{"user_id":220,"name":"Bobby Bigman","steam_id":76561198044679656,"connected_time":2664000000000,"state":"active","ping":62},{"user_id":219,"name":"Raven","steam_id":76561198428025966,"connected_time":2700000000000,"state":"active","ping":63},{"user_id":236,"name":"Alphandiscobean","steam_id":76561198025845937,"connected_time":226000000000,"state":"active","ping":55},{"user_id":233,"name":"Nut Bucket","steam_id":76561198138193812,"connected_time":745000000000,"state":"active","ping":105},{"user_id":193,"name":"blicky","steam_id":76561198029829077,"connected_time":4321000000000,"state":"active","ping":100},{"user_id":234,"name":"rudra","steam_id":76561198067731912,"connected_time":471000000000,"state":"active","ping":74},{"user_id":218,"name":"Consolidated Fart","steam_id":76561198924101909,"connected_time":2776000000000,"state":"active","ping":69},{"user_id":192,"name":"The Bisoneer TF2","steam_id":76561199446773766,"connected_time":4465000000000,"state":"active","ping":87},{"user_id":225,"name":"cretin","steam_id":76561198127848228,"connected_time":1721000000000,"state":"active","ping":59},{"user_id":241,"name":"Monad (Trans-Girl Arc)","steam_id":76561198895999428,"connected_time":4000000000,"state":"spawning","ping":50},{"user_id":191,"name":"SoundlessPlum","steam_id":76561198077872547,"connected_time":4470000000000,"state":"active","ping":50},{"user_id":231,"name":"Pew pew pew!","steam_id":76561198004120277,"connected_time":915000000000,"state":"active","ping":44},{"user_id":238,"name":"fuck it, we ball","steam_id":76561199096343199,"connected_time":144000000000,"state":"active","ping":43},{"user_id":239,"name":"Bubbles","steam_id":76561197998937425,"connected_time":58000000000,"state":"active","ping":91},{"user_id":240,"name":"jeb!","steam_id":76561198086571548,"connected_time":44000000000,"state":"active","ping":43},{"user_id":229,"name":"KILLER WHALES","steam_id":76561198012422705,"connected_time":1000000000000,"state":"active","ping":58},{"user_id":228,"name":"Greenie Weenie","steam_id":76561198147970145,"connected_time":1486000000000,"state":"active","ping":62}]},{"server_id":396,"name":"Uncletopia | Sydney | 4 | All Maps","name_short":"syd-4","host":"syd-1.au.uncletopia.com","port":27045,"enabled":true,"region":"au","cc":"au","latitude":-33.865143,"longitude":151.2099,"reserved":0,"last_update":"0001-01-01T00:00:00Z","name_a2s":"Uncletopia | Sydney | 4 | All Maps","protocol":17,"map":"koth_highpass","folder":"tf","game":"Team Fortress","app_id":440,"player_count":0,"max_players":24,"Bots":0,"server_type":"Dedicated","server_os":"Linux","password":true,"vac":true,"version":"7757534","steam_id":85568392925397958,"keywords":["cp","nocrits","nodmgspread","uncletopia"],"game_id":440,"stv_port":27046,"stv_name":"Uncletopia | Sydney | 4 | All Maps | STV","players":null},{"server_id":58,"name":"Uncletopia | Sydney | 5 | Stopwatch Beta","name_short":"syd-5","host":"syd-1.au.uncletopia.com","port":27055,"enabled":true,"region":"au","cc":"au","latitude":-33.865143,"longitude":151.2099,"reserved":0,"last_update":"0001-01-01T00:00:00Z","name_a2s":"Uncletopia | Sydney | 5 | Stopwatch Beta","protocol":17,"map":"koth_lakeside_final","folder":"tf","game":"Team Fortress","app_id":440,"player_count":0,"max_players":24,"Bots":0,"server_type":"Dedicated","server_os":"Linux","password":true,"vac":true,"version":"7757534","steam_id":85568392925397959,"keywords":["cp","nocrits","nodmgspread","uncletopia"],"game_id":440,"stv_port":27056,"stv_name":"Uncletopia | Sydney | 5 | Stopwatch Beta | STV","players":null},{"server_id":59,"name":"Uncletopia | Sydney | 6 | Community","name_short":"syd-6","host":"syd-1.au.uncletopia.com","port":27065,"enabled":true,"region":"au","cc":"au","latitude":-33.865143,"longitude":151.2099,"reserved":0,"last_update":"0001-01-01T00:00:00Z","name_a2s":"Uncletopia | Sydney | 6 | Community","protocol":17,"map":"workshop/koth_ramjam_rc1.ugc459778887","folder":"tf","game":"Team Fortress","app_id":440,"player_count":0,"max_players":24,"Bots":0,"server_type":"Dedicated","server_os":"Linux","password":true,"vac":true,"version":"7757534","steam_id":85568392925397960,"keywords":["cp","nocrits","nodmgspread","uncletopia"],"game_id":440,"stv_port":27066,"stv_name":"Uncletopia | Sydney | 6 | Community | STV","players":null},{"server_id":49,"name":"Uncletopia | Warsaw | 1 | All Maps","name_short":"waw-1","host":"waw-1.pl.uncletopia.com","port":27015,"enabled":true,"region":"eu","cc":"pl","latitude":52.2297,"longitude":21.017532,"reserved":0,"last_update":"0001-01-01T00:00:00Z","name_a2s":"","protocol":0,"map":"","folder":"","game":"","app_id":0,"player_count":0,"max_players":0,"Bots":0,"server_type":"","server_os":"","password":false,"vac":false,"version":"","steam_id":0,"keywords":null,"game_id":0,"stv_port":0,"stv_name":"","players":null},{"server_id":50,"name":"Uncletopia | Warsaw | 2 | All Maps","name_short":"waw-2","host":"waw-1.pl.uncletopia.com","port":27025,"enabled":true,"region":"eu","cc":"pl","latitude":52.2297,"longitude":21.017532,"reserved":0,"last_update":"0001-01-01T00:00:00Z","name_a2s":"Uncletopia | Warsaw | 2 | All Maps","protocol":17,"map":"koth_highpass","folder":"tf","game":"Team Fortress","app_id":440,"player_count":0,"max_players":24,"Bots":0,"server_type":"Dedicated","server_os":"Linux","password":true,"vac":true,"version":"7757534","steam_id":85568392925397851,"keywords":["cp","nocrits","nodmgspread","uncletopia"],"game_id":440,"stv_port":27026,"stv_name":"Uncletopia | Warsaw | 2 | All Maps | STV","players":null},{"server_id":51,"name":"Uncletopia | Warsaw | 3 | All Maps","name_short":"waw-3","host":"waw-1.pl.uncletopia.com","port":27035,"enabled":true,"region":"eu","cc":"pl","latitude":52.2297,"longitude":21.017532,"reserved":0,"last_update":"0001-01-01T00:00:00Z","name_a2s":"Uncletopia | Warsaw | 3 | All Maps","protocol":17,"map":"koth_highpass","folder":"tf","game":"Team Fortress","app_id":440,"player_count":0,"max_players":24,"Bots":0,"server_type":"Dedicated","server_os":"Linux","password":true,"vac":true,"version":"7757534","steam_id":85568392925397852,"keywords":["cp","nocrits","nodmgspread","uncletopia"],"game_id":440,"stv_port":27036,"stv_name":"Uncletopia | Warsaw | 3 | All Maps | STV","players":null},{"server_id":52,"name":"Uncletopia | Warsaw | 4 | All Maps","name_short":"waw-4","host":"waw-1.pl.uncletopia.com","port":27045,"enabled":true,"region":"eu","cc":"pl","latitude":52.2297,"longitude":21.017532,"reserved":0,"last_update":"0001-01-01T00:00:00Z","name_a2s":"Uncletopia | Warsaw | 4 | All Maps","protocol":17,"map":"koth_highpass","folder":"tf","game":"Team Fortress","app_id":440,"player_count":0,"max_players":24,"Bots":0,"server_type":"Dedicated","server_os":"Linux","password":true,"vac":true,"version":"7757534","steam_id":85568392925397853,"keywords":["cp","nocrits","nodmgspread","uncletopia"],"game_id":440,"stv_port":27046,"stv_name":"Uncletopia | Warsaw | 4 | All Maps | STV","players":null},{"server_id":53,"name":"Uncletopia | Warsaw | 5 | Stopwatch Beta","name_short":"waw-5","host":"waw-1.pl.uncletopia.com","port":27055,"enabled":true,"region":"eu","cc":"pl","latitude":52.2297,"longitude":21.017532,"reserved":0,"last_update":"0001-01-01T00:00:00Z","name_a2s":"Uncletopia | Warsaw | 5 | Stopwatch Beta","protocol":17,"map":"pl_borneo","folder":"tf","game":"Team Fortress","app_id":440,"player_count":0,"max_players":24,"Bots":0,"server_type":"Dedicated","server_os":"Linux","password":true,"vac":true,"version":"7757534","steam_id":85568392925397854,"keywords":["nocrits","nodmgspread","payload","uncletopia"],"game_id":440,"stv_port":27056,"stv_name":"Uncletopia | Warsaw | 5 | Stopwatch Beta | STV","players":null},{"server_id":54,"name":"Uncletopia | Warsaw | 6 | Community","name_short":"waw-6","host":"waw-1.pl.uncletopia.com","port":27065,"enabled":true,"region":"eu","cc":"pl","latitude":52.2297,"longitude":21.017532,"reserved":0,"last_update":"0001-01-01T00:00:00Z","name_a2s":"Uncletopia | Warsaw | 6 | Community","protocol":17,"map":"workshop/pl_cactuscanyon_redux_rc4b.ugc2579644293","folder":"tf","game":"Team Fortress","app_id":440,"player_count":0,"max_players":24,"Bots":0,"server_type":"Dedicated","server_os":"Linux","password":true,"vac":true,"version":"7757534","steam_id":85568392925397856,"keywords":["nocrits","nodmgspread","payload","uncletopia"],"game_id":440,"stv_port":27066,"stv_name":"Uncletopia | Warsaw | 6 | Community | STV","players":null}]}