{"status":true,"message":"","result":[{"server_id":9,"name":"Uncletopia | Atlanta | 1 | All Maps","name_short":"atl-1","host":"atl-1.us.uncletopia.com","port":27015,"enabled":true,"region":"us-east","cc":"us","latitude":33.753746,"longitude":-84.38633,"reserved":0,"last_update":"0001-01-01T00:00:00Z","name_a2s":"Uncletopia | Atlanta | 1 | All Maps","protocol":17,"map":"koth_viaduct","folder":"tf","game":"Team Fortress","app_id":440,"player_count":0,"max_players":24,"Bots":0,"server_type":"Dedicated","server_os":"Linux","password":true,"vac":true,"version":"7757534","steam_id":85568392924469982,"keywords":["cp","nocrits","nodmgspread","uncletopia"],"game_id":440,"stv_port":27016,"stv_name":"Uncletopia | Atlanta | 1 | All Maps | STV","players":null},{"server_id":400,"name":"Uncletopia | Atlanta | 3 | Stopwatch Beta","name_short":"atl-3","host":"atl-1.us.uncletopia.com","port":27035,"enabled":true,"region":"us-east","cc":"us","latitude":33.753746,"longitude":-84.38633,"reserved":0,"last_update":"0001-01-01T00:00:00Z","name_a2s":"Uncletopia | Atlanta | 3 | Stopwatch Beta","protocol":17,"map":"koth_lakeside_final","folder":"tf","game":"Team Fortress","app_id":440,"player_count":0,"max_players":24,"Bots":0,"server_type":"Dedicated","server_os":"Linux","password":true,"vac":true,"version":"7757534","steam_id":85568392924515187,"keywords":["cp","nocrits","nodmgspread","uncletopia"],"game_id":440,"stv_port":27036,"stv_name":"Uncletopia | Atlanta | 3 | Stopwatch Beta | STV","players":null},{"server_id":401,"name":"Uncletopia | Atlanta | 4 | No Payload","name_short":"atl-4","host":"atl-1.us.uncletopia.com","port":27045,"enabled":true,"region":"us-east","cc":"us","latitude":33.753746,"longitude":-84.38633,"reserved":0,"last_update":"0001-01-01T00:00:00Z","name_a2s":"Uncletopia | Atlanta | 4 | No Payload","protocol":17,"map":"pl_pier","folder":"tf","game":"Team Fortress","app_id":440,"player_count":0,"max_players":24,"Bots":0,"server_type":"Dedicated","server_os":"Linux","password":true,"vac":true,"version":"7723704","steam_id":85568392924515188,"keywords":["nocrits","nodmgspread","payload","uncletopia"],"game_id":440,"stv_port":27046,"stv_name":"Uncletopia | Atlanta | 4 | No Payload | STV","players":null},{"server_id":2,"name":"Uncletopia | Chicago | 1 | All Maps","name_short":"chi-1","host":"chi-1.us.uncletopia.com","port":27015,"enabled":true,"region":"us-central","cc":"us","latitude":41.881832,"longitude":-87.62318,"reserved":0,"last_update":"0001-01-01T00:00:00Z","name_a2s":"Uncletopia | Chicago | 1 | All Maps","protocol":17,"map":"pl_borneo","folder":"tf","game":"Team Fortress","app_id":440,"player_count":0,"max_players":24,"Bots":0,"server_type":"Dedicated","server_os":"Linux","password":true,"vac":true,"version":"7757534","steam_id":85568392924469984,"keywords":["nocrits","nodmgspread","payload","uncletopia"],"game_id":440,"stv_port":27016,"stv_name":"Uncletopia | Chicago | 1 | All Maps | STV","players":null},{"server_id":106,"name":"Uncletopia | Chicago | 2 | All Maps","name_short":"chi-2","host":"chi-1.us.uncletopia.com","port":27025,"enabled":true,"region":"us-central","cc":"us","latitude":41.881832,"longitude":-87.62318,"reserved":0,"last_update":"0001-01-01T00:00:00Z","name_a2s":"Uncletopia | Chicago | 2 | All Maps","protocol":17,"map":"pl_frontier_final","folder":"tf","game":"Team Fortress","app_id":440,"player_count":24,"max_players":24,"Bots":0,"server_type":"Dedicated","server_os":"Linux","password":true,"vac":true,"version":"7757534","steam_id":85568392924469985,"keywords":["nocrits","nodmgspread","payload","uncletopia"],"game_id":440,"stv_port":27026,"stv_name":"Uncletopia | Chicago | 2 | All Maps | STV","players":[{"user_id":995,"name":"Spha","steam_id":76561198796297800,"connected_time":4285000000000,"state":"active","ping":92},{"user_id":996,"name":"b.net queue waiter","steam_id":76561197968787431,"connected_time":4269000000000,"state":"active","ping":104},{"user_id":1021,"name":"Ferioth","steam_id":76561197997993090,"connected_time":2914000000000,"state":"active","ping":64},{"user_id":1051,"name":"misterjozo","steam_id":76561198012300755,"connected_time":71000000000,"state":"active","ping":100},{"user_id":983,"name":"admiralmonk","steam_id":76561198845021470,"connected_time":4493000000000,"state":"active","ping":55},{"user_id":959,"name":"Zarik","steam_id":76561197967269007,"connected_time":6275000000000,"state":"active","ping":70},{"user_id":1047,"name":"MrSirGent","steam_id":76561199086357213,"connected_time":208000000000,"state":"active","ping":74},{"user_id":1020,"name":"will","steam_id":76561198170080245,"connected_time":3062000000000,"state":"active","ping":88},{"user_id":1036,"name":"MarbleSoda","steam_id":76561198272308261,"connected_time":1096000000000,"state":"active","ping":100},{"user_id":1048,"name":"The Great Karizma!","steam_id":76561198346191193,"connected_time":197000000000,"state":"active","ping":100},{"user_id":1038,"name":"0","steam_id":76561198046065237,"connected_time":1070000000000,"state":"active","ping":75},{"user_id":1024,"name":"Divio","steam_id":76561197995200088,"connected_time":2765000000000,"state":"active","ping":75},{"user_id":1023,"name":"punishing bird","steam_id":76561198447797146,"connected_time":2848000000000,"state":"active","ping":61},{"user_id":1039,"name":"jmsssss","steam_id":76561198122043365,"connected_time":962000000000,"state":"active","ping":110},{"user_id":1032,"name":"Rental","steam_id":76561198027786602,"connected_time":2325000000000,"state":"active","ping":86},{"user_id":1050,"name":"Haula","steam_id":76561198076586592,"connected_time":170000000000,"state":"active","ping":83},{"user_id":1041,"name":"FairlyFatFungus","steam_id":76561199152828854,"connected_time":869000000000,"state":"active","ping":142},{"user_id":1027,"name":"Pixel","steam_id":76561198124051116,"connected_time":2732000000000,"state":"active","ping":66},{"user_id":1028,"name":"Professor Sex","steam_id":76561198396414319,"connected_time":2708000000000,"state":"active","ping":105},{"user_id":1007,"name":"Yachenko","steam_id":76561198155929579,"connected_time":3843000000000,"state":"active","ping":80},{"user_id":1008,"name":"slayre","steam_id":76561199011493399,"connected_time":3837000000000,"state":"active","ping":131},{"user_id":1029,"name":"Lex@Pr0","steam_id":76561198102681457,"connected_time":2616000000000,"state":"active","ping":71},{"user_id":1046,"name":"|AG| Level","steam_id":76561198063633592,"connected_time":541000000000,"state":"active","ping":70},{"user_id":1043,"name":"Large Charles","steam_id":76561197999663001,"connected_time":800000000000,"state":"active","ping":68}]},{"server_id":402,"name":"Uncletopia | Chicago | 3 | All Maps","name_short":"chi-3","host":"chi-1.us.uncletopia.com","port":27035,"enabled":true,"region":"us-central","cc":"us","latitude":41.881832,"longitude":-87.62318,"reserved":0,"last_update":"0001-01-01T00:00:00Z","name_a2s":"Uncletopia | Chicago | 3 | All Maps","protocol":17,"map":"cp_dustbowl","folder":"tf","game":"Team Fortress","app_id":440,"player_count":0,"max_players":24,"Bots":0,"server_type":"Dedicated","server_os":"Linux","password":true,"vac":true,"version":"7757534","steam_id":85568392924515191,"keywords":["cp","nocrits","nodmgspread","uncletopia"],"game_id":440,"stv_port":27036,"stv_name":"Uncletopia | Chicago | 3 | All Maps | STV","players":null},{"server_id":403,"name":"Uncletopia | Chicago | 4 | All Maps","name_short":"chi-4","host":"chi-1.us.uncletopia.com","port":27045,"enabled":true,"region":"us-central","cc":"us","latitude":41.881832,"longitude":-87.62318,"reserved":0,"last_update":"0001-01-01T00:00:00Z","name_a2s":"Uncletopia | Chicago | 4 | All Maps","protocol":17,"map":"koth_viaduct","folder":"tf","game":"Team Fortress","app_id":440,"player_count":18,"max_players":24,"Bots":0,"server_type":"Dedicated","server_os":"Linux","password":true,"vac":true,"version":"7757534","steam_id":85568392924515193,"keywords":["cp","nocrits","nodmgspread","uncletopia"],"game_id":440,"stv_port":27046,"stv_name":"Uncletopia | Chicago | 4 | All Maps | STV","players":[{"user_id":619,"name":"cereaI","steam_id":76561198066929519,"connected_time":193000000000,"state":"active","ping":64},{"user_id":582,"name":"Kolibri","steam_id":76561198194885365,"connected_time":3459000000000,"state":"active","ping":88},{"user_id":555,"name":"OFFTHEGMAILPERC","steam_id":76561198132068284,"connected_time":6838000000000,"state":"active","ping":69},{"user_id":512,"name":"NovaSc6ut","steam_id":76561198277163301,"connected_time":9506000000000,"state":"active","ping":60},{"user_id":592,"name":"irreversible reboot","steam_id":76561198309823950,"connected_time":2932000000000,"state":"active","ping":87},{"user_id":566,"name":"Vladikr1","steam_id":76561198401495362,"connected_time":4848000000000,"state":"active","ping":58},{"user_id":564,"name":"p1ckl","steam_id":76561198152818418,"connected_time":5050000000000,"state":"active","ping":78},{"user_id":613,"name":"JazzMuted","steam_id":76561197974184265,"connected_time":1321000000000,"state":"active","ping":48},{"user_id":580,"name":"PulseDog","steam_id":76561198966277057,"connected_time":3481000000000,"state":"active","ping":102},{"user_id":581,"name":"DollLoverDXM","steam_id":76561198058630842,"connected_time":3470000000000,"state":"active","ping":100},{"user_id":569,"name":"kinars","steam_id":76561198857791409,"connected_time":4742000000000,"state":"active","ping":158},{"user_id":618,"name":"primordialheath","steam_id":76561199386942638,"connected_time":292000000000,"state":"active","ping":61},{"user_id":605,"name":"Loxic","steam_id":76561198043617388,"connected_time":2104000000000,"state":"active","ping":83},{"user_id":552,"name":"i'm a fireball","steam_id":76561198138221795,"connected_time":6876000000000,"state":"active","ping":70},{"user_id":595,"name":"Model CHP-3Y","steam_id":76561198107806145,"connected_time":2744000000000,"state":"active","ping":72},{"user_id":615,"name":"BurnN8or101","steam_id":76561198132668224,"connected_time":474000000000,"state":"active","ping":73},{"user_id":617,"name":"crouton.net","steam_id":76561198068374646,"connected_time":360000000000,"state":"active","ping":97},{"user_id":599,"name":"Vlatko","steam_id":76561198003736944,"connected_time":2497000000000,"state":"active","ping":180}]},{"server_id":36,"name":"Uncletopia | Chicago | 5 | All Maps","name_short":"chi-5","host":"chi-2.us.uncletopia.com","port":27015,"enabled":true,"region":"us-central","cc":"us","latitude":41.881832,"longitude":-87.62318,"reserved":0,"last_update":"0001-01-01T00:00:00Z","name_a2s":"Uncletopia | Chicago | 5 | All Maps","protocol":17,"map":"pl_frontier_final","folder":"tf","game":"Team Fortress","app_id":440,"player_count":16,"max_players":24,"Bots":0,"server_type":"Dedicated","server_os":"Linux","password":true,"vac":true,"version":"7757534","steam_id":85568392924866362,"keywords":["nocrits","nodmgspread","payload","uncletopia"],"game_id":440,"stv_port":27016,"stv_name":"Uncletopia | Chicago | 5 | All Maps | STV","players":[{"user_id":327,"name":"brumbee","steam_id":76561198314221897,"connected_time":1755000000000,"state":"active","ping":93},{"user_id":320,"name":"JerlBays","steam_id":76561198096773292,"connected_time":2039000000000,"state":"active","ping":51},{"user_id":301,"name":"Ace Attorney","steam_id":76561198133011705,"connected_time":2968000000000,"state":"active","ping":55},{"user_id":299,"name":"Mirari","steam_id":76561198126889358,"connected_time":3097000000000,"state":"active","ping":87},{"user_id":334,"name":"Colonel Chikara","steam_id":76561198010021087,"connected_time":19000000000,"state":"active","ping":95},{"user_id":331,"name":":)","steam_id":76561198093921290,"connected_time":1144000000000,"state":"active","ping":50},{"user_id":321,"name":"Sly Fox Lemmy","steam_id":76561198069225954,"connected_time":1986000000000,"state":"active","ping":77},{"user_id":326,"name":"StrangeMachine","steam_id":76561198046628064,"connected_time":1792000000000,"state":"active","ping":103},{"user_id":266,"name":"AzuriousAlex","steam_id":76561198158026405,"connected_time":6120000000000,"state":"active","ping":82},{"user_id":260,"name":"SaulMan","steam_id":76561198131929494,"connected_time":6773000000000,"state":"active","ping":47},{"user_id":307,"name":"stakehater11","steam_id":76561198079501615,"connected_time":2661000000000,"state":"active","ping":61},{"user_id":308,"name":"Quatts","steam_id":76561198051482153,"connected_time":2660000000000,"state":"active","ping":58},{"user_id":315,"name":"HOPELESS G4M3R","steam_id":76561198047020662,"connected_time":2265000000000,"state":"active","ping":55},{"user_id":328,"name":"Czechoslovakia!","steam_id":76561198214713811,"connected_time":1737000000000,"state":"active","ping":90},{"user_id":311,"name":"Doggo","steam_id":76561198087030700,"connected_time":2527000000000,"state":"active","ping":50},{"user_id":330,"name":"scrapheap","steam_id":76561198202407087,"connected_time":1590000000000,"state":"active","ping":78}]},{"server_id":37,"name":"Uncletopia | Chicago | 6 | All Maps","name_short":"chi-6","host":"chi-2.us.uncletopia.com","port":27025,"enabled":true,"region":"us-central","cc":"us","latitude":41.881832,"longitude":-87.62318,"reserved":0,"last_update":"0001-01-01T00:00:00Z","name_a2s":"Uncletopia | Chicago | 6 | All Maps","protocol":17,"map":"pl_upward","folder":"tf","game":"Team Fortress","app_id":440,"player_count":22,"max_players":24,"Bots":0,"server_type":"Dedicated","server_os":"Linux","password":true,"vac":true,"version":"7757534","steam_id":85568392924866363,"keywords":["nocrits","nodmgspread","payload","uncletopia"],"game_id":440,"stv_port":27026,"stv_name":"Uncletopia | Chicago | 6 | All Maps | STV","players":[{"user_id":685,"name":"bongo knight","steam_id":76561199333675426,"connected_time":478000000000,"state":"active","ping":183},{"user_id":673,"name":"Bottom Text","steam_id":76561198075447301,"connected_time":889000000000,"state":"active","ping":67},{"user_id":591,"name":"Dr.KombatPhD.ttv","steam_id":76561198263847667,"connected_time":7693000000000,"state":"active","ping":62},{"user_id":553,"name":"fa√ßade","steam_id":76561199157009256,"connected_time":9904000000000,"state":"active","ping":80},{"user_id":585,"name":"Waxing Green Gibus","steam_id":76561198269228580,"connected_time":8285000000000,"state":"active","ping":71},{"user_id":674,"name":"big boy","steam_id":76561198053832401,"connected_time":810000000000,"state":"active","ping":119},{"user_id":677,"name":"Demilious","steam_id":76561198090525010,"connected_time":721000000000,"state":"active","ping":74},{"user_id":678,"name":"Spike Bones","steam_id":76561198234926120,"connected_time":704000000000,"state":"active","ping":99},{"user_id":679,"name":"Ricardo Chavez","steam_id":76561198129389124,"connected_time":649000000000,"state":"active","ping":115},{"user_id":658,"name":"John Dungus (the real one)","steam_id":76561198049191027,"connected_time":2794000000000,"state":"active","ping":74},{"user_id":682,"name":"Average Evil Magma Pea Enjoyer","steam_id":76561198201058206,"connected_time":541000000000,"state":"active","ping":91},{"user_id":683,"name":"Mara Roo","steam_id":76561198279341789,"connected_time":541000000000,"state":"active","ping":90},{"user_id":684,"name":"PJammer","steam_id":76561198280485363,"connected_time":527000000000,"state":"active","ping":96},{"user_id":686,"name":"Hifumi Togo","steam_id":76561198074930636,"connected_time":200000000000,"state":"active","ping":39},{"user_id":666,"name":"dzcreeper","steam_id":76561198072250723,"connected_time":1749000000000,"state":"active","ping":70},{"user_id":661,"name":"Hydraponics","steam_id":76561198109450986,"connected_time":2576000000000,"state":"active","ping":88},{"user_id":660,"name":"BreakMan","steam_id":76561198078798278,"connected_time":2775000000000,"state":"active","ping":89},{"user_id":650,"name":"ChaoticAngel","steam_id":76561198293528217,"connected_time":3782000000000,"state":"active","ping":59},{"user_id":656,"name":"The Sophons","steam_id":76561199386992993,"connected_time":3156000000000,"state":"active","ping":89},{"user_id":687,"name":"Not Slavoj ≈Ωi≈æek","steam_id":76561198004619616,"connected_time":104000000000,"state":"active","ping":111},{"user_id":689,"name":"bussington","steam_id":76561198133150219,"connected_time":15000000000,"state":"active","ping":58},{"user_id":668,"name":"moe5x","steam_id":76561198316877833,"connected_time":1623000000000,"state":"active","ping":98}]},{"server_id":38,"name":"Uncletopia | Chicago | 7 | Stopwatch Beta","name_short":"chi-7","host":"chi-2.us.uncletopia.com","port":27035,"enabled":true,"region":"us-central","cc":"us","latitude":41.881832,"longitude":-87.62318,"reserved":0,"last_update":"0001-01-01T00:00:00Z","name_a2s":"Uncletopia | Chicago | 7 | Stopwatch Beta","protocol":17,"map":"workshop/pl_barnblitz_pro7.ugc582280235","folder":"tf","game":"Team Fortress","app_id":440,"player_count":0,"max_players":24,"Bots":0,"server_type":"Dedicated","server_os":"Linux","password":true,"vac":true,"version":"7757534","steam_id":85568392924866364,"keywords":["nocrits","nodmgspread","payload","uncletopia"],"game_id":440,"stv_port":27036,"stv_name":"Uncletopia | Chicago | 7 | Stopwatch Beta | STV","players":null},{"server_id":39,"name":"Uncletopia | Chicago | 8 | Community","name_short":"chi-8","host":"chi-2.us.uncletopia.com","port":27045,"enabled":true,"region":"us-central","cc":"us","latitude":41.881832,"longitude":-87.62318,"reserved":0,"last_update":"0001-01-01T00:00:00Z","name_a2s":"Uncletopia | Chicago | 8 | Community","protocol":17,"map":"workshop/koth_slaughter_rc1.ugc1712845210","folder":"tf","game":"Team Fortress","app_id":440,"player_count":0,"max_players":24,"Bots":0,"server_type":"Dedicated","server_os":"Linux","password":true,"vac":true,"version":"7757534","steam_id":85568392924866365,"keywords":["cp","nocrits","nodmgspread","uncletopia"],"game_id":440,"stv_port":27046,"stv_name":"Uncletopia | Chicago | 8 | Community | STV","players":null},{"server_id":8,"name":"Uncletopia | Dallas | 1 | All Maps","name_short":"dal-1","host":"dal-1.us.uncletopia.com","port":27015,"enabled":true,"region":"us-central","cc":"us","latitude":32.779167,"longitude":-96.80889,"reserved":0,"last_update":"0001-01-01T00:00:00Z","name_a2s":"Uncletopia | Dallas | 1 | All Maps","protocol":17,"map":"cp_5gorge","folder":"tf","game":"Team Fortress","app_id":440,"player_count":1,"max_players":24,"Bots":0,"server_type":"Dedicated","server_os":"Linux","password":true,"vac":true,"version":"7757534","steam_id":85568392924469986,"keywords":["cp","nocrits","nodmgspread","uncletopia"],"game_id":440,"stv_port":27016,"stv_name":"Uncletopia | Dallas | 1 | All Maps | STV","players":[{"user_id":604,"name":"alexwasherefirst","steam_id":76561198846755124,"connected_time":1323000000000,"state":"active","ping":86}]},{"server_id":108,"name":"Uncletopia | Dallas | 2 | All Maps","name_short":"dal-2","host":"dal-1.us.uncletopia.com","port":27025,"enabled":true,"region":"us-central","cc":"us","latitude":32.779167,"longitude":-96.80889,"reserved":0,"last_update":"0001-01-01T00:00:00Z","name_a2s":"Uncletopia | Dallas | 2 | All Maps","protocol":17,"map":"pl_frontier_final","folder":"tf","game":"Team Fortress","app_id":440,"player_count":24,"max_players":24,"Bots":0,"server_type":"Dedicated","server_os":"Linux","password":true,"vac":true,"version":"7757534","steam_id":85568392924469988,"keywords":["nocrits","nodmgspread","payload","uncletopia"],"game_id":440,"stv_port":27026,"stv_name":"Uncletopia | Dallas | 2 | All Maps | STV","players":[{"user_id":445,"name":"Can You Feel It Mr.Krabs","steam_id":76561198128302414,"connected_time":5227000000000,"state":"active","ping":60},{"user_id":504,"name":"Ironaka","steam_id":76561198029993183,"connected_time":971000000000,"state":"active","ping":84},{"user_id":508,"name":"+","steam_id":76561198262422184,"connected_time":436000000000,"state":"active","ping":48},{"user_id":467,"name":"teh mummy","steam_id":76561198044123636,"connected_time":2359000000000,"state":"active","ping":72},{"user_id":509,"name":"[Deep]GooeyGapedGrannys","steam_id":76561198089731303,"connected_time":375000000000,"state":"active","ping":84},{"user_id":506,"name":"heavy weapons guy","steam_id":76561198151135298,"connected_time":462000000000,"state":"active","ping":64},{"user_id":505,"name":"Petey","steam_id":76561198007339151,"connected_time":945000000000,"state":"active","ping":75},{"user_id":503,"name":"hoodwink00‚ù§","steam_id":76561198133869796,"connected_time":1007000000000,"state":"active","ping":69},{"user_id":472,"name":"BLUEDREAMZz","steam_id":76561198188687169,"connected_time":2247000000000,"state":"active","ping":96},{"user_id":510,"name":"balr0g","steam_id":76561198044132632,"connected_time":344000000000,"state":"active","ping":93},{"user_id":501,"name":"teatimesukka","steam_id":76561198978749594,"connected_time":1103000000000,"state":"active","ping":32},{"user_id":511,"name":"Jonny","steam_id":76561198072507309,"connected_time":297000000000,"state":"active","ping":73},{"user_id":478,"name":"Zoot Suit Tom","steam_id":76561198170834958,"connected_time":2216000000000,"state":"active","ping":70},{"user_id":477,"name":"Young Thug","steam_id":76561198060389529,"connected_time":2220000000000,"state":"active","ping":52},{"user_id":499,"name":"Saristan","steam_id":76561198093346048,"connected_time":1257000000000,"state":"active","ping":84},{"user_id":500,"name":"Bishop","steam_id":76561197997899507,"connected_time":1180000000000,"state":"active","ping":74},{"user_id":515,"name":"Prime","steam_id":76561198218218705,"connected_time":47000000000,"state":"active","ping":100},{"user_id":492,"name":"Gundam Guy","steam_id":76561198178453993,"connected_time":1647000000000,"state":"active","ping":84},{"user_id":513,"name":"rice white","steam_id":76561198320732910,"connected_time":201000000000,"state":"active","ping":91},{"user_id":442,"name":"captainspatklz","steam_id":76561198432167270,"connected_time":5558000000000,"state":"active","ping":71},{"user_id":444,"name":"Etomb","steam_id":76561198210017208,"connected_time":5429000000000,"state":"active","ping":101},{"user_id":514,"name":"Lapiz","steam_id":76561198068172102,"connected_time":115000000000,"state":"active","ping":60},{"user_id":497,"name":"borzier","steam_id":76561198069190432,"connected_time":1367000000000,"state":"active","ping":74},{"user_id":498,"name":"Megadesk","steam_id":76561198078219641,"connected_time":1305000000000,"state":"active","ping":94}]},{"server_id":5,"name":"Uncletopia | Frankfurt | 1 | All Maps","name_short":"frk-1","host":"frk-1.de.uncletopia.com","port":27015,"enabled":true,"region":"eu","cc":"de","latitude":50.110924,"longitude":8.682127,"reserved":0,"last_update":"0001-01-01T00:00:00Z","name_a2s":"Uncletopia | Frankfurt | 1 | All Maps","protocol":17,"map":"pl_badwater","folder":"tf","game":"Team Fortress","app_id":440,"player_count":0,"max_players":24,"Bots":0,"server_type":"Dedicated","server_os":"Linux","password":true,"vac":true,"version":"7757534","steam_id":85568392924469989,"keywords":["nocrits","nodmgspread","payload","uncletopia"],"game_id":440,"stv_port":27016,"stv_name":"Uncletopia | Frankfurt | 1 | All Maps | STV","players":null},{"server_id":110,"name":"Uncletopia | Frankfurt | 2 | All Maps","name_short":"frk-2","host":"frk-1.de.uncletopia.com","port":27025,"enabled":true,"region":"eu","cc":"de","latitude":50.110924,"longitude":8.682127,"reserved":0,"last_update":"0001-01-01T00:00:00Z","name_a2s":"Uncletopia | Frankfurt | 2 | All Maps","protocol":17,"map":"koth_viaduct","folder":"tf","game":"Team Fortress","app_id":440,"player_count":0,"max_players":24,"Bots":0,"server_type":"Dedicated","server_os":"Linux","password":true,"vac":true,"version":"7757534","steam_id":85568392924469990,"keywords":["cp","nocrits","nodmgspread","uncletopia"],"game_id":440,"stv_port":27026,"stv_name":"Uncletopia | Frankfurt | 2 | All Maps | STV","players":null},{"server_id":308,"name":"Uncletopia | Frankfurt | 3 | All Maps","name_short":"frk-3","host":"frk-1.de.uncletopia.com","port":27035,"enabled":true,"region":"eu","cc":"de","latitude":50.110924,"longitude":8.682127,"reserved":0,"last_update":"0001-01-01T00:00:00Z","name_a2s":"Uncletopia | Frankfurt | 3 | All Maps","protocol":17,"map":"pl_barnblitz","folder":"tf","game":"Team Fortress","app_id":440,"player_count":0,"max_players":24,"Bots":0,"server_type":"Dedicated","server_os":"Linux","password":true,"vac":true,"version":"7757534","steam_id":85568392924504274,"keywords":["nocrits","nodmgspread","payload","uncletopia"],"game_id":440,"stv_port":27036,"stv_name":"Uncletopia | Frankfurt | 3 | All Maps | STV","players":null},{"server_id":309,"name":"Uncletopia | Frankfurt | 4 | All Maps","name_short":"frk-4","host":"frk-1.de.uncletopia.com","port":27045,"enabled":true,"region":"eu","cc":"de","latitude":50.110924,"longitude":8.682127,"reserved":0,"last_update":"0001-01-01T00:00:00Z","name_a2s":"Uncletopia | Frankfurt | 4 | All Maps","protocol":17,"map":"pl_snowycoast","folder":"tf","game":"Team Fortress","app_id":440,"player_count":0,"max_players":24,"Bots":0,"server_type":"Dedicated","server_os":"Linux","password":true,"vac":true,"version":"7757534","steam_id":85568392924504275,"keywords":["nocrits","nodmgspread","payload","uncletopia"],"game_id":440,"stv_port":27046,"stv_name":"Uncletopia | Frankfurt | 4 | All Maps | STV","players":null},{"server_id":310,"name":"Uncletopia | Frankfurt | 5 | All Maps","name_short":"frk-5","host":"frk-1.de.uncletopia.com","port":27055,"enabled":true,"region":"eu","cc":"de","latitude":50.110924,"longitude":8.682127,"reserved":0,"last_update":"0001-01-01T00:00:00Z","name_a2s":"Uncletopia | Frankfurt | 5 | All Maps","protocol":17,"map":"cp_altitude","folder":"tf","game":"Team Fortress","app_id":440,"player_count":0,"max_players":24,"Bots":0,"server_type":"Dedicated","server_os":"Linux","password":true,"vac":true,"version":"7757534","steam_id":85568392924504277,"keywords":["cp","nocrits","nodmgspread","uncletopia"],"game_id":440,"stv_port":27056,"stv_name":"Uncletopia | Frankfurt | 5 | All Maps | STV","players":null},{"server_id":311,"name":"Uncletopia | Frankfurt | 6 | All Maps","name_short":"frk-6","host":"frk-1.de.uncletopia.com","port":27065,"enabled":true,"region":"eu","cc":"de","latitude":50.110924,"longitude":8.682127,"reserved":0,"last_update":"0001-01-01T00:00:00Z","name_a2s":"Uncletopia | Frankfurt | 6 | All Maps","protocol":17,"map":"koth_highpass","folder":"tf","game":"Team Fortress","app_id":440,"player_count":0,"max_players":24,"Bots":0,"server_type":"Dedicated","server_os":"Linux","password":true,"vac":true,"version":"7757534","steam_id":85568392924504278,"keywords":["cp","nocrits","nodmgspread","uncletopia"],"game_id":440,"stv_port":27066,"stv_name":"Uncletopia | Frankfurt | 6 | All Maps | STV","players":null},{"server_id":23,"name":"Uncletopia | Frankfurt | 7 | Stopwatch Beta","name_short":"frk-7","host":"frk-1.de.uncletopia.com","port":27075,"enabled":true,"region":"eu","cc":"de","latitude":50.110924,"longitude":8.682127,"reserved":0,"last_update":"0001-01-01T00:00:00Z","name_a2s":"Uncletopia | Frankfurt | 7 | Stopwatch Beta","protocol":17,"map":"pl_borneo","folder":"tf","game":"Team Fortress","app_id":440,"player_count":0,"max_players":24,"Bots":0,"server_type":"Dedicated","server_os":"Linux","password":true,"vac":true,"version":"7757534","steam_id":85568392924742827,"keywords":["nocrits","nodmgspread","payload","uncletopia"],"game_id":440,"stv_port":27076,"stv_name":"Uncletopia | Frankfurt | 7 | Stopwatch Beta | STV","players":null},{"server_id":24,"name":"Uncletopia | Frankfurt | 8 | Community","name_short":"frk-8","host":"frk-1.de.uncletopia.com","port":27085,"enabled":true,"region":"eu","cc":"de","latitude":50.110924,"longitude":8.682127,"reserved":0,"last_update":"0001-01-01T00:00:00Z","name_a2s":"Uncletopia | Frankfurt | 8 | Community","protocol":17,"map":"workshop/pl_eruption_b9a.ugc2807898013","folder":"tf","game":"Team Fortress","app_id":440,"player_count":1,"max_players":24,"Bots":0,"server_type":"Dedicated","server_os":"Linux","password":true,"vac":true,"version":"7757534","steam_id":85568392924742828,"keywords":["nocrits","nodmgspread","payload","uncletopia"],"game_id":440,"stv_port":27086,"stv_name":"Uncletopia | Frankfurt | 8 | Community | STV","players":[{"user_id":21,"name":"WestWooosh","steam_id":76561198867997347,"connected_time":0,"state":"spawning","ping":0}]},{"server_id":202,"name":"Uncletopia | Hong Kong | 1 | All Maps","name_short":"hgk-1","host":"hgk-1.hk.uncletopia.com","port":27015,"enabled":true,"region":"asia","cc":"hk","latitude":22.302711,"longitude":114.177216,"reserved":0,"last_update":"0001-01-01T00:00:00Z","name_a2s":"Uncletopia | Hong Kong | 1 | All Maps","protocol":17,"map":"cp_powerhouse","folder":"tf","game":"Team Fortress","app_id":440,"player_count":23,"max_players":24,"Bots":0,"server_type":"Dedicated","server_os":"Linux","password":true,"vac":true,"version":"7757534","steam_id":85568392924494504,"keywords":["cp","nocrits","nodmgspread","uncletopia"],"game_id":440,"stv_port":27016,"stv_name":"Uncletopia | Hong Kong | 1 | All Maps | STV","players":[{"user_id":27,"name":"Noyour","steam_id":76561198323259830,"connected_time":11347000000000,"state":"active","ping":110},{"user_id":111,"name":"Mysterious_Network","steam_id":76561199445957166,"connected_time":3455000000000,"state":"active","ping":68},{"user_id":132,"name":"Frost","steam_id":76561198199957053,"connected_time":1723000000000,"state":"active","ping":88},{"user_id":149,"name":"Buttman","steam_id":76561198044693388,"connected_time":845000000000,"state":"active","ping":44},{"user_id":98,"name":"A Toilet","steam_id":76561198148278657,"connected_time":5090000000000,"state":"active","ping":110},{"user_id":101,"name":"DarkGamer TF2","steam_id":76561199234460334,"connected_time":4879000000000,"state":"active","ping":75},{"user_id":135,"name":"TomProPlayer","steam_id":76561199223292521,"connected_time":1480000000000,"state":"active","ping":69},{"user_id":41,"name":"ÁÖôÊµ∑ | Enkai","steam_id":76561198050460825,"connected_time":9870000000000,"state":"active","ping":75},{"user_id":142,"name":"Tokuyu","steam_id":76561198296752777,"connected_time":1155000000000,"state":"active","ping":157},{"user_id":115,"name":"smol - est","steam_id":76561198293775978,"connected_time":3321000000000,"state":"active","ping":127},{"user_id":150,"name":"Christiano Ronaldo 07 Portugal","steam_id":76561199468805514,"connected_time":731000000000,"state":"active","ping":146},{"user_id":141,"name":"C√° Th√°ng 4","steam_id":76561198047162026,"connected_time":1175000000000,"state":"active","ping":70},{"user_id":136,"name":"Degenerate With Standard","steam_id":76561199174449723,"connected_time":1454000000000,"state":"active","ping":109},{"user_id":123,"name":"jerrybel","steam_id":76561198055553140,"connected_time":2713000000000,"state":"active","ping":75},{"user_id":127,"name":"Michael Scott","steam_id":76561198023082794,"connected_time":2434000000000,"state":"active","ping":45},{"user_id":137,"name":"Khordiak","steam_id":76561199115051417,"connected_time":1297000000000,"state":"active","ping":103},{"user_id":192,"name":"IDontLaunder","steam_id":76561199103223706,"connected_time":35000000000,"state":"spawning","ping":170},{"user_id":51,"name":"Urotsuki","steam_id":76561198074339034,"connected_time":9190000000000,"state":"active","ping":67},{"user_id":186,"name":"rtgod","steam_id":76561198125363469,"connected_time":229000000000,"state":"active","ping":76},{"user_id":126,"name":"Beef Wellington","steam_id":76561197995635241,"connected_time":2574000000000,"state":"active","ping":114},{"user_id":56,"name":"uptriste","steam_id":76561198158666692,"connected_time":8956000000000,"state":"active","ping":30},{"user_id":130,"name":"Batbob","steam_id":76561198999413123,"connected_time":2158000000000,"state":"active","ping":81},{"user_id":191,"name":"junbi OK","steam_id":76561198116387218,"connected_time":50000000000,"state":"active","ping":149}]},{"server_id":1,"name":"Uncletopia | Los Angeles | 1 | All Maps","name_short":"lax-1","host":"lax-1.us.uncletopia.com","port":27015,"enabled":true,"region":"us-west","cc":"us","latitude":33.94279,"longitude":-118.41004,"reserved":0,"last_update":"0001-01-01T00:00:00Z","name_a2s":"Uncletopia | Los Angeles | 1 | All Maps","protocol":17,"map":"pl_swiftwater_final1","folder":"tf","game":"Team Fortress","app_id":440,"player_count":0,"max_players":24,"Bots":0,"server_type":"Dedicated","server_os":"Linux","password":true,"vac":true,"version":"7757534","steam_id":85568392924469991,"keywords":["nocrits","nodmgspread","payload","uncletopia"],"game_id":440,"stv_port":27016,"stv_name":"Uncletopia | Los Angeles | 1 | All Maps | STV","players":null},{"server_id":112,"name":"Uncletopia | Los Angeles | 2 | All Maps","name_short":"lax-2","host":"lax-1.us.uncletopia.com","port":27025,"enabled":true,"region":"us-west","cc":"us","latitude":33.94279,"longitude":-118.41004,"reserved":0,"last_update":"0001-01-01T00:00:00Z","name_a2s":"Uncletopia | Los Angeles | 2 | All Maps","protocol":17,"map":"koth_cascade","folder":"tf","game":"Team Fortress","app_id":440,"player_count":4,"max_players":24,"Bots":0,"server_type":"Dedicated","server_os":"Linux","password":true,"vac":true,"version":"7757534","steam_id":85568392924469992,"keywords":["cp","nocrits","nodmgspread","uncletopia"],"game_id":440,"stv_port":27026,"stv_name":"Uncletopia | Los Angeles | 2 | All Maps | STV","players":[{"user_id":27,"name":"*+gay-furry-daddy-milker+* (f2p","steam_id":76561199140643169,"connected_time":235000000000,"state":"active","ping":250},{"user_id":23,"name":"Oktober","steam_id":76561198294152085,"connected_time":2254000000000,"state":"active","ping":75},{"user_id":25,"name":"TheShadoWarrior","steam_id":76561198199544221,"connected_time":1653000000000,"state":"active","ping":115},{"user_id":26,"name":"Squatter1","steam_id":76561198078987734,"connected_time":1087000000000,"state":"active","ping":71}]},{"server_id":324,"name":"Uncletopia | Los Angeles | 3 | All Maps","name_short":"lax-3","host":"lax-1.us.uncletopia.com","port":27035,"enabled":true,"region":"us-west","cc":"us","latitude":33.94279,"longitude":-118.41004,"reserved":0,"last_update":"0001-01-01T00:00:00Z","name_a2s":"Uncletopia | Los Angeles | 3 | All Maps","protocol":17,"map":"koth_highpass","folder":"tf","game":"Team Fortress","app_id":440,"player_count":0,"max_players":24,"Bots":0,"server_type":"Dedicated","server_os":"Linux","password":true,"vac":true,"version":"7757534","steam_id":85568392924510198,"keywords":["cp","nocrits","nodmgspread","uncletopia"],"game_id":440,"stv_port":27036,"stv_name":"Uncletopia | Los Angeles | 3 | All Maps | STV","players":null},{"server_id":25,"name":"Uncletopia | Los Angeles | 4 | Stopwatch Beta","name_short":"lax-4","host":"lax-1.us.uncletopia.com","port":27045,"enabled":true,"region":"us-west","cc":"us","latitude":33.94279,"longitude":-118.41004,"reserved":0,"last_update":"0001-01-01T00:00:00Z","name_a2s":"Uncletopia | Los Angeles | 4 | Stopwatch Beta","protocol":17,"map":"koth_viaduct","folder":"tf","game":"Team Fortress","app_id":440,"player_count":0,"max_players":24,"Bots":0,"server_type":"Dedicated","server_os":"Linux","password":true,"vac":true,"version":"7757534","steam_id":85568392924510199,"keywords":["cp","nocrits","nodmgspread","uncletopia"],"game_id":440,"stv_port":27046,"stv_name":"Uncletopia | Los Angeles | 4 | Stopwatch Beta | STV","players":null},{"server_id":11,"name":"Uncletopia | London | 1 | All Maps","name_short":"lon-1","host":"lon-1.uk.uncletopia.com","port":27015,"enabled":true,"region":"eu","cc":"gb","latitude":51.509865,"longitude":-0.118092,"reserved":0,"last_update":"0001-01-01T00:00:00Z","name_a2s":"Uncletopia | London | 1 | All Maps","protocol":17,"map":"pl_pier","folder":"tf","game":"Team Fortress","app_id":440,"player_count":0,"max_players":24,"Bots":0,"server_type":"Dedicated","server_os":"Linux","password":true,"vac":true,"version":"7757534","steam_id":85568392924367362,"keywords":["nocrits","nodmgspread","payload","uncletopia"],"game_id":440,"stv_port":27016,"stv_name":"Uncletopia | London | 1 | All Maps | STV","players":null},{"server_id":114,"name":"Uncletopia | London | 2 | All Maps","name_short":"lon-2","host":"lon-1.uk.uncletopia.com","port":27025,"enabled":true,"region":"eu","cc":"gb","latitude":51.509865,"longitude":-0.118092,"reserved":0,"last_update":"0001-01-01T00:00:00Z","name_a2s":"Uncletopia | London | 2 | All Maps","protocol":17,"map":"pl_borneo","folder":"tf","game":"Team Fortress","app_id":440,"player_count":0,"max_players":24,"Bots":0,"server_type":"Dedicated","server_os":"Linux","password":true,"vac":true,"version":"7757534","steam_id":85568392924470941,"keywords":["nocrits","nodmgspread","payload","uncletopia"],"game_id":440,"stv_port":27026,"stv_name":"Uncletopia | London | 2 | All Maps | STV","players":null},{"server_id":320,"name":"Uncletopia | London | 3 | All Maps","name_short":"lon-3","host":"lon-1.uk.uncletopia.com","port":27035,"enabled":true,"region":"eu","cc":"gb","latitude":51.509865,"longitude":-0.118092,"reserved":0,"last_update":"0001-01-01T00:00:00Z","name_a2s":"Uncletopia | London | 3 | All Maps","protocol":17,"map":"koth_highpass","folder":"tf","game":"Team Fortress","app_id":440,"player_count":0,"max_players":24,"Bots":0,"server_type":"Dedicated","server_os":"Linux","password":true,"vac":true,"version":"7757534","steam_id":85568392924510192,"keywords":["cp","nocrits","nodmgspread","uncletopia"],"game_id":440,"stv_port":27036,"stv_name":"Uncletopia | London | 3 | All Maps | STV","players":null},{"server_id":321,"name":"Uncletopia | London | 4 | All Maps","name_short":"lon-4","host":"lon-1.uk.uncletopia.com","port":27045,"enabled":true,"region":"eu","cc":"gb","latitude":51.509865,"longitude":-0.118092,"reserved":0,"last_update":"0001-01-01T00:00:00Z","name_a2s":"Uncletopia | London | 4 | All Maps","protocol":17,"map":"cp_snakewater_final1","folder":"tf","game":"Team Fortress","app_id":440,"player_count":0,"max_players":24,"Bots":0,"server_type":"Dedicated","server_os":"Linux","password":true,"vac":true,"version":"7757534","steam_id":85568392924510193,"keywords":["cp","nocrits","nodmgspread","uncletopia"],"game_id":440,"stv_port":27046,"stv_name":"Uncletopia | London | 4 | All Maps | STV","players":null},{"server_id":21,"name":"Uncletopia | London | 5 | All Maps","name_short":"lon-5","host":"lon-1.uk.uncletopia.com","port":27055,"enabled":true,"region":"eu","cc":"gb","latitude":51.509865,"longitude":-0.118092,"reserved":0,"last_update":"0001-01-01T00:00:00Z","name_a2s":"Uncletopia | London | 5 | All Maps","protocol":17,"map":"pl_snowycoast","folder":"tf","game":"Team Fortress","app_id":440,"player_count":0,"max_players":24,"Bots":0,"server_type":"Dedicated","server_os":"Linux","password":true,"vac":true,"version":"7757534","steam_id":85568392924742829,"keywords":["nocrits","nodmgspread","payload","uncletopia"],"game_id":440,"stv_port":27056,"stv_name":"Uncletopia | London | 5 | All Maps | STV","players":null},{"server_id":22,"name":"Uncletopia | London | 6 | All Maps","name_short":"lon-6","host":"lon-1.uk.uncletopia.com","port":27065,"enabled":true,"region":"eu","cc":"gb","latitude":51.509865,"longitude":-0.118092,"reserved":0,"last_update":"0001-01-01T00:00:00Z","name_a2s":"Uncletopia | London | 6 | All Maps","protocol":17,"map":"pl_badwater","folder":"tf","game":"Team Fortress","app_id":440,"player_count":22,"max_players":24,"Bots":0,"server_type":"Dedicated","server_os":"Linux","password":true,"vac":true,"version":"7757534","steam_id":85568392924742830,"keywords":["nocrits","nodmgspread","payload","uncletopia"],"game_id":440,"stv_port":27066,"stv_name":"Uncletopia | London | 6 | All Maps | STV","players":[{"user_id":45,"name":"Coffee","steam_id":76561199077316448,"connected_time":2509000000000,"state":"active","ping":67},{"user_id":57,"name":"demps","steam_id":76561198049405872,"connected_time":1883000000000,"state":"active","ping":46},{"user_id":74,"name":"bob (bob) xD!!!","steam_id":76561198267463398,"connected_time":236000000000,"state":"active","ping":61},{"user_id":71,"name":"Sir Kiops","steam_id":76561198022769275,"connected_time":608000000000,"state":"active","ping":146},{"user_id":60,"name":"MEDENJOYER","steam_id":76561198180361759,"connected_time":1849000000000,"state":"active","ping":55},{"user_id":72,"name":"ùîΩùï†ùï©ùïö","steam_id":76561198094382295,"connected_time":589000000000,"state":"active","ping":73},{"user_id":76,"name":"Deur","steam_id":76561199014305863,"connected_time":81000000000,"state":"active","ping":88},{"user_id":62,"name":"Asda","steam_id":76561198210348121,"connected_time":1802000000000,"state":"active","ping":58},{"user_id":68,"name":"Corpus Christi","steam_id":76561198417999443,"connected_time":1091000000000,"state":"active","ping":107},{"user_id":77,"name":"lun4tic","steam_id":76561198850496647,"connected_time":75000000000,"state":"active","ping":72},{"user_id":34,"name":"LuckyStar","steam_id":76561198126840092,"connected_time":3377000000000,"state":"active","ping":109},{"user_id":63,"name":"ivanmixo","steam_id":76561198160213989,"connected_time":1512000000000,"state":"active","ping":63},{"user_id":46,"name":"MrFox","steam_id":76561199094331258,"connected_time":2490000000000,"state":"active","ping":134},{"user_id":39,"name":"minn","steam_id":76561198099101232,"connected_time":3060000000000,"state":"active","ping":57},{"user_id":70,"name":"raime","steam_id":76561198024903775,"connected_time":910000000000,"state":"active","ping":97},{"user_id":73,"name":"Sophvis","steam_id":76561198143786834,"connected_time":509000000000,"state":"active","ping":60},{"user_id":78,"name":"ƒû√º≈û","steam_id":76561198849784043,"connected_time":9000000000,"state":"spawning","ping":105},{"user_id":44,"name":"Psyco","steam_id":76561199004399128,"connected_time":2684000000000,"state":"active","ping":92},{"user_id":48,"name":"–û–∫, –ø–æ–Ω, –∞–≥–∞, –ø–æ–Ω—è\ufffd","steam_id":76561198418860170,"connected_time":2383000000000,"state":"active","ping":136},{"user_id":64,"name":"Purplenoogie","steam_id":76561198081872160,"connected_time":1505000000000,"state":"active","ping":45},{"user_id":67,"name":"LordNero","steam_id":76561198356626632,"connected_time":1309000000000,"state":"active","ping":55},{"user_id":65,"name":"Tickle_Tipson","steam_id":76561198237603082,"connected_time":1498000000000,"state":"active","ping":97}]},{"server_id":40,"name":"Uncletopia | London | 7 | No Payload","name_short":"lon-7","host":"lon-1.uk.uncletopia.com","port":27075,"enabled":true,"region":"eu","cc":"gb","latitude":51.509865,"longitude":-0.118092,"reserved":0,"last_update":"0001-01-01T00:00:00Z","name_a2s":"Uncletopia | London | 7 | No Payload","protocol":17,"map":"pl_upward","folder":"tf","game":"Team Fortress","app_id":440,"player_count":0,"max_players":24,"Bots":0,"server_type":"Dedicated","server_os":"Linux","password":true,"vac":true,"version":"7757534","steam_id":85568392924964314,"keywords":["nocrits","nodmgspread","payload","uncletopia"],"game_id":440,"stv_port":27076,"stv_name":"Uncletopia | London | 7 | No Payload | STV","players":null},{"server_id":41,"name":"Uncletopia | London | 8 | Community","name_short":"lon-8","host":"lon-1.uk.uncletopia.com","port":27085,"enabled":true,"region":"eu","cc":"gb","latitude":51.509865,"longitude":-0.118092,"reserved":0,"last_update":"0001-01-01T00:00:00Z","name_a2s":"Uncletopia | London | 8 | Community","protocol":17,"map":"cp_snakewater_final1","folder":"tf","game":"Team Fortress","app_id":440,"player_count":0,"max_players":24,"Bots":0,"server_type":"Dedicated","server_os":"Linux","password":true,"vac":true,"version":"7757534","steam_id":85568392924964315,"keywords":["cp","nocrits","nodmgspread","uncletopia"],"game_id":440,"stv_port":27086,"stv_name":"Uncletopia | London | 8 | Community | STV","players":null},{"server_id":300,"name":"Uncletopia | Montr√©al | 1 | All Maps","name_short":"mtl-1","host":"mtl-1.ca.uncletopia.com","port":27015,"enabled":true,"region":"us-east","cc":"ca","latitude":45.50889,"longitude":-73.56167,"reserved":0,"last_update":"0001-01-01T00:00:00Z","name_a2s":"Uncletopia | Montr√©al | 1 | All Maps","protocol":17,"map":"koth_highpass","folder":"tf","game":"Team Fortress","app_id":440,"player_count":0,"max_players":24,"Bots":0,"server_type":"Dedicated","server_os":"Linux","password":true,"vac":true,"version":"7757534","steam_id":85568392924500087,"keywords":["cp","nocrits","nodmgspread","uncletopia"],"game_id":440,"stv_port":27016,"stv_name":"Uncletopia | Montr√©al | 1 | All Maps | STV","players":null},{"server_id":301,"name":"Uncletopia | Montr√©al | 2 | All Maps","name_short":"mtl-2","host":"mtl-1.ca.uncletopia.com","port":27025,"enabled":true,"region":"us-east","cc":"ca","latitude":45.50889,"longitude":-73.56167,"reserved":0,"last_update":"0001-01-01T00:00:00Z","name_a2s":"Uncletopia | Montr√©al | 2 | All Maps","protocol":17,"map":"cp_altitude","folder":"tf","game":"Team Fortress","app_id":440,"player_count":0,"max_players":24,"Bots":0,"server_type":"Dedicated","server_os":"Linux","password":true,"vac":true,"version":"7757534","steam_id":85568392924500088,"keywords":["cp","nocrits","nodmgspread","uncletopia"],"game_id":440,"stv_port":27026,"stv_name":"Uncletopia | Montr√©al | 2 | All Maps | STV","players":null},{"server_id":302,"name":"Uncletopia | Montr√©al | 3 | All Maps","name_short":"mtl-3","host":"mtl-1.ca.uncletopia.com","port":27035,"enabled":true,"region":"us-east","cc":"ca","latitude":45.50889,"longitude":-73.56167,"reserved":0,"last_update":"0001-01-01T00:00:00Z","name_a2s":"Uncletopia | Montr√©al | 3 | All Maps","protocol":17,"map":"koth_viaduct","folder":"tf","game":"Team Fortress","app_id":440,"player_count":0,"max_players":24,"Bots":0,"server_type":"Dedicated","server_os":"Linux","password":true,"vac":true,"version":"7757534","steam_id":85568392924500089,"keywords":["cp","nocrits","nodmgspread","uncletopia"],"game_id":440,"stv_port":27036,"stv_name":"Uncletopia | Montr√©al | 3 | All Maps | STV","players":null},{"server_id":303,"name":"Uncletopia | Montr√©al | 4 | No Payload","name_short":"mtl-4","host":"mtl-1.ca.uncletopia.com","port":27045,"enabled":true,"region":"us-east","cc":"ca","latitude":45.50889,"longitude":-73.56167,"reserved":0,"last_update":"0001-01-01T00:00:00Z","name_a2s":"Uncletopia | Montr√©al | 4 | No Payload","protocol":17,"map":"koth_lakeside_final","folder":"tf","game":"Team Fortress","app_id":440,"player_count":0,"max_players":24,"Bots":0,"server_type":"Dedicated","server_os":"Linux","password":true,"vac":true,"version":"7757534","steam_id":85568392924500090,"keywords":["cp","nocrits","nodmgspread","uncletopia"],"game_id":440,"stv_port":27046,"stv_name":"Uncletopia | Montr√©al | 4 | No Payload | STV","players":null},{"server_id":13,"name":"Uncletopia | New York City | 1 | All Maps","name_short":"nyc-1","host":"nyc-1.us.uncletopia.com","port":27015,"enabled":true,"region":"us-east","cc":"us","latitude":40.73061,"longitude":-73.93524,"reserved":0,"last_update":"0001-01-01T00:00:00Z","name_a2s":"Uncletopia | New York City | 1 | All Maps","protocol":17,"map":"pl_snowycoast","folder":"tf","game":"Team Fortress","app_id":440,"player_count":0,"max_players":24,"Bots":0,"server_type":"Dedicated","server_os":"Linux","password":true,"vac":true,"version":"7757534","steam_id":85568392924469993,"keywords":["nocrits","nodmgspread","payload","uncletopia"],"game_id":440,"stv_port":27016,"stv_name":"Uncletopia | New York City | 1 | All Maps | STV","players":null},{"server_id":14,"name":"Uncletopia | New York City | 2 | All Maps","name_short":"nyc-2","host":"nyc-1.us.uncletopia.com","port":27025,"enabled":true,"region":"us-east","cc":"us","latitude":40.73061,"longitude":-73.93524,"reserved":0,"last_update":"0001-01-01T00:00:00Z","name_a2s":"Uncletopia | New York City | 2 | All Maps","protocol":17,"map":"cp_altitude","folder":"tf","game":"Team Fortress","app_id":440,"player_count":0,"max_players":24,"Bots":0,"server_type":"Dedicated","server_os":"Linux","password":true,"vac":true,"version":"7757534","steam_id":85568392924469994,"keywords":["cp","nocrits","nodmgspread","uncletopia"],"game_id":440,"stv_port":27026,"stv_name":"Uncletopia | New York City | 2 | All Maps | STV","players":null},{"server_id":15,"name":"Uncletopia | New York City | 3 | Stopwatch Beta","name_short":"nyc-3","host":"nyc-1.us.uncletopia.com","port":27035,"enabled":true,"region":"us-east","cc":"us","latitude":40.73061,"longitude":-73.93524,"reserved":0,"last_update":"0001-01-01T00:00:00Z","name_a2s":"Uncletopia | New York City | 3 | Stopwatch Beta","protocol":17,"map":"workshop/koth_product_final.ugc454272353","folder":"tf","game":"Team Fortress","app_id":440,"player_count":0,"max_players":24,"Bots":0,"server_type":"Dedicated","server_os":"Linux","password":true,"vac":true,"version":"7757534","steam_id":85568392924742820,"keywords":["cp","nocrits","nodmgspread","uncletopia"],"game_id":440,"stv_port":27036,"stv_name":"Uncletopia | New York City | 3 | Stopwatch Beta | STV","players":null},{"server_id":16,"name":"Uncletopia | New York City | 4 | Community","name_short":"nyc-4","host":"nyc-1.us.uncletopia.com","port":27045,"enabled":true,"region":"us-east","cc":"us","latitude":40.73061,"longitude":-73.93524,"reserved":0,"last_update":"0001-01-01T00:00:00Z","name_a2s":"Uncletopia | New York City | 4 | Community","protocol":17,"map":"workshop/koth_synthetic_rc6a.ugc1549817316","folder":"tf","game":"Team Fortress","app_id":440,"player_count":0,"max_players":24,"Bots":0,"server_type":"Dedicated","server_os":"Linux","password":true,"vac":true,"version":"7757534","steam_id":85568392924742821,"keywords":["cp","nocrits","nodmgspread","uncletopia"],"game_id":440,"stv_port":27046,"stv_name":"Uncletopia | New York City | 4 | Community | STV","players":null},{"server_id":142,"name":"Uncletopia | S√£o Paulo | 1 | All Maps","name_short":"sao-1","host":"sao-1.br.uncletopia.com","port":27015,"enabled":true,"region":"sa","cc":"br","latitude":-23.533773,"longitude":-46.62529,"reserved":0,"last_update":"0001-01-01T00:00:00Z","name_a2s":"Uncletopia | S√£o Paulo | 1 | All Maps","protocol":17,"map":"koth_cascade","folder":"tf","game":"Team Fortress","app_id":440,"player_count":0,"max_players":24,"Bots":0,"server_type":"Dedicated","server_os":"Linux","password":true,"vac":true,"version":"7757534","steam_id":85568392924469996,"keywords":["cp","nocrits","nodmgspread","uncletopia"],"game_id":440,"stv_port":27016,"stv_name":"Uncletopia | S√£o Paulo | 1 | All Maps | STV","players":null},{"server_id":143,"name":"Uncletopia | S√£o Paulo | 2 | All Maps","name_short":"sao-2","host":"sao-2.br.uncletopia.com","port":27015,"enabled":true,"region":"sa","cc":"br","latitude":-23.533773,"longitude":-46.62529,"reserved":0,"last_update":"0001-01-01T00:00:00Z","name_a2s":"Uncletopia | S√£o Paulo | 2 | All Maps","protocol":17,"map":"koth_cascade","folder":"tf","game":"Team Fortress","app_id":440,"player_count":0,"max_players":24,"Bots":0,"server_type":"Dedicated","server_os":"Linux","password":true,"vac":true,"version":"7757534","steam_id":85568392924485349,"keywords":["cp","nocrits","nodmgspread","uncletopia"],"game_id":440,"stv_port":27016,"stv_name":"Uncletopia | S√£o Paulo | 2 | All Maps | STV","players":null},{"server_id":7,"name":"Uncletopia | Seattle | 1 | All Maps","name_short":"sea-1","host":"sea-1.us.uncletopia.com","port":27015,"enabled":true,"region":"us-west","cc":"us","latitude":47.608013,"longitude":-122.33517,"reserved":0,"last_update":"0001-01-01T00:00:00Z","name_a2s":"Uncletopia | Seattle | 1 | All Maps","protocol":17,"map":"pl_upward","folder":"tf","game":"Team Fortress","app_id":440,"player_count":21,"max_players":24,"Bots":0,"server_type":"Dedicated","server_os":"Linux","password":true,"vac":true,"version":"7757534","steam_id":85568392924469997,"keywords":["nocrits","nodmgspread","payload","uncletopia"],"game_id":440,"stv_port":27016,"stv_name":"Uncletopia | Seattle | 1 | All Maps | STV","players":[{"user_id":765,"name":"rat gets the cheese","steam_id":76561198031234032,"connected_time":6170000000000,"state":"active","ping":101},{"user_id":767,"name":"Arsonist Goose","steam_id":76561198147441830,"connected_time":6157000000000,"state":"active","ping":74},{"user_id":817,"name":"PopcornNinja101","steam_id":76561198330680181,"connected_time":78000000000,"state":"active","ping":46},{"user_id":806,"name":"Scampy","steam_id":76561198001506924,"connected_time":2185000000000,"state":"active","ping":61},{"user_id":781,"name":"joseph smith's tradwife","steam_id":76561198325306660,"connected_time":5545000000000,"state":"active","ping":54},{"user_id":796,"name":"shiadyne","steam_id":76561198271939793,"connected_time":3571000000000,"state":"spawning","ping":68},{"user_id":655,"name":"Level 99 Mudcrab","steam_id":76561198077452771,"connected_time":18128000000000,"state":"active","ping":57},{"user_id":816,"name":"strbry","steam_id":76561198155133601,"connected_time":283000000000,"state":"active","ping":54},{"user_id":818,"name":"Koyota","steam_id":76561198069878114,"connected_time":7000000000,"state":"spawning","ping":74},{"user_id":790,"name":"An Old Lady","steam_id":76561198047480318,"connected_time":4330000000000,"state":"active","ping":66},{"user_id":797,"name":"KOOLAID","steam_id":76561198062775462,"connected_time":3569000000000,"state":"active","ping":76},{"user_id":785,"name":"rorywashere /·ê† - Àï -„Éû ‚≥ä","steam_id":76561198065825165,"connected_time":5359000000000,"state":"active","ping":116},{"user_id":808,"name":"gorlab","steam_id":76561198025089694,"connected_time":1819000000000,"state":"active","ping":58},{"user_id":814,"name":"big car","steam_id":76561198067082350,"connected_time":519000000000,"state":"active","ping":75},{"user_id":810,"name":"\u003c3","steam_id":76561198196829267,"connected_time":1398000000000,"state":"active","ping":69},{"user_id":802,"name":"Dr. Karl, the AUS Science Guy","steam_id":76561198031278747,"connected_time":3373000000000,"state":"active","ping":47},{"user_id":815,"name":"Oreodog300","steam_id":76561198137626866,"connected_time":447000000000,"state":"active","ping":69},{"user_id":792,"name":"profile name","steam_id":76561198032625036,"connected_time":4185000000000,"state":"active","ping":57},{"user_id":812,"name":"nonanona","steam_id":76561198044776946,"connected_time":643000000000,"state":"active","ping":89},{"user_id":789,"name":"Yack Skag","steam_id":76561198068251493,"connected_time":4362000000000,"state":"active","ping":69},{"user_id":787,"name":"p9 jorts","steam_id":76561199041179985,"connected_time":5284000000000,"state":"active","ping":56}]},{"server_id":119,"name":"Uncletopia | Seattle | 2 | All Maps","name_short":"sea-2","host":"sea-1.us.uncletopia.com","port":27025,"enabled":true,"region":"us-west","cc":"us","latitude":47.608013,"longitude":-122.33517,"reserved":0,"last_update":"0001-01-01T00:00:00Z","name_a2s":"Uncletopia | Seattle | 2 | All Maps","protocol":17,"map":"pl_pier","folder":"tf","game":"Team Fortress","app_id":440,"player_count":24,"max_players":24,"Bots":0,"server_type":"Dedicated","server_os":"Linux","password":true,"vac":true,"version":"7757534","steam_id":85568392924469998,"keywords":["nocrits","nodmgspread","payload","uncletopia"],"game_id":440,"stv_port":27026,"stv_name":"Uncletopia | Seattle | 2 | All Maps | STV","players":[{"user_id":385,"name":"Feel the bern","steam_id":76561198078824519,"connected_time":536000000000,"state":"active","ping":92},{"user_id":391,"name":"hi i have a new mouse","steam_id":76561198424248616,"connected_time":367000000000,"state":"active","ping":72},{"user_id":369,"name":"Nobuunga","steam_id":76561198100614981,"connected_time":1627000000000,"state":"active","ping":58},{"user_id":336,"name":"SvicidalBug","steam_id":76561198221390504,"connected_time":3567000000000,"state":"active","ping":64},{"user_id":386,"name":"PerKnuckleChuckle","steam_id":76561198023221596,"connected_time":535000000000,"state":"active","ping":87},{"user_id":374,"name":"Oomitch","steam_id":76561198071702759,"connected_time":1086000000000,"state":"active","ping":49},{"user_id":392,"name":"hart","steam_id":76561198046073848,"connected_time":318000000000,"state":"active","ping":52},{"user_id":321,"name":"Deryn Sharp","steam_id":76561198047017346,"connected_time":5219000000000,"state":"active","ping":79},{"user_id":383,"name":"Sad Sapling","steam_id":76561198075612150,"connected_time":795000000000,"state":"active","ping":87},{"user_id":371,"name":"oil","steam_id":76561198099980149,"connected_time":1408000000000,"state":"active","ping":75},{"user_id":395,"name":"goldhed","steam_id":76561198051751133,"connected_time":29000000000,"state":"active","ping":51},{"user_id":350,"name":"Branz","steam_id":76561198076632143,"connected_time":2931000000000,"state":"active","ping":97},{"user_id":389,"name":"Kunai Reliant Subhuman","steam_id":76561198046526036,"connected_time":462000000000,"state":"active","ping":79},{"user_id":379,"name":"Oxybe","steam_id":76561198010089172,"connected_time":946000000000,"state":"active","ping":135},{"user_id":367,"name":"Palidens Cat","steam_id":76561199191671568,"connected_time":2009000000000,"state":"active","ping":70},{"user_id":346,"name":"Tomato Soup","steam_id":76561198051834684,"connected_time":3102000000000,"state":"active","ping":58},{"user_id":366,"name":"Oh No! It's Twister!","steam_id":76561198016791916,"connected_time":2049000000000,"state":"active","ping":83},{"user_id":354,"name":"hotdog every meal","steam_id":76561198392514273,"connected_time":2874000000000,"state":"active","ping":59},{"user_id":378,"name":"Shoggoth","steam_id":76561198117892299,"connected_time":984000000000,"state":"active","ping":66},{"user_id":390,"name":"stinkiest smelliest gamer ever","steam_id":76561198014593467,"connected_time":457000000000,"state":"active","ping":103},{"user_id":313,"name":"Julien","steam_id":76561199389584938,"connected_time":5638000000000,"state":"active","ping":43},{"user_id":319,"name":"Villchip","steam_id":76561198198599982,"connected_time":5428000000000,"state":"active","ping":56},{"user_id":372,"name":"Death Bird","steam_id":76561198041329791,"connected_time":1290000000000,"state":"active","ping":76},{"user_id":382,"name":"mobe","steam_id":76561198121633820,"connected_time":818000000000,"state":"active","ping":77}]},{"server_id":406,"name":"Uncletopia | Seattle | 3 | Stopwatch Beta","name_short":"sea-3","host":"sea-1.us.uncletopia.com","port":27035,"enabled":true,"region":"us-west","cc":"us","latitude":47.608013,"longitude":-122.33517,"reserved":0,"last_update":"0001-01-01T00:00:00Z","name_a2s":"Uncletopia | Seattle | 3 | Stopwatch Beta","protocol":17,"map":"workshop/pl_summercoast_rc8e.ugc1761528829","folder":"tf","game":"Team Fortress","app_id":440,"player_count":0,"max_players":24,"Bots":0,"server_type":"Dedicated","server_os":"Linux","password":true,"vac":true,"version":"7757534","steam_id":85568392924515217,"keywords":["nocrits","nodmgspread","payload","uncletopia"],"game_id":440,"stv_port":27036,"stv_name":"Uncletopia | Seattle | 3 | Stopwatch Beta | STV","players":null},{"server_id":17,"name":"Uncletopia | San Francisco | 1 | All Maps","name_short":"sfo-1","host":"sfo-1.us.uncletopia.com","port":27015,"enabled":true,"region":"us-west","cc":"us","latitude":37.77397,"longitude":-122.4313,"reserved":0,"last_update":"0001-01-01T00:00:00Z","name_a2s":"Uncletopia | San Francisco | 1 | All Maps","protocol":17,"map":"koth_viaduct","folder":"tf","game":"Team Fortress","app_id":440,"player_count":1,"max_players":24,"Bots":0,"server_type":"Dedicated","server_os":"Linux","password":true,"vac":true,"version":"7757534","steam_id":85568392924469999,"keywords":["cp","nocrits","nodmgspread","uncletopia"],"game_id":440,"stv_port":27016,"stv_name":"Uncletopia | San Francisco | 1 | All Maps | STV","players":[{"user_id":381,"name":"Exophix","steam_id":76561199177402689,"connected_time":53000000000,"state":"active","ping":81}]},{"server_id":18,"name":"Uncletopia | San Francisco | 2 | All Maps","name_short":"sfo-2","host":"sfo-1.us.uncletopia.com","port":27025,"enabled":true,"region":"us-west","cc":"us","latitude":37.77397,"longitude":-122.4313,"reserved":0,"last_update":"0001-01-01T00:00:00Z","name_a2s":"Uncletopia | San Francisco | 2 | All Maps","protocol":17,"map":"pl_snowycoast","folder":"tf","game":"Team Fortress","app_id":440,"player_count":21,"max_players":24,"Bots":0,"server_type":"Dedicated","server_os":"Linux","password":true,"vac":true,"version":"7757534","steam_id":85568392924470000,"keywords":["nocrits","nodmgspread","payload","uncletopia"],"game_id":440,"stv_port":27026,"stv_name":"Uncletopia | San Francisco | 2 | All Maps | STV","players":[{"user_id":164,"name":"Jango","steam_id":76561198121922413,"connected_time":35000000000,"state":"active","ping":49},{"user_id":133,"name":"DeL's Arcade","steam_id":76561197972530119,"connected_time":2938000000000,"state":"active","ping":114},{"user_id":163,"name":"NewNebula12","steam_id":76561198146473719,"connected_time":39000000000,"state":"spawning","ping":58},{"user_id":143,"name":"MinusSoup918","steam_id":76561198060902773,"connected_time":1674000000000,"state":"active","ping":69},{"user_id":147,"name":"babywizard","steam_id":76561198097757862,"connected_time":1234000000000,"state":"active","ping":62},{"user_id":148,"name":"cream team","steam_id":76561198139043953,"connected_time":1225000000000,"state":"active","ping":73},{"user_id":109,"name":"NooBHatteR","steam_id":76561198077662703,"connected_time":5018000000000,"state":"active","ping":69},{"user_id":155,"name":"demon girl","steam_id":76561198100650222,"connected_time":958000000000,"state":"active","ping":62},{"user_id":156,"name":"Murk Wahlberg","steam_id":76561198131467867,"connected_time":956000000000,"state":"active","ping":30},{"user_id":149,"name":"Schnitz(Lost my Glasses)","steam_id":76561198265484253,"connected_time":1205000000000,"state":"active","ping":64},{"user_id":118,"name":"times table","steam_id":76561198341452558,"connected_time":4392000000000,"state":"active","ping":72},{"user_id":150,"name":"jelderjr","steam_id":76561198208862897,"connected_time":1205000000000,"state":"active","ping":49},{"user_id":137,"name":"Taste Of Pancakes","steam_id":76561198158784641,"connected_time":2852000000000,"state":"active","ping":62},{"user_id":152,"name":"Yoozer","steam_id":76561198420257694,"connected_time":1070000000000,"state":"active","ping":58},{"user_id":159,"name":"unlucky","steam_id":76561199204822104,"connected_time":864000000000,"state":"active","ping":63},{"user_id":141,"name":"Markz","steam_id":76561197996278159,"connected_time":1884000000000,"state":"active","ping":62},{"user_id":140,"name":"doobiebob","steam_id":76561198071963742,"connected_time":2473000000000,"state":"active","ping":59},{"user_id":144,"name":"Twisted Freaking Cyclepath","steam_id":76561198080775161,"connected_time":1670000000000,"state":"active","ping":70},{"user_id":138,"name":"robertistoastyargentina","steam_id":76561198324736786,"connected_time":2831000000000,"state":"active","ping":84},{"user_id":160,"name":"EatSomeBEES","steam_id":76561198047334307,"connected_time":823000000000,"state":"active","ping":75},{"user_id":162,"name":"PonYOOOOOOO","steam_id":76561199067424111,"connected_time":436000000000,"state":"active","ping":61}]},{"server_id":19,"name":"Uncletopia | San Francisco | 3 | Stopwatch Beta","name_short":"sfo-3","host":"sfo-1.us.uncletopia.com","port":27035,"enabled":true,"region":"us-west","cc":"us","latitude":37.77397,"longitude":-122.4313,"reserved":0,"last_update":"0001-01-01T00:00:00Z","name_a2s":"Uncletopia | San Francisco | 3 | Stopwatch Beta","protocol":17,"map":"workshop/pl_vigil_rc9.ugc1266210012","folder":"tf","game":"Team Fortress","app_id":440,"player_count":0,"max_players":24,"Bots":0,"server_type":"Dedicated","server_os":"Linux","password":true,"vac":true,"version":"7757534","steam_id":85568392924742824,"keywords":["nocrits","nodmgspread","payload","uncletopia"],"game_id":440,"stv_port":27036,"stv_name":"Uncletopia | San Francisco | 3 | Stopwatch Beta | STV","players":null},{"server_id":20,"name":"Uncletopia | San Francisco | 4 | Community","name_short":"sfo-4","host":"sfo-1.us.uncletopia.com","port":27045,"enabled":true,"region":"us-west","cc":"us","latitude":37.77397,"longitude":-122.4313,"reserved":0,"last_update":"0001-01-01T00:00:00Z","name_a2s":"Uncletopia | San Francisco | 4 | Community","protocol":17,"map":"workshop/koth_bagel_rc5.ugc2514036946","folder":"tf","game":"Team Fortress","app_id":440,"player_count":0,"max_players":24,"Bots":0,"server_type":"Dedicated","server_os":"Linux","password":true,"vac":true,"version":"7757534","steam_id":85568392924742826,"keywords":["cp","nocrits","nodmgspread","uncletopia"],"game_id":440,"stv_port":27046,"stv_name":"Uncletopia | San Francisco | 4 | Community | STV","players":null},{"server_id":141,"name":"Uncletopia | Sydney | 1 | All Maps","name_short":"syd-1","host":"syd-1.au.uncletopia.com","port":27015,"enabled":true,"region":"au","cc":"au","latitude":-33.865143,"longitude":151.2099,"reserved":0,"last_update":"0001-01-01T00:00:00Z","name_a2s":"Uncletopia | Sydney | 1 | All Maps","protocol":17,"map":"pl_pier","folder":"tf","game":"Team Fortress","app_id":440,"player_count":24,"max_players":24,"Bots":0,"server_type":"Dedicated","server_os":"Linux","password":true,"vac":true,"version":"7757534","steam_id":85568392924470001,"keywords":["nocrits","nodmgspread","payload","uncletopia"],"game_id":440,"stv_port":27016,"stv_name":"Uncletopia | Sydney | 1 | All Maps | STV","players":[{"user_id":465,"name":"Meme Aids","steam_id":76561198847593053,"connected_time":1412000000000,"state":"active","ping":60},{"user_id":445,"name":"pigeon","steam_id":76561198135180841,"connected_time":2918000000000,"state":"active","ping":46},{"user_id":469,"name":"Leonidas","steam_id":76561198054096076,"connected_time":1155000000000,"state":"active","ping":52},{"user_id":438,"name":"justifiedly delirious person","steam_id":76561198340730741,"connected_time":3787000000000,"state":"active","ping":60},{"user_id":433,"name":"Piklz","steam_id":76561198043384139,"connected_time":4483000000000,"state":"active","ping":51},{"user_id":431,"name":"PhD in Shoe Shining","steam_id":76561198972095766,"connected_time":4681000000000,"state":"active","ping":40},{"user_id":461,"name":"Zort","steam_id":76561198056414289,"connected_time":1656000000000,"state":"active","ping":66},{"user_id":463,"name":"DeathEagle „Ç∑","steam_id":76561197997644542,"connected_time":1544000000000,"state":"active","ping":46},{"user_id":458,"name":"Atlas","steam_id":76561198069332870,"connected_time":1727000000000,"state":"active","ping":53},{"user_id":434,"name":"match","steam_id":76561198088227748,"connected_time":4357000000000,"state":"active","ping":60},{"user_id":471,"name":"skud","steam_id":76561198136866711,"connected_time":1126000000000,"state":"active","ping":57},{"user_id":470,"name":"HououinKyoumaMadScientistSoCOOL","steam_id":76561198287321229,"connected_time":1144000000000,"state":"active","ping":74},{"user_id":456,"name":"liam","steam_id":76561198046239819,"connected_time":1808000000000,"state":"active","ping":139},{"user_id":441,"name":"Hally","steam_id":76561198045236233,"connected_time":3608000000000,"state":"active","ping":55},{"user_id":480,"name":"Hungus Humongous","steam_id":76561198379682659,"connected_time":264000000000,"state":"active","ping":61},{"user_id":474,"name":"Lobart√©","steam_id":76561198090116136,"connected_time":947000000000,"state":"active","ping":66},{"user_id":464,"name":"clout","steam_id":76561198073310502,"connected_time":1419000000000,"state":"active","ping":85},{"user_id":419,"name":"Wolf","steam_id":76561198067256350,"connected_time":5390000000000,"state":"active","ping":61},{"user_id":467,"name":"A KNIFE!","steam_id":76561198160390701,"connected_time":1297000000000,"state":"active","ping":57},{"user_id":462,"name":"limpchimpin","steam_id":76561198042773083,"connected_time":1645000000000,"state":"active","ping":98},{"user_id":429,"name":"Void_Robin","steam_id":76561198855798566,"connected_time":4972000000000,"state":"active","ping":71},{"user_id":472,"name":"no teles 4 u","steam_id":76561198018478297,"connected_time":1118000000000,"state":"active","ping":72},{"user_id":473,"name":"Tiger_Tan","steam_id":76561198221733844,"connected_time":1041000000000,"state":"active","ping":66},{"user_id":477,"name":"TheDoctor30","steam_id":76561198433686866,"connected_time":569000000000,"state":"active","ping":101}]},{"server_id":123,"name":"Uncletopia | Sydney | 2 | All Maps","name_short":"syd-2","host":"syd-1.au.uncletopia.com","port":27025,"enabled":true,"region":"au","cc":"au","latitude":-33.865143,"longitude":151.2099,"reserved":0,"last_update":"0001-01-01T00:00:00Z","name_a2s":"Uncletopia | Sydney | 2 | All Maps","protocol":17,"map":"cp_process_final","folder":"tf","game":"Team Fortress","app_id":440,"player_count":22,"max_players":24,"Bots":0,"server_type":"Dedicated","server_os":"Linux","password":true,"vac":true,"version":"7757534","steam_id":85568392924470002,"keywords":["cp","nocrits","nodmgspread","uncletopia"],"game_id":440,"stv_port":27026,"stv_name":"Uncletopia | Sydney | 2 | All Maps | STV","players":[{"user_id":204,"name":"¬øeTheRealMe?","steam_id":76561198033297147,"connected_time":359000000000,"state":"active","ping":94},{"user_id":199,"name":"Paula","steam_id":76561198010688399,"connected_time":732000000000,"state":"active","ping":88},{"user_id":163,"name":"Eugene (built different)","steam_id":76561198079108027,"connected_time":2580000000000,"state":"active","ping":48},{"user_id":174,"name":"Johngamer2418","steam_id":76561198377832282,"connected_time":2100000000000,"state":"active","ping":56},{"user_id":142,"name":"sydney","steam_id":76561199057568663,"connected_time":4137000000000,"state":"active","ping":58},{"user_id":191,"name":"Wild ???","steam_id":76561198133529257,"connected_time":1604000000000,"state":"active","ping":74},{"user_id":203,"name":"EpicGuy4227","steam_id":76561198094132328,"connected_time":512000000000,"state":"active","ping":52},{"user_id":179,"name":"Pew pew pew!","steam_id":76561198004120277,"connected_time":1979000000000,"state":"active","ping":43},{"user_id":169,"name":"pants money","steam_id":76561198066256359,"connected_time":2406000000000,"state":"active","ping":51},{"user_id":162,"name":"sabeuo","steam_id":76561198288259746,"connected_time":2741000000000,"state":"active","ping":59},{"user_id":205,"name":"gun spy TF2","steam_id":76561199446773766,"connected_time":188000000000,"state":"active","ping":225},{"user_id":206,"name":"cretin","steam_id":76561198127848228,"connected_time":110000000000,"state":"active","ping":61},{"user_id":171,"name":"Dr. Hoppity","steam_id":76561197999715646,"connected_time":2192000000000,"state":"active","ping":56},{"user_id":181,"name":"precious.","steam_id":76561198054804209,"connected_time":1920000000000,"state":"active","ping":86},{"user_id":173,"name":"oll9abc","steam_id":76561198089592590,"connected_time":2129000000000,"state":"active","ping":65},{"user_id":189,"name":"pablo.rodriguez.2015","steam_id":76561198166909147,"connected_time":1720000000000,"state":"active","ping":32},{"user_id":190,"name":"tazz.","steam_id":76561197999757636,"connected_time":1709000000000,"state":"active","ping":65},{"user_id":198,"name":"tweedie","steam_id":76561198063425523,"connected_time":747000000000,"state":"active","ping":55},{"user_id":200,"name":"terrablade_master","steam_id":76561198997249192,"connected_time":716000000000,"state":"active","ping":72},{"user_id":182,"name":"Beano","steam_id":76561198064883218,"connected_time":1919000000000,"state":"active","ping":58},{"user_id":195,"name":"Shtinky","steam_id":76561199186320078,"connected_time":1158000000000,"state":"active","ping":44},{"user_id":202,"name":"Half","steam_id":76561199232009340,"connected_time":536000000000,"state":"active","ping":102}]},{"server_id":395,"name":"Uncletopia | Sydney | 3 | All Maps","name_short":"syd-3","host":"syd-1.au.uncletopia.com","port":27035,"enabled":true,"region":"au","cc":"au","latitude":-33.865143,"longitude":151.2099,"reserved":0,"last_update":"0001-01-01T00:00:00Z","name_a2s":"Uncletopia | Sydney | 3 | All Maps","protocol":17,"map":"pl_pier","folder":"tf","game":"Team Fortress","app_id":440,"player_count":0,"max_players":24,"Bots":0,"server_type":"Dedicated","server_os":"Linux","password":true,"vac":true,"version":"7757534","steam_id":85568392925194467,"keywords":["nocrits","nodmgspread","payload","uncletopia"],"game_id":440,"stv_port":27036,"stv_name":"Uncletopia | Sydney | 3 | All Maps | STV","players":null},{"server_id":396,"name":"Uncletopia | Sydney | 4 | All Maps","name_short":"syd-4","host":"syd-1.au.uncletopia.com","port":27045,"enabled":true,"region":"au","cc":"au","latitude":-33.865143,"longitude":151.2099,"reserved":0,"last_update":"0001-01-01T00:00:00Z","name_a2s":"Uncletopia | Sydney | 4 | All Maps","protocol":17,"map":"cp_sunshine","folder":"tf","game":"Team Fortress","app_id":440,"player_count":0,"max_players":24,"Bots":0,"server_type":"Dedicated","server_os":"Linux","password":true,"vac":true,"version":"7757534","steam_id":85568392925397958,"keywords":["cp","nocrits","nodmgspread","uncletopia"],"game_id":440,"stv_port":27046,"stv_name":"Uncletopia | Sydney | 4 | All Maps | STV","players":null},{"server_id":58,"name":"Uncletopia | Sydney | 5 | Stopwatch Beta","name_short":"syd-5","host":"syd-1.au.uncletopia.com","port":27055,"enabled":true,"region":"au","cc":"au","latitude":-33.865143,"longitude":151.2099,"reserved":0,"last_update":"0001-01-01T00:00:00Z","name_a2s":"Uncletopia | Sydney | 5 | Stopwatch Beta","protocol":17,"map":"pl_barnblitz","folder":"tf","game":"Team Fortress","app_id":440,"player_count":0,"max_players":24,"Bots":0,"server_type":"Dedicated","server_os":"Linux","password":true,"vac":true,"version":"7757534","steam_id":85568392925397959,"keywords":["nocrits","nodmgspread","payload","uncletopia"],"game_id":440,"stv_port":27056,"stv_name":"Uncletopia | Sydney | 5 | Stopwatch Beta | STV","players":null},{"server_id":59,"name":"Uncletopia | Sydney | 6 | Community","name_short":"syd-6","host":"syd-1.au.uncletopia.com","port":27065,"enabled":true,"region":"au","cc":"au","latitude":-33.865143,"longitude":151.2099,"reserved":0,"last_update":"0001-01-01T00:00:00Z","name_a2s":"Uncletopia | Sydney | 6 | Community","protocol":17,"map":"workshop/koth_synthetic_rc6a.ugc1549817316","folder":"tf","game":"Team Fortress","app_id":440,"player_count":0,"max_players":24,"Bots":0,"server_type":"Dedicated","server_os":"Linux","password":true,"vac":true,"version":"7757534","steam_id":85568392925397960,"keywords":["cp","nocrits","nodmgspread","uncletopia"],"game_id":440,"stv_port":27066,"stv_name":"Uncletopia | Sydney | 6 | Community | STV","players":null},{"server_id":49,"name":"Uncletopia | Warsaw | 1 | All Maps","name_short":"waw-1","host":"waw-1.pl.uncletopia.com","port":27015,"enabled":true,"region":"eu","cc":"pl","latitude":52.2297,"longitude":21.017532,"reserved":0,"last_update":"0001-01-01T00:00:00Z","name_a2s":"","protocol":0,"map":"","folder":"","game":"","app_id":0,"player_count":0,"max_players":0,"Bots":0,"server_type":"","server_os":"","password":false,"vac":false,"version":"","steam_id":0,"keywords":null,"game_id":0,"stv_port":0,"stv_name":"","players":null},{"server_id":50,"name":"Uncletopia | Warsaw | 2 | All Maps","name_short":"waw-2","host":"waw-1.pl.uncletopia.com","port":27025,"enabled":true,"region":"eu","cc":"pl","latitude":52.2297,"longitude":21.017532,"reserved":0,"last_update":"0001-01-01T00:00:00Z","name_a2s":"Uncletopia | Warsaw | 2 | All Maps","protocol":17,"map":"pl_snowycoast","folder":"tf","game":"Team Fortress","app_id":440,"player_count":0,"max_players":24,"Bots":0,"server_type":"Dedicated","server_os":"Linux","password":true,"vac":true,"version":"7757534","steam_id":85568392925397851,"keywords":["nocrits","nodmgspread","payload","uncletopia"],"game_id":440,"stv_port":27026,"stv_name":"Uncletopia | Warsaw | 2 | All Maps | STV","players":null},{"server_id":51,"name":"Uncletopia | Warsaw | 3 | All Maps","name_short":"waw-3","host":"waw-1.pl.uncletopia.com","port":27035,"enabled":true,"region":"eu","cc":"pl","latitude":52.2297,"longitude":21.017532,"reserved":0,"last_update":"0001-01-01T00:00:00Z","name_a2s":"Uncletopia | Warsaw | 3 | All Maps","protocol":17,"map":"cp_sunshine","folder":"tf","game":"Team Fortress","app_id":440,"player_count":0,"max_players":24,"Bots":0,"server_type":"Dedicated","server_os":"Linux","password":true,"vac":true,"version":"7757534","steam_id":85568392925397852,"keywords":["cp","nocrits","nodmgspread","uncletopia"],"game_id":440,"stv_port":27036,"stv_name":"Uncletopia | Warsaw | 3 | All Maps | STV","players":null},{"server_id":52,"name":"Uncletopia | Warsaw | 4 | All Maps","name_short":"waw-4","host":"waw-1.pl.uncletopia.com","port":27045,"enabled":true,"region":"eu","cc":"pl","latitude":52.2297,"longitude":21.017532,"reserved":0,"last_update":"0001-01-01T00:00:00Z","name_a2s":"Uncletopia | Warsaw | 4 | All Maps","protocol":17,"map":"pl_borneo","folder":"tf","game":"Team Fortress","app_id":440,"player_count":0,"max_players":24,"Bots":0,"server_type":"Dedicated","server_os":"Linux","password":true,"vac":true,"version":"7757534","steam_id":85568392925397853,"keywords":["nocrits","nodmgspread","payload","uncletopia"],"game_id":440,"stv_port":27046,"stv_name":"Uncletopia | Warsaw | 4 | All Maps | STV","players":null},{"server_id":53,"name":"Uncletopia | Warsaw | 5 | Stopwatch Beta","name_short":"waw-5","host":"waw-1.pl.uncletopia.com","port":27055,"enabled":true,"region":"eu","cc":"pl","latitude":52.2297,"longitude":21.017532,"reserved":0,"last_update":"0001-01-01T00:00:00Z","name_a2s":"Uncletopia | Warsaw | 5 | Stopwatch Beta","protocol":17,"map":"pl_upward","folder":"tf","game":"Team Fortress","app_id":440,"player_count":0,"max_players":24,"Bots":0,"server_type":"Dedicated","server_os":"Linux","password":true,"vac":true,"version":"7757534","steam_id":85568392925397854,"keywords":["nocrits","nodmgspread","payload","uncletopia"],"game_id":440,"stv_port":27056,"stv_name":"Uncletopia | Warsaw | 5 | Stopwatch Beta | STV","players":null},{"server_id":54,"name":"Uncletopia | Warsaw | 6 | Community","name_short":"waw-6","host":"waw-1.pl.uncletopia.com","port":27065,"enabled":true,"region":"eu","cc":"pl","latitude":52.2297,"longitude":21.017532,"reserved":0,"last_update":"0001-01-01T00:00:00Z","name_a2s":"Uncletopia | Warsaw | 6 | Community","protocol":17,"map":"pl_barnblitz","folder":"tf","game":"Team Fortress","app_id":440,"player_count":0,"max_players":24,"Bots":0,"server_type":"Dedicated","server_os":"Linux","password":true,"vac":true,"version":"7757534","steam_id":85568392925397856,"keywords":["nocrits","nodmgspread","payload","uncletopia"],"game_id":440,"stv_port":27066,"stv_name":"Uncletopia | Warsaw | 6 | Community | STV","players":null}]}