{"status":true,"message":"","result":[{"server_id":9,"name":"Uncletopia | Atlanta | 1 | All Maps","name_short":"atl-1","host":"atl-1.us.uncletopia.com","port":27015,"enabled":true,"region":"us-east","cc":"us","latitude":33.753746,"longitude":-84.38633,"reserved":0,"last_update":"0001-01-01T00:00:00Z","name_a2s":"Uncletopia | Atlanta | 1 | All Maps","protocol":17,"map":"pl_borneo","folder":"tf","game":"Team Fortress","app_id":440,"player_count":17,"max_players":24,"Bots":0,"server_type":"Dedicated","server_os":"Linux","password":true,"vac":true,"version":"7882260","steam_id":85568392924469982,"keywords":["nocrits","nodmgspread","payload","uncletopia"],"game_id":440,"stv_port":27016,"stv_name":"Uncletopia | Atlanta | 1 | All Maps | STV","players":[{"user_id":690,"name":"Lincs","steam_id":76561198049851872,"connected_time":1188000000000,"state":"active","ping":65},{"user_id":693,"name":"lu","steam_id":76561198080731872,"connected_time":1050000000000,"state":"active","ping":66},{"user_id":698,"name":"wavlog0124","steam_id":76561199079614516,"connected_time":765000000000,"state":"active","ping":71},{"user_id":702,"name":"DragonKing12780","steam_id":76561199038961182,"connected_time":505000000000,"state":"active","ping":60},{"user_id":644,"name":"jay","steam_id":76561199474493516,"connected_time":3886000000000,"state":"active","ping":105},{"user_id":699,"name":"GLaDOS Simp","steam_id":76561198084849541,"connected_time":714000000000,"state":"active","ping":60},{"user_id":700,"name":"SwordRecoil","steam_id":76561198042491368,"connected_time":589000000000,"state":"active","ping":105},{"user_id":662,"name":"Terror","steam_id":76561198188685728,"connected_time":2510000000000,"state":"active","ping":60},{"user_id":701,"name":"Maid Knight","steam_id":76561198214370515,"connected_time":571000000000,"state":"active","ping":60},{"user_id":704,"name":"Kang","steam_id":76561198030027349,"connected_time":416000000000,"state":"active","ping":70},{"user_id":691,"name":"ash","steam_id":76561198127890645,"connected_time":1164000000000,"state":"active","ping":70},{"user_id":625,"name":"dementia gaming","steam_id":76561198432668439,"connected_time":7086000000000,"state":"active","ping":78},{"user_id":705,"name":"mom","steam_id":76561198094889904,"connected_time":415000000000,"state":"active","ping":66},{"user_id":706,"name":"YOUNG UPGRADE","steam_id":76561198035474725,"connected_time":404000000000,"state":"active","ping":63},{"user_id":713,"name":"SLOPPY BLOWJOB DEVIL","steam_id":76561198819545533,"connected_time":96000000000,"state":"active","ping":74},{"user_id":708,"name":"sunny","steam_id":76561198069380992,"connected_time":381000000000,"state":"active","ping":71},{"user_id":714,"name":"DragoDuck","steam_id":76561198385685683,"connected_time":88000000000,"state":"spawning","ping":88}]},{"server_id":104,"name":"Uncletopia | Atlanta | 2 | All Maps","name_short":"atl-2","host":"atl-1.us.uncletopia.com","port":27025,"enabled":true,"region":"us-east","cc":"us","latitude":33.753746,"longitude":-84.38633,"reserved":0,"last_update":"0001-01-01T00:00:00Z","name_a2s":"Uncletopia | Atlanta | 2 | All Maps","protocol":17,"map":"koth_cascade","folder":"tf","game":"Team Fortress","app_id":440,"player_count":0,"max_players":24,"Bots":0,"server_type":"Dedicated","server_os":"Linux","password":true,"vac":true,"version":"7882260","steam_id":85568392924469983,"keywords":["cp","nocrits","nodmgspread","uncletopia"],"game_id":440,"stv_port":27026,"stv_name":"Uncletopia | Atlanta | 2 | All Maps | STV","players":null},{"server_id":400,"name":"Uncletopia | Atlanta | 3 | Community","name_short":"atl-3","host":"atl-1.us.uncletopia.com","port":27035,"enabled":true,"region":"us-east","cc":"us","latitude":33.753746,"longitude":-84.38633,"reserved":0,"last_update":"0001-01-01T00:00:00Z","name_a2s":"Uncletopia | Atlanta | 3 | Community","protocol":17,"map":"workshop/koth_ramjam_rc1.ugc459778887","folder":"tf","game":"Team Fortress","app_id":440,"player_count":0,"max_players":24,"Bots":0,"server_type":"Dedicated","server_os":"Linux","password":true,"vac":true,"version":"7882260","steam_id":85568392924515187,"keywords":["cp","nocrits","nodmgspread","uncletopia"],"game_id":440,"stv_port":27036,"stv_name":"Uncletopia | Atlanta | 3 | Community | STV","players":null},{"server_id":401,"name":"Uncletopia | Atlanta | 4 | No Payload","name_short":"atl-4","host":"atl-1.us.uncletopia.com","port":27045,"enabled":true,"region":"us-east","cc":"us","latitude":33.753746,"longitude":-84.38633,"reserved":0,"last_update":"0001-01-01T00:00:00Z","name_a2s":"","protocol":0,"map":"","folder":"","game":"","app_id":0,"player_count":0,"max_players":0,"Bots":0,"server_type":"","server_os":"","password":false,"vac":false,"version":"","steam_id":0,"keywords":null,"game_id":0,"stv_port":0,"stv_name":"","players":null},{"server_id":2,"name":"Uncletopia | Chicago | 1 | All Maps","name_short":"chi-1","host":"chi-1.us.uncletopia.com","port":27015,"enabled":true,"region":"us-central","cc":"us","latitude":41.881832,"longitude":-87.62318,"reserved":0,"last_update":"0001-01-01T00:00:00Z","name_a2s":"Uncletopia | Chicago | 1 | All Maps","protocol":17,"map":"pl_rumford_event","folder":"tf","game":"Team Fortress","app_id":440,"player_count":24,"max_players":24,"Bots":0,"server_type":"Dedicated","server_os":"Linux","password":true,"vac":true,"version":"7882260","steam_id":85568392924469984,"keywords":["nocrits","nodmgspread","payload","uncletopia"],"game_id":440,"stv_port":27016,"stv_name":"Uncletopia | Chicago | 1 | All Maps | STV","players":[{"user_id":793,"name":"Moonman327","steam_id":76561197992616059,"connected_time":2992000000000,"state":"active","ping":75},{"user_id":856,"name":"Notsocreative","steam_id":76561198236372202,"connected_time":348000000000,"state":"active","ping":80},{"user_id":861,"name":"HoaroBatty","steam_id":76561198120361221,"connected_time":86000000000,"state":"active","ping":75},{"user_id":843,"name":"miso_souperstar","steam_id":76561198975450630,"connected_time":1355000000000,"state":"active","ping":104},{"user_id":830,"name":"drrockso20[MicS]","steam_id":76561198001003987,"connected_time":2052000000000,"state":"active","ping":109},{"user_id":851,"name":"HydriusYin","steam_id":76561198071591352,"connected_time":971000000000,"state":"active","ping":67},{"user_id":857,"name":"turn around","steam_id":76561198046526036,"connected_time":340000000000,"state":"active","ping":105},{"user_id":852,"name":"Babyface","steam_id":76561199240579044,"connected_time":969000000000,"state":"active","ping":76},{"user_id":838,"name":"PeopleOrderOurPatties","steam_id":76561198323144922,"connected_time":1721000000000,"state":"active","ping":56},{"user_id":842,"name":"Ringo x Seiran","steam_id":76561198357437908,"connected_time":1371000000000,"state":"active","ping":63},{"user_id":835,"name":"KrylonHeretic","steam_id":76561198139811459,"connected_time":1771000000000,"state":"active","ping":115},{"user_id":813,"name":"bikerkid207","steam_id":76561198390782783,"connected_time":2543000000000,"state":"active","ping":69},{"user_id":844,"name":"Apricot","steam_id":76561198355699935,"connected_time":1353000000000,"state":"active","ping":70},{"user_id":855,"name":"*****setget","steam_id":76561198118824188,"connected_time":356000000000,"state":"active","ping":121},{"user_id":840,"name":"Cookie Dough","steam_id":76561198882007496,"connected_time":1401000000000,"state":"active","ping":56},{"user_id":803,"name":"MCdipshit","steam_id":76561198861659031,"connected_time":2725000000000,"state":"active","ping":74},{"user_id":804,"name":"shept","steam_id":76561199445495734,"connected_time":2721000000000,"state":"active","ping":70},{"user_id":859,"name":"Gay Cake","steam_id":76561198004388831,"connected_time":254000000000,"state":"active","ping":69},{"user_id":846,"name":"WatchWill","steam_id":76561198157237945,"connected_time":1335000000000,"state":"active","ping":69},{"user_id":837,"name":"PirateJet","steam_id":76561198050858744,"connected_time":1737000000000,"state":"active","ping":114},{"user_id":774,"name":"Fumpo","steam_id":76561198206873365,"connected_time":4871000000000,"state":"active","ping":61},{"user_id":853,"name":"Zombified ☠","steam_id":76561198112709115,"connected_time":881000000000,"state":"active","ping":60},{"user_id":860,"name":"Chode Mode","steam_id":76561198353840477,"connected_time":197000000000,"state":"active","ping":60},{"user_id":862,"name":"xX_GAMERGOD_Xx","steam_id":76561199038370433,"connected_time":74000000000,"state":"active","ping":166}]},{"server_id":106,"name":"Uncletopia | Chicago | 2 | All Maps","name_short":"chi-2","host":"chi-1.us.uncletopia.com","port":27025,"enabled":true,"region":"us-central","cc":"us","latitude":41.881832,"longitude":-87.62318,"reserved":0,"last_update":"0001-01-01T00:00:00Z","name_a2s":"Uncletopia | Chicago | 2 | All Maps","protocol":17,"map":"pl_enclosure_final","folder":"tf","game":"Team Fortress","app_id":440,"player_count":1,"max_players":24,"Bots":0,"server_type":"Dedicated","server_os":"Linux","password":true,"vac":true,"version":"7882260","steam_id":85568392924469985,"keywords":["nocrits","nodmgspread","payload","uncletopia"],"game_id":440,"stv_port":27026,"stv_name":"Uncletopia | Chicago | 2 | All Maps | STV","players":[{"user_id":700,"name":"Thundermonkey (SMOKE)","steam_id":76561198017631728,"connected_time":3119000000000,"state":"active","ping":60}]},{"server_id":402,"name":"Uncletopia | Chicago | 3 | All Maps","name_short":"chi-3","host":"chi-1.us.uncletopia.com","port":27035,"enabled":true,"region":"us-central","cc":"us","latitude":41.881832,"longitude":-87.62318,"reserved":0,"last_update":"0001-01-01T00:00:00Z","name_a2s":"Uncletopia | Chicago | 3 | All Maps","protocol":17,"map":"pl_thundermountain","folder":"tf","game":"Team Fortress","app_id":440,"player_count":16,"max_players":24,"Bots":0,"server_type":"Dedicated","server_os":"Linux","password":true,"vac":true,"version":"7882260","steam_id":85568392924515191,"keywords":["nocrits","nodmgspread","payload","uncletopia"],"game_id":440,"stv_port":27036,"stv_name":"Uncletopia | Chicago | 3 | All Maps | STV","players":[{"user_id":756,"name":"Siv","steam_id":76561198322898267,"connected_time":1112000000000,"state":"active","ping":41},{"user_id":742,"name":"Dumbdumn5","steam_id":76561198047415330,"connected_time":2780000000000,"state":"active","ping":47},{"user_id":763,"name":"basket","steam_id":76561199486768009,"connected_time":456000000000,"state":"active","ping":98},{"user_id":764,"name":"come to butthead","steam_id":76561198020322241,"connected_time":453000000000,"state":"active","ping":72},{"user_id":770,"name":"Faefanger","steam_id":76561198201871002,"connected_time":362000000000,"state":"active","ping":122},{"user_id":766,"name":"wsg","steam_id":76561197967761806,"connected_time":437000000000,"state":"active","ping":158},{"user_id":771,"name":"ky","steam_id":76561198278476365,"connected_time":358000000000,"state":"active","ping":86},{"user_id":772,"name":"market pliers","steam_id":76561198370685065,"connected_time":339000000000,"state":"active","ping":100},{"user_id":682,"name":"Zen56","steam_id":76561198074554894,"connected_time":5784000000000,"state":"active","ping":86},{"user_id":577,"name":"Ocvember","steam_id":76561198206308152,"connected_time":15183000000000,"state":"active","ping":112},{"user_id":754,"name":"Fermenting Kiwi","steam_id":76561198253303497,"connected_time":1331000000000,"state":"active","ping":75},{"user_id":745,"name":"UneditedAndy","steam_id":76561198982544947,"connected_time":2343000000000,"state":"active","ping":104},{"user_id":723,"name":"Antifa Supersoldier","steam_id":76561198141816516,"connected_time":3603000000000,"state":"active","ping":61},{"user_id":757,"name":"quirked up white girl","steam_id":76561198069407799,"connected_time":1097000000000,"state":"active","ping":70},{"user_id":761,"name":"Retrace","steam_id":76561198080620966,"connected_time":771000000000,"state":"active","ping":81},{"user_id":758,"name":"Anthoneeee","steam_id":76561199209220671,"connected_time":1097000000000,"state":"active","ping":123}]},{"server_id":403,"name":"Uncletopia | Chicago | 4 | All Maps","name_short":"chi-4","host":"chi-1.us.uncletopia.com","port":27045,"enabled":true,"region":"us-central","cc":"us","latitude":41.881832,"longitude":-87.62318,"reserved":0,"last_update":"0001-01-01T00:00:00Z","name_a2s":"Uncletopia | Chicago | 4 | All Maps","protocol":17,"map":"cp_sunshine","folder":"tf","game":"Team Fortress","app_id":440,"player_count":1,"max_players":24,"Bots":0,"server_type":"Dedicated","server_os":"Linux","password":true,"vac":true,"version":"7882260","steam_id":85568392924515193,"keywords":["cp","nocrits","nodmgspread","uncletopia"],"game_id":440,"stv_port":27046,"stv_name":"Uncletopia | Chicago | 4 | All Maps | STV","players":[{"user_id":439,"name":"AvoryMiller","steam_id":76561197990785567,"connected_time":2733000000000,"state":"active","ping":69}]},{"server_id":36,"name":"Uncletopia | Chicago | 5 | All Maps","name_short":"chi-5","host":"chi-2.us.uncletopia.com","port":27015,"enabled":true,"region":"us-central","cc":"us","latitude":41.881832,"longitude":-87.62318,"reserved":0,"last_update":"0001-01-01T00:00:00Z","name_a2s":"Uncletopia | Chicago | 5 | All Maps","protocol":17,"map":"cp_mercenarypark","folder":"tf","game":"Team Fortress","app_id":440,"player_count":16,"max_players":24,"Bots":0,"server_type":"Dedicated","server_os":"Linux","password":true,"vac":true,"version":"7882260","steam_id":85568392924866362,"keywords":["cp","nocrits","nodmgspread","uncletopia"],"game_id":440,"stv_port":27016,"stv_name":"Uncletopia | Chicago | 5 | All Maps | STV","players":[{"user_id":581,"name":"Terrorist (real)","steam_id":76561198143988056,"connected_time":162000000000,"state":"active","ping":112},{"user_id":546,"name":"Sillier-NA","steam_id":76561198112171949,"connected_time":2918000000000,"state":"active","ping":74},{"user_id":575,"name":"PenutButterPirate","steam_id":76561198252962312,"connected_time":1152000000000,"state":"active","ping":69},{"user_id":570,"name":"Silly bunny :3","steam_id":76561198102681457,"connected_time":1656000000000,"state":"active","ping":72},{"user_id":571,"name":"Dr. Tropen","steam_id":76561198405271669,"connected_time":1626000000000,"state":"active","ping":77},{"user_id":582,"name":"Lxst","steam_id":76561198849797797,"connected_time":17000000000,"state":"active","ping":61},{"user_id":573,"name":"noah","steam_id":76561198173310157,"connected_time":1189000000000,"state":"active","ping":49},{"user_id":574,"name":"BigDeac","steam_id":76561198091237274,"connected_time":1188000000000,"state":"active","ping":55},{"user_id":583,"name":"V5 ▣","steam_id":76561198094469642,"connected_time":0,"state":"spawning","ping":0},{"user_id":563,"name":"Thanks applesauc","steam_id":76561199013705323,"connected_time":1887000000000,"state":"active","ping":53},{"user_id":564,"name":"SQU1DDY","steam_id":76561198027757551,"connected_time":1871000000000,"state":"active","ping":83},{"user_id":565,"name":"W1CKEDY","steam_id":76561198353447602,"connected_time":1867000000000,"state":"active","ping":70},{"user_id":567,"name":"bout to set it off","steam_id":76561198017539604,"connected_time":1826000000000,"state":"active","ping":71},{"user_id":556,"name":"sheeum","steam_id":76561198277403366,"connected_time":2606000000000,"state":"active","ping":66},{"user_id":558,"name":"Battery Acid Slurper","steam_id":76561198439793697,"connected_time":2563000000000,"state":"active","ping":71},{"user_id":579,"name":"TheSnipersHat","steam_id":76561198057684066,"connected_time":779000000000,"state":"active","ping":59}]},{"server_id":37,"name":"Uncletopia | Chicago | 6 | All Maps","name_short":"chi-6","host":"chi-2.us.uncletopia.com","port":27025,"enabled":true,"region":"us-central","cc":"us","latitude":41.881832,"longitude":-87.62318,"reserved":0,"last_update":"0001-01-01T00:00:00Z","name_a2s":"Uncletopia | Chicago | 6 | All Maps","protocol":17,"map":"cp_altitude","folder":"tf","game":"Team Fortress","app_id":440,"player_count":0,"max_players":24,"Bots":0,"server_type":"Dedicated","server_os":"Linux","password":true,"vac":true,"version":"7882260","steam_id":85568392924866363,"keywords":["cp","nocrits","nodmgspread","uncletopia"],"game_id":440,"stv_port":27026,"stv_name":"Uncletopia | Chicago | 6 | All Maps | STV","players":null},{"server_id":38,"name":"Uncletopia | Chicago | 7 | Stopwatch Beta","name_short":"chi-7","host":"chi-2.us.uncletopia.com","port":27035,"enabled":true,"region":"us-central","cc":"us","latitude":41.881832,"longitude":-87.62318,"reserved":0,"last_update":"0001-01-01T00:00:00Z","name_a2s":"Uncletopia | Chicago | 7 | Stopwatch Beta","protocol":17,"map":"workshop/pl_vigil_rc9.ugc1266210012","folder":"tf","game":"Team Fortress","app_id":440,"player_count":0,"max_players":24,"Bots":0,"server_type":"Dedicated","server_os":"Linux","password":true,"vac":true,"version":"7882260","steam_id":85568392924866364,"keywords":["nocrits","nodmgspread","payload","uncletopia"],"game_id":440,"stv_port":27036,"stv_name":"Uncletopia | Chicago | 7 | Stopwatch Beta | STV","players":null},{"server_id":39,"name":"Uncletopia | Chicago | 8 | Community","name_short":"chi-8","host":"chi-2.us.uncletopia.com","port":27045,"enabled":true,"region":"us-central","cc":"us","latitude":41.881832,"longitude":-87.62318,"reserved":0,"last_update":"0001-01-01T00:00:00Z","name_a2s":"Uncletopia | Chicago | 8 | Community","protocol":17,"map":"workshop/pl_highwood_b13.ugc1769496557","folder":"tf","game":"Team Fortress","app_id":440,"player_count":11,"max_players":24,"Bots":0,"server_type":"Dedicated","server_os":"Linux","password":true,"vac":true,"version":"7882260","steam_id":85568392924866365,"keywords":["nocrits","nodmgspread","payload","uncletopia"],"game_id":440,"stv_port":27046,"stv_name":"Uncletopia | Chicago | 8 | Community | STV","players":[{"user_id":282,"name":"Captain Coochie","steam_id":76561198441729702,"connected_time":47000000000,"state":"active","ping":58},{"user_id":240,"name":"misterspud","steam_id":76561198195306218,"connected_time":6864000000000,"state":"active","ping":43},{"user_id":250,"name":"Infinitytacos","steam_id":76561198884260211,"connected_time":4579000000000,"state":"active","ping":40},{"user_id":270,"name":"Not Ghostie","steam_id":76561198068686762,"connected_time":1199000000000,"state":"active","ping":60},{"user_id":269,"name":"Cpl Coomer","steam_id":76561199143310951,"connected_time":1458000000000,"state":"active","ping":65},{"user_id":271,"name":"[DEEP] Danmar33","steam_id":76561198056453091,"connected_time":1165000000000,"state":"active","ping":46},{"user_id":258,"name":"Ghworg","steam_id":76561198324891401,"connected_time":3982000000000,"state":"active","ping":45},{"user_id":272,"name":"Monorchid","steam_id":76561199008858355,"connected_time":1048000000000,"state":"active","ping":103},{"user_id":275,"name":"hose","steam_id":76561198195853758,"connected_time":708000000000,"state":"active","ping":90},{"user_id":279,"name":"Raskolnikov","steam_id":76561198059444588,"connected_time":486000000000,"state":"active","ping":58},{"user_id":281,"name":"Kasodani Kyouko","steam_id":76561198023178589,"connected_time":342000000000,"state":"active","ping":80}]},{"server_id":8,"name":"Uncletopia | Dallas | 1 | All Maps","name_short":"dal-1","host":"dal-1.us.uncletopia.com","port":27015,"enabled":true,"region":"us-central","cc":"us","latitude":32.779167,"longitude":-96.80889,"reserved":0,"last_update":"0001-01-01T00:00:00Z","name_a2s":"Uncletopia | Dallas | 1 | All Maps","protocol":17,"map":"cp_5gorge","folder":"tf","game":"Team Fortress","app_id":440,"player_count":19,"max_players":24,"Bots":0,"server_type":"Dedicated","server_os":"Linux","password":true,"vac":true,"version":"7882260","steam_id":85568392924469986,"keywords":["cp","nocrits","nodmgspread","uncletopia"],"game_id":440,"stv_port":27016,"stv_name":"Uncletopia | Dallas | 1 | All Maps | STV","players":[{"user_id":547,"name":"doja cat","steam_id":76561198161403931,"connected_time":15000000000,"state":"spawning","ping":42},{"user_id":546,"name":"Necrons will win 40k","steam_id":76561198351986831,"connected_time":53000000000,"state":"active","ping":97},{"user_id":500,"name":"Cheetose Intolerant","steam_id":76561198013399809,"connected_time":3408000000000,"state":"active","ping":55},{"user_id":535,"name":"KevilPo","steam_id":76561199244507267,"connected_time":1092000000000,"state":"active","ping":89},{"user_id":541,"name":"SCUD missile up your ass","steam_id":76561198066452726,"connected_time":663000000000,"state":"active","ping":70},{"user_id":543,"name":"[S]Mr. X [No Monitor]","steam_id":76561197963746035,"connected_time":197000000000,"state":"active","ping":126},{"user_id":540,"name":"MightyMouse162","steam_id":76561198018665390,"connected_time":801000000000,"state":"active","ping":55},{"user_id":436,"name":"McDonald","steam_id":76561199028533497,"connected_time":7912000000000,"state":"active","ping":81},{"user_id":518,"name":"cypherzero","steam_id":76561199182960322,"connected_time":2380000000000,"state":"active","ping":52},{"user_id":505,"name":"Tex","steam_id":76561198096441577,"connected_time":3359000000000,"state":"active","ping":49},{"user_id":520,"name":"Pinetree w/ apples.","steam_id":76561198105411709,"connected_time":2341000000000,"state":"active","ping":97},{"user_id":464,"name":"iaPK","steam_id":76561198056618642,"connected_time":6859000000000,"state":"active","ping":41},{"user_id":528,"name":"Moist Cheese","steam_id":76561198129927759,"connected_time":1320000000000,"state":"active","ping":66},{"user_id":544,"name":".-.. --- ...- . / -.-- --- ..-","steam_id":76561198002483206,"connected_time":83000000000,"state":"active","ping":33},{"user_id":521,"name":"HOLD W!! crow","steam_id":76561198046802071,"connected_time":1999000000000,"state":"active","ping":57},{"user_id":463,"name":"Apollo","steam_id":76561198162364702,"connected_time":6879000000000,"state":"active","ping":92},{"user_id":489,"name":"Etomb","steam_id":76561198210017208,"connected_time":4832000000000,"state":"active","ping":69},{"user_id":522,"name":"Moop","steam_id":76561198096984681,"connected_time":1847000000000,"state":"active","ping":66},{"user_id":534,"name":"cat (real)","steam_id":76561198885041703,"connected_time":1224000000000,"state":"active","ping":89}]},{"server_id":108,"name":"Uncletopia | Dallas | 2 | All Maps","name_short":"dal-2","host":"dal-1.us.uncletopia.com","port":27025,"enabled":true,"region":"us-central","cc":"us","latitude":32.779167,"longitude":-96.80889,"reserved":0,"last_update":"0001-01-01T00:00:00Z","name_a2s":"Uncletopia | Dallas | 2 | All Maps","protocol":17,"map":"cp_5gorge","folder":"tf","game":"Team Fortress","app_id":440,"player_count":19,"max_players":24,"Bots":0,"server_type":"Dedicated","server_os":"Linux","password":true,"vac":true,"version":"7882260","steam_id":85568392924469988,"keywords":["cp","nocrits","nodmgspread","uncletopia"],"game_id":440,"stv_port":27026,"stv_name":"Uncletopia | Dallas | 2 | All Maps | STV","players":[{"user_id":461,"name":"bolainassr0","steam_id":76561199079078845,"connected_time":759000000000,"state":"active","ping":84},{"user_id":451,"name":"Caterpillar Friend","steam_id":76561198044298346,"connected_time":1113000000000,"state":"active","ping":74},{"user_id":455,"name":"Take the L","steam_id":76561198379223875,"connected_time":909000000000,"state":"active","ping":82},{"user_id":414,"name":"Manic","steam_id":76561198128149670,"connected_time":4944000000000,"state":"active","ping":43},{"user_id":457,"name":"TheGhostThatWas","steam_id":76561198055836483,"connected_time":862000000000,"state":"active","ping":75},{"user_id":437,"name":"evan_is_sauce","steam_id":76561199086802383,"connected_time":2434000000000,"state":"active","ping":83},{"user_id":454,"name":"uncle 'ardboss","steam_id":76561198055490732,"connected_time":1027000000000,"state":"active","ping":142},{"user_id":441,"name":"Snake Handler","steam_id":76561198027198306,"connected_time":2084000000000,"state":"active","ping":76},{"user_id":412,"name":"Feel the bern","steam_id":76561198078824519,"connected_time":5048000000000,"state":"active","ping":73},{"user_id":456,"name":"-BRH- Tangled up in Bluegrass","steam_id":76561197987181139,"connected_time":896000000000,"state":"active","ping":83},{"user_id":443,"name":"Tskuno","steam_id":76561198129291597,"connected_time":2013000000000,"state":"active","ping":74},{"user_id":464,"name":"EvilPigglet","steam_id":76561197987243470,"connected_time":193000000000,"state":"active","ping":76},{"user_id":447,"name":"Shipmunk","steam_id":76561198063062670,"connected_time":1833000000000,"state":"active","ping":82},{"user_id":458,"name":"Galactamarx","steam_id":76561198028065755,"connected_time":809000000000,"state":"active","ping":69},{"user_id":450,"name":"AzuriousAlex","steam_id":76561198158026405,"connected_time":1263000000000,"state":"active","ping":72},{"user_id":428,"name":"Spring Beans","steam_id":76561197978546259,"connected_time":3823000000000,"state":"active","ping":34},{"user_id":462,"name":"Jeddef","steam_id":76561198040012616,"connected_time":637000000000,"state":"active","ping":139},{"user_id":383,"name":"Grand","steam_id":76561198290143399,"connected_time":9659000000000,"state":"active","ping":60},{"user_id":386,"name":"Truffles","steam_id":76561198095868800,"connected_time":9197000000000,"state":"active","ping":59}]},{"server_id":5,"name":"Uncletopia | Frankfurt | 1 | All Maps","name_short":"frk-1","host":"frk-1.de.uncletopia.com","port":27015,"enabled":true,"region":"eu","cc":"de","latitude":50.110924,"longitude":8.682127,"reserved":0,"last_update":"0001-01-01T00:00:00Z","name_a2s":"Uncletopia | Frankfurt | 1 | All Maps","protocol":17,"map":"pl_snowycoast","folder":"tf","game":"Team Fortress","app_id":440,"player_count":0,"max_players":24,"Bots":0,"server_type":"Dedicated","server_os":"Linux","password":true,"vac":true,"version":"7882260","steam_id":85568392924469989,"keywords":["nocrits","nodmgspread","payload","uncletopia"],"game_id":440,"stv_port":27016,"stv_name":"Uncletopia | Frankfurt | 1 | All Maps | STV","players":null},{"server_id":110,"name":"Uncletopia | Frankfurt | 2 | All Maps","name_short":"frk-2","host":"frk-1.de.uncletopia.com","port":27025,"enabled":true,"region":"eu","cc":"de","latitude":50.110924,"longitude":8.682127,"reserved":0,"last_update":"0001-01-01T00:00:00Z","name_a2s":"Uncletopia | Frankfurt | 2 | All Maps","protocol":17,"map":"pl_upward","folder":"tf","game":"Team Fortress","app_id":440,"player_count":0,"max_players":24,"Bots":0,"server_type":"Dedicated","server_os":"Linux","password":true,"vac":true,"version":"7882260","steam_id":85568392924469990,"keywords":["nocrits","nodmgspread","payload","uncletopia"],"game_id":440,"stv_port":27026,"stv_name":"Uncletopia | Frankfurt | 2 | All Maps | STV","players":null},{"server_id":308,"name":"Uncletopia | Frankfurt | 3 | All Maps","name_short":"frk-3","host":"frk-1.de.uncletopia.com","port":27035,"enabled":true,"region":"eu","cc":"de","latitude":50.110924,"longitude":8.682127,"reserved":0,"last_update":"0001-01-01T00:00:00Z","name_a2s":"Uncletopia | Frankfurt | 3 | All Maps","protocol":17,"map":"cp_process_final","folder":"tf","game":"Team Fortress","app_id":440,"player_count":0,"max_players":24,"Bots":0,"server_type":"Dedicated","server_os":"Linux","password":true,"vac":true,"version":"7882260","steam_id":85568392924504274,"keywords":["cp","nocrits","nodmgspread","uncletopia"],"game_id":440,"stv_port":27036,"stv_name":"Uncletopia | Frankfurt | 3 | All Maps | STV","players":null},{"server_id":309,"name":"Uncletopia | Frankfurt | 4 | All Maps","name_short":"frk-4","host":"frk-1.de.uncletopia.com","port":27045,"enabled":true,"region":"eu","cc":"de","latitude":50.110924,"longitude":8.682127,"reserved":0,"last_update":"0001-01-01T00:00:00Z","name_a2s":"Uncletopia | Frankfurt | 4 | All Maps","protocol":17,"map":"pl_swiftwater_final1","folder":"tf","game":"Team Fortress","app_id":440,"player_count":0,"max_players":24,"Bots":0,"server_type":"Dedicated","server_os":"Linux","password":true,"vac":true,"version":"7882260","steam_id":85568392924504275,"keywords":["nocrits","nodmgspread","payload","uncletopia"],"game_id":440,"stv_port":27046,"stv_name":"Uncletopia | Frankfurt | 4 | All Maps | STV","players":null},{"server_id":310,"name":"Uncletopia | Frankfurt | 5 | All Maps","name_short":"frk-5","host":"frk-1.de.uncletopia.com","port":27055,"enabled":true,"region":"eu","cc":"de","latitude":50.110924,"longitude":8.682127,"reserved":0,"last_update":"0001-01-01T00:00:00Z","name_a2s":"Uncletopia | Frankfurt | 5 | All Maps","protocol":17,"map":"pl_borneo","folder":"tf","game":"Team Fortress","app_id":440,"player_count":0,"max_players":24,"Bots":0,"server_type":"Dedicated","server_os":"Linux","password":true,"vac":true,"version":"7882260","steam_id":85568392924504277,"keywords":["nocrits","nodmgspread","payload","uncletopia"],"game_id":440,"stv_port":27056,"stv_name":"Uncletopia | Frankfurt | 5 | All Maps | STV","players":null},{"server_id":311,"name":"Uncletopia | Frankfurt | 6 | All Maps","name_short":"frk-6","host":"frk-1.de.uncletopia.com","port":27065,"enabled":true,"region":"eu","cc":"de","latitude":50.110924,"longitude":8.682127,"reserved":0,"last_update":"0001-01-01T00:00:00Z","name_a2s":"Uncletopia | Frankfurt | 6 | All Maps","protocol":17,"map":"cp_snakewater_final1","folder":"tf","game":"Team Fortress","app_id":440,"player_count":0,"max_players":24,"Bots":0,"server_type":"Dedicated","server_os":"Linux","password":true,"vac":true,"version":"7882260","steam_id":85568392924504278,"keywords":["cp","nocrits","nodmgspread","uncletopia"],"game_id":440,"stv_port":27066,"stv_name":"Uncletopia | Frankfurt | 6 | All Maps | STV","players":null},{"server_id":23,"name":"Uncletopia | Frankfurt | 7 | Stopwatch Beta","name_short":"frk-7","host":"frk-1.de.uncletopia.com","port":27075,"enabled":true,"region":"eu","cc":"de","latitude":50.110924,"longitude":8.682127,"reserved":0,"last_update":"0001-01-01T00:00:00Z","name_a2s":"Uncletopia | Frankfurt | 7 | Stopwatch Beta","protocol":17,"map":"cp_snakewater_final1","folder":"tf","game":"Team Fortress","app_id":440,"player_count":0,"max_players":24,"Bots":0,"server_type":"Dedicated","server_os":"Linux","password":true,"vac":true,"version":"7882260","steam_id":85568392924742827,"keywords":["cp","nocrits","nodmgspread","uncletopia"],"game_id":440,"stv_port":27076,"stv_name":"Uncletopia | Frankfurt | 7 | Stopwatch Beta | STV","players":null},{"server_id":24,"name":"Uncletopia | Frankfurt | 8 | Community","name_short":"frk-8","host":"frk-1.de.uncletopia.com","port":27085,"enabled":true,"region":"eu","cc":"de","latitude":50.110924,"longitude":8.682127,"reserved":0,"last_update":"0001-01-01T00:00:00Z","name_a2s":"Uncletopia | Frankfurt | 8 | Community","protocol":17,"map":"cp_mountainlab","folder":"tf","game":"Team Fortress","app_id":440,"player_count":0,"max_players":24,"Bots":0,"server_type":"Dedicated","server_os":"Linux","password":true,"vac":true,"version":"7882260","steam_id":85568392924742828,"keywords":["cp","nocrits","nodmgspread","uncletopia"],"game_id":440,"stv_port":27086,"stv_name":"Uncletopia | Frankfurt | 8 | Community | STV","players":null},{"server_id":202,"name":"Uncletopia | Hong Kong | 1 | All Maps","name_short":"hgk-1","host":"hgk-1.hk.uncletopia.com","port":27015,"enabled":true,"region":"asia","cc":"hk","latitude":22.302711,"longitude":114.177216,"reserved":0,"last_update":"0001-01-01T00:00:00Z","name_a2s":"Uncletopia | Hong Kong | 1 | All Maps","protocol":17,"map":"koth_viaduct","folder":"tf","game":"Team Fortress","app_id":440,"player_count":0,"max_players":24,"Bots":0,"server_type":"Dedicated","server_os":"Linux","password":true,"vac":true,"version":"7882260","steam_id":85568392924494504,"keywords":["cp","nocrits","nodmgspread","uncletopia"],"game_id":440,"stv_port":27016,"stv_name":"Uncletopia | Hong Kong | 1 | All Maps | STV","players":null},{"server_id":1,"name":"Uncletopia | Los Angeles | 1 | All Maps","name_short":"lax-1","host":"lax-1.us.uncletopia.com","port":27015,"enabled":true,"region":"us-west","cc":"us","latitude":33.94279,"longitude":-118.41004,"reserved":0,"last_update":"0001-01-01T00:00:00Z","name_a2s":"Uncletopia | Los Angeles | 1 | All Maps","protocol":17,"map":"pl_borneo","folder":"tf","game":"Team Fortress","app_id":440,"player_count":23,"max_players":24,"Bots":0,"server_type":"Dedicated","server_os":"Linux","password":true,"vac":true,"version":"7882260","steam_id":85568392924469991,"keywords":["nocrits","nodmgspread","payload","uncletopia"],"game_id":440,"stv_port":27016,"stv_name":"Uncletopia | Los Angeles | 1 | All Maps | STV","players":[{"user_id":293,"name":"Minerva Amadon","steam_id":76561198138543341,"connected_time":2279000000000,"state":"active","ping":90},{"user_id":233,"name":"Ice cream sandwich","steam_id":76561198172748357,"connected_time":6929000000000,"state":"active","ping":51},{"user_id":23,"name":"SunNc","steam_id":76561198097711843,"connected_time":23202000000000,"state":"active","ping":60},{"user_id":306,"name":"restless","steam_id":76561199201045563,"connected_time":1438000000000,"state":"active","ping":165},{"user_id":313,"name":"Medic Boyfriend","steam_id":76561198104086771,"connected_time":635000000000,"state":"active","ping":45},{"user_id":268,"name":"Gentle Opp 3","steam_id":76561198150406851,"connected_time":3779000000000,"state":"active","ping":48},{"user_id":278,"name":"ww","steam_id":76561198088564990,"connected_time":3027000000000,"state":"active","ping":61},{"user_id":270,"name":"FriskyDemon","steam_id":76561198043684646,"connected_time":3696000000000,"state":"active","ping":72},{"user_id":299,"name":"porksoda","steam_id":76561198021451377,"connected_time":2009000000000,"state":"active","ping":66},{"user_id":314,"name":"GlizzLord","steam_id":76561198321010427,"connected_time":519000000000,"state":"active","ping":67},{"user_id":300,"name":"jooce","steam_id":76561198325093063,"connected_time":1929000000000,"state":"active","ping":80},{"user_id":315,"name":"Jammy","steam_id":76561198119652755,"connected_time":507000000000,"state":"active","ping":48},{"user_id":285,"name":"Flex Pexico","steam_id":76561198041838930,"connected_time":2815000000000,"state":"active","ping":55},{"user_id":292,"name":"..flop","steam_id":76561197989058876,"connected_time":2333000000000,"state":"active","ping":69},{"user_id":305,"name":"cliftoce","steam_id":76561197998912007,"connected_time":1487000000000,"state":"active","ping":63},{"user_id":281,"name":"Major_Pippy","steam_id":76561198004482878,"connected_time":2884000000000,"state":"active","ping":78},{"user_id":247,"name":"rimble","steam_id":76561198150137369,"connected_time":5432000000000,"state":"active","ping":47},{"user_id":311,"name":"S O U N D W A V E","steam_id":76561198093417449,"connected_time":937000000000,"state":"active","ping":44},{"user_id":283,"name":"RagingRoosevelt","steam_id":76561197985483153,"connected_time":2870000000000,"state":"active","ping":76},{"user_id":317,"name":"vioxynteris","steam_id":76561198161428666,"connected_time":467000000000,"state":"active","ping":31},{"user_id":78,"name":"Argon","steam_id":76561199254804349,"connected_time":18169000000000,"state":"active","ping":141},{"user_id":312,"name":"CadenLCheese","steam_id":76561199105517435,"connected_time":895000000000,"state":"active","ping":79},{"user_id":316,"name":"Karl","steam_id":76561198115714484,"connected_time":504000000000,"state":"active","ping":74}]},{"server_id":112,"name":"Uncletopia | Los Angeles | 2 | All Maps","name_short":"lax-2","host":"lax-1.us.uncletopia.com","port":27025,"enabled":true,"region":"us-west","cc":"us","latitude":33.94279,"longitude":-118.41004,"reserved":0,"last_update":"0001-01-01T00:00:00Z","name_a2s":"Uncletopia | Los Angeles | 2 | All Maps","protocol":17,"map":"cp_coldfront","folder":"tf","game":"Team Fortress","app_id":440,"player_count":2,"max_players":24,"Bots":0,"server_type":"Dedicated","server_os":"Linux","password":true,"vac":true,"version":"7882260","steam_id":85568392924469992,"keywords":["cp","nocrits","nodmgspread","uncletopia"],"game_id":440,"stv_port":27026,"stv_name":"Uncletopia | Los Angeles | 2 | All Maps | STV","players":[{"user_id":764,"name":"Drewski","steam_id":76561198334969647,"connected_time":217000000000,"state":"active","ping":46},{"user_id":767,"name":"herbletea","steam_id":76561199079523149,"connected_time":79000000000,"state":"active","ping":46}]},{"server_id":324,"name":"Uncletopia | Los Angeles | 3 | All Maps","name_short":"lax-3","host":"lax-1.us.uncletopia.com","port":27035,"enabled":true,"region":"us-west","cc":"us","latitude":33.94279,"longitude":-118.41004,"reserved":0,"last_update":"0001-01-01T00:00:00Z","name_a2s":"Uncletopia | Los Angeles | 3 | All Maps","protocol":17,"map":"pl_swiftwater_final1","folder":"tf","game":"Team Fortress","app_id":440,"player_count":24,"max_players":24,"Bots":0,"server_type":"Dedicated","server_os":"Linux","password":true,"vac":true,"version":"7882260","steam_id":85568392924510198,"keywords":["nocrits","nodmgspread","payload","uncletopia"],"game_id":440,"stv_port":27036,"stv_name":"Uncletopia | Los Angeles | 3 | All Maps | STV","players":[{"user_id":265,"name":"Cinnifox","steam_id":76561198068773971,"connected_time":8538000000000,"state":"active","ping":81},{"user_id":323,"name":"Cypress [ +/- ] ✔","steam_id":76561198067164431,"connected_time":1772000000000,"state":"active","ping":32},{"user_id":327,"name":"Chica","steam_id":76561198381832158,"connected_time":1548000000000,"state":"active","ping":64},{"user_id":332,"name":"xhouls","steam_id":76561198128809755,"connected_time":1342000000000,"state":"active","ping":62},{"user_id":321,"name":"sobadorci","steam_id":76561198208627555,"connected_time":2332000000000,"state":"active","ping":44},{"user_id":333,"name":"BBC_DEITY","steam_id":76561199304931547,"connected_time":1324000000000,"state":"active","ping":85},{"user_id":334,"name":"child soldier","steam_id":76561198966085663,"connected_time":1283000000000,"state":"active","ping":80},{"user_id":335,"name":"ena - d","steam_id":76561198072329335,"connected_time":1201000000000,"state":"active","ping":106},{"user_id":336,"name":"californjoe","steam_id":76561197965047795,"connected_time":874000000000,"state":"active","ping":53},{"user_id":337,"name":"Surfing Garchomp","steam_id":76561199107236884,"connected_time":818000000000,"state":"active","ping":71},{"user_id":343,"name":"Thequirka #ForFountainMann","steam_id":76561198968058652,"connected_time":627000000000,"state":"active","ping":76},{"user_id":339,"name":"MR MODE","steam_id":76561198046775352,"connected_time":721000000000,"state":"active","ping":57},{"user_id":340,"name":"Tideflat","steam_id":76561198179850851,"connected_time":711000000000,"state":"active","ping":95},{"user_id":341,"name":"Phoenix","steam_id":76561199465534945,"connected_time":704000000000,"state":"active","ping":80},{"user_id":356,"name":"⛧Alkahestry","steam_id":76561198109641497,"connected_time":29000000000,"state":"active","ping":39},{"user_id":345,"name":"Lumberjane37 (She/Her)","steam_id":76561198014841793,"connected_time":497000000000,"state":"active","ping":58},{"user_id":346,"name":"blorp","steam_id":76561198054677742,"connected_time":482000000000,"state":"active","ping":56},{"user_id":348,"name":"josie","steam_id":76561198170848553,"connected_time":419000000000,"state":"active","ping":69},{"user_id":350,"name":"LX-24","steam_id":76561198016168993,"connected_time":416000000000,"state":"active","ping":82},{"user_id":351,"name":"...","steam_id":76561198121508845,"connected_time":409000000000,"state":"active","ping":66},{"user_id":352,"name":"CreativeUsername","steam_id":76561198186045503,"connected_time":404000000000,"state":"active","ping":105},{"user_id":353,"name":"Drakon","steam_id":76561198078210822,"connected_time":380000000000,"state":"active","ping":61},{"user_id":354,"name":"Whos Mans Is Dis","steam_id":76561198370978056,"connected_time":376000000000,"state":"active","ping":96},{"user_id":355,"name":"Irony is pretty cringy","steam_id":76561198120391460,"connected_time":357000000000,"state":"active","ping":46}]},{"server_id":25,"name":"Uncletopia | Los Angeles | 4 | Stopwatch Beta","name_short":"lax-4","host":"lax-1.us.uncletopia.com","port":27045,"enabled":true,"region":"us-west","cc":"us","latitude":33.94279,"longitude":-118.41004,"reserved":0,"last_update":"0001-01-01T00:00:00Z","name_a2s":"Uncletopia | Los Angeles | 4 | Stopwatch Beta","protocol":17,"map":"koth_viaduct","folder":"tf","game":"Team Fortress","app_id":440,"player_count":0,"max_players":24,"Bots":0,"server_type":"Dedicated","server_os":"Linux","password":true,"vac":true,"version":"7882260","steam_id":85568392924510199,"keywords":["cp","nocrits","nodmgspread","uncletopia"],"game_id":440,"stv_port":27046,"stv_name":"Uncletopia | Los Angeles | 4 | Stopwatch Beta | STV","players":null},{"server_id":11,"name":"Uncletopia | London | 1 | All Maps","name_short":"lon-1","host":"lon-1.uk.uncletopia.com","port":27015,"enabled":true,"region":"eu","cc":"gb","latitude":51.509865,"longitude":-0.118092,"reserved":0,"last_update":"0001-01-01T00:00:00Z","name_a2s":"Uncletopia | London | 1 | All Maps","protocol":17,"map":"pl_borneo","folder":"tf","game":"Team Fortress","app_id":440,"player_count":21,"max_players":24,"Bots":0,"server_type":"Dedicated","server_os":"Linux","password":true,"vac":true,"version":"7882260","steam_id":85568392924367362,"keywords":["nocrits","nodmgspread","payload","uncletopia"],"game_id":440,"stv_port":27016,"stv_name":"Uncletopia | London | 1 | All Maps | STV","players":[{"user_id":728,"name":"Tomfool","steam_id":76561197993256481,"connected_time":1148000000000,"state":"active","ping":87},{"user_id":724,"name":"Lewylow","steam_id":76561198005425686,"connected_time":1381000000000,"state":"active","ping":56},{"user_id":639,"name":"Coca162","steam_id":76561198230656540,"connected_time":9319000000000,"state":"active","ping":43},{"user_id":715,"name":"Zlyron","steam_id":76561198951447833,"connected_time":2283000000000,"state":"active","ping":94},{"user_id":737,"name":"call the banners","steam_id":76561199058156867,"connected_time":859000000000,"state":"active","ping":105},{"user_id":741,"name":"aeriun","steam_id":76561198322862462,"connected_time":413000000000,"state":"active","ping":58},{"user_id":713,"name":"modavak","steam_id":76561198946290908,"connected_time":2426000000000,"state":"active","ping":105},{"user_id":725,"name":"Ran33","steam_id":76561197991474499,"connected_time":1375000000000,"state":"active","ping":86},{"user_id":706,"name":"dorak","steam_id":76561198818037965,"connected_time":3242000000000,"state":"active","ping":105},{"user_id":735,"name":"Anadest","steam_id":76561198992528373,"connected_time":878000000000,"state":"active","ping":76},{"user_id":631,"name":"Jiipeeze","steam_id":76561198316154333,"connected_time":10349000000000,"state":"active","ping":90},{"user_id":699,"name":"Franklin The Turtle","steam_id":76561198373212815,"connected_time":3834000000000,"state":"active","ping":143},{"user_id":740,"name":"шлёпанцы","steam_id":76561198893126326,"connected_time":556000000000,"state":"active","ping":120},{"user_id":716,"name":"Neimon","steam_id":76561198343485710,"connected_time":1928000000000,"state":"active","ping":123},{"user_id":731,"name":"?","steam_id":76561198129153029,"connected_time":1057000000000,"state":"active","ping":74},{"user_id":743,"name":"strideΔ","steam_id":76561199007826093,"connected_time":87000000000,"state":"active","ping":75},{"user_id":714,"name":"Acbh","steam_id":76561198158271672,"connected_time":2325000000000,"state":"active","ping":74},{"user_id":704,"name":"turn the fridge on","steam_id":76561199480942903,"connected_time":3376000000000,"state":"active","ping":71},{"user_id":738,"name":"eatmysteel","steam_id":76561198976437527,"connected_time":850000000000,"state":"active","ping":167},{"user_id":739,"name":"Doritoshredder","steam_id":76561198826710752,"connected_time":829000000000,"state":"active","ping":119},{"user_id":721,"name":"Frylock","steam_id":76561198050292560,"connected_time":1491000000000,"state":"active","ping":37}]},{"server_id":114,"name":"Uncletopia | London | 2 | All Maps","name_short":"lon-2","host":"lon-1.uk.uncletopia.com","port":27025,"enabled":true,"region":"eu","cc":"gb","latitude":51.509865,"longitude":-0.118092,"reserved":0,"last_update":"0001-01-01T00:00:00Z","name_a2s":"Uncletopia | London | 2 | All Maps","protocol":17,"map":"koth_highpass","folder":"tf","game":"Team Fortress","app_id":440,"player_count":0,"max_players":24,"Bots":0,"server_type":"Dedicated","server_os":"Linux","password":true,"vac":true,"version":"7882260","steam_id":85568392924470941,"keywords":["cp","nocrits","nodmgspread","uncletopia"],"game_id":440,"stv_port":27026,"stv_name":"Uncletopia | London | 2 | All Maps | STV","players":null},{"server_id":320,"name":"Uncletopia | London | 3 | All Maps","name_short":"lon-3","host":"lon-1.uk.uncletopia.com","port":27035,"enabled":true,"region":"eu","cc":"gb","latitude":51.509865,"longitude":-0.118092,"reserved":0,"last_update":"0001-01-01T00:00:00Z","name_a2s":"Uncletopia | London | 3 | All Maps","protocol":17,"map":"koth_harvest_final","folder":"tf","game":"Team Fortress","app_id":440,"player_count":0,"max_players":24,"Bots":0,"server_type":"Dedicated","server_os":"Linux","password":true,"vac":true,"version":"7882260","steam_id":85568392924510192,"keywords":["cp","nocrits","nodmgspread","uncletopia"],"game_id":440,"stv_port":27036,"stv_name":"Uncletopia | London | 3 | All Maps | STV","players":null},{"server_id":321,"name":"Uncletopia | London | 4 | All Maps","name_short":"lon-4","host":"lon-1.uk.uncletopia.com","port":27045,"enabled":true,"region":"eu","cc":"gb","latitude":51.509865,"longitude":-0.118092,"reserved":0,"last_update":"0001-01-01T00:00:00Z","name_a2s":"Uncletopia | London | 4 | All Maps","protocol":17,"map":"cp_sunshine","folder":"tf","game":"Team Fortress","app_id":440,"player_count":0,"max_players":24,"Bots":0,"server_type":"Dedicated","server_os":"Linux","password":true,"vac":true,"version":"7882260","steam_id":85568392924510193,"keywords":["cp","nocrits","nodmgspread","uncletopia"],"game_id":440,"stv_port":27046,"stv_name":"Uncletopia | London | 4 | All Maps | STV","players":null},{"server_id":21,"name":"Uncletopia | London | 5 | All Maps","name_short":"lon-5","host":"lon-1.uk.uncletopia.com","port":27055,"enabled":true,"region":"eu","cc":"gb","latitude":51.509865,"longitude":-0.118092,"reserved":0,"last_update":"0001-01-01T00:00:00Z","name_a2s":"Uncletopia | London | 5 | All Maps","protocol":17,"map":"koth_viaduct","folder":"tf","game":"Team Fortress","app_id":440,"player_count":0,"max_players":24,"Bots":0,"server_type":"Dedicated","server_os":"Linux","password":true,"vac":true,"version":"7882260","steam_id":85568392924742829,"keywords":["cp","nocrits","nodmgspread","uncletopia"],"game_id":440,"stv_port":27056,"stv_name":"Uncletopia | London | 5 | All Maps | STV","players":null},{"server_id":22,"name":"Uncletopia | London | 6 | All Maps","name_short":"lon-6","host":"lon-1.uk.uncletopia.com","port":27065,"enabled":true,"region":"eu","cc":"gb","latitude":51.509865,"longitude":-0.118092,"reserved":0,"last_update":"0001-01-01T00:00:00Z","name_a2s":"Uncletopia | London | 6 | All Maps","protocol":17,"map":"cp_mountainlab","folder":"tf","game":"Team Fortress","app_id":440,"player_count":0,"max_players":24,"Bots":0,"server_type":"Dedicated","server_os":"Linux","password":true,"vac":true,"version":"7882260","steam_id":85568392924742830,"keywords":["cp","nocrits","nodmgspread","uncletopia"],"game_id":440,"stv_port":27066,"stv_name":"Uncletopia | London | 6 | All Maps | STV","players":null},{"server_id":40,"name":"Uncletopia | London | 7 | No Payload","name_short":"lon-7","host":"lon-1.uk.uncletopia.com","port":27075,"enabled":true,"region":"eu","cc":"gb","latitude":51.509865,"longitude":-0.118092,"reserved":0,"last_update":"0001-01-01T00:00:00Z","name_a2s":"Uncletopia | London | 7 | No Payload","protocol":17,"map":"ctf_sawmill","folder":"tf","game":"Team Fortress","app_id":440,"player_count":0,"max_players":24,"Bots":0,"server_type":"Dedicated","server_os":"Linux","password":true,"vac":true,"version":"7882260","steam_id":85568392924964314,"keywords":["ctf","nocrits","nodmgspread","uncletopia"],"game_id":440,"stv_port":27076,"stv_name":"Uncletopia | London | 7 | No Payload | STV","players":null},{"server_id":41,"name":"Uncletopia | London | 8 | Community","name_short":"lon-8","host":"lon-1.uk.uncletopia.com","port":27085,"enabled":true,"region":"eu","cc":"gb","latitude":51.509865,"longitude":-0.118092,"reserved":0,"last_update":"0001-01-01T00:00:00Z","name_a2s":"Uncletopia | London | 8 | Community","protocol":17,"map":"workshop/rd_asteroid_redux_b1.ugc2154902912","folder":"tf","game":"Team Fortress","app_id":440,"player_count":0,"max_players":24,"Bots":0,"server_type":"Dedicated","server_os":"Linux","password":true,"vac":true,"version":"7882260","steam_id":85568392924964315,"keywords":["beta","nocrits","nodmgspread","rd","uncletopia"],"game_id":440,"stv_port":27086,"stv_name":"Uncletopia | London | 8 | Community | STV","players":null},{"server_id":300,"name":"Uncletopia | Montréal | 1 | All Maps","name_short":"mtl-1","host":"mtl-1.ca.uncletopia.com","port":27015,"enabled":true,"region":"us-east","cc":"ca","latitude":45.50889,"longitude":-73.56167,"reserved":0,"last_update":"0001-01-01T00:00:00Z","name_a2s":"Uncletopia | Montréal | 1 | All Maps","protocol":17,"map":"pl_pier","folder":"tf","game":"Team Fortress","app_id":440,"player_count":0,"max_players":24,"Bots":0,"server_type":"Dedicated","server_os":"Linux","password":true,"vac":true,"version":"7882260","steam_id":85568392924500087,"keywords":["nocrits","nodmgspread","payload","uncletopia"],"game_id":440,"stv_port":27016,"stv_name":"Uncletopia | Montréal | 1 | All Maps | STV","players":null},{"server_id":301,"name":"Uncletopia | Montréal | 2 | All Maps","name_short":"mtl-2","host":"mtl-1.ca.uncletopia.com","port":27025,"enabled":true,"region":"us-east","cc":"ca","latitude":45.50889,"longitude":-73.56167,"reserved":0,"last_update":"0001-01-01T00:00:00Z","name_a2s":"Uncletopia | Montréal | 2 | All Maps","protocol":17,"map":"koth_cascade","folder":"tf","game":"Team Fortress","app_id":440,"player_count":0,"max_players":24,"Bots":0,"server_type":"Dedicated","server_os":"Linux","password":true,"vac":true,"version":"7882260","steam_id":85568392924500088,"keywords":["cp","nocrits","nodmgspread","uncletopia"],"game_id":440,"stv_port":27026,"stv_name":"Uncletopia | Montréal | 2 | All Maps | STV","players":null},{"server_id":302,"name":"Uncletopia | Montréal | 3 | All Maps","name_short":"mtl-3","host":"mtl-1.ca.uncletopia.com","port":27035,"enabled":true,"region":"us-east","cc":"ca","latitude":45.50889,"longitude":-73.56167,"reserved":0,"last_update":"0001-01-01T00:00:00Z","name_a2s":"Uncletopia | Montréal | 3 | All Maps","protocol":17,"map":"koth_highpass","folder":"tf","game":"Team Fortress","app_id":440,"player_count":0,"max_players":24,"Bots":0,"server_type":"Dedicated","server_os":"Linux","password":true,"vac":true,"version":"7882260","steam_id":85568392924500089,"keywords":["cp","nocrits","nodmgspread","uncletopia"],"game_id":440,"stv_port":27036,"stv_name":"Uncletopia | Montréal | 3 | All Maps | STV","players":null},{"server_id":303,"name":"Uncletopia | Montréal | 4 | No Payload","name_short":"mtl-4","host":"mtl-1.ca.uncletopia.com","port":27045,"enabled":true,"region":"us-east","cc":"ca","latitude":45.50889,"longitude":-73.56167,"reserved":0,"last_update":"0001-01-01T00:00:00Z","name_a2s":"Uncletopia | Montréal | 4 | No Payload","protocol":17,"map":"koth_highpass","folder":"tf","game":"Team Fortress","app_id":440,"player_count":0,"max_players":24,"Bots":0,"server_type":"Dedicated","server_os":"Linux","password":true,"vac":true,"version":"7882260","steam_id":85568392924500090,"keywords":["cp","nocrits","nodmgspread","uncletopia"],"game_id":440,"stv_port":27046,"stv_name":"Uncletopia | Montréal | 4 | No Payload | STV","players":null},{"server_id":13,"name":"Uncletopia | New York City | 1 | All Maps","name_short":"nyc-1","host":"nyc-1.us.uncletopia.com","port":27015,"enabled":true,"region":"us-east","cc":"us","latitude":40.73061,"longitude":-73.93524,"reserved":0,"last_update":"0001-01-01T00:00:00Z","name_a2s":"Uncletopia | New York City | 1 | All Maps","protocol":17,"map":"pl_thundermountain","folder":"tf","game":"Team Fortress","app_id":440,"player_count":23,"max_players":24,"Bots":0,"server_type":"Dedicated","server_os":"Linux","password":true,"vac":true,"version":"7882260","steam_id":85568392924469993,"keywords":["nocrits","nodmgspread","payload","uncletopia"],"game_id":440,"stv_port":27016,"stv_name":"Uncletopia | New York City | 1 | All Maps | STV","players":[{"user_id":535,"name":"Quirinus","steam_id":76561198011516889,"connected_time":1184000000000,"state":"active","ping":61},{"user_id":508,"name":"C Papi","steam_id":76561198027779564,"connected_time":3436000000000,"state":"active","ping":57},{"user_id":528,"name":"basil smoking weed","steam_id":76561198119590214,"connected_time":2116000000000,"state":"active","ping":73},{"user_id":450,"name":"daemon","steam_id":76561198001541433,"connected_time":9058000000000,"state":"active","ping":73},{"user_id":511,"name":"TheTrueGX","steam_id":76561198065514747,"connected_time":3226000000000,"state":"active","ping":72},{"user_id":522,"name":"jayytee","steam_id":76561198059575962,"connected_time":2342000000000,"state":"active","ping":60},{"user_id":537,"name":"Neltron","steam_id":76561199383809027,"connected_time":787000000000,"state":"active","ping":64},{"user_id":507,"name":"WALL-E","steam_id":76561198154701370,"connected_time":3574000000000,"state":"active","ping":67},{"user_id":540,"name":"Marc G","steam_id":76561198062650363,"connected_time":42000000000,"state":"active","ping":76},{"user_id":512,"name":"JCDenton","steam_id":76561198023268375,"connected_time":3154000000000,"state":"active","ping":69},{"user_id":538,"name":"Jill Sandwich","steam_id":76561198841783789,"connected_time":778000000000,"state":"active","ping":41},{"user_id":514,"name":"Ebony Kytes","steam_id":76561198120969118,"connected_time":3137000000000,"state":"active","ping":73},{"user_id":482,"name":"username_id","steam_id":76561198103759716,"connected_time":5988000000000,"state":"active","ping":64},{"user_id":524,"name":"frog from pond","steam_id":76561198184900753,"connected_time":2325000000000,"state":"active","ping":58},{"user_id":500,"name":"Vladikr1","steam_id":76561198401495362,"connected_time":3823000000000,"state":"active","ping":81},{"user_id":496,"name":"Versuski","steam_id":76561198085193084,"connected_time":4390000000000,"state":"active","ping":65},{"user_id":519,"name":"balls","steam_id":76561198143694438,"connected_time":2686000000000,"state":"active","ping":57},{"user_id":525,"name":"Ted","steam_id":76561198133616658,"connected_time":2299000000000,"state":"active","ping":119},{"user_id":501,"name":"Musica Universalis","steam_id":76561198184794174,"connected_time":3807000000000,"state":"active","ping":59},{"user_id":529,"name":"caleb","steam_id":76561198080705528,"connected_time":1884000000000,"state":"active","ping":53},{"user_id":532,"name":"vv","steam_id":76561198134813102,"connected_time":1445000000000,"state":"active","ping":63},{"user_id":539,"name":"Ludcmorais","steam_id":76561198359217809,"connected_time":773000000000,"state":"active","ping":168},{"user_id":541,"name":"dr pepper","steam_id":76561198032821962,"connected_time":28000000000,"state":"active","ping":122}]},{"server_id":14,"name":"Uncletopia | New York City | 2 | All Maps","name_short":"nyc-2","host":"nyc-1.us.uncletopia.com","port":27025,"enabled":true,"region":"us-east","cc":"us","latitude":40.73061,"longitude":-73.93524,"reserved":0,"last_update":"0001-01-01T00:00:00Z","name_a2s":"Uncletopia | New York City | 2 | All Maps","protocol":17,"map":"pl_barnblitz","folder":"tf","game":"Team Fortress","app_id":440,"player_count":20,"max_players":24,"Bots":0,"server_type":"Dedicated","server_os":"Linux","password":true,"vac":true,"version":"7882260","steam_id":85568392924469994,"keywords":["nocrits","nodmgspread","payload","uncletopia"],"game_id":440,"stv_port":27026,"stv_name":"Uncletopia | New York City | 2 | All Maps | STV","players":[{"user_id":538,"name":"nori_420","steam_id":76561199117134203,"connected_time":7826000000000,"state":"active","ping":133},{"user_id":627,"name":"Stressmelo","steam_id":76561199204445185,"connected_time":22000000000,"state":"active","ping":85},{"user_id":625,"name":"kramer","steam_id":76561198117761965,"connected_time":160000000000,"state":"active","ping":55},{"user_id":606,"name":"Gh0w0st","steam_id":76561199471261226,"connected_time":1216000000000,"state":"active","ping":100},{"user_id":572,"name":"xXMLGDOODXx","steam_id":76561198080758365,"connected_time":4907000000000,"state":"active","ping":44},{"user_id":531,"name":"Starkiller","steam_id":76561198101643120,"connected_time":8184000000000,"state":"active","ping":81},{"user_id":512,"name":"SHADY SWEATER SALESMAN","steam_id":76561198014616865,"connected_time":9505000000000,"state":"active","ping":57},{"user_id":611,"name":"Wrench","steam_id":76561198132448838,"connected_time":949000000000,"state":"active","ping":59},{"user_id":612,"name":"Dr Madness The Octoling","steam_id":76561198065407703,"connected_time":936000000000,"state":"active","ping":39},{"user_id":613,"name":"ArnoldGamingﾠٴ","steam_id":76561198040140247,"connected_time":898000000000,"state":"active","ping":91},{"user_id":603,"name":"dead_heather","steam_id":76561198835359726,"connected_time":1303000000000,"state":"active","ping":93},{"user_id":614,"name":"Dylanxp300","steam_id":76561198271974937,"connected_time":894000000000,"state":"active","ping":60},{"user_id":618,"name":"Model CHP-3Y","steam_id":76561198107806145,"connected_time":481000000000,"state":"active","ping":60},{"user_id":619,"name":"bron jame","steam_id":76561198202195792,"connected_time":480000000000,"state":"active","ping":51},{"user_id":599,"name":"OffKey","steam_id":76561198017660927,"connected_time":1707000000000,"state":"active","ping":56},{"user_id":604,"name":"Frog and Toad Audio Books","steam_id":76561199182752057,"connected_time":1291000000000,"state":"active","ping":72},{"user_id":620,"name":"Cosmic sR","steam_id":76561198081738675,"connected_time":436000000000,"state":"active","ping":81},{"user_id":624,"name":"Preacher","steam_id":76561198022215764,"connected_time":355000000000,"state":"active","ping":55},{"user_id":623,"name":"wise","steam_id":76561198030066204,"connected_time":418000000000,"state":"active","ping":39},{"user_id":581,"name":"Yoshimelon","steam_id":76561198253054325,"connected_time":3776000000000,"state":"active","ping":77}]},{"server_id":15,"name":"Uncletopia | New York City | 3 | Stopwatch Beta","name_short":"nyc-3","host":"nyc-1.us.uncletopia.com","port":27035,"enabled":true,"region":"us-east","cc":"us","latitude":40.73061,"longitude":-73.93524,"reserved":0,"last_update":"0001-01-01T00:00:00Z","name_a2s":"Uncletopia | New York City | 3 | Stopwatch Beta","protocol":17,"map":"cp_snakewater_final1","folder":"tf","game":"Team Fortress","app_id":440,"player_count":0,"max_players":24,"Bots":0,"server_type":"Dedicated","server_os":"Linux","password":true,"vac":true,"version":"7882260","steam_id":85568392924742820,"keywords":["cp","nocrits","nodmgspread","uncletopia"],"game_id":440,"stv_port":27036,"stv_name":"Uncletopia | New York City | 3 | Stopwatch Beta | STV","players":null},{"server_id":16,"name":"Uncletopia | New York City | 4 | Community","name_short":"nyc-4","host":"nyc-1.us.uncletopia.com","port":27045,"enabled":true,"region":"us-east","cc":"us","latitude":40.73061,"longitude":-73.93524,"reserved":0,"last_update":"0001-01-01T00:00:00Z","name_a2s":"Uncletopia | New York City | 4 | Community","protocol":17,"map":"workshop/koth_kemptown_rc1.ugc767410655","folder":"tf","game":"Team Fortress","app_id":440,"player_count":0,"max_players":24,"Bots":0,"server_type":"Dedicated","server_os":"Linux","password":true,"vac":true,"version":"7882260","steam_id":85568392924742821,"keywords":["cp","nocrits","nodmgspread","uncletopia"],"game_id":440,"stv_port":27046,"stv_name":"Uncletopia | New York City | 4 | Community | STV","players":null},{"server_id":142,"name":"Uncletopia | São Paulo | 1 | All Maps","name_short":"sao-1","host":"sao-1.br.uncletopia.com","port":27015,"enabled":true,"region":"sa","cc":"br","latitude":-23.533773,"longitude":-46.62529,"reserved":0,"last_update":"0001-01-01T00:00:00Z","name_a2s":"Uncletopia | São Paulo | 1 | All Maps","protocol":17,"map":"koth_highpass","folder":"tf","game":"Team Fortress","app_id":440,"player_count":0,"max_players":24,"Bots":0,"server_type":"Dedicated","server_os":"Linux","password":true,"vac":true,"version":"7882260","steam_id":85568392924469996,"keywords":["cp","nocrits","nodmgspread","uncletopia"],"game_id":440,"stv_port":27016,"stv_name":"Uncletopia | São Paulo | 1 | All Maps | STV","players":null},{"server_id":143,"name":"Uncletopia | São Paulo | 2 | All Maps","name_short":"sao-2","host":"sao-2.br.uncletopia.com","port":27015,"enabled":true,"region":"sa","cc":"br","latitude":-23.533773,"longitude":-46.62529,"reserved":0,"last_update":"0001-01-01T00:00:00Z","name_a2s":"Uncletopia | São Paulo | 2 | All Maps","protocol":17,"map":"pl_pier","folder":"tf","game":"Team Fortress","app_id":440,"player_count":0,"max_players":24,"Bots":0,"server_type":"Dedicated","server_os":"Linux","password":true,"vac":true,"version":"7882260","steam_id":85568392924485349,"keywords":["nocrits","nodmgspread","payload","uncletopia"],"game_id":440,"stv_port":27016,"stv_name":"Uncletopia | São Paulo | 2 | All Maps | STV","players":null},{"server_id":7,"name":"Uncletopia | Seattle | 1 | All Maps","name_short":"sea-1","host":"sea-1.us.uncletopia.com","port":27015,"enabled":true,"region":"us-west","cc":"us","latitude":47.608013,"longitude":-122.33517,"reserved":0,"last_update":"0001-01-01T00:00:00Z","name_a2s":"Uncletopia | Seattle | 1 | All Maps","protocol":17,"map":"cp_egypt_final","folder":"tf","game":"Team Fortress","app_id":440,"player_count":22,"max_players":24,"Bots":0,"server_type":"Dedicated","server_os":"Linux","password":true,"vac":true,"version":"7882260","steam_id":85568392924469997,"keywords":["cp","nocrits","nodmgspread","uncletopia"],"game_id":440,"stv_port":27016,"stv_name":"Uncletopia | Seattle | 1 | All Maps | STV","players":[{"user_id":679,"name":"mub","steam_id":76561197961943948,"connected_time":7655000000000,"state":"active","ping":48},{"user_id":743,"name":"daniel","steam_id":76561198066426804,"connected_time":2162000000000,"state":"active","ping":89},{"user_id":749,"name":"Stick","steam_id":76561198001683088,"connected_time":1877000000000,"state":"active","ping":76},{"user_id":741,"name":"dinkle","steam_id":76561198269556303,"connected_time":2216000000000,"state":"active","ping":62},{"user_id":766,"name":"A Minority","steam_id":76561198056583581,"connected_time":268000000000,"state":"active","ping":73},{"user_id":733,"name":"Diceroll","steam_id":76561199091191812,"connected_time":2859000000000,"state":"active","ping":79},{"user_id":769,"name":"Grognak","steam_id":76561198044710527,"connected_time":102000000000,"state":"active","ping":43},{"user_id":738,"name":"Alpdhuez [✚]","steam_id":76561198013808837,"connected_time":2445000000000,"state":"active","ping":60},{"user_id":740,"name":"Ayayayayayahuasca","steam_id":76561199002906056,"connected_time":2273000000000,"state":"active","ping":45},{"user_id":744,"name":"thug","steam_id":76561198196153942,"connected_time":2158000000000,"state":"active","ping":57},{"user_id":739,"name":"Nakasmacka","steam_id":76561198049787270,"connected_time":2279000000000,"state":"active","ping":38},{"user_id":771,"name":"Vandhoming","steam_id":76561198183775386,"connected_time":33000000000,"state":"spawning","ping":53},{"user_id":736,"name":"rat gets the cheese","steam_id":76561198031234032,"connected_time":2496000000000,"state":"active","ping":99},{"user_id":757,"name":"bugsnaxdrainer","steam_id":76561198258221077,"connected_time":1116000000000,"state":"active","ping":45},{"user_id":754,"name":"Valavari バラバリ","steam_id":76561198027037197,"connected_time":1169000000000,"state":"active","ping":105},{"user_id":710,"name":"postgres","steam_id":76561198011204750,"connected_time":5520000000000,"state":"active","ping":92},{"user_id":750,"name":"kool","steam_id":76561198041100478,"connected_time":1849000000000,"state":"active","ping":91},{"user_id":760,"name":"Doctor Bad Dragon","steam_id":76561198058773212,"connected_time":893000000000,"state":"active","ping":53},{"user_id":768,"name":"[Bandit]","steam_id":76561197986919852,"connected_time":218000000000,"state":"active","ping":46},{"user_id":752,"name":"Rocket Drifter","steam_id":76561198046952513,"connected_time":1529000000000,"state":"active","ping":52},{"user_id":756,"name":"cracky","steam_id":76561197971365444,"connected_time":1130000000000,"state":"active","ping":53},{"user_id":762,"name":"Ira","steam_id":76561198855586261,"connected_time":673000000000,"state":"active","ping":84}]},{"server_id":119,"name":"Uncletopia | Seattle | 2 | All Maps","name_short":"sea-2","host":"sea-1.us.uncletopia.com","port":27025,"enabled":true,"region":"us-west","cc":"us","latitude":47.608013,"longitude":-122.33517,"reserved":0,"last_update":"0001-01-01T00:00:00Z","name_a2s":"Uncletopia | Seattle | 2 | All Maps","protocol":17,"map":"pl_borneo","folder":"tf","game":"Team Fortress","app_id":440,"player_count":24,"max_players":24,"Bots":0,"server_type":"Dedicated","server_os":"Linux","password":true,"vac":true,"version":"7882260","steam_id":85568392924469998,"keywords":["nocrits","nodmgspread","payload","uncletopia"],"game_id":440,"stv_port":27026,"stv_name":"Uncletopia | Seattle | 2 | All Maps | STV","players":[{"user_id":564,"name":"Ducks","steam_id":76561198130038345,"connected_time":1564000000000,"state":"active","ping":67},{"user_id":568,"name":"Skabbety","steam_id":76561198168044257,"connected_time":1529000000000,"state":"active","ping":35},{"user_id":591,"name":"Zeebop","steam_id":76561198148332988,"connected_time":375000000000,"state":"active","ping":87},{"user_id":519,"name":"bcid","steam_id":76561198044180341,"connected_time":4412000000000,"state":"active","ping":72},{"user_id":589,"name":"smeasly","steam_id":76561198028718812,"connected_time":626000000000,"state":"active","ping":45},{"user_id":573,"name":"Greskrendtregk","steam_id":76561197969553142,"connected_time":1420000000000,"state":"active","ping":59},{"user_id":592,"name":"General Fisticuffs","steam_id":76561198255721392,"connected_time":50000000000,"state":"active","ping":105},{"user_id":565,"name":"goldhed","steam_id":76561198051751133,"connected_time":1561000000000,"state":"active","ping":62},{"user_id":566,"name":"NickoDeeBz","steam_id":76561198294657867,"connected_time":1558000000000,"state":"active","ping":54},{"user_id":586,"name":"squash","steam_id":76561198150281353,"connected_time":903000000000,"state":"active","ping":57},{"user_id":571,"name":"resh","steam_id":76561198239598834,"connected_time":1485000000000,"state":"active","ping":133},{"user_id":583,"name":"hatsune miku♡","steam_id":76561199445009981,"connected_time":1163000000000,"state":"active","ping":54},{"user_id":574,"name":"slindust","steam_id":76561199159928133,"connected_time":1382000000000,"state":"active","ping":119},{"user_id":575,"name":"oil","steam_id":76561198099980149,"connected_time":1376000000000,"state":"active","ping":80},{"user_id":576,"name":"riSygneD","steam_id":76561198331618687,"connected_time":1365000000000,"state":"active","ping":69},{"user_id":578,"name":"westward (was/were)","steam_id":76561198805512350,"connected_time":1283000000000,"state":"active","ping":60},{"user_id":585,"name":"Noah","steam_id":76561198059048749,"connected_time":1112000000000,"state":"active","ping":105},{"user_id":580,"name":"MrMacMundy","steam_id":76561198835230572,"connected_time":1248000000000,"state":"active","ping":102},{"user_id":588,"name":"twin","steam_id":76561198055626638,"connected_time":673000000000,"state":"active","ping":144},{"user_id":590,"name":"rorywashere /ᐠ - ˕ -マ Ⳋ","steam_id":76561198065825165,"connected_time":612000000000,"state":"active","ping":99},{"user_id":500,"name":"Dunkin' Ponuts","steam_id":76561198082382465,"connected_time":6191000000000,"state":"active","ping":54},{"user_id":524,"name":"NEBULA","steam_id":76561198086878595,"connected_time":3663000000000,"state":"active","ping":80},{"user_id":561,"name":"i.love.ants.321","steam_id":76561198169755734,"connected_time":2573000000000,"state":"active","ping":62},{"user_id":563,"name":"jorts","steam_id":76561199041179985,"connected_time":2536000000000,"state":"active","ping":57}]},{"server_id":406,"name":"Uncletopia | Seattle | 3 | Stopwatch Beta","name_short":"sea-3","host":"sea-1.us.uncletopia.com","port":27035,"enabled":true,"region":"us-west","cc":"us","latitude":47.608013,"longitude":-122.33517,"reserved":0,"last_update":"0001-01-01T00:00:00Z","name_a2s":"Uncletopia | Seattle | 3 | Stopwatch Beta","protocol":17,"map":"workshop/pl_barnblitz_pro7.ugc582280235","folder":"tf","game":"Team Fortress","app_id":440,"player_count":0,"max_players":24,"Bots":0,"server_type":"Dedicated","server_os":"Linux","password":true,"vac":true,"version":"7882260","steam_id":85568392924515217,"keywords":["nocrits","nodmgspread","payload","uncletopia"],"game_id":440,"stv_port":27036,"stv_name":"Uncletopia | Seattle | 3 | Stopwatch Beta | STV","players":null},{"server_id":17,"name":"Uncletopia | San Francisco | 1 | All Maps","name_short":"sfo-1","host":"sfo-1.us.uncletopia.com","port":27015,"enabled":true,"region":"us-west","cc":"us","latitude":37.77397,"longitude":-122.4313,"reserved":0,"last_update":"0001-01-01T00:00:00Z","name_a2s":"Uncletopia | San Francisco | 1 | All Maps","protocol":17,"map":"pl_snowycoast","folder":"tf","game":"Team Fortress","app_id":440,"player_count":19,"max_players":24,"Bots":0,"server_type":"Dedicated","server_os":"Linux","password":true,"vac":true,"version":"7882260","steam_id":85568392924469999,"keywords":["nocrits","nodmgspread","payload","uncletopia"],"game_id":440,"stv_port":27016,"stv_name":"Uncletopia | San Francisco | 1 | All Maps | STV","players":[{"user_id":186,"name":"lker","steam_id":76561197976975075,"connected_time":1671000000000,"state":"active","ping":92},{"user_id":22,"name":"SvicidalBug","steam_id":76561198221390504,"connected_time":14085000000000,"state":"active","ping":82},{"user_id":187,"name":"MintyFreshMentos","steam_id":76561198839944799,"connected_time":1523000000000,"state":"active","ping":47},{"user_id":141,"name":"SAP","steam_id":76561198005186905,"connected_time":5338000000000,"state":"active","ping":77},{"user_id":162,"name":"doggato","steam_id":76561198114914855,"connected_time":3665000000000,"state":"active","ping":59},{"user_id":166,"name":"ElectronX","steam_id":76561198116034988,"connected_time":3483000000000,"state":"active","ping":60},{"user_id":203,"name":"The Foolish Samurai","steam_id":76561198094494945,"connected_time":20000000000,"state":"active","ping":67},{"user_id":202,"name":"BigGoose","steam_id":76561198833281392,"connected_time":38000000000,"state":"active","ping":80},{"user_id":181,"name":"beefskewer","steam_id":76561198049992949,"connected_time":2117000000000,"state":"active","ping":49},{"user_id":196,"name":"Mothership","steam_id":76561198044029501,"connected_time":998000000000,"state":"active","ping":90},{"user_id":197,"name":"JACK BRUNO","steam_id":76561198027957690,"connected_time":905000000000,"state":"active","ping":58},{"user_id":160,"name":"Vegan Veal","steam_id":76561198123607452,"connected_time":3733000000000,"state":"active","ping":75},{"user_id":201,"name":"Ghost Rider","steam_id":76561198155892551,"connected_time":834000000000,"state":"active","ping":60},{"user_id":179,"name":"Igrium","steam_id":76561198119549811,"connected_time":2157000000000,"state":"active","ping":48},{"user_id":184,"name":"Giorno Giovanna","steam_id":76561198044106874,"connected_time":2025000000000,"state":"active","ping":60},{"user_id":193,"name":"MerkyWaters","steam_id":76561197998853063,"connected_time":1240000000000,"state":"active","ping":73},{"user_id":198,"name":"FORGE","steam_id":76561199469278818,"connected_time":888000000000,"state":"active","ping":146},{"user_id":90,"name":"gaming","steam_id":76561198338610196,"connected_time":10784000000000,"state":"active","ping":56},{"user_id":199,"name":"BrightOrangeMango","steam_id":76561198023144607,"connected_time":885000000000,"state":"active","ping":71}]},{"server_id":18,"name":"Uncletopia | San Francisco | 2 | All Maps","name_short":"sfo-2","host":"sfo-1.us.uncletopia.com","port":27025,"enabled":true,"region":"us-west","cc":"us","latitude":37.77397,"longitude":-122.4313,"reserved":0,"last_update":"0001-01-01T00:00:00Z","name_a2s":"Uncletopia | San Francisco | 2 | All Maps","protocol":17,"map":"pl_barnblitz","folder":"tf","game":"Team Fortress","app_id":440,"player_count":24,"max_players":24,"Bots":0,"server_type":"Dedicated","server_os":"Linux","password":true,"vac":true,"version":"7882260","steam_id":85568392924470000,"keywords":["nocrits","nodmgspread","payload","uncletopia"],"game_id":440,"stv_port":27026,"stv_name":"Uncletopia | San Francisco | 2 | All Maps | STV","players":[{"user_id":90,"name":"perc 10","steam_id":76561198116471653,"connected_time":2087000000000,"state":"active","ping":86},{"user_id":109,"name":"big fish","steam_id":76561198186479818,"connected_time":294000000000,"state":"active","ping":67},{"user_id":25,"name":"beeble!","steam_id":76561198219538525,"connected_time":5116000000000,"state":"active","ping":99},{"user_id":110,"name":"Call Me Ishmael","steam_id":76561198030696516,"connected_time":292000000000,"state":"active","ping":63},{"user_id":65,"name":"O-mega","steam_id":76561199175970696,"connected_time":3031000000000,"state":"active","ping":89},{"user_id":111,"name":"Frostamist","steam_id":76561198296652576,"connected_time":196000000000,"state":"active","ping":101},{"user_id":68,"name":"louise sneeze","steam_id":76561198062451648,"connected_time":2908000000000,"state":"active","ping":74},{"user_id":97,"name":"Mike Bean Burritos","steam_id":76561198173430607,"connected_time":1581000000000,"state":"active","ping":70},{"user_id":69,"name":"Jezzus","steam_id":76561199289676387,"connected_time":2889000000000,"state":"active","ping":102},{"user_id":34,"name":"Surprise Garlic Bread Party","steam_id":76561197995246546,"connected_time":3849000000000,"state":"active","ping":48},{"user_id":112,"name":"Tankun","steam_id":76561198020365510,"connected_time":193000000000,"state":"active","ping":101},{"user_id":71,"name":"casualbaloth","steam_id":76561198016681379,"connected_time":2848000000000,"state":"active","ping":75},{"user_id":108,"name":"Ronnie Pickering!","steam_id":76561198041842118,"connected_time":321000000000,"state":"active","ping":60},{"user_id":113,"name":"Geight","steam_id":76561197991645292,"connected_time":188000000000,"state":"active","ping":80},{"user_id":114,"name":"Kyurhee","steam_id":76561198042527270,"connected_time":182000000000,"state":"active","ping":106},{"user_id":62,"name":"aqua","steam_id":76561199407709552,"connected_time":3102000000000,"state":"active","ping":92},{"user_id":117,"name":"Dunski","steam_id":76561198440277329,"connected_time":67000000000,"state":"active","ping":189},{"user_id":106,"name":"[DATS➡] Sugar Meowth","steam_id":76561197995251793,"connected_time":489000000000,"state":"active","ping":61},{"user_id":49,"name":"jaY","steam_id":76561198147228267,"connected_time":3448000000000,"state":"active","ping":116},{"user_id":59,"name":"The_Skull_boy","steam_id":76561198227692664,"connected_time":3184000000000,"state":"active","ping":70},{"user_id":96,"name":"Aradia","steam_id":76561198255575892,"connected_time":1633000000000,"state":"active","ping":83},{"user_id":116,"name":"Nine Inch Иipples","steam_id":76561198149413947,"connected_time":85000000000,"state":"active","ping":57},{"user_id":102,"name":"Scrux","steam_id":76561198129763115,"connected_time":1252000000000,"state":"active","ping":63},{"user_id":118,"name":"BuncusBeffer","steam_id":76561198285936616,"connected_time":65000000000,"state":"active","ping":57}]},{"server_id":19,"name":"Uncletopia | San Francisco | 3 | Stopwatch Beta","name_short":"sfo-3","host":"sfo-1.us.uncletopia.com","port":27035,"enabled":true,"region":"us-west","cc":"us","latitude":37.77397,"longitude":-122.4313,"reserved":0,"last_update":"0001-01-01T00:00:00Z","name_a2s":"Uncletopia | San Francisco | 3 | Stopwatch Beta","protocol":17,"map":"pl_snowycoast","folder":"tf","game":"Team Fortress","app_id":440,"player_count":0,"max_players":24,"Bots":0,"server_type":"Dedicated","server_os":"Linux","password":true,"vac":true,"version":"7882260","steam_id":85568392924742824,"keywords":["nocrits","nodmgspread","payload","uncletopia"],"game_id":440,"stv_port":27036,"stv_name":"Uncletopia | San Francisco | 3 | Stopwatch Beta | STV","players":null},{"server_id":20,"name":"Uncletopia | San Francisco | 4 | Community","name_short":"sfo-4","host":"sfo-1.us.uncletopia.com","port":27045,"enabled":true,"region":"us-west","cc":"us","latitude":37.77397,"longitude":-122.4313,"reserved":0,"last_update":"0001-01-01T00:00:00Z","name_a2s":"Uncletopia | San Francisco | 4 | Community","protocol":17,"map":"workshop/pl_eruption_b9a.ugc2807898013","folder":"tf","game":"Team Fortress","app_id":440,"player_count":0,"max_players":24,"Bots":0,"server_type":"Dedicated","server_os":"Linux","password":true,"vac":true,"version":"7882260","steam_id":85568392924742826,"keywords":["nocrits","nodmgspread","payload","uncletopia"],"game_id":440,"stv_port":27046,"stv_name":"Uncletopia | San Francisco | 4 | Community | STV","players":null},{"server_id":141,"name":"Uncletopia | Sydney | 1 | All Maps","name_short":"syd-1","host":"syd-1.au.uncletopia.com","port":27015,"enabled":true,"region":"au","cc":"au","latitude":-33.865143,"longitude":151.2099,"reserved":0,"last_update":"0001-01-01T00:00:00Z","name_a2s":"Uncletopia | Sydney | 1 | All Maps","protocol":17,"map":"pl_frontier_final","folder":"tf","game":"Team Fortress","app_id":440,"player_count":18,"max_players":24,"Bots":0,"server_type":"Dedicated","server_os":"Linux","password":true,"vac":true,"version":"7882260","steam_id":85568392924470001,"keywords":["nocrits","nodmgspread","payload","uncletopia"],"game_id":440,"stv_port":27016,"stv_name":"Uncletopia | Sydney | 1 | All Maps | STV","players":[{"user_id":151,"name":"lavanderpumpernickle","steam_id":76561199093611800,"connected_time":1285000000000,"state":"active","ping":58},{"user_id":123,"name":"Zieria","steam_id":76561199261811388,"connected_time":3543000000000,"state":"active","ping":36},{"user_id":163,"name":"CasualCentipede","steam_id":76561198146686181,"connected_time":34000000000,"state":"active","ping":52},{"user_id":11,"name":"N0thing_but_pure_lag_and_luck","steam_id":76561199002102933,"connected_time":14239000000000,"state":"active","ping":108},{"user_id":143,"name":"Dupiter","steam_id":76561198108820767,"connected_time":1572000000000,"state":"active","ping":60},{"user_id":112,"name":"RustyMeat","steam_id":76561198119162442,"connected_time":4774000000000,"state":"active","ping":72},{"user_id":161,"name":"koyaa","steam_id":76561198047484772,"connected_time":570000000000,"state":"active","ping":74},{"user_id":153,"name":"Nee-Jerk","steam_id":76561198074266145,"connected_time":1097000000000,"state":"active","ping":68},{"user_id":162,"name":"uwotm8","steam_id":76561198152215695,"connected_time":292000000000,"state":"active","ping":70},{"user_id":125,"name":"local fella","steam_id":76561198000568803,"connected_time":3411000000000,"state":"active","ping":51},{"user_id":156,"name":"Asl:3x","steam_id":76561198972095766,"connected_time":911000000000,"state":"active","ping":44},{"user_id":89,"name":"you've left me be Wilbur'd","steam_id":76561198301282416,"connected_time":6881000000000,"state":"active","ping":49},{"user_id":155,"name":"MindlessTie","steam_id":76561198107844324,"connected_time":931000000000,"state":"active","ping":67},{"user_id":95,"name":"uven","steam_id":76561198080981482,"connected_time":6304000000000,"state":"active","ping":35},{"user_id":111,"name":"4004","steam_id":76561198025099660,"connected_time":5040000000000,"state":"active","ping":33},{"user_id":157,"name":"Gamma","steam_id":76561198281131757,"connected_time":890000000000,"state":"active","ping":62},{"user_id":160,"name":"Spicy Baguette","steam_id":76561198238030210,"connected_time":658000000000,"state":"active","ping":166}]},{"server_id":123,"name":"Uncletopia | Sydney | 2 | All Maps","name_short":"syd-2","host":"syd-1.au.uncletopia.com","port":27025,"enabled":true,"region":"au","cc":"au","latitude":-33.865143,"longitude":151.2099,"reserved":0,"last_update":"0001-01-01T00:00:00Z","name_a2s":"Uncletopia | Sydney | 2 | All Maps","protocol":17,"map":"pl_pier","folder":"tf","game":"Team Fortress","app_id":440,"player_count":12,"max_players":24,"Bots":0,"server_type":"Dedicated","server_os":"Linux","password":true,"vac":true,"version":"7882260","steam_id":85568392924470002,"keywords":["nocrits","nodmgspread","payload","uncletopia"],"game_id":440,"stv_port":27026,"stv_name":"Uncletopia | Sydney | 2 | All Maps | STV","players":[{"user_id":40,"name":"Eduardo","steam_id":76561198110238382,"connected_time":578000000000,"state":"active","ping":43},{"user_id":26,"name":"Centrelink","steam_id":76561198988128327,"connected_time":2728000000000,"state":"active","ping":35},{"user_id":41,"name":"adammagee","steam_id":76561197972653972,"connected_time":297000000000,"state":"active","ping":51},{"user_id":39,"name":"PocketTieAMPLFY","steam_id":76561199080485881,"connected_time":724000000000,"state":"active","ping":276},{"user_id":34,"name":"Tiny Fisto","steam_id":76561198446888505,"connected_time":1874000000000,"state":"active","ping":268},{"user_id":23,"name":"R4V3-0N","steam_id":76561198103044000,"connected_time":3182000000000,"state":"active","ping":73},{"user_id":24,"name":"Skree'kaw / Eryn","steam_id":76561199415758131,"connected_time":3069000000000,"state":"active","ping":62},{"user_id":42,"name":"Okie Dokie","steam_id":76561198125237921,"connected_time":266000000000,"state":"active","ping":41},{"user_id":43,"name":"Dangerous DPad","steam_id":76561198452829128,"connected_time":207000000000,"state":"active","ping":59},{"user_id":44,"name":"dinxie","steam_id":76561199448765541,"connected_time":114000000000,"state":"active","ping":71},{"user_id":30,"name":"Joilee32","steam_id":76561199226255440,"connected_time":2505000000000,"state":"active","ping":133},{"user_id":45,"name":"Powersurge The Protogen -BvM-","steam_id":76561198013117218,"connected_time":43000000000,"state":"active","ping":48}]},{"server_id":395,"name":"Uncletopia | Sydney | 3 | All Maps","name_short":"syd-3","host":"syd-1.au.uncletopia.com","port":27035,"enabled":true,"region":"au","cc":"au","latitude":-33.865143,"longitude":151.2099,"reserved":0,"last_update":"0001-01-01T00:00:00Z","name_a2s":"Uncletopia | Sydney | 3 | All Maps","protocol":17,"map":"pl_badwater","folder":"tf","game":"Team Fortress","app_id":440,"player_count":0,"max_players":24,"Bots":0,"server_type":"Dedicated","server_os":"Linux","password":true,"vac":true,"version":"7882260","steam_id":85568392925194467,"keywords":["nocrits","nodmgspread","payload","uncletopia"],"game_id":440,"stv_port":27036,"stv_name":"Uncletopia | Sydney | 3 | All Maps | STV","players":null},{"server_id":396,"name":"Uncletopia | Sydney | 4 | All Maps","name_short":"syd-4","host":"syd-1.au.uncletopia.com","port":27045,"enabled":true,"region":"au","cc":"au","latitude":-33.865143,"longitude":151.2099,"reserved":0,"last_update":"0001-01-01T00:00:00Z","name_a2s":"Uncletopia | Sydney | 4 | All Maps","protocol":17,"map":"pl_snowycoast","folder":"tf","game":"Team Fortress","app_id":440,"player_count":0,"max_players":24,"Bots":0,"server_type":"Dedicated","server_os":"Linux","password":true,"vac":true,"version":"7882260","steam_id":85568392925397958,"keywords":["nocrits","nodmgspread","payload","uncletopia"],"game_id":440,"stv_port":27046,"stv_name":"Uncletopia | Sydney | 4 | All Maps | STV","players":null},{"server_id":58,"name":"Uncletopia | Sydney | 5 | Stopwatch Beta","name_short":"syd-5","host":"syd-1.au.uncletopia.com","port":27055,"enabled":true,"region":"au","cc":"au","latitude":-33.865143,"longitude":151.2099,"reserved":0,"last_update":"0001-01-01T00:00:00Z","name_a2s":"Uncletopia | Sydney | 5 | Stopwatch Beta","protocol":17,"map":"koth_viaduct","folder":"tf","game":"Team Fortress","app_id":440,"player_count":0,"max_players":24,"Bots":0,"server_type":"Dedicated","server_os":"Linux","password":true,"vac":true,"version":"7882260","steam_id":85568392925397959,"keywords":["cp","nocrits","nodmgspread","uncletopia"],"game_id":440,"stv_port":27056,"stv_name":"Uncletopia | Sydney | 5 | Stopwatch Beta | STV","players":null},{"server_id":59,"name":"Uncletopia | Sydney | 6 | Community","name_short":"syd-6","host":"syd-1.au.uncletopia.com","port":27065,"enabled":true,"region":"au","cc":"au","latitude":-33.865143,"longitude":151.2099,"reserved":0,"last_update":"0001-01-01T00:00:00Z","name_a2s":"Uncletopia | Sydney | 6 | Community","protocol":17,"map":"workshop/cp_snowbase_b18.ugc2081770490","folder":"tf","game":"Team Fortress","app_id":440,"player_count":0,"max_players":24,"Bots":0,"server_type":"Dedicated","server_os":"Linux","password":true,"vac":true,"version":"7882260","steam_id":85568392925397960,"keywords":["cp","nocrits","nodmgspread","uncletopia"],"game_id":440,"stv_port":27066,"stv_name":"Uncletopia | Sydney | 6 | Community | STV","players":null},{"server_id":49,"name":"Uncletopia | Warsaw | 1 | All Maps","name_short":"waw-1","host":"waw-1.pl.uncletopia.com","port":27015,"enabled":true,"region":"eu","cc":"pl","latitude":52.2297,"longitude":21.017532,"reserved":0,"last_update":"0001-01-01T00:00:00Z","name_a2s":"","protocol":0,"map":"","folder":"","game":"","app_id":0,"player_count":0,"max_players":0,"Bots":0,"server_type":"","server_os":"","password":false,"vac":false,"version":"","steam_id":0,"keywords":null,"game_id":0,"stv_port":0,"stv_name":"","players":null},{"server_id":50,"name":"Uncletopia | Warsaw | 2 | All Maps","name_short":"waw-2","host":"waw-1.pl.uncletopia.com","port":27025,"enabled":true,"region":"eu","cc":"pl","latitude":52.2297,"longitude":21.017532,"reserved":0,"last_update":"0001-01-01T00:00:00Z","name_a2s":"Uncletopia | Warsaw | 2 | All Maps","protocol":17,"map":"koth_viaduct","folder":"tf","game":"Team Fortress","app_id":440,"player_count":0,"max_players":24,"Bots":0,"server_type":"Dedicated","server_os":"Linux","password":true,"vac":true,"version":"7882260","steam_id":85568392925397851,"keywords":["cp","nocrits","nodmgspread","uncletopia"],"game_id":440,"stv_port":27026,"stv_name":"Uncletopia | Warsaw | 2 | All Maps | STV","players":null},{"server_id":51,"name":"Uncletopia | Warsaw | 3 | All Maps","name_short":"waw-3","host":"waw-1.pl.uncletopia.com","port":27035,"enabled":true,"region":"eu","cc":"pl","latitude":52.2297,"longitude":21.017532,"reserved":0,"last_update":"0001-01-01T00:00:00Z","name_a2s":"Uncletopia | Warsaw | 3 | All Maps","protocol":17,"map":"pl_badwater","folder":"tf","game":"Team Fortress","app_id":440,"player_count":0,"max_players":24,"Bots":0,"server_type":"Dedicated","server_os":"Linux","password":true,"vac":true,"version":"7882260","steam_id":85568392925397852,"keywords":["nocrits","nodmgspread","payload","uncletopia"],"game_id":440,"stv_port":27036,"stv_name":"Uncletopia | Warsaw | 3 | All Maps | STV","players":null},{"server_id":52,"name":"Uncletopia | Warsaw | 4 | All Maps","name_short":"waw-4","host":"waw-1.pl.uncletopia.com","port":27045,"enabled":true,"region":"eu","cc":"pl","latitude":52.2297,"longitude":21.017532,"reserved":0,"last_update":"0001-01-01T00:00:00Z","name_a2s":"Uncletopia | Warsaw | 4 | All Maps","protocol":17,"map":"koth_cascade","folder":"tf","game":"Team Fortress","app_id":440,"player_count":0,"max_players":24,"Bots":0,"server_type":"Dedicated","server_os":"Linux","password":true,"vac":true,"version":"7882260","steam_id":85568392925397853,"keywords":["cp","nocrits","nodmgspread","uncletopia"],"game_id":440,"stv_port":27046,"stv_name":"Uncletopia | Warsaw | 4 | All Maps | STV","players":null},{"server_id":53,"name":"Uncletopia | Warsaw | 5 | Stopwatch Beta","name_short":"waw-5","host":"waw-1.pl.uncletopia.com","port":27055,"enabled":true,"region":"eu","cc":"pl","latitude":52.2297,"longitude":21.017532,"reserved":0,"last_update":"0001-01-01T00:00:00Z","name_a2s":"Uncletopia | Warsaw | 5 | Stopwatch Beta","protocol":17,"map":"cp_dustbowl","folder":"tf","game":"Team Fortress","app_id":440,"player_count":0,"max_players":24,"Bots":0,"server_type":"Dedicated","server_os":"Linux","password":true,"vac":true,"version":"7882260","steam_id":85568392925397854,"keywords":["cp","nocrits","nodmgspread","uncletopia"],"game_id":440,"stv_port":27056,"stv_name":"Uncletopia | Warsaw | 5 | Stopwatch Beta | STV","players":null},{"server_id":54,"name":"Uncletopia | Warsaw | 6 | Community","name_short":"waw-6","host":"waw-1.pl.uncletopia.com","port":27065,"enabled":true,"region":"eu","cc":"pl","latitude":52.2297,"longitude":21.017532,"reserved":0,"last_update":"0001-01-01T00:00:00Z","name_a2s":"Uncletopia | Warsaw | 6 | Community","protocol":17,"map":"cp_dustbowl","folder":"tf","game":"Team Fortress","app_id":440,"player_count":0,"max_players":24,"Bots":0,"server_type":"Dedicated","server_os":"Linux","password":true,"vac":true,"version":"7882260","steam_id":85568392925397856,"keywords":["cp","nocrits","nodmgspread","uncletopia"],"game_id":440,"stv_port":27066,"stv_name":"Uncletopia | Warsaw | 6 | Community | STV","players":null}]}