{"status":true,"message":"","result":[{"server_id":9,"name":"Uncletopia | Atlanta | 1 | All Maps","name_short":"atl-1","host":"atl-1.us.uncletopia.com","port":27015,"enabled":true,"region":"us-east","cc":"us","latitude":33.753746,"longitude":-84.38633,"reserved":0,"last_update":"0001-01-01T00:00:00Z","name_a2s":"Uncletopia | Atlanta | 1 | All Maps","protocol":17,"map":"cp_egypt_final","folder":"tf","game":"Team Fortress","app_id":440,"player_count":24,"max_players":24,"Bots":0,"server_type":"Dedicated","server_os":"Linux","password":true,"vac":true,"version":"7882260","steam_id":85568392924469982,"keywords":["cp","nocrits","nodmgspread","uncletopia"],"game_id":440,"stv_port":27016,"stv_name":"Uncletopia | Atlanta | 1 | All Maps | STV","players":[{"user_id":409,"name":"SamFec","steam_id":76561198414538682,"connected_time":1337000000000,"state":"active","ping":123},{"user_id":322,"name":"Sophie","steam_id":76561198170408057,"connected_time":8299000000000,"state":"active","ping":46},{"user_id":403,"name":"Grand","steam_id":76561198290143399,"connected_time":1947000000000,"state":"active","ping":76},{"user_id":392,"name":"ash","steam_id":76561198127890645,"connected_time":3201000000000,"state":"active","ping":62},{"user_id":411,"name":"lucin","steam_id":76561198258062078,"connected_time":1299000000000,"state":"active","ping":59},{"user_id":333,"name":"very angry Jin","steam_id":76561198119873148,"connected_time":7536000000000,"state":"active","ping":77},{"user_id":412,"name":"MDMA","steam_id":76561198155990611,"connected_time":687000000000,"state":"active","ping":119},{"user_id":413,"name":"HarryjusttHarry","steam_id":76561198982810452,"connected_time":47000000000,"state":"active","ping":77},{"user_id":382,"name":"cfs._","steam_id":76561198052978969,"connected_time":3730000000000,"state":"active","ping":60},{"user_id":370,"name":"HARRY B HOLE","steam_id":76561198842067238,"connected_time":4428000000000,"state":"active","ping":63},{"user_id":378,"name":"ALBINO LESBIAN MIDGET","steam_id":76561198122691714,"connected_time":3779000000000,"state":"active","ping":66},{"user_id":277,"name":"Rin \"Hindwing\" Redtail","steam_id":76561199074865638,"connected_time":12127000000000,"state":"active","ping":60},{"user_id":377,"name":"Shame","steam_id":76561198100490994,"connected_time":4062000000000,"state":"active","ping":59},{"user_id":404,"name":"andyiscolorless","steam_id":76561199239870921,"connected_time":1910000000000,"state":"active","ping":132},{"user_id":337,"name":"nomad","steam_id":76561197998740399,"connected_time":7108000000000,"state":"active","ping":65},{"user_id":304,"name":"TL gaming","steam_id":76561198276735535,"connected_time":9448000000000,"state":"active","ping":98},{"user_id":399,"name":"Am da Best","steam_id":76561198163825955,"connected_time":2377000000000,"state":"active","ping":106},{"user_id":374,"name":"Tankless Water Heater","steam_id":76561198014574925,"connected_time":4321000000000,"state":"active","ping":100},{"user_id":405,"name":"CHAOS LORD","steam_id":76561199351708521,"connected_time":1894000000000,"state":"active","ping":86},{"user_id":341,"name":"Crumbledorf","steam_id":76561198986546469,"connected_time":6828000000000,"state":"active","ping":77},{"user_id":376,"name":"Matt","steam_id":76561198008108521,"connected_time":4184000000000,"state":"active","ping":93},{"user_id":334,"name":"Toonice","steam_id":76561198402994885,"connected_time":7533000000000,"state":"active","ping":87},{"user_id":367,"name":"not_pro_yet","steam_id":76561198262838300,"connected_time":4776000000000,"state":"active","ping":71},{"user_id":406,"name":"茶 Tea","steam_id":76561198083053923,"connected_time":1879000000000,"state":"active","ping":86}]},{"server_id":104,"name":"Uncletopia | Atlanta | 2 | All Maps","name_short":"atl-2","host":"atl-1.us.uncletopia.com","port":27025,"enabled":true,"region":"us-east","cc":"us","latitude":33.753746,"longitude":-84.38633,"reserved":0,"last_update":"0001-01-01T00:00:00Z","name_a2s":"Uncletopia | Atlanta | 2 | All Maps","protocol":17,"map":"cp_sunshine","folder":"tf","game":"Team Fortress","app_id":440,"player_count":24,"max_players":24,"Bots":0,"server_type":"Dedicated","server_os":"Linux","password":true,"vac":true,"version":"7882260","steam_id":85568392924469983,"keywords":["cp","nocrits","nodmgspread","uncletopia"],"game_id":440,"stv_port":27026,"stv_name":"Uncletopia | Atlanta | 2 | All Maps | STV","players":[{"user_id":357,"name":"Rose","steam_id":76561198955581861,"connected_time":1118000000000,"state":"active","ping":102},{"user_id":229,"name":"SeaBass","steam_id":76561198278914206,"connected_time":9220000000000,"state":"active","ping":62},{"user_id":365,"name":"RoboWarrior0410a","steam_id":76561199106531261,"connected_time":789000000000,"state":"active","ping":53},{"user_id":373,"name":"Red","steam_id":76561198031865869,"connected_time":141000000000,"state":"active","ping":83},{"user_id":349,"name":"HIDEN","steam_id":76561199024853268,"connected_time":1358000000000,"state":"active","ping":78},{"user_id":315,"name":"Myn","steam_id":76561198055438857,"connected_time":3891000000000,"state":"active","ping":72},{"user_id":301,"name":"ElJuren","steam_id":76561199204654872,"connected_time":4454000000000,"state":"active","ping":61},{"user_id":350,"name":"ThePlagueDucktor","steam_id":76561198155884968,"connected_time":1349000000000,"state":"active","ping":96},{"user_id":369,"name":"mudskippa","steam_id":76561199091978264,"connected_time":230000000000,"state":"active","ping":88},{"user_id":366,"name":"The Incredible Fem Boy","steam_id":76561198355754259,"connected_time":740000000000,"state":"active","ping":79},{"user_id":351,"name":"IPlayGamez","steam_id":76561198041387508,"connected_time":1347000000000,"state":"active","ping":49},{"user_id":374,"name":"SlowestSundew7","steam_id":76561198158548701,"connected_time":130000000000,"state":"active","ping":74},{"user_id":379,"name":"homer","steam_id":76561198171491110,"connected_time":10000000000,"state":"active","ping":84},{"user_id":356,"name":"Sableye","steam_id":76561198061247147,"connected_time":1163000000000,"state":"active","ping":69},{"user_id":358,"name":"The Loveable CHI.I.BI.","steam_id":76561198039262228,"connected_time":1110000000000,"state":"active","ping":60},{"user_id":378,"name":"nayonhaha","steam_id":76561198066507360,"connected_time":18000000000,"state":"spawning","ping":59},{"user_id":345,"name":"Satan","steam_id":76561198207786155,"connected_time":2013000000000,"state":"active","ping":91},{"user_id":372,"name":"SwampMonkeyJR","steam_id":76561198218862723,"connected_time":166000000000,"state":"active","ping":74},{"user_id":326,"name":"bean goblin #savetf2","steam_id":76561199185148234,"connected_time":2923000000000,"state":"active","ping":145},{"user_id":367,"name":"SalTev","steam_id":76561198350069373,"connected_time":722000000000,"state":"active","ping":105},{"user_id":335,"name":"just a gamer","steam_id":76561199208833695,"connected_time":2775000000000,"state":"active","ping":77},{"user_id":376,"name":"Praxis","steam_id":76561197960794303,"connected_time":121000000000,"state":"active","ping":130},{"user_id":377,"name":"the silly","steam_id":76561198850632709,"connected_time":95000000000,"state":"active","ping":57},{"user_id":362,"name":"jessicamustdie \u003c3","steam_id":76561198045230921,"connected_time":1005000000000,"state":"active","ping":66}]},{"server_id":400,"name":"Uncletopia | Atlanta | 3 | Community","name_short":"atl-3","host":"atl-1.us.uncletopia.com","port":27035,"enabled":true,"region":"us-east","cc":"us","latitude":33.753746,"longitude":-84.38633,"reserved":0,"last_update":"0001-01-01T00:00:00Z","name_a2s":"Uncletopia | Atlanta | 3 | Community","protocol":17,"map":"workshop/pl_badwater_pro_v12.ugc2142942074","folder":"tf","game":"Team Fortress","app_id":440,"player_count":24,"max_players":24,"Bots":0,"server_type":"Dedicated","server_os":"Linux","password":true,"vac":true,"version":"7882260","steam_id":85568392924515187,"keywords":["nocrits","nodmgspread","payload","uncletopia"],"game_id":440,"stv_port":27036,"stv_name":"Uncletopia | Atlanta | 3 | Community | STV","players":[{"user_id":309,"name":"☃NLM☃ CODisloveCODislife","steam_id":76561198099818414,"connected_time":2086000000000,"state":"active","ping":67},{"user_id":321,"name":"Gandalf012","steam_id":76561197997752687,"connected_time":1675000000000,"state":"active","ping":86},{"user_id":340,"name":"The Horselords and Animal Gods","steam_id":76561197975094050,"connected_time":829000000000,"state":"active","ping":102},{"user_id":329,"name":"kazoo2","steam_id":76561198260473504,"connected_time":1283000000000,"state":"active","ping":81},{"user_id":262,"name":"Skipz","steam_id":76561198425244550,"connected_time":5245000000000,"state":"active","ping":58},{"user_id":342,"name":"Tidwell","steam_id":76561198037414410,"connected_time":556000000000,"state":"active","ping":73},{"user_id":299,"name":"White_Wizard_Named_Corona","steam_id":76561198055652735,"connected_time":2616000000000,"state":"active","ping":90},{"user_id":310,"name":"Lord jellyfish","steam_id":76561198099255487,"connected_time":2082000000000,"state":"active","ping":88},{"user_id":324,"name":"Reloadstudios","steam_id":76561198064775507,"connected_time":1623000000000,"state":"active","ping":80},{"user_id":311,"name":"[DCP]DragonXR6","steam_id":76561198208096533,"connected_time":2061000000000,"state":"active","ping":107},{"user_id":304,"name":"Indigo","steam_id":76561198430362969,"connected_time":2420000000000,"state":"active","ping":61},{"user_id":245,"name":"who ate the cheese","steam_id":76561198275408467,"connected_time":5693000000000,"state":"active","ping":47},{"user_id":345,"name":"Bleok -???-","steam_id":76561198078212322,"connected_time":382000000000,"state":"active","ping":109},{"user_id":332,"name":"OgOrpheus","steam_id":76561199233440093,"connected_time":1170000000000,"state":"active","ping":87},{"user_id":347,"name":"Dabbledornk","steam_id":76561198065241300,"connected_time":339000000000,"state":"active","ping":59},{"user_id":336,"name":"God's Sleepiest Puppy Girl","steam_id":76561198070315609,"connected_time":1019000000000,"state":"active","ping":45},{"user_id":346,"name":"General Sherman","steam_id":76561198044769376,"connected_time":379000000000,"state":"active","ping":66},{"user_id":348,"name":"evolutionary sleeper","steam_id":76561198125328737,"connected_time":66000000000,"state":"active","ping":74},{"user_id":341,"name":"sailor","steam_id":76561198091015050,"connected_time":573000000000,"state":"active","ping":70},{"user_id":344,"name":"BigGreenBeast","steam_id":76561199052862674,"connected_time":460000000000,"state":"active","ping":79},{"user_id":349,"name":"RHD BRAZIL [\u003c O \u003e]","steam_id":76561198028190080,"connected_time":9000000000,"state":"spawning","ping":195},{"user_id":292,"name":"xXMLGDOODXx","steam_id":76561198080758365,"connected_time":3397000000000,"state":"active","ping":60},{"user_id":315,"name":"zam","steam_id":76561198295713840,"connected_time":2018000000000,"state":"active","ping":75},{"user_id":338,"name":"♥Bunny♥Slut♥","steam_id":76561198206376851,"connected_time":948000000000,"state":"active","ping":120}]},{"server_id":401,"name":"Uncletopia | Atlanta | 4 | No Payload","name_short":"atl-4","host":"atl-1.us.uncletopia.com","port":27045,"enabled":true,"region":"us-east","cc":"us","latitude":33.753746,"longitude":-84.38633,"reserved":0,"last_update":"0001-01-01T00:00:00Z","name_a2s":"","protocol":0,"map":"","folder":"","game":"","app_id":0,"player_count":0,"max_players":0,"Bots":0,"server_type":"","server_os":"","password":false,"vac":false,"version":"","steam_id":0,"keywords":null,"game_id":0,"stv_port":0,"stv_name":"","players":null},{"server_id":2,"name":"Uncletopia | Chicago | 1 | All Maps","name_short":"chi-1","host":"chi-1.us.uncletopia.com","port":27015,"enabled":true,"region":"us-central","cc":"us","latitude":41.881832,"longitude":-87.62318,"reserved":0,"last_update":"0001-01-01T00:00:00Z","name_a2s":"Uncletopia | Chicago | 1 | All Maps","protocol":17,"map":"pl_badwater","folder":"tf","game":"Team Fortress","app_id":440,"player_count":24,"max_players":24,"Bots":0,"server_type":"Dedicated","server_os":"Linux","password":true,"vac":true,"version":"7882260","steam_id":85568392924469984,"keywords":["nocrits","nodmgspread","payload","uncletopia"],"game_id":440,"stv_port":27016,"stv_name":"Uncletopia | Chicago | 1 | All Maps | STV","players":[{"user_id":458,"name":"sweaver","steam_id":76561199156551835,"connected_time":3927000000000,"state":"active","ping":53},{"user_id":489,"name":"Yam Jazzy Jim","steam_id":76561198000788950,"connected_time":1520000000000,"state":"active","ping":60},{"user_id":498,"name":"TransSammie","steam_id":76561198046331930,"connected_time":369000000000,"state":"active","ping":88},{"user_id":497,"name":"reis","steam_id":76561199232952016,"connected_time":747000000000,"state":"active","ping":178},{"user_id":507,"name":"JSClinton","steam_id":76561198067487389,"connected_time":48000000000,"state":"active","ping":68},{"user_id":499,"name":"Nolan","steam_id":76561198169648081,"connected_time":281000000000,"state":"active","ping":86},{"user_id":460,"name":"LeadHickory","steam_id":76561198219756521,"connected_time":3556000000000,"state":"active","ping":83},{"user_id":494,"name":"spring rolls","steam_id":76561198059409038,"connected_time":1023000000000,"state":"active","ping":74},{"user_id":468,"name":"asbestos","steam_id":76561198079178866,"connected_time":2783000000000,"state":"active","ping":65},{"user_id":501,"name":"SLiPpeRyJoe.nosound","steam_id":76561197977206359,"connected_time":250000000000,"state":"active","ping":69},{"user_id":472,"name":"Rec","steam_id":76561198022813906,"connected_time":2580000000000,"state":"active","ping":51},{"user_id":433,"name":"Metroid Prime 4","steam_id":76561198121326917,"connected_time":6538000000000,"state":"active","ping":59},{"user_id":500,"name":"büddeh","steam_id":76561198070735936,"connected_time":280000000000,"state":"active","ping":60},{"user_id":473,"name":"Oni","steam_id":76561198112066584,"connected_time":2573000000000,"state":"active","ping":56},{"user_id":474,"name":"Honolulu","steam_id":76561198106381764,"connected_time":2530000000000,"state":"active","ping":53},{"user_id":503,"name":"DaMuffinman_OK TTV","steam_id":76561198393063985,"connected_time":226000000000,"state":"active","ping":65},{"user_id":462,"name":"TobyTurner32","steam_id":76561198018801418,"connected_time":3364000000000,"state":"active","ping":89},{"user_id":504,"name":"CapnKris22","steam_id":76561198049010994,"connected_time":196000000000,"state":"active","ping":66},{"user_id":495,"name":"God of bread","steam_id":76561198373688035,"connected_time":988000000000,"state":"active","ping":66},{"user_id":506,"name":"capybara (malding)","steam_id":76561198798828328,"connected_time":60000000000,"state":"active","ping":46},{"user_id":480,"name":"GOLDIE","steam_id":76561199375258674,"connected_time":2413000000000,"state":"active","ping":103},{"user_id":463,"name":"Noodle","steam_id":76561198040872617,"connected_time":3359000000000,"state":"active","ping":101},{"user_id":491,"name":"FattSucc","steam_id":76561198009500503,"connected_time":1469000000000,"state":"active","ping":95},{"user_id":508,"name":"Twissim","steam_id":76561198141842291,"connected_time":27000000000,"state":"active","ping":99}]},{"server_id":106,"name":"Uncletopia | Chicago | 2 | All Maps","name_short":"chi-2","host":"chi-1.us.uncletopia.com","port":27025,"enabled":true,"region":"us-central","cc":"us","latitude":41.881832,"longitude":-87.62318,"reserved":0,"last_update":"0001-01-01T00:00:00Z","name_a2s":"Uncletopia | Chicago | 2 | All Maps","protocol":17,"map":"pl_pier","folder":"tf","game":"Team Fortress","app_id":440,"player_count":24,"max_players":24,"Bots":0,"server_type":"Dedicated","server_os":"Linux","password":true,"vac":true,"version":"7882260","steam_id":85568392924469985,"keywords":["nocrits","nodmgspread","payload","uncletopia"],"game_id":440,"stv_port":27026,"stv_name":"Uncletopia | Chicago | 2 | All Maps | STV","players":[{"user_id":380,"name":"Samitch","steam_id":76561198038247982,"connected_time":2464000000000,"state":"active","ping":58},{"user_id":414,"name":"capybara","steam_id":76561198182288455,"connected_time":289000000000,"state":"active","ping":59},{"user_id":381,"name":"coodge","steam_id":76561198139080439,"connected_time":2460000000000,"state":"active","ping":81},{"user_id":401,"name":"DarthEthanBoy","steam_id":76561198441643581,"connected_time":927000000000,"state":"active","ping":69},{"user_id":415,"name":"Lenny","steam_id":76561199114144438,"connected_time":284000000000,"state":"active","ping":71},{"user_id":409,"name":"The Chosen One","steam_id":76561199046984627,"connected_time":804000000000,"state":"active","ping":85},{"user_id":394,"name":"cYDERN","steam_id":76561198841866301,"connected_time":1676000000000,"state":"active","ping":69},{"user_id":367,"name":"Lucon","steam_id":76561198067147724,"connected_time":4079000000000,"state":"active","ping":57},{"user_id":344,"name":"MooleTheDoole","steam_id":76561199216480625,"connected_time":5264000000000,"state":"active","ping":81},{"user_id":378,"name":"Snazzy_","steam_id":76561198014803098,"connected_time":2844000000000,"state":"active","ping":74},{"user_id":405,"name":"Dirt Road","steam_id":76561198210372012,"connected_time":893000000000,"state":"active","ping":69},{"user_id":382,"name":"Karl","steam_id":76561198115714484,"connected_time":2459000000000,"state":"active","ping":105},{"user_id":410,"name":"Lunartik","steam_id":76561199004827382,"connected_time":789000000000,"state":"active","ping":68},{"user_id":402,"name":"Soul Garg Plushy","steam_id":76561198044480181,"connected_time":923000000000,"state":"active","ping":59},{"user_id":396,"name":"King De","steam_id":76561198194427422,"connected_time":1598000000000,"state":"active","ping":60},{"user_id":398,"name":"bereddored1","steam_id":76561198847597725,"connected_time":1284000000000,"state":"active","ping":69},{"user_id":417,"name":"Demoman With One Joke","steam_id":76561197993467034,"connected_time":59000000000,"state":"active","ping":58},{"user_id":355,"name":"Clean Lines","steam_id":76561197960691518,"connected_time":4601000000000,"state":"active","ping":58},{"user_id":416,"name":"nachopugz","steam_id":76561199120480873,"connected_time":100000000000,"state":"active","ping":148},{"user_id":386,"name":"Snoopy","steam_id":76561198273735974,"connected_time":2388000000000,"state":"active","ping":95},{"user_id":397,"name":"Luke","steam_id":76561198090671431,"connected_time":1588000000000,"state":"active","ping":65},{"user_id":406,"name":"sharkbyt3","steam_id":76561197985793803,"connected_time":862000000000,"state":"active","ping":76},{"user_id":412,"name":"Loleo","steam_id":76561198348132374,"connected_time":334000000000,"state":"active","ping":59},{"user_id":393,"name":"Gill-Man","steam_id":76561198072736830,"connected_time":1892000000000,"state":"active","ping":78}]},{"server_id":402,"name":"Uncletopia | Chicago | 3 | All Maps","name_short":"chi-3","host":"chi-1.us.uncletopia.com","port":27035,"enabled":true,"region":"us-central","cc":"us","latitude":41.881832,"longitude":-87.62318,"reserved":0,"last_update":"0001-01-01T00:00:00Z","name_a2s":"Uncletopia | Chicago | 3 | All Maps","protocol":17,"map":"cp_dustbowl","folder":"tf","game":"Team Fortress","app_id":440,"player_count":24,"max_players":24,"Bots":0,"server_type":"Dedicated","server_os":"Linux","password":true,"vac":true,"version":"7882260","steam_id":85568392924515191,"keywords":["cp","nocrits","nodmgspread","uncletopia"],"game_id":440,"stv_port":27036,"stv_name":"Uncletopia | Chicago | 3 | All Maps | STV","players":[{"user_id":527,"name":"basmati jarate","steam_id":76561198319442494,"connected_time":922000000000,"state":"active","ping":106},{"user_id":522,"name":"slime ( ,'' w'' ) DO NOT EAT","steam_id":76561198198984282,"connected_time":993000000000,"state":"active","ping":71},{"user_id":536,"name":"Icaras","steam_id":76561198416724843,"connected_time":168000000000,"state":"active","ping":121},{"user_id":380,"name":"Apetometrist","steam_id":76561198045391635,"connected_time":9655000000000,"state":"active","ping":60},{"user_id":489,"name":"bedshitter","steam_id":76561199090468595,"connected_time":2788000000000,"state":"active","ping":121},{"user_id":509,"name":"Ze_Über_Nerd","steam_id":76561198091148675,"connected_time":1750000000000,"state":"active","ping":72},{"user_id":525,"name":"Whitelock","steam_id":76561197996016130,"connected_time":947000000000,"state":"active","ping":40},{"user_id":470,"name":"xiii","steam_id":76561198079416036,"connected_time":3765000000000,"state":"active","ping":43},{"user_id":534,"name":"Uso","steam_id":76561198012093238,"connected_time":259000000000,"state":"active","ping":45},{"user_id":434,"name":"MINILEGOLAS","steam_id":76561198859362058,"connected_time":5733000000000,"state":"active","ping":105},{"user_id":540,"name":"Illuminati42","steam_id":76561198372901972,"connected_time":15000000000,"state":"active","ping":81},{"user_id":433,"name":"matt","steam_id":76561198151093701,"connected_time":5977000000000,"state":"active","ping":68},{"user_id":469,"name":"freyja","steam_id":76561198249206656,"connected_time":3783000000000,"state":"active","ping":72},{"user_id":476,"name":"demoknight tf2","steam_id":76561198070393998,"connected_time":3302000000000,"state":"active","ping":74},{"user_id":535,"name":"Herdez Hot Salsa","steam_id":76561197991740906,"connected_time":257000000000,"state":"active","ping":54},{"user_id":533,"name":"Bangushonkle","steam_id":76561198218887511,"connected_time":311000000000,"state":"active","ping":92},{"user_id":539,"name":"Anthony","steam_id":76561199439030933,"connected_time":39000000000,"state":"spawning","ping":77},{"user_id":537,"name":"Mecha","steam_id":76561198014927379,"connected_time":93000000000,"state":"active","ping":78},{"user_id":528,"name":"basil","steam_id":76561198075758026,"connected_time":913000000000,"state":"active","ping":84},{"user_id":529,"name":"SubZeroDestruction","steam_id":76561198145082209,"connected_time":900000000000,"state":"active","ping":72},{"user_id":530,"name":"Yimberly","steam_id":76561199206923109,"connected_time":899000000000,"state":"active","ping":83},{"user_id":531,"name":"Admiral Angry","steam_id":76561198058199206,"connected_time":898000000000,"state":"active","ping":58},{"user_id":517,"name":"El Bondin","steam_id":76561198820792434,"connected_time":1359000000000,"state":"active","ping":95},{"user_id":538,"name":"Queso2469","steam_id":76561197993024580,"connected_time":80000000000,"state":"active","ping":60}]},{"server_id":403,"name":"Uncletopia | Chicago | 4 | All Maps","name_short":"chi-4","host":"chi-1.us.uncletopia.com","port":27045,"enabled":true,"region":"us-central","cc":"us","latitude":41.881832,"longitude":-87.62318,"reserved":0,"last_update":"0001-01-01T00:00:00Z","name_a2s":"Uncletopia | Chicago | 4 | All Maps","protocol":17,"map":"pl_frontier_final","folder":"tf","game":"Team Fortress","app_id":440,"player_count":23,"max_players":24,"Bots":0,"server_type":"Dedicated","server_os":"Linux","password":true,"vac":true,"version":"7882260","steam_id":85568392924515193,"keywords":["nocrits","nodmgspread","payload","uncletopia"],"game_id":440,"stv_port":27046,"stv_name":"Uncletopia | Chicago | 4 | All Maps | STV","players":[{"user_id":136,"name":"!! NOT A FLYING TOY !!","steam_id":76561198069735882,"connected_time":3402000000000,"state":"active","ping":75},{"user_id":155,"name":"swooce","steam_id":76561198156232484,"connected_time":1452000000000,"state":"active","ping":64},{"user_id":142,"name":"Treeckogeek","steam_id":76561198453328078,"connected_time":2249000000000,"state":"active","ping":60},{"user_id":165,"name":"gaming elliptical","steam_id":76561198013456569,"connected_time":196000000000,"state":"active","ping":45},{"user_id":149,"name":"Your Medic Boyfriend","steam_id":76561198044762641,"connected_time":1502000000000,"state":"active","ping":88},{"user_id":160,"name":"The Grim Heaper","steam_id":76561197987759101,"connected_time":1340000000000,"state":"active","ping":112},{"user_id":100,"name":"MEATBALL","steam_id":76561198028499312,"connected_time":4994000000000,"state":"active","ping":61},{"user_id":163,"name":"MasterFaust","steam_id":76561198158161053,"connected_time":785000000000,"state":"active","ping":68},{"user_id":99,"name":"your wickedness is cringe","steam_id":76561198016826181,"connected_time":5016000000000,"state":"active","ping":71},{"user_id":166,"name":"[Champ] Marssygurl","steam_id":76561198014928241,"connected_time":2000000000,"state":"spawning","ping":69},{"user_id":102,"name":"BetoelAff es","steam_id":76561198377842585,"connected_time":4941000000000,"state":"active","ping":118},{"user_id":103,"name":"SABONER","steam_id":76561198056871257,"connected_time":4937000000000,"state":"active","ping":72},{"user_id":150,"name":"motherfucker 2.0","steam_id":76561198141189209,"connected_time":1494000000000,"state":"active","ping":60},{"user_id":151,"name":"JohnnyGitGud","steam_id":76561198401455467,"connected_time":1490000000000,"state":"active","ping":110},{"user_id":130,"name":"gonk","steam_id":76561198061206732,"connected_time":3650000000000,"state":"active","ping":76},{"user_id":131,"name":"pizzaschnoesel","steam_id":76561198143534694,"connected_time":3633000000000,"state":"active","ping":168},{"user_id":162,"name":"oph","steam_id":76561198130182991,"connected_time":863000000000,"state":"active","ping":68},{"user_id":153,"name":"Mailer","steam_id":76561198062690074,"connected_time":1462000000000,"state":"active","ping":136},{"user_id":159,"name":"joe biden","steam_id":76561198861436861,"connected_time":1357000000000,"state":"active","ping":94},{"user_id":161,"name":"BIDEN BLAST","steam_id":76561198107343544,"connected_time":1060000000000,"state":"active","ping":84},{"user_id":148,"name":"Niangxing","steam_id":76561198278481498,"connected_time":1565000000000,"state":"active","ping":74},{"user_id":147,"name":"Tom Crúaich","steam_id":76561197999439911,"connected_time":1716000000000,"state":"active","ping":75},{"user_id":117,"name":"Wolf Hat","steam_id":76561198099996051,"connected_time":4425000000000,"state":"active","ping":66}]},{"server_id":36,"name":"Uncletopia | Chicago | 5 | All Maps","name_short":"chi-5","host":"chi-2.us.uncletopia.com","port":27015,"enabled":true,"region":"us-central","cc":"us","latitude":41.881832,"longitude":-87.62318,"reserved":0,"last_update":"0001-01-01T00:00:00Z","name_a2s":"Uncletopia | Chicago | 5 | All Maps","protocol":17,"map":"pl_badwater","folder":"tf","game":"Team Fortress","app_id":440,"player_count":24,"max_players":24,"Bots":0,"server_type":"Dedicated","server_os":"Linux","password":true,"vac":true,"version":"7882260","steam_id":85568392924866362,"keywords":["nocrits","nodmgspread","payload","uncletopia"],"game_id":440,"stv_port":27016,"stv_name":"Uncletopia | Chicago | 5 | All Maps | STV","players":[{"user_id":264,"name":"CyberZayne","steam_id":76561198002351356,"connected_time":769000000000,"state":"active","ping":80},{"user_id":262,"name":"SIN K4RMA","steam_id":76561198869287223,"connected_time":804000000000,"state":"active","ping":78},{"user_id":273,"name":"Cosmic sR","steam_id":76561198081738675,"connected_time":644000000000,"state":"active","ping":84},{"user_id":282,"name":"jolo","steam_id":76561198042831480,"connected_time":462000000000,"state":"active","ping":61},{"user_id":251,"name":"WhiteRabbit","steam_id":76561198027579538,"connected_time":1868000000000,"state":"active","ping":64},{"user_id":283,"name":"❤[Lilly]❤","steam_id":76561198817361963,"connected_time":444000000000,"state":"active","ping":107},{"user_id":235,"name":"LerN","steam_id":76561198083463877,"connected_time":3032000000000,"state":"active","ping":54},{"user_id":216,"name":"Skellacat","steam_id":76561199090786845,"connected_time":4094000000000,"state":"active","ping":58},{"user_id":265,"name":"Cube","steam_id":76561198156746320,"connected_time":748000000000,"state":"active","ping":44},{"user_id":289,"name":"MeatBall","steam_id":76561199055196261,"connected_time":15000000000,"state":"spawning","ping":166},{"user_id":268,"name":"Artemy \"The Haruspex\" Burakh","steam_id":76561198257038275,"connected_time":724000000000,"state":"active","ping":82},{"user_id":280,"name":"sithreis","steam_id":76561198000564263,"connected_time":558000000000,"state":"active","ping":73},{"user_id":269,"name":"weak-man","steam_id":76561199379738409,"connected_time":710000000000,"state":"active","ping":110},{"user_id":248,"name":"java","steam_id":76561198030276792,"connected_time":2430000000000,"state":"active","ping":60},{"user_id":225,"name":"lanoc","steam_id":76561198055415367,"connected_time":3489000000000,"state":"active","ping":59},{"user_id":258,"name":"anonion","steam_id":76561198056477584,"connected_time":1338000000000,"state":"active","ping":75},{"user_id":261,"name":"a table","steam_id":76561198158461279,"connected_time":831000000000,"state":"active","ping":64},{"user_id":270,"name":"LevelZ3R0","steam_id":76561199239710681,"connected_time":706000000000,"state":"active","ping":126},{"user_id":281,"name":"Haveltherock27","steam_id":76561199219844391,"connected_time":520000000000,"state":"active","ping":104},{"user_id":285,"name":"aiming with drawing tablet","steam_id":76561198397662124,"connected_time":403000000000,"state":"active","ping":87},{"user_id":254,"name":"JACOB","steam_id":76561198211874895,"connected_time":1638000000000,"state":"active","ping":74},{"user_id":275,"name":"Shwal","steam_id":76561198138840448,"connected_time":642000000000,"state":"active","ping":82},{"user_id":277,"name":"vandeer","steam_id":76561198120124007,"connected_time":604000000000,"state":"active","ping":86},{"user_id":288,"name":"Old man Jenkins","steam_id":76561199209016136,"connected_time":179000000000,"state":"active","ping":61}]},{"server_id":37,"name":"Uncletopia | Chicago | 6 | All Maps","name_short":"chi-6","host":"chi-2.us.uncletopia.com","port":27025,"enabled":true,"region":"us-central","cc":"us","latitude":41.881832,"longitude":-87.62318,"reserved":0,"last_update":"0001-01-01T00:00:00Z","name_a2s":"Uncletopia | Chicago | 6 | All Maps","protocol":17,"map":"ctf_2fort","folder":"tf","game":"Team Fortress","app_id":440,"player_count":13,"max_players":24,"Bots":0,"server_type":"Dedicated","server_os":"Linux","password":true,"vac":true,"version":"7882260","steam_id":85568392924866363,"keywords":["ctf","nocrits","nodmgspread","uncletopia"],"game_id":440,"stv_port":27026,"stv_name":"Uncletopia | Chicago | 6 | All Maps | STV","players":[{"user_id":33,"name":"Mewysty","steam_id":76561199200480562,"connected_time":147000000000,"state":"active","ping":102},{"user_id":18,"name":"carlos.t","steam_id":76561198849981462,"connected_time":1585000000000,"state":"active","ping":55},{"user_id":26,"name":"Blue-Lobster-Gaming","steam_id":76561199220578772,"connected_time":671000000000,"state":"active","ping":71},{"user_id":23,"name":"BIgboy535","steam_id":76561198798967935,"connected_time":1146000000000,"state":"active","ping":98},{"user_id":27,"name":"Poppeloco","steam_id":76561199201527202,"connected_time":656000000000,"state":"active","ping":189},{"user_id":11,"name":"Czar","steam_id":76561198834572665,"connected_time":2764000000000,"state":"active","ping":48},{"user_id":30,"name":"Gaskranx","steam_id":76561198020269547,"connected_time":501000000000,"state":"active","ping":66},{"user_id":17,"name":"DawnNannas","steam_id":76561198042915117,"connected_time":1710000000000,"state":"active","ping":104},{"user_id":34,"name":"♥ kiss me! ♥","steam_id":76561198014557455,"connected_time":145000000000,"state":"active","ping":50},{"user_id":35,"name":"Pheonix","steam_id":76561199470538309,"connected_time":116000000000,"state":"active","ping":196},{"user_id":32,"name":"pabbott123110","steam_id":76561199231739796,"connected_time":488000000000,"state":"active","ping":84},{"user_id":36,"name":"Hadvar","steam_id":76561198081681234,"connected_time":106000000000,"state":"active","ping":57},{"user_id":37,"name":"Don't Fuckle with Shuckle","steam_id":76561199020102367,"connected_time":102000000000,"state":"active","ping":74}]},{"server_id":38,"name":"Uncletopia | Chicago | 7 | Stopwatch Beta","name_short":"chi-7","host":"chi-2.us.uncletopia.com","port":27035,"enabled":true,"region":"us-central","cc":"us","latitude":41.881832,"longitude":-87.62318,"reserved":0,"last_update":"0001-01-01T00:00:00Z","name_a2s":"Uncletopia | Chicago | 7 | Stopwatch Beta","protocol":17,"map":"koth_lakeside_final","folder":"tf","game":"Team Fortress","app_id":440,"player_count":0,"max_players":24,"Bots":0,"server_type":"Dedicated","server_os":"Linux","password":true,"vac":true,"version":"7882260","steam_id":85568392924866364,"keywords":["cp","nocrits","nodmgspread","uncletopia"],"game_id":440,"stv_port":27036,"stv_name":"Uncletopia | Chicago | 7 | Stopwatch Beta | STV","players":null},{"server_id":39,"name":"Uncletopia | Chicago | 8 | Community","name_short":"chi-8","host":"chi-2.us.uncletopia.com","port":27045,"enabled":true,"region":"us-central","cc":"us","latitude":41.881832,"longitude":-87.62318,"reserved":0,"last_update":"0001-01-01T00:00:00Z","name_a2s":"Uncletopia | Chicago | 8 | Community","protocol":17,"map":"workshop/koth_product_final.ugc454272353","folder":"tf","game":"Team Fortress","app_id":440,"player_count":0,"max_players":24,"Bots":0,"server_type":"Dedicated","server_os":"Linux","password":true,"vac":true,"version":"7882260","steam_id":85568392924866365,"keywords":["cp","nocrits","nodmgspread","uncletopia"],"game_id":440,"stv_port":27046,"stv_name":"Uncletopia | Chicago | 8 | Community | STV","players":null},{"server_id":8,"name":"Uncletopia | Dallas | 1 | All Maps","name_short":"dal-1","host":"dal-1.us.uncletopia.com","port":27015,"enabled":true,"region":"us-central","cc":"us","latitude":32.779167,"longitude":-96.80889,"reserved":0,"last_update":"0001-01-01T00:00:00Z","name_a2s":"Uncletopia | Dallas | 1 | All Maps","protocol":17,"map":"pl_upward","folder":"tf","game":"Team Fortress","app_id":440,"player_count":24,"max_players":24,"Bots":0,"server_type":"Dedicated","server_os":"Linux","password":true,"vac":true,"version":"7882260","steam_id":85568392924469986,"keywords":["nocrits","nodmgspread","payload","uncletopia"],"game_id":440,"stv_port":27016,"stv_name":"Uncletopia | Dallas | 1 | All Maps | STV","players":[{"user_id":314,"name":"Greg Boberton 2012","steam_id":76561198983566026,"connected_time":8579000000000,"state":"active","ping":78},{"user_id":362,"name":"ZERGBERG","steam_id":76561198142126940,"connected_time":4001000000000,"state":"active","ping":47},{"user_id":429,"name":"REAL MEN DO WORK","steam_id":76561198343731774,"connected_time":294000000000,"state":"active","ping":65},{"user_id":400,"name":"Nyplestheclown","steam_id":76561198028600291,"connected_time":2097000000000,"state":"active","ping":51},{"user_id":413,"name":"E. Gordbort","steam_id":76561198094231961,"connected_time":1135000000000,"state":"active","ping":77},{"user_id":404,"name":"endo","steam_id":76561197995204381,"connected_time":1628000000000,"state":"active","ping":76},{"user_id":410,"name":"Ruby Gillman","steam_id":76561198366299848,"connected_time":1243000000000,"state":"active","ping":58},{"user_id":365,"name":"Heathcliff","steam_id":76561198044288534,"connected_time":3916000000000,"state":"active","ping":90},{"user_id":375,"name":"ChaoticAngel","steam_id":76561198293528217,"connected_time":3766000000000,"state":"active","ping":81},{"user_id":431,"name":"Furrio","steam_id":76561198174104607,"connected_time":198000000000,"state":"active","ping":71},{"user_id":391,"name":"AwesomeAEA","steam_id":76561198303978260,"connected_time":2398000000000,"state":"active","ping":83},{"user_id":392,"name":"Ikalpo","steam_id":76561198044686915,"connected_time":2269000000000,"state":"active","ping":117},{"user_id":331,"name":"pogo","steam_id":76561198148913461,"connected_time":6665000000000,"state":"active","ping":83},{"user_id":414,"name":"CEO of (BBL)","steam_id":76561199048262885,"connected_time":1080000000000,"state":"active","ping":86},{"user_id":419,"name":"good soup guy","steam_id":76561199210237835,"connected_time":973000000000,"state":"active","ping":99},{"user_id":387,"name":"sly","steam_id":76561198139240845,"connected_time":2592000000000,"state":"active","ping":88},{"user_id":434,"name":"❤ Anti ❤","steam_id":76561198408747483,"connected_time":84000000000,"state":"active","ping":58},{"user_id":433,"name":"❤ Ashley ❤","steam_id":76561198056428303,"connected_time":115000000000,"state":"active","ping":76},{"user_id":432,"name":"Kosmo","steam_id":76561198079015843,"connected_time":147000000000,"state":"active","ping":59},{"user_id":427,"name":"kyng_wzrd","steam_id":76561198088339492,"connected_time":506000000000,"state":"active","ping":82},{"user_id":430,"name":"[FOFS]billyburl","steam_id":76561198079535159,"connected_time":287000000000,"state":"active","ping":82},{"user_id":421,"name":"NerpMC","steam_id":76561199380119436,"connected_time":944000000000,"state":"active","ping":100},{"user_id":422,"name":"[]{}#^*+=","steam_id":76561198127039453,"connected_time":941000000000,"state":"active","ping":78},{"user_id":423,"name":"reymundo","steam_id":76561197989412830,"connected_time":926000000000,"state":"active","ping":88}]},{"server_id":108,"name":"Uncletopia | Dallas | 2 | All Maps","name_short":"dal-2","host":"dal-1.us.uncletopia.com","port":27025,"enabled":true,"region":"us-central","cc":"us","latitude":32.779167,"longitude":-96.80889,"reserved":0,"last_update":"0001-01-01T00:00:00Z","name_a2s":"Uncletopia | Dallas | 2 | All Maps","protocol":17,"map":"pl_badwater","folder":"tf","game":"Team Fortress","app_id":440,"player_count":24,"max_players":24,"Bots":0,"server_type":"Dedicated","server_os":"Linux","password":true,"vac":true,"version":"7882260","steam_id":85568392924469988,"keywords":["nocrits","nodmgspread","payload","uncletopia"],"game_id":440,"stv_port":27026,"stv_name":"Uncletopia | Dallas | 2 | All Maps | STV","players":[{"user_id":357,"name":"G-G-G-GAMERSHOT","steam_id":76561198798980951,"connected_time":3443000000000,"state":"active","ping":76},{"user_id":402,"name":"Acolyte of Goatse","steam_id":76561198046526036,"connected_time":404000000000,"state":"active","ping":75},{"user_id":358,"name":"mcjuice","steam_id":76561198087730829,"connected_time":3429000000000,"state":"active","ping":71},{"user_id":356,"name":"Scout from Team Fortress 2","steam_id":76561199471318186,"connected_time":3475000000000,"state":"active","ping":91},{"user_id":386,"name":"\u003c`)))))\u003c fish","steam_id":76561198410078962,"connected_time":1393000000000,"state":"active","ping":66},{"user_id":409,"name":"goblino","steam_id":76561198068260422,"connected_time":68000000000,"state":"active","ping":71},{"user_id":325,"name":"SaberAthena782","steam_id":76561199445700766,"connected_time":5388000000000,"state":"active","ping":159},{"user_id":364,"name":"Crispy","steam_id":76561198037481161,"connected_time":3191000000000,"state":"active","ping":69},{"user_id":392,"name":"Grandpa 1MinecraftEmpire","steam_id":76561198069046338,"connected_time":1099000000000,"state":"active","ping":96},{"user_id":410,"name":"flameboy50","steam_id":76561198258638052,"connected_time":7000000000,"state":"active","ping":301},{"user_id":366,"name":"Mr. Bixby","steam_id":76561198868839264,"connected_time":2933000000000,"state":"active","ping":47},{"user_id":400,"name":"Chad Wheezer","steam_id":76561199019647814,"connected_time":608000000000,"state":"active","ping":46},{"user_id":355,"name":"icm2008","steam_id":76561199277408836,"connected_time":3483000000000,"state":"active","ping":89},{"user_id":380,"name":"ceaseless pleasure","steam_id":76561198063841152,"connected_time":2063000000000,"state":"active","ping":102},{"user_id":408,"name":"DMM","steam_id":76561198065426171,"connected_time":276000000000,"state":"active","ping":58},{"user_id":370,"name":"Analogous","steam_id":76561198242842394,"connected_time":2665000000000,"state":"active","ping":50},{"user_id":379,"name":"Giovanni573","steam_id":76561198893868040,"connected_time":2147000000000,"state":"active","ping":50},{"user_id":405,"name":"HanakoToast","steam_id":76561198045233131,"connected_time":349000000000,"state":"active","ping":94},{"user_id":396,"name":"VenANON","steam_id":76561198055676240,"connected_time":818000000000,"state":"active","ping":108},{"user_id":406,"name":"grunga","steam_id":76561198108299767,"connected_time":333000000000,"state":"active","ping":63},{"user_id":331,"name":"Eins","steam_id":76561199030343810,"connected_time":5236000000000,"state":"active","ping":62},{"user_id":397,"name":"thisisSteve","steam_id":76561198420882318,"connected_time":813000000000,"state":"active","ping":85},{"user_id":407,"name":"ChingaTuMadre.com","steam_id":76561199003163608,"connected_time":331000000000,"state":"active","ping":111},{"user_id":375,"name":"Joejee","steam_id":76561199122423976,"connected_time":2259000000000,"state":"active","ping":166}]},{"server_id":5,"name":"Uncletopia | Frankfurt | 1 | All Maps","name_short":"frk-1","host":"frk-1.de.uncletopia.com","port":27015,"enabled":true,"region":"eu","cc":"de","latitude":50.110924,"longitude":8.682127,"reserved":0,"last_update":"0001-01-01T00:00:00Z","name_a2s":"Uncletopia | Frankfurt | 1 | All Maps","protocol":17,"map":"pl_pier","folder":"tf","game":"Team Fortress","app_id":440,"player_count":10,"max_players":24,"Bots":0,"server_type":"Dedicated","server_os":"Linux","password":true,"vac":true,"version":"7882260","steam_id":85568392924469989,"keywords":["nocrits","nodmgspread","payload","uncletopia"],"game_id":440,"stv_port":27016,"stv_name":"Uncletopia | Frankfurt | 1 | All Maps | STV","players":[{"user_id":868,"name":"Valdis","steam_id":76561198057340489,"connected_time":594000000000,"state":"active","ping":45},{"user_id":881,"name":"r06u3","steam_id":76561198254099253,"connected_time":2000000000,"state":"spawning","ping":147},{"user_id":871,"name":"bapab","steam_id":76561198307556377,"connected_time":474000000000,"state":"active","ping":54},{"user_id":872,"name":"soggäh","steam_id":76561198046694824,"connected_time":471000000000,"state":"active","ping":63},{"user_id":873,"name":"testiculartorsiontom","steam_id":76561199401705232,"connected_time":466000000000,"state":"active","ping":71},{"user_id":882,"name":"Nobody","steam_id":76561199113947978,"connected_time":1000000000,"state":"spawning","ping":49},{"user_id":878,"name":"Hulio Sanchez","steam_id":76561198831413561,"connected_time":316000000000,"state":"active","ping":74},{"user_id":875,"name":"Pirkage #transrights","steam_id":76561198323002691,"connected_time":458000000000,"state":"spawning","ping":71},{"user_id":880,"name":"Pink Milk","steam_id":76561198096132157,"connected_time":245000000000,"state":"active","ping":62},{"user_id":857,"name":"combine","steam_id":76561198007909007,"connected_time":1136000000000,"state":"active","ping":54}]},{"server_id":110,"name":"Uncletopia | Frankfurt | 2 | All Maps","name_short":"frk-2","host":"frk-1.de.uncletopia.com","port":27025,"enabled":true,"region":"eu","cc":"de","latitude":50.110924,"longitude":8.682127,"reserved":0,"last_update":"0001-01-01T00:00:00Z","name_a2s":"Uncletopia | Frankfurt | 2 | All Maps","protocol":17,"map":"pl_hoodoo_final","folder":"tf","game":"Team Fortress","app_id":440,"player_count":23,"max_players":24,"Bots":0,"server_type":"Dedicated","server_os":"Linux","password":true,"vac":true,"version":"7882260","steam_id":85568392924469990,"keywords":["nocrits","nodmgspread","payload","uncletopia"],"game_id":440,"stv_port":27026,"stv_name":"Uncletopia | Frankfurt | 2 | All Maps | STV","players":[{"user_id":413,"name":"Jottys","steam_id":76561198107127295,"connected_time":1216000000000,"state":"active","ping":73},{"user_id":398,"name":"Hoxton","steam_id":76561198129209505,"connected_time":2106000000000,"state":"active","ping":76},{"user_id":392,"name":"Ptahotep","steam_id":76561198008708645,"connected_time":2477000000000,"state":"active","ping":54},{"user_id":377,"name":"Carrotcracker","steam_id":76561198034862396,"connected_time":3182000000000,"state":"active","ping":68},{"user_id":418,"name":"Vitamin Weee","steam_id":76561199183937747,"connected_time":613000000000,"state":"active","ping":81},{"user_id":407,"name":"European_Fox","steam_id":76561198053691182,"connected_time":1597000000000,"state":"active","ping":83},{"user_id":381,"name":"AwterSix","steam_id":76561198042561678,"connected_time":2802000000000,"state":"active","ping":59},{"user_id":359,"name":"Lorenzo Lovers","steam_id":76561198073973581,"connected_time":4201000000000,"state":"active","ping":78},{"user_id":421,"name":"Vel0city","steam_id":76561198049687798,"connected_time":334000000000,"state":"active","ping":59},{"user_id":345,"name":"Ostara","steam_id":76561198200054489,"connected_time":6308000000000,"state":"active","ping":74},{"user_id":411,"name":"Dr. Jabbinton","steam_id":76561198180007387,"connected_time":1276000000000,"state":"active","ping":44},{"user_id":379,"name":"LordTrap.exe","steam_id":76561198318089716,"connected_time":3094000000000,"state":"active","ping":60},{"user_id":347,"name":"Kelpy G gaming","steam_id":76561198056995633,"connected_time":6279000000000,"state":"active","ping":73},{"user_id":422,"name":"Mael\u003c3","steam_id":76561197996852498,"connected_time":234000000000,"state":"active","ping":58},{"user_id":423,"name":"Repa24","steam_id":76561198033016390,"connected_time":11000000000,"state":"active","ping":65},{"user_id":363,"name":"SuperBob103","steam_id":76561199175360012,"connected_time":4115000000000,"state":"active","ping":60},{"user_id":400,"name":"The one who knocks","steam_id":76561198089341471,"connected_time":2067000000000,"state":"active","ping":73},{"user_id":372,"name":"eeeeee","steam_id":76561198017786875,"connected_time":3243000000000,"state":"active","ping":59},{"user_id":424,"name":"i took the wock to obersalzberg","steam_id":76561198044189114,"connected_time":9000000000,"state":"spawning","ping":61},{"user_id":405,"name":"smell_my_cheese","steam_id":76561198008517427,"connected_time":1758000000000,"state":"active","ping":68},{"user_id":414,"name":"Shromide","steam_id":76561198140382935,"connected_time":1167000000000,"state":"active","ping":71},{"user_id":394,"name":"Mr_Pulse_","steam_id":76561198095001602,"connected_time":2462000000000,"state":"active","ping":93},{"user_id":409,"name":"I Don't Know","steam_id":76561198841011430,"connected_time":1506000000000,"state":"active","ping":68}]},{"server_id":308,"name":"Uncletopia | Frankfurt | 3 | All Maps","name_short":"frk-3","host":"frk-1.de.uncletopia.com","port":27035,"enabled":true,"region":"eu","cc":"de","latitude":50.110924,"longitude":8.682127,"reserved":0,"last_update":"0001-01-01T00:00:00Z","name_a2s":"Uncletopia | Frankfurt | 3 | All Maps","protocol":17,"map":"cp_altitude","folder":"tf","game":"Team Fortress","app_id":440,"player_count":17,"max_players":24,"Bots":0,"server_type":"Dedicated","server_os":"Linux","password":true,"vac":true,"version":"7882260","steam_id":85568392924504274,"keywords":["cp","nocrits","nodmgspread","uncletopia"],"game_id":440,"stv_port":27036,"stv_name":"Uncletopia | Frankfurt | 3 | All Maps | STV","players":[{"user_id":519,"name":"Gromov","steam_id":76561198407644131,"connected_time":666000000000,"state":"active","ping":68},{"user_id":487,"name":"Cataleptic","steam_id":76561197997966949,"connected_time":2889000000000,"state":"active","ping":72},{"user_id":531,"name":"Piteras","steam_id":76561198858532207,"connected_time":47000000000,"state":"active","ping":76},{"user_id":467,"name":"tiia","steam_id":76561198046196005,"connected_time":3786000000000,"state":"active","ping":45},{"user_id":532,"name":"KeTlEr","steam_id":76561198100957443,"connected_time":14000000000,"state":"spawning","ping":80},{"user_id":528,"name":"etc","steam_id":76561197998394797,"connected_time":383000000000,"state":"active","ping":57},{"user_id":473,"name":"☁⭍ qBowN∼","steam_id":76561198000980532,"connected_time":3574000000000,"state":"active","ping":44},{"user_id":524,"name":"Making Coffee","steam_id":76561198138281039,"connected_time":547000000000,"state":"active","ping":63},{"user_id":516,"name":"Doctor Marijuana","steam_id":76561198288289879,"connected_time":876000000000,"state":"active","ping":60},{"user_id":515,"name":"Xiqui","steam_id":76561198818386611,"connected_time":912000000000,"state":"active","ping":82},{"user_id":525,"name":"Mr. Master","steam_id":76561199198569317,"connected_time":532000000000,"state":"active","ping":62},{"user_id":498,"name":"YOU ARE SHITTING YOUR SELF","steam_id":76561198371719058,"connected_time":1995000000000,"state":"active","ping":68},{"user_id":530,"name":"Morne","steam_id":76561198161268781,"connected_time":194000000000,"state":"active","ping":72},{"user_id":477,"name":"Tapet","steam_id":76561197998808674,"connected_time":3522000000000,"state":"active","ping":59},{"user_id":492,"name":"REN","steam_id":76561198000596385,"connected_time":2527000000000,"state":"active","ping":71},{"user_id":486,"name":"Fifourche","steam_id":76561198078209480,"connected_time":3047000000000,"state":"active","ping":59},{"user_id":505,"name":"kaT","steam_id":76561198879664338,"connected_time":1329000000000,"state":"active","ping":65}]},{"server_id":309,"name":"Uncletopia | Frankfurt | 4 | All Maps","name_short":"frk-4","host":"frk-1.de.uncletopia.com","port":27045,"enabled":true,"region":"eu","cc":"de","latitude":50.110924,"longitude":8.682127,"reserved":0,"last_update":"0001-01-01T00:00:00Z","name_a2s":"Uncletopia | Frankfurt | 4 | All Maps","protocol":17,"map":"plr_hightower","folder":"tf","game":"Team Fortress","app_id":440,"player_count":4,"max_players":24,"Bots":0,"server_type":"Dedicated","server_os":"Linux","password":true,"vac":true,"version":"7882260","steam_id":85568392924504275,"keywords":["nocrits","nodmgspread","payload","uncletopia"],"game_id":440,"stv_port":27046,"stv_name":"Uncletopia | Frankfurt | 4 | All Maps | STV","players":[{"user_id":525,"name":"smaller columbo","steam_id":76561198065516212,"connected_time":2086000000000,"state":"active","ping":90},{"user_id":530,"name":"MellowBoy-2354","steam_id":76561199080630632,"connected_time":1064000000000,"state":"active","ping":180},{"user_id":534,"name":"Emir_","steam_id":76561198842499536,"connected_time":26000000000,"state":"active","ping":96},{"user_id":506,"name":"Hat Lover","steam_id":76561198312283433,"connected_time":4188000000000,"state":"active","ping":80}]},{"server_id":310,"name":"Uncletopia | Frankfurt | 5 | All Maps","name_short":"frk-5","host":"frk-1.de.uncletopia.com","port":27055,"enabled":true,"region":"eu","cc":"de","latitude":50.110924,"longitude":8.682127,"reserved":0,"last_update":"0001-01-01T00:00:00Z","name_a2s":"Uncletopia | Frankfurt | 5 | All Maps","protocol":17,"map":"pl_pier","folder":"tf","game":"Team Fortress","app_id":440,"player_count":24,"max_players":24,"Bots":0,"server_type":"Dedicated","server_os":"Linux","password":true,"vac":true,"version":"7882260","steam_id":85568392924504277,"keywords":["nocrits","nodmgspread","payload","uncletopia"],"game_id":440,"stv_port":27056,"stv_name":"Uncletopia | Frankfurt | 5 | All Maps | STV","players":[{"user_id":614,"name":"The Mask...","steam_id":76561198052402891,"connected_time":450000000000,"state":"active","ping":56},{"user_id":617,"name":"Avast AntiPony 9445","steam_id":76561197992046533,"connected_time":344000000000,"state":"active","ping":53},{"user_id":521,"name":"Ixsus\u003c3","steam_id":76561198094756869,"connected_time":7003000000000,"state":"active","ping":55},{"user_id":532,"name":"HetNet","steam_id":76561198207584963,"connected_time":6766000000000,"state":"active","ping":78},{"user_id":609,"name":"StarlightTH","steam_id":76561198046922727,"connected_time":958000000000,"state":"active","ping":70},{"user_id":608,"name":"Haha?","steam_id":76561198056882245,"connected_time":1040000000000,"state":"active","ping":55},{"user_id":620,"name":"♥ trixy ♥","steam_id":76561199474154775,"connected_time":127000000000,"state":"active","ping":56},{"user_id":586,"name":"R@DIO","steam_id":76561197995533046,"connected_time":3326000000000,"state":"active","ping":79},{"user_id":587,"name":"Paladin","steam_id":76561198042593027,"connected_time":3315000000000,"state":"active","ping":87},{"user_id":529,"name":"Froggo","steam_id":76561198013713935,"connected_time":6808000000000,"state":"active","ping":104},{"user_id":533,"name":"Tin","steam_id":76561198022201818,"connected_time":6764000000000,"state":"active","ping":45},{"user_id":619,"name":"LiterallyRyanGosling","steam_id":76561199017856691,"connected_time":140000000000,"state":"active","ping":69},{"user_id":596,"name":"VeliIlves","steam_id":76561198038731353,"connected_time":2454000000000,"state":"active","ping":90},{"user_id":621,"name":"Jim the Fish","steam_id":76561199135784419,"connected_time":83000000000,"state":"active","ping":160},{"user_id":603,"name":"adje","steam_id":76561198072250111,"connected_time":1480000000000,"state":"active","ping":59},{"user_id":578,"name":"Mega Saturn","steam_id":76561198024750500,"connected_time":3758000000000,"state":"active","ping":103},{"user_id":558,"name":"Isuurn","steam_id":76561198150201094,"connected_time":5240000000000,"state":"active","ping":85},{"user_id":610,"name":"MrBreast (REAL)","steam_id":76561197989524651,"connected_time":930000000000,"state":"active","ping":49},{"user_id":563,"name":"Sgt.Adamen152","steam_id":76561198315452726,"connected_time":4486000000000,"state":"active","ping":75},{"user_id":588,"name":"dochris.2","steam_id":76561198026478625,"connected_time":3225000000000,"state":"active","ping":50},{"user_id":598,"name":"Noob_with_source","steam_id":76561198870362103,"connected_time":1581000000000,"state":"active","ping":61},{"user_id":622,"name":"Dr. Sir Knight","steam_id":76561198146313878,"connected_time":73000000000,"state":"active","ping":75},{"user_id":615,"name":"Gangwolf","steam_id":76561198043868575,"connected_time":445000000000,"state":"active","ping":59},{"user_id":590,"name":"sareena","steam_id":76561198810194062,"connected_time":3143000000000,"state":"active","ping":75}]},{"server_id":311,"name":"Uncletopia | Frankfurt | 6 | All Maps","name_short":"frk-6","host":"frk-1.de.uncletopia.com","port":27065,"enabled":true,"region":"eu","cc":"de","latitude":50.110924,"longitude":8.682127,"reserved":0,"last_update":"0001-01-01T00:00:00Z","name_a2s":"Uncletopia | Frankfurt | 6 | All Maps","protocol":17,"map":"cp_mountainlab","folder":"tf","game":"Team Fortress","app_id":440,"player_count":2,"max_players":24,"Bots":0,"server_type":"Dedicated","server_os":"Linux","password":true,"vac":true,"version":"7882260","steam_id":85568392924504278,"keywords":["cp","nocrits","nodmgspread","uncletopia"],"game_id":440,"stv_port":27066,"stv_name":"Uncletopia | Frankfurt | 6 | All Maps | STV","players":[{"user_id":746,"name":"Playad","steam_id":76561198977412147,"connected_time":3844000000000,"state":"active","ping":55},{"user_id":649,"name":"Drakehellstone","steam_id":76561199112627742,"connected_time":10703000000000,"state":"active","ping":69}]},{"server_id":23,"name":"Uncletopia | Frankfurt | 7 | Stopwatch Beta","name_short":"frk-7","host":"frk-1.de.uncletopia.com","port":27075,"enabled":true,"region":"eu","cc":"de","latitude":50.110924,"longitude":8.682127,"reserved":0,"last_update":"0001-01-01T00:00:00Z","name_a2s":"Uncletopia | Frankfurt | 7 | Stopwatch Beta","protocol":17,"map":"pl_borneo","folder":"tf","game":"Team Fortress","app_id":440,"player_count":0,"max_players":24,"Bots":0,"server_type":"Dedicated","server_os":"Linux","password":true,"vac":true,"version":"7882260","steam_id":85568392924742827,"keywords":["nocrits","nodmgspread","payload","uncletopia"],"game_id":440,"stv_port":27076,"stv_name":"Uncletopia | Frankfurt | 7 | Stopwatch Beta | STV","players":null},{"server_id":24,"name":"Uncletopia | Frankfurt | 8 | Community","name_short":"frk-8","host":"frk-1.de.uncletopia.com","port":27085,"enabled":true,"region":"eu","cc":"de","latitude":50.110924,"longitude":8.682127,"reserved":0,"last_update":"0001-01-01T00:00:00Z","name_a2s":"Uncletopia | Frankfurt | 8 | Community","protocol":17,"map":"workshop/koth_product_final.ugc454272353","folder":"tf","game":"Team Fortress","app_id":440,"player_count":0,"max_players":24,"Bots":0,"server_type":"Dedicated","server_os":"Linux","password":true,"vac":true,"version":"7882260","steam_id":85568392924742828,"keywords":["cp","nocrits","nodmgspread","uncletopia"],"game_id":440,"stv_port":27086,"stv_name":"Uncletopia | Frankfurt | 8 | Community | STV","players":null},{"server_id":202,"name":"Uncletopia | Hong Kong | 1 | All Maps","name_short":"hgk-1","host":"hgk-1.hk.uncletopia.com","port":27015,"enabled":true,"region":"asia","cc":"hk","latitude":22.302711,"longitude":114.177216,"reserved":0,"last_update":"0001-01-01T00:00:00Z","name_a2s":"Uncletopia | Hong Kong | 1 | All Maps","protocol":17,"map":"koth_viaduct","folder":"tf","game":"Team Fortress","app_id":440,"player_count":0,"max_players":24,"Bots":0,"server_type":"Dedicated","server_os":"Linux","password":true,"vac":true,"version":"7882260","steam_id":85568392924494504,"keywords":["cp","nocrits","nodmgspread","uncletopia"],"game_id":440,"stv_port":27016,"stv_name":"Uncletopia | Hong Kong | 1 | All Maps | STV","players":null},{"server_id":1,"name":"Uncletopia | Los Angeles | 1 | All Maps","name_short":"lax-1","host":"lax-1.us.uncletopia.com","port":27015,"enabled":true,"region":"us-west","cc":"us","latitude":33.94279,"longitude":-118.41004,"reserved":0,"last_update":"0001-01-01T00:00:00Z","name_a2s":"Uncletopia | Los Angeles | 1 | All Maps","protocol":17,"map":"pl_barnblitz","folder":"tf","game":"Team Fortress","app_id":440,"player_count":0,"max_players":24,"Bots":0,"server_type":"Dedicated","server_os":"Linux","password":true,"vac":true,"version":"7882260","steam_id":85568392924469991,"keywords":["nocrits","nodmgspread","payload","uncletopia"],"game_id":440,"stv_port":27016,"stv_name":"Uncletopia | Los Angeles | 1 | All Maps | STV","players":null},{"server_id":112,"name":"Uncletopia | Los Angeles | 2 | All Maps","name_short":"lax-2","host":"lax-1.us.uncletopia.com","port":27025,"enabled":true,"region":"us-west","cc":"us","latitude":33.94279,"longitude":-118.41004,"reserved":0,"last_update":"0001-01-01T00:00:00Z","name_a2s":"Uncletopia | Los Angeles | 2 | All Maps","protocol":17,"map":"pl_borneo","folder":"tf","game":"Team Fortress","app_id":440,"player_count":24,"max_players":24,"Bots":0,"server_type":"Dedicated","server_os":"Linux","password":true,"vac":true,"version":"7882260","steam_id":85568392924469992,"keywords":["nocrits","nodmgspread","payload","uncletopia"],"game_id":440,"stv_port":27026,"stv_name":"Uncletopia | Los Angeles | 2 | All Maps | STV","players":[{"user_id":249,"name":"Bobert The Great","steam_id":76561198021285638,"connected_time":388000000000,"state":"active","ping":54},{"user_id":250,"name":"CrackedSanity","steam_id":76561198279841251,"connected_time":384000000000,"state":"active","ping":50},{"user_id":229,"name":"Mr. Stockington","steam_id":76561198091354032,"connected_time":1146000000000,"state":"active","ping":39},{"user_id":251,"name":"[El Fail] MR.BadassMCLee","steam_id":76561198043787818,"connected_time":355000000000,"state":"active","ping":62},{"user_id":225,"name":"Ockulus","steam_id":76561199069638460,"connected_time":1322000000000,"state":"active","ping":49},{"user_id":252,"name":"takeshi_","steam_id":76561198148797456,"connected_time":336000000000,"state":"active","ping":54},{"user_id":234,"name":"teag2","steam_id":76561198076447485,"connected_time":996000000000,"state":"active","ping":61},{"user_id":253,"name":"El Duderino","steam_id":76561198084404539,"connected_time":320000000000,"state":"active","ping":127},{"user_id":255,"name":"leumas","steam_id":76561198240408540,"connected_time":278000000000,"state":"active","ping":112},{"user_id":220,"name":"vanillain","steam_id":76561198058617608,"connected_time":1538000000000,"state":"active","ping":52},{"user_id":208,"name":"Chongo B Vibin'","steam_id":76561198017604393,"connected_time":2794000000000,"state":"active","ping":46},{"user_id":257,"name":"Cosysub_zero","steam_id":76561199112206416,"connected_time":35000000000,"state":"active","ping":93},{"user_id":246,"name":"StarGuyVI","steam_id":76561199366304746,"connected_time":607000000000,"state":"active","ping":117},{"user_id":244,"name":"LOL (dies)","steam_id":76561198045964573,"connected_time":662000000000,"state":"active","ping":40},{"user_id":210,"name":"zeplinnn","steam_id":76561198301300987,"connected_time":2689000000000,"state":"active","ping":68},{"user_id":248,"name":"Sanguimancer","steam_id":76561198095634738,"connected_time":394000000000,"state":"active","ping":81},{"user_id":239,"name":"octojosh2","steam_id":76561199304269609,"connected_time":936000000000,"state":"active","ping":86},{"user_id":240,"name":"128gb sd card","steam_id":76561198043636749,"connected_time":936000000000,"state":"active","ping":53},{"user_id":247,"name":"BooceMaster","steam_id":76561198148520318,"connected_time":589000000000,"state":"active","ping":121},{"user_id":201,"name":"I'm So Fucking Cool","steam_id":76561198098418071,"connected_time":2920000000000,"state":"active","ping":50},{"user_id":254,"name":"Harley [Ramiel]","steam_id":76561198079510840,"connected_time":299000000000,"state":"active","ping":71},{"user_id":206,"name":"Arched","steam_id":76561198985975285,"connected_time":2821000000000,"state":"active","ping":83},{"user_id":256,"name":"BarrowBaron","steam_id":76561198013633236,"connected_time":265000000000,"state":"active","ping":120},{"user_id":241,"name":"Patagonian Vest","steam_id":76561197979056451,"connected_time":934000000000,"state":"active","ping":73}]},{"server_id":324,"name":"Uncletopia | Los Angeles | 3 | All Maps","name_short":"lax-3","host":"lax-1.us.uncletopia.com","port":27035,"enabled":true,"region":"us-west","cc":"us","latitude":33.94279,"longitude":-118.41004,"reserved":0,"last_update":"0001-01-01T00:00:00Z","name_a2s":"Uncletopia | Los Angeles | 3 | All Maps","protocol":17,"map":"cp_process_final","folder":"tf","game":"Team Fortress","app_id":440,"player_count":24,"max_players":24,"Bots":0,"server_type":"Dedicated","server_os":"Linux","password":true,"vac":true,"version":"7882260","steam_id":85568392924510198,"keywords":["cp","nocrits","nodmgspread","uncletopia"],"game_id":440,"stv_port":27036,"stv_name":"Uncletopia | Los Angeles | 3 | All Maps | STV","players":[{"user_id":290,"name":"Ichibanprofen","steam_id":76561199192132061,"connected_time":1944000000000,"state":"active","ping":60},{"user_id":291,"name":"Heatseeker","steam_id":76561198084093538,"connected_time":1933000000000,"state":"active","ping":100},{"user_id":317,"name":"Marc G","steam_id":76561198062650363,"connected_time":135000000000,"state":"active","ping":75},{"user_id":309,"name":"monkey squirts","steam_id":76561197983101644,"connected_time":765000000000,"state":"active","ping":50},{"user_id":262,"name":"SlitherDoodle","steam_id":76561198000275473,"connected_time":4453000000000,"state":"active","ping":67},{"user_id":315,"name":"Lemon aid","steam_id":76561199213704223,"connected_time":395000000000,"state":"active","ping":60},{"user_id":300,"name":"DuhDaddyD","steam_id":76561198950033870,"connected_time":1659000000000,"state":"active","ping":80},{"user_id":318,"name":"meth leppard","steam_id":76561198049947281,"connected_time":128000000000,"state":"active","ping":55},{"user_id":308,"name":"HAT-WEARING™ Maggot Gamer Cat","steam_id":76561197973992705,"connected_time":851000000000,"state":"active","ping":67},{"user_id":316,"name":"Jimmy","steam_id":76561198857959855,"connected_time":161000000000,"state":"active","ping":47},{"user_id":313,"name":"bcizzo","steam_id":76561197994399953,"connected_time":665000000000,"state":"active","ping":67},{"user_id":287,"name":"°Creamy Gilligan","steam_id":76561198001569384,"connected_time":2287000000000,"state":"active","ping":107},{"user_id":301,"name":"California Jew","steam_id":76561198914032112,"connected_time":1547000000000,"state":"active","ping":48},{"user_id":306,"name":"..flop","steam_id":76561197989058876,"connected_time":1232000000000,"state":"active","ping":69},{"user_id":310,"name":"wagler123","steam_id":76561198127889617,"connected_time":755000000000,"state":"active","ping":119},{"user_id":311,"name":"☹","steam_id":76561198804763186,"connected_time":713000000000,"state":"active","ping":103},{"user_id":319,"name":"sevanial","steam_id":76561198071532126,"connected_time":94000000000,"state":"active","ping":90},{"user_id":299,"name":"riSygneD","steam_id":76561198331618687,"connected_time":1713000000000,"state":"active","ping":32},{"user_id":295,"name":"leo","steam_id":76561197970010749,"connected_time":1828000000000,"state":"active","ping":68},{"user_id":286,"name":"Tocha","steam_id":76561198119725400,"connected_time":2614000000000,"state":"active","ping":103},{"user_id":320,"name":"trev","steam_id":76561198372593596,"connected_time":57000000000,"state":"spawning","ping":45},{"user_id":312,"name":"SCUD missile up your ass","steam_id":76561198066452726,"connected_time":706000000000,"state":"active","ping":56},{"user_id":280,"name":"Major Depression","steam_id":76561198018103878,"connected_time":3272000000000,"state":"active","ping":116},{"user_id":304,"name":"SneekiCheekiQbone","steam_id":76561198045077980,"connected_time":1425000000000,"state":"active","ping":43}]},{"server_id":25,"name":"Uncletopia | Los Angeles | 4 | Stopwatch Beta","name_short":"lax-4","host":"lax-1.us.uncletopia.com","port":27045,"enabled":true,"region":"us-west","cc":"us","latitude":33.94279,"longitude":-118.41004,"reserved":0,"last_update":"0001-01-01T00:00:00Z","name_a2s":"Uncletopia | Los Angeles | 4 | Stopwatch Beta","protocol":17,"map":"koth_lakeside_final","folder":"tf","game":"Team Fortress","app_id":440,"player_count":0,"max_players":24,"Bots":0,"server_type":"Dedicated","server_os":"Linux","password":true,"vac":true,"version":"7882260","steam_id":85568392924510199,"keywords":["cp","nocrits","nodmgspread","uncletopia"],"game_id":440,"stv_port":27046,"stv_name":"Uncletopia | Los Angeles | 4 | Stopwatch Beta | STV","players":null},{"server_id":11,"name":"Uncletopia | London | 1 | All Maps","name_short":"lon-1","host":"lon-1.uk.uncletopia.com","port":27015,"enabled":true,"region":"eu","cc":"gb","latitude":51.509865,"longitude":-0.118092,"reserved":0,"last_update":"0001-01-01T00:00:00Z","name_a2s":"Uncletopia | London | 1 | All Maps","protocol":17,"map":"cp_process_final","folder":"tf","game":"Team Fortress","app_id":440,"player_count":24,"max_players":24,"Bots":0,"server_type":"Dedicated","server_os":"Linux","password":true,"vac":true,"version":"7882260","steam_id":85568392924367362,"keywords":["cp","nocrits","nodmgspread","uncletopia"],"game_id":440,"stv_port":27016,"stv_name":"Uncletopia | London | 1 | All Maps | STV","players":[{"user_id":791,"name":"owo","steam_id":76561198158209651,"connected_time":612000000000,"state":"active","ping":62},{"user_id":750,"name":"Anri Okita's Massive Milkers","steam_id":76561199186352720,"connected_time":4149000000000,"state":"active","ping":52},{"user_id":760,"name":"Alienketchup","steam_id":76561197970585162,"connected_time":3094000000000,"state":"active","ping":77},{"user_id":787,"name":"Xanshi","steam_id":76561198152392309,"connected_time":764000000000,"state":"active","ping":45},{"user_id":707,"name":"BuzzBees ❤","steam_id":76561198101502273,"connected_time":7883000000000,"state":"active","ping":46},{"user_id":729,"name":"The Lady","steam_id":76561198029895809,"connected_time":5886000000000,"state":"active","ping":85},{"user_id":763,"name":"something","steam_id":76561198198581615,"connected_time":2878000000000,"state":"active","ping":65},{"user_id":792,"name":"The F-Word (Femboy)","steam_id":76561198072320671,"connected_time":588000000000,"state":"active","ping":31},{"user_id":796,"name":"KittyKate ❤","steam_id":76561198116340817,"connected_time":506000000000,"state":"active","ping":60},{"user_id":719,"name":"puck","steam_id":76561198121260981,"connected_time":6410000000000,"state":"active","ping":39},{"user_id":782,"name":"Бархатные тяги, К","steam_id":76561198214926087,"connected_time":870000000000,"state":"active","ping":102},{"user_id":784,"name":"TheEventGuy","steam_id":76561197972797744,"connected_time":865000000000,"state":"active","ping":70},{"user_id":786,"name":"Jade_Gaming","steam_id":76561198148271880,"connected_time":834000000000,"state":"active","ping":56},{"user_id":757,"name":"whimsy.","steam_id":76561198878171763,"connected_time":3683000000000,"state":"active","ping":49},{"user_id":794,"name":"VideoJames","steam_id":76561197970114051,"connected_time":585000000000,"state":"active","ping":38},{"user_id":785,"name":"Cabbch","steam_id":76561198045955679,"connected_time":850000000000,"state":"active","ping":59},{"user_id":758,"name":"♥ImWithMilk","steam_id":76561198269577569,"connected_time":3355000000000,"state":"active","ping":51},{"user_id":797,"name":"ratman","steam_id":76561199384813153,"connected_time":13000000000,"state":"active","ping":74},{"user_id":727,"name":"Gubbly Bubbins","steam_id":76561198101451654,"connected_time":6000000000000,"state":"active","ping":48},{"user_id":778,"name":"teddy","steam_id":76561198007436837,"connected_time":1206000000000,"state":"active","ping":30},{"user_id":746,"name":"goff","steam_id":76561198118989010,"connected_time":4958000000000,"state":"active","ping":52},{"user_id":795,"name":"Meki","steam_id":76561198108279631,"connected_time":572000000000,"state":"active","ping":123},{"user_id":748,"name":"KPhii","steam_id":76561198970587061,"connected_time":4253000000000,"state":"active","ping":58},{"user_id":772,"name":"Marquis de Hoto","steam_id":76561198080687708,"connected_time":1953000000000,"state":"active","ping":70}]},{"server_id":114,"name":"Uncletopia | London | 2 | All Maps","name_short":"lon-2","host":"lon-1.uk.uncletopia.com","port":27025,"enabled":true,"region":"eu","cc":"gb","latitude":51.509865,"longitude":-0.118092,"reserved":0,"last_update":"0001-01-01T00:00:00Z","name_a2s":"Uncletopia | London | 2 | All Maps","protocol":17,"map":"cp_altitude","folder":"tf","game":"Team Fortress","app_id":440,"player_count":0,"max_players":24,"Bots":0,"server_type":"Dedicated","server_os":"Linux","password":true,"vac":true,"version":"7882260","steam_id":85568392924470941,"keywords":["cp","nocrits","nodmgspread","uncletopia"],"game_id":440,"stv_port":27026,"stv_name":"Uncletopia | London | 2 | All Maps | STV","players":null},{"server_id":320,"name":"Uncletopia | London | 3 | All Maps","name_short":"lon-3","host":"lon-1.uk.uncletopia.com","port":27035,"enabled":true,"region":"eu","cc":"gb","latitude":51.509865,"longitude":-0.118092,"reserved":0,"last_update":"0001-01-01T00:00:00Z","name_a2s":"Uncletopia | London | 3 | All Maps","protocol":17,"map":"pl_borneo","folder":"tf","game":"Team Fortress","app_id":440,"player_count":24,"max_players":24,"Bots":0,"server_type":"Dedicated","server_os":"Linux","password":true,"vac":true,"version":"7882260","steam_id":85568392924510192,"keywords":["nocrits","nodmgspread","payload","uncletopia"],"game_id":440,"stv_port":27036,"stv_name":"Uncletopia | London | 3 | All Maps | STV","players":[{"user_id":741,"name":"Chicken pot pie","steam_id":76561198084997090,"connected_time":1163000000000,"state":"active","ping":34},{"user_id":750,"name":"Star in a pond","steam_id":76561198205501279,"connected_time":315000000000,"state":"active","ping":92},{"user_id":727,"name":"Tea Follet","steam_id":76561198852408734,"connected_time":2655000000000,"state":"active","ping":69},{"user_id":752,"name":"N . E . ㊉ . N","steam_id":76561198074131777,"connected_time":192000000000,"state":"active","ping":56},{"user_id":746,"name":"Illumi","steam_id":76561199181900458,"connected_time":457000000000,"state":"active","ping":55},{"user_id":633,"name":"Lyncurion","steam_id":76561199260022725,"connected_time":7694000000000,"state":"active","ping":84},{"user_id":736,"name":"OkamiSumo","steam_id":76561198271644152,"connected_time":2225000000000,"state":"active","ping":80},{"user_id":718,"name":"ABbott_","steam_id":76561198030528873,"connected_time":2857000000000,"state":"active","ping":60},{"user_id":748,"name":"flub_","steam_id":76561198337519315,"connected_time":371000000000,"state":"active","ping":35},{"user_id":724,"name":"Voks_","steam_id":76561198159687785,"connected_time":2748000000000,"state":"active","ping":67},{"user_id":743,"name":"Miss.Sparklez","steam_id":76561198101745576,"connected_time":514000000000,"state":"active","ping":74},{"user_id":721,"name":"juicy","steam_id":76561198127264835,"connected_time":2786000000000,"state":"active","ping":45},{"user_id":695,"name":"Rolloden","steam_id":76561198069414404,"connected_time":4000000000000,"state":"active","ping":68},{"user_id":749,"name":"AmssoBador Spacelot","steam_id":76561197993444617,"connected_time":362000000000,"state":"active","ping":79},{"user_id":753,"name":"Penis Contortionist","steam_id":76561198073663784,"connected_time":171000000000,"state":"active","ping":41},{"user_id":664,"name":"dogs_drink_water","steam_id":76561198296630670,"connected_time":5739000000000,"state":"active","ping":69},{"user_id":730,"name":"Opti","steam_id":76561197968902518,"connected_time":2490000000000,"state":"active","ping":51},{"user_id":754,"name":"jackchan37","steam_id":76561199084555750,"connected_time":152000000000,"state":"active","ping":45},{"user_id":731,"name":"Worcestershire","steam_id":76561197982352114,"connected_time":2487000000000,"state":"active","ping":40},{"user_id":758,"name":"Grey","steam_id":76561198187190267,"connected_time":2000000000,"state":"spawning","ping":54},{"user_id":756,"name":"♥LPH♥","steam_id":76561198077555813,"connected_time":66000000000,"state":"active","ping":87},{"user_id":742,"name":"Milca_11 [Bacon Weider ARC]","steam_id":76561198848650365,"connected_time":769000000000,"state":"active","ping":92},{"user_id":757,"name":"Rick Astley Is A F2P?","steam_id":76561199258805660,"connected_time":53000000000,"state":"active","ping":115},{"user_id":697,"name":"GuSkand","steam_id":76561198043775605,"connected_time":3981000000000,"state":"active","ping":86}]},{"server_id":321,"name":"Uncletopia | London | 4 | All Maps","name_short":"lon-4","host":"lon-1.uk.uncletopia.com","port":27045,"enabled":true,"region":"eu","cc":"gb","latitude":51.509865,"longitude":-0.118092,"reserved":0,"last_update":"0001-01-01T00:00:00Z","name_a2s":"Uncletopia | London | 4 | All Maps","protocol":17,"map":"pl_pier","folder":"tf","game":"Team Fortress","app_id":440,"player_count":24,"max_players":24,"Bots":0,"server_type":"Dedicated","server_os":"Linux","password":true,"vac":true,"version":"7882260","steam_id":85568392924510193,"keywords":["nocrits","nodmgspread","payload","uncletopia"],"game_id":440,"stv_port":27046,"stv_name":"Uncletopia | London | 4 | All Maps | STV","players":[{"user_id":572,"name":"StumpKnuckle","steam_id":76561197995325320,"connected_time":1791000000000,"state":"active","ping":55},{"user_id":581,"name":"Mr. Luigi","steam_id":76561198167312951,"connected_time":815000000000,"state":"active","ping":40},{"user_id":595,"name":"E² FTH","steam_id":76561198066287815,"connected_time":411000000000,"state":"active","ping":108},{"user_id":587,"name":"Badusernames","steam_id":76561198060698610,"connected_time":719000000000,"state":"active","ping":71},{"user_id":554,"name":"la tempete qui approche","steam_id":76561198826468580,"connected_time":2337000000000,"state":"active","ping":55},{"user_id":594,"name":"Ecy","steam_id":76561198110756682,"connected_time":476000000000,"state":"active","ping":57},{"user_id":555,"name":"primordial soup enjoyer","steam_id":76561199163260578,"connected_time":2333000000000,"state":"active","ping":71},{"user_id":564,"name":"An_Unoriginal_Gamer","steam_id":76561198864060760,"connected_time":2083000000000,"state":"active","ping":88},{"user_id":579,"name":"So Guys We Did It","steam_id":76561198871136698,"connected_time":1036000000000,"state":"active","ping":45},{"user_id":557,"name":"mud","steam_id":76561198141497461,"connected_time":2301000000000,"state":"active","ping":74},{"user_id":563,"name":"hans","steam_id":76561198288069556,"connected_time":2126000000000,"state":"active","ping":99},{"user_id":558,"name":"dum","steam_id":76561198053386482,"connected_time":2288000000000,"state":"active","ping":145},{"user_id":585,"name":"Glacierwinter","steam_id":76561198229675152,"connected_time":754000000000,"state":"active","ping":70},{"user_id":513,"name":"Baton De Leon","steam_id":76561198353944785,"connected_time":5698000000000,"state":"active","ping":90},{"user_id":597,"name":"BatemanPatrick","steam_id":76561198393691611,"connected_time":297000000000,"state":"active","ping":58},{"user_id":590,"name":"S e r i a L","steam_id":76561198023043271,"connected_time":642000000000,"state":"active","ping":59},{"user_id":593,"name":"Peri","steam_id":76561198255311543,"connected_time":564000000000,"state":"active","ping":129},{"user_id":467,"name":"josh the fragger the killer","steam_id":76561198088367808,"connected_time":8420000000000,"state":"active","ping":70},{"user_id":568,"name":"Jargo","steam_id":76561198064231790,"connected_time":1973000000000,"state":"active","ping":93},{"user_id":580,"name":"I.C. Wiener","steam_id":76561197999912254,"connected_time":1003000000000,"state":"active","ping":99},{"user_id":471,"name":"The Josh Killer (The Chosen One","steam_id":76561197998349793,"connected_time":8154000000000,"state":"active","ping":65},{"user_id":573,"name":"Ozzie","steam_id":76561197992915315,"connected_time":1731000000000,"state":"active","ping":72},{"user_id":494,"name":"josh the town tailor","steam_id":76561198001425310,"connected_time":6975000000000,"state":"active","ping":75},{"user_id":591,"name":"Jetstream Samuel Beckett","steam_id":76561198072017971,"connected_time":641000000000,"state":"active","ping":50}]},{"server_id":21,"name":"Uncletopia | London | 5 | All Maps","name_short":"lon-5","host":"lon-1.uk.uncletopia.com","port":27055,"enabled":true,"region":"eu","cc":"gb","latitude":51.509865,"longitude":-0.118092,"reserved":0,"last_update":"0001-01-01T00:00:00Z","name_a2s":"Uncletopia | London | 5 | All Maps","protocol":17,"map":"pl_badwater","folder":"tf","game":"Team Fortress","app_id":440,"player_count":24,"max_players":24,"Bots":0,"server_type":"Dedicated","server_os":"Linux","password":true,"vac":true,"version":"7882260","steam_id":85568392924742829,"keywords":["nocrits","nodmgspread","payload","uncletopia"],"game_id":440,"stv_port":27056,"stv_name":"Uncletopia | London | 5 | All Maps | STV","players":[{"user_id":119,"name":"FirePenguin","steam_id":76561198151468340,"connected_time":1505000000000,"state":"active","ping":32},{"user_id":108,"name":"Dangerousbros","steam_id":76561198088952519,"connected_time":1899000000000,"state":"active","ping":32},{"user_id":92,"name":"Raine","steam_id":76561198098860903,"connected_time":5636000000000,"state":"active","ping":59},{"user_id":106,"name":"Mabert","steam_id":76561198436058407,"connected_time":2484000000000,"state":"active","ping":80},{"user_id":107,"name":"maenkrafte","steam_id":76561198873801847,"connected_time":2477000000000,"state":"active","ping":77},{"user_id":83,"name":"Spectre","steam_id":76561198163819482,"connected_time":6902000000000,"state":"active","ping":67},{"user_id":123,"name":"Klunkerino","steam_id":76561197971081655,"connected_time":978000000000,"state":"active","ping":73},{"user_id":116,"name":"ROX","steam_id":76561198272289320,"connected_time":1596000000000,"state":"active","ping":69},{"user_id":87,"name":"Banatical Bean","steam_id":76561198122356617,"connected_time":6791000000000,"state":"active","ping":61},{"user_id":88,"name":"mi cara cuando","steam_id":76561199387584010,"connected_time":6760000000000,"state":"active","ping":98},{"user_id":126,"name":"Sande","steam_id":76561198275239290,"connected_time":751000000000,"state":"active","ping":88},{"user_id":112,"name":"Harex3360 #Savetf2","steam_id":76561199122302529,"connected_time":1692000000000,"state":"active","ping":53},{"user_id":117,"name":"TazerMonkey55","steam_id":76561198151547551,"connected_time":1531000000000,"state":"active","ping":47},{"user_id":134,"name":"congo","steam_id":76561198236836866,"connected_time":380000000000,"state":"active","ping":76},{"user_id":118,"name":"BallinScout","steam_id":76561198152443697,"connected_time":1525000000000,"state":"active","ping":60},{"user_id":120,"name":"12Adam12","steam_id":76561198037882443,"connected_time":1474000000000,"state":"active","ping":61},{"user_id":121,"name":"Worm","steam_id":76561198296497176,"connected_time":1414000000000,"state":"active","ping":46},{"user_id":124,"name":"MrBigStu234","steam_id":76561198211599767,"connected_time":978000000000,"state":"active","ping":52},{"user_id":125,"name":"Some Guy","steam_id":76561198137335527,"connected_time":816000000000,"state":"active","ping":50},{"user_id":132,"name":"Regan","steam_id":76561198100631086,"connected_time":593000000000,"state":"active","ping":58},{"user_id":133,"name":"peso enjoyer","steam_id":76561198798177799,"connected_time":561000000000,"state":"active","ping":82},{"user_id":129,"name":"killbind irl","steam_id":76561198180637374,"connected_time":729000000000,"state":"active","ping":93},{"user_id":130,"name":"HUGO","steam_id":76561198317134996,"connected_time":674000000000,"state":"active","ping":83},{"user_id":131,"name":"femboyo pappir","steam_id":76561199234704905,"connected_time":668000000000,"state":"active","ping":62}]},{"server_id":22,"name":"Uncletopia | London | 6 | All Maps","name_short":"lon-6","host":"lon-1.uk.uncletopia.com","port":27065,"enabled":true,"region":"eu","cc":"gb","latitude":51.509865,"longitude":-0.118092,"reserved":0,"last_update":"0001-01-01T00:00:00Z","name_a2s":"Uncletopia | London | 6 | All Maps","protocol":17,"map":"cp_process_final","folder":"tf","game":"Team Fortress","app_id":440,"player_count":24,"max_players":24,"Bots":0,"server_type":"Dedicated","server_os":"Linux","password":true,"vac":true,"version":"7882260","steam_id":85568392924742830,"keywords":["cp","nocrits","nodmgspread","uncletopia"],"game_id":440,"stv_port":27066,"stv_name":"Uncletopia | London | 6 | All Maps | STV","players":[{"user_id":632,"name":"Birdseye","steam_id":76561198025852216,"connected_time":1130000000000,"state":"active","ping":45},{"user_id":625,"name":"1","steam_id":76561199085984801,"connected_time":1511000000000,"state":"active","ping":60},{"user_id":610,"name":"Bacon Whisperer","steam_id":76561198342781924,"connected_time":3105000000000,"state":"active","ping":97},{"user_id":626,"name":"WhiteShadow","steam_id":76561198061771785,"connected_time":1492000000000,"state":"active","ping":86},{"user_id":627,"name":"bobbymcbobington","steam_id":76561199089411172,"connected_time":1346000000000,"state":"active","ping":181},{"user_id":633,"name":"Eyosh","steam_id":76561197998352095,"connected_time":1114000000000,"state":"active","ping":45},{"user_id":634,"name":"Adrheus","steam_id":76561198149775630,"connected_time":1080000000000,"state":"active","ping":75},{"user_id":611,"name":"Falxo","steam_id":76561198025717005,"connected_time":3102000000000,"state":"active","ping":56},{"user_id":639,"name":"jasu","steam_id":76561198041295143,"connected_time":958000000000,"state":"active","ping":56},{"user_id":590,"name":"Beri The Catthem","steam_id":76561198988363799,"connected_time":3994000000000,"state":"active","ping":62},{"user_id":631,"name":"CiVillain","steam_id":76561198059617732,"connected_time":1248000000000,"state":"active","ping":70},{"user_id":635,"name":"🦐 Tust 🦐","steam_id":76561198045694677,"connected_time":1056000000000,"state":"active","ping":46},{"user_id":636,"name":"☭TheDevilsEye☭","steam_id":76561198017379398,"connected_time":1002000000000,"state":"active","ping":86},{"user_id":637,"name":"robbie","steam_id":76561198798195287,"connected_time":993000000000,"state":"active","ping":45},{"user_id":638,"name":"Watermelon","steam_id":76561198078349914,"connected_time":975000000000,"state":"active","ping":43},{"user_id":608,"name":"Dan86130","steam_id":76561199187190436,"connected_time":3204000000000,"state":"active","ping":73},{"user_id":556,"name":"Uncle Owen","steam_id":76561198157999291,"connected_time":6465000000000,"state":"active","ping":84},{"user_id":598,"name":"Maldom","steam_id":76561198000687053,"connected_time":3607000000000,"state":"active","ping":61},{"user_id":640,"name":"NotChloe","steam_id":76561198080658092,"connected_time":957000000000,"state":"active","ping":56},{"user_id":607,"name":"source radio","steam_id":76561197972287320,"connected_time":3216000000000,"state":"active","ping":76},{"user_id":606,"name":"Talvy","steam_id":76561198009083535,"connected_time":3290000000000,"state":"active","ping":92},{"user_id":642,"name":"DobreStarachowickie","steam_id":76561198027126737,"connected_time":741000000000,"state":"active","ping":75},{"user_id":641,"name":"hai","steam_id":76561198074743037,"connected_time":946000000000,"state":"active","ping":76},{"user_id":591,"name":"Roza The Catgirl","steam_id":76561198303232001,"connected_time":3904000000000,"state":"active","ping":59}]},{"server_id":40,"name":"Uncletopia | London | 7 | No Payload","name_short":"lon-7","host":"lon-1.uk.uncletopia.com","port":27075,"enabled":true,"region":"eu","cc":"gb","latitude":51.509865,"longitude":-0.118092,"reserved":0,"last_update":"0001-01-01T00:00:00Z","name_a2s":"Uncletopia | London | 7 | No Payload","protocol":17,"map":"koth_nucleus","folder":"tf","game":"Team Fortress","app_id":440,"player_count":0,"max_players":24,"Bots":0,"server_type":"Dedicated","server_os":"Linux","password":true,"vac":true,"version":"7882260","steam_id":85568392924964314,"keywords":["cp","nocrits","nodmgspread","uncletopia"],"game_id":440,"stv_port":27076,"stv_name":"Uncletopia | London | 7 | No Payload | STV","players":null},{"server_id":41,"name":"Uncletopia | London | 8 | Community","name_short":"lon-8","host":"lon-1.uk.uncletopia.com","port":27085,"enabled":true,"region":"eu","cc":"gb","latitude":51.509865,"longitude":-0.118092,"reserved":0,"last_update":"0001-01-01T00:00:00Z","name_a2s":"Uncletopia | London | 8 | Community","protocol":17,"map":"workshop/koth_slaughter_rc1.ugc1712845210","folder":"tf","game":"Team Fortress","app_id":440,"player_count":0,"max_players":24,"Bots":0,"server_type":"Dedicated","server_os":"Linux","password":true,"vac":true,"version":"7882260","steam_id":85568392924964315,"keywords":["cp","nocrits","nodmgspread","uncletopia"],"game_id":440,"stv_port":27086,"stv_name":"Uncletopia | London | 8 | Community | STV","players":null},{"server_id":300,"name":"Uncletopia | Montréal | 1 | All Maps","name_short":"mtl-1","host":"mtl-1.ca.uncletopia.com","port":27015,"enabled":true,"region":"us-east","cc":"ca","latitude":45.50889,"longitude":-73.56167,"reserved":0,"last_update":"0001-01-01T00:00:00Z","name_a2s":"Uncletopia | Montréal | 1 | All Maps","protocol":17,"map":"pl_frontier_final","folder":"tf","game":"Team Fortress","app_id":440,"player_count":0,"max_players":24,"Bots":0,"server_type":"Dedicated","server_os":"Linux","password":true,"vac":true,"version":"7882260","steam_id":85568392924500087,"keywords":["nocrits","nodmgspread","payload","uncletopia"],"game_id":440,"stv_port":27016,"stv_name":"Uncletopia | Montréal | 1 | All Maps | STV","players":null},{"server_id":301,"name":"Uncletopia | Montréal | 2 | All Maps","name_short":"mtl-2","host":"mtl-1.ca.uncletopia.com","port":27025,"enabled":true,"region":"us-east","cc":"ca","latitude":45.50889,"longitude":-73.56167,"reserved":0,"last_update":"0001-01-01T00:00:00Z","name_a2s":"Uncletopia | Montréal | 2 | All Maps","protocol":17,"map":"koth_cascade","folder":"tf","game":"Team Fortress","app_id":440,"player_count":0,"max_players":24,"Bots":0,"server_type":"Dedicated","server_os":"Linux","password":true,"vac":true,"version":"7882260","steam_id":85568392924500088,"keywords":["cp","nocrits","nodmgspread","uncletopia"],"game_id":440,"stv_port":27026,"stv_name":"Uncletopia | Montréal | 2 | All Maps | STV","players":null},{"server_id":302,"name":"Uncletopia | Montréal | 3 | All Maps","name_short":"mtl-3","host":"mtl-1.ca.uncletopia.com","port":27035,"enabled":true,"region":"us-east","cc":"ca","latitude":45.50889,"longitude":-73.56167,"reserved":0,"last_update":"0001-01-01T00:00:00Z","name_a2s":"Uncletopia | Montréal | 3 | All Maps","protocol":17,"map":"koth_harvest_final","folder":"tf","game":"Team Fortress","app_id":440,"player_count":0,"max_players":24,"Bots":0,"server_type":"Dedicated","server_os":"Linux","password":true,"vac":true,"version":"7882260","steam_id":85568392924500089,"keywords":["cp","nocrits","nodmgspread","uncletopia"],"game_id":440,"stv_port":27036,"stv_name":"Uncletopia | Montréal | 3 | All Maps | STV","players":null},{"server_id":303,"name":"Uncletopia | Montréal | 4 | No Payload","name_short":"mtl-4","host":"mtl-1.ca.uncletopia.com","port":27045,"enabled":true,"region":"us-east","cc":"ca","latitude":45.50889,"longitude":-73.56167,"reserved":0,"last_update":"0001-01-01T00:00:00Z","name_a2s":"Uncletopia | Montréal | 4 | No Payload","protocol":17,"map":"koth_highpass","folder":"tf","game":"Team Fortress","app_id":440,"player_count":0,"max_players":24,"Bots":0,"server_type":"Dedicated","server_os":"Linux","password":true,"vac":true,"version":"7882260","steam_id":85568392924500090,"keywords":["cp","nocrits","nodmgspread","uncletopia"],"game_id":440,"stv_port":27046,"stv_name":"Uncletopia | Montréal | 4 | No Payload | STV","players":null},{"server_id":13,"name":"Uncletopia | New York City | 1 | All Maps","name_short":"nyc-1","host":"nyc-1.us.uncletopia.com","port":27015,"enabled":true,"region":"us-east","cc":"us","latitude":40.73061,"longitude":-73.93524,"reserved":0,"last_update":"0001-01-01T00:00:00Z","name_a2s":"Uncletopia | New York City | 1 | All Maps","protocol":17,"map":"pl_upward","folder":"tf","game":"Team Fortress","app_id":440,"player_count":24,"max_players":24,"Bots":0,"server_type":"Dedicated","server_os":"Linux","password":true,"vac":true,"version":"7882260","steam_id":85568392924469993,"keywords":["nocrits","nodmgspread","payload","uncletopia"],"game_id":440,"stv_port":27016,"stv_name":"Uncletopia | New York City | 1 | All Maps | STV","players":[{"user_id":492,"name":"JHLO","steam_id":76561198074359967,"connected_time":638000000000,"state":"active","ping":72},{"user_id":488,"name":"Penis but it rhymes with Venice","steam_id":76561197986420836,"connected_time":991000000000,"state":"active","ping":47},{"user_id":499,"name":"Windamyre","steam_id":76561198183493927,"connected_time":273000000000,"state":"active","ping":48},{"user_id":495,"name":"Have a great week!!","steam_id":76561198392539722,"connected_time":376000000000,"state":"active","ping":75},{"user_id":493,"name":"theKillerd1","steam_id":76561199041844732,"connected_time":618000000000,"state":"active","ping":92},{"user_id":476,"name":"-|Kappin'|- ExplosiveDiahrea","steam_id":76561198017045020,"connected_time":1297000000000,"state":"active","ping":79},{"user_id":450,"name":"yellowcat","steam_id":76561198346054736,"connected_time":2526000000000,"state":"active","ping":69},{"user_id":453,"name":"kiaan","steam_id":76561198060819695,"connected_time":2358000000000,"state":"active","ping":65},{"user_id":454,"name":"foxxo","steam_id":76561198451014982,"connected_time":2357000000000,"state":"active","ping":54},{"user_id":477,"name":"-|Kappin'|- Kilbo Fraggins™","steam_id":76561197994725498,"connected_time":1294000000000,"state":"active","ping":86},{"user_id":460,"name":"The_Microwave","steam_id":76561199425842522,"connected_time":2260000000000,"state":"active","ping":122},{"user_id":496,"name":"INFINITE","steam_id":76561197971285557,"connected_time":362000000000,"state":"active","ping":59},{"user_id":472,"name":"Void","steam_id":76561199186496740,"connected_time":1514000000000,"state":"active","ping":88},{"user_id":497,"name":"Cwiishe","steam_id":76561199482943969,"connected_time":338000000000,"state":"active","ping":51},{"user_id":491,"name":"Hoob.egfug","steam_id":76561197980557818,"connected_time":751000000000,"state":"active","ping":57},{"user_id":481,"name":"WoofyM","steam_id":76561199082782484,"connected_time":1186000000000,"state":"active","ping":58},{"user_id":423,"name":"twitch.tv/frimpimy","steam_id":76561198142605675,"connected_time":4414000000000,"state":"active","ping":76},{"user_id":501,"name":"eepy.....","steam_id":76561198218897541,"connected_time":133000000000,"state":"active","ping":46},{"user_id":502,"name":"sky_guy","steam_id":76561198058668342,"connected_time":4000000000,"state":"spawning","ping":87},{"user_id":485,"name":"Colt","steam_id":76561198205881091,"connected_time":1094000000000,"state":"active","ping":88},{"user_id":498,"name":"wise","steam_id":76561198030066204,"connected_time":313000000000,"state":"active","ping":44},{"user_id":412,"name":"concrete_car","steam_id":76561198388207363,"connected_time":5217000000000,"state":"active","ping":67},{"user_id":487,"name":"Bee","steam_id":76561198074681324,"connected_time":1007000000000,"state":"active","ping":49},{"user_id":489,"name":"toupee dna","steam_id":76561197972601902,"connected_time":969000000000,"state":"active","ping":105}]},{"server_id":14,"name":"Uncletopia | New York City | 2 | All Maps","name_short":"nyc-2","host":"nyc-1.us.uncletopia.com","port":27025,"enabled":true,"region":"us-east","cc":"us","latitude":40.73061,"longitude":-73.93524,"reserved":0,"last_update":"0001-01-01T00:00:00Z","name_a2s":"Uncletopia | New York City | 2 | All Maps","protocol":17,"map":"pl_barnblitz","folder":"tf","game":"Team Fortress","app_id":440,"player_count":24,"max_players":24,"Bots":0,"server_type":"Dedicated","server_os":"Linux","password":true,"vac":true,"version":"7882260","steam_id":85568392924469994,"keywords":["nocrits","nodmgspread","payload","uncletopia"],"game_id":440,"stv_port":27026,"stv_name":"Uncletopia | New York City | 2 | All Maps | STV","players":[{"user_id":320,"name":"[GUT] RiDiK®","steam_id":76561197969756446,"connected_time":5810000000000,"state":"active","ping":83},{"user_id":376,"name":"You Don't Nomi.","steam_id":76561197969137836,"connected_time":2171000000000,"state":"active","ping":52},{"user_id":340,"name":"a literal slave","steam_id":76561199389283507,"connected_time":3828000000000,"state":"active","ping":66},{"user_id":344,"name":"Bymo","steam_id":76561199037626505,"connected_time":3469000000000,"state":"active","ping":53},{"user_id":378,"name":"Illusionism","steam_id":76561198167878499,"connected_time":1928000000000,"state":"active","ping":102},{"user_id":383,"name":"Nic0","steam_id":76561198305690218,"connected_time":1433000000000,"state":"active","ping":64},{"user_id":372,"name":"Fresh0c0","steam_id":76561198271933283,"connected_time":2274000000000,"state":"active","ping":78},{"user_id":380,"name":"Rusted Cake","steam_id":76561198209755931,"connected_time":1821000000000,"state":"active","ping":111},{"user_id":384,"name":"hierodule","steam_id":76561198023229665,"connected_time":1421000000000,"state":"active","ping":56},{"user_id":369,"name":"lexi","steam_id":76561198176299759,"connected_time":2311000000000,"state":"active","ping":79},{"user_id":354,"name":"Dreysidel","steam_id":76561198056496183,"connected_time":3229000000000,"state":"active","ping":60},{"user_id":400,"name":"darkjustin54","steam_id":76561198060056280,"connected_time":169000000000,"state":"active","ping":60},{"user_id":364,"name":"0","steam_id":76561198046055673,"connected_time":2924000000000,"state":"active","ping":60},{"user_id":401,"name":"sawdust","steam_id":76561199229883371,"connected_time":142000000000,"state":"active","ping":60},{"user_id":397,"name":"femtofarad™","steam_id":76561198308583053,"connected_time":257000000000,"state":"active","ping":65},{"user_id":334,"name":"Two-Teste Tommy","steam_id":76561198064308936,"connected_time":4374000000000,"state":"active","ping":60},{"user_id":370,"name":"Zixzs","steam_id":76561198055504126,"connected_time":2306000000000,"state":"active","ping":80},{"user_id":386,"name":"CosmicWolf","steam_id":76561198323018650,"connected_time":1410000000000,"state":"active","ping":55},{"user_id":395,"name":"Mr. Durian","steam_id":76561198093813212,"connected_time":274000000000,"state":"active","ping":55},{"user_id":375,"name":"Chiki","steam_id":76561198063590320,"connected_time":2186000000000,"state":"active","ping":79},{"user_id":342,"name":"Hope","steam_id":76561199201900779,"connected_time":3779000000000,"state":"active","ping":71},{"user_id":387,"name":"n_sacco","steam_id":76561198432818448,"connected_time":1404000000000,"state":"active","ping":79},{"user_id":316,"name":"Rori","steam_id":76561198052582902,"connected_time":6186000000000,"state":"active","ping":45},{"user_id":398,"name":"poolnoodle","steam_id":76561198235854608,"connected_time":257000000000,"state":"active","ping":66}]},{"server_id":15,"name":"Uncletopia | New York City | 3 | Stopwatch Beta","name_short":"nyc-3","host":"nyc-1.us.uncletopia.com","port":27035,"enabled":true,"region":"us-east","cc":"us","latitude":40.73061,"longitude":-73.93524,"reserved":0,"last_update":"0001-01-01T00:00:00Z","name_a2s":"Uncletopia | New York City | 3 | Stopwatch Beta","protocol":17,"map":"workshop/pl_badwater_pro_v12.ugc2142942074","folder":"tf","game":"Team Fortress","app_id":440,"player_count":0,"max_players":24,"Bots":0,"server_type":"Dedicated","server_os":"Linux","password":true,"vac":true,"version":"7882260","steam_id":85568392924742820,"keywords":["nocrits","nodmgspread","payload","uncletopia"],"game_id":440,"stv_port":27036,"stv_name":"Uncletopia | New York City | 3 | Stopwatch Beta | STV","players":null},{"server_id":16,"name":"Uncletopia | New York City | 4 | Community","name_short":"nyc-4","host":"nyc-1.us.uncletopia.com","port":27045,"enabled":true,"region":"us-east","cc":"us","latitude":40.73061,"longitude":-73.93524,"reserved":0,"last_update":"0001-01-01T00:00:00Z","name_a2s":"Uncletopia | New York City | 4 | Community","protocol":17,"map":"workshop/cp_snowbase_b18.ugc2081770490","folder":"tf","game":"Team Fortress","app_id":440,"player_count":0,"max_players":24,"Bots":0,"server_type":"Dedicated","server_os":"Linux","password":true,"vac":true,"version":"7882260","steam_id":85568392924742821,"keywords":["cp","nocrits","nodmgspread","uncletopia"],"game_id":440,"stv_port":27046,"stv_name":"Uncletopia | New York City | 4 | Community | STV","players":null},{"server_id":142,"name":"Uncletopia | São Paulo | 1 | All Maps","name_short":"sao-1","host":"sao-1.br.uncletopia.com","port":27015,"enabled":true,"region":"sa","cc":"br","latitude":-23.533773,"longitude":-46.62529,"reserved":0,"last_update":"0001-01-01T00:00:00Z","name_a2s":"Uncletopia | São Paulo | 1 | All Maps","protocol":17,"map":"koth_viaduct","folder":"tf","game":"Team Fortress","app_id":440,"player_count":0,"max_players":24,"Bots":0,"server_type":"Dedicated","server_os":"Linux","password":true,"vac":true,"version":"7882260","steam_id":85568392924469996,"keywords":["cp","nocrits","nodmgspread","uncletopia"],"game_id":440,"stv_port":27016,"stv_name":"Uncletopia | São Paulo | 1 | All Maps | STV","players":null},{"server_id":143,"name":"Uncletopia | São Paulo | 2 | All Maps","name_short":"sao-2","host":"sao-2.br.uncletopia.com","port":27015,"enabled":true,"region":"sa","cc":"br","latitude":-23.533773,"longitude":-46.62529,"reserved":0,"last_update":"0001-01-01T00:00:00Z","name_a2s":"Uncletopia | São Paulo | 2 | All Maps","protocol":17,"map":"pl_swiftwater_final1","folder":"tf","game":"Team Fortress","app_id":440,"player_count":3,"max_players":24,"Bots":0,"server_type":"Dedicated","server_os":"Linux","password":true,"vac":true,"version":"7882260","steam_id":85568392924485349,"keywords":["nocrits","nodmgspread","payload","uncletopia"],"game_id":440,"stv_port":27016,"stv_name":"Uncletopia | São Paulo | 2 | All Maps | STV","players":[{"user_id":373,"name":"stuwpid pyo maim","steam_id":76561199246901712,"connected_time":1861000000000,"state":"active","ping":47},{"user_id":374,"name":"Anthy-chan","steam_id":76561198381380154,"connected_time":1804000000000,"state":"active","ping":60},{"user_id":376,"name":"fontanarrosa6586","steam_id":76561198389227083,"connected_time":96000000000,"state":"active","ping":92}]},{"server_id":7,"name":"Uncletopia | Seattle | 1 | All Maps","name_short":"sea-1","host":"sea-1.us.uncletopia.com","port":27015,"enabled":true,"region":"us-west","cc":"us","latitude":47.608013,"longitude":-122.33517,"reserved":0,"last_update":"0001-01-01T00:00:00Z","name_a2s":"Uncletopia | Seattle | 1 | All Maps","protocol":17,"map":"pl_borneo","folder":"tf","game":"Team Fortress","app_id":440,"player_count":24,"max_players":24,"Bots":0,"server_type":"Dedicated","server_os":"Linux","password":true,"vac":true,"version":"7882260","steam_id":85568392924469997,"keywords":["nocrits","nodmgspread","payload","uncletopia"],"game_id":440,"stv_port":27016,"stv_name":"Uncletopia | Seattle | 1 | All Maps | STV","players":[{"user_id":269,"name":"my fursona has a fat ass","steam_id":76561199190800520,"connected_time":433000000000,"state":"active","ping":41},{"user_id":256,"name":"VerminKing","steam_id":76561198060887391,"connected_time":1673000000000,"state":"active","ping":58},{"user_id":259,"name":"Sudsen","steam_id":76561198370603787,"connected_time":961000000000,"state":"active","ping":73},{"user_id":263,"name":"Lain","steam_id":76561198118282205,"connected_time":838000000000,"state":"active","ping":119},{"user_id":258,"name":"lavender","steam_id":76561199069518286,"connected_time":1524000000000,"state":"active","ping":70},{"user_id":248,"name":"Dirt Mammal","steam_id":76561198040781653,"connected_time":2744000000000,"state":"active","ping":59},{"user_id":251,"name":"Owner of Serial Experiments Lai","steam_id":76561198160513092,"connected_time":2278000000000,"state":"active","ping":156},{"user_id":253,"name":"MrYadaization","steam_id":76561198050770818,"connected_time":2267000000000,"state":"active","ping":58},{"user_id":208,"name":"Fh","steam_id":76561198000903511,"connected_time":6074000000000,"state":"active","ping":60},{"user_id":239,"name":"bocaJ","steam_id":76561198374535092,"connected_time":3845000000000,"state":"active","ping":70},{"user_id":182,"name":"Hindmost","steam_id":76561199081837220,"connected_time":7999000000000,"state":"active","ping":111},{"user_id":268,"name":"TricKstA","steam_id":76561197988143298,"connected_time":523000000000,"state":"active","ping":58},{"user_id":215,"name":"Raian","steam_id":76561199138048671,"connected_time":5750000000000,"state":"active","ping":73},{"user_id":255,"name":"Lawyer","steam_id":76561197974126447,"connected_time":2239000000000,"state":"active","ping":81},{"user_id":247,"name":"rad killl raccoon","steam_id":76561198980975595,"connected_time":2863000000000,"state":"active","ping":64},{"user_id":249,"name":"Arsonist Goose","steam_id":76561198147441830,"connected_time":2607000000000,"state":"active","ping":75},{"user_id":245,"name":"Space⭐Taffy","steam_id":76561198002271720,"connected_time":3103000000000,"state":"active","ping":134},{"user_id":224,"name":"Themasterman75","steam_id":76561199385573293,"connected_time":4990000000000,"state":"active","ping":74},{"user_id":236,"name":"Smashy","steam_id":76561198030704307,"connected_time":4126000000000,"state":"active","ping":64},{"user_id":250,"name":"Clump","steam_id":76561198049690860,"connected_time":2553000000000,"state":"active","ping":57},{"user_id":193,"name":"Frank West","steam_id":76561198388032598,"connected_time":7558000000000,"state":"active","ping":62},{"user_id":241,"name":"Integral","steam_id":76561198158225481,"connected_time":3210000000000,"state":"active","ping":89},{"user_id":261,"name":"bladee","steam_id":76561199191855486,"connected_time":875000000000,"state":"active","ping":46},{"user_id":262,"name":"Auburn Beard","steam_id":76561198056188802,"connected_time":875000000000,"state":"active","ping":48}]},{"server_id":119,"name":"Uncletopia | Seattle | 2 | All Maps","name_short":"sea-2","host":"sea-1.us.uncletopia.com","port":27025,"enabled":true,"region":"us-west","cc":"us","latitude":47.608013,"longitude":-122.33517,"reserved":0,"last_update":"0001-01-01T00:00:00Z","name_a2s":"Uncletopia | Seattle | 2 | All Maps","protocol":17,"map":"pl_borneo","folder":"tf","game":"Team Fortress","app_id":440,"player_count":24,"max_players":24,"Bots":0,"server_type":"Dedicated","server_os":"Linux","password":true,"vac":true,"version":"7882260","steam_id":85568392924469998,"keywords":["nocrits","nodmgspread","payload","uncletopia"],"game_id":440,"stv_port":27026,"stv_name":"Uncletopia | Seattle | 2 | All Maps | STV","players":[{"user_id":213,"name":"Nickle","steam_id":76561199249776488,"connected_time":84000000000,"state":"active","ping":57},{"user_id":144,"name":"SnoDot","steam_id":76561198062209970,"connected_time":4576000000000,"state":"active","ping":33},{"user_id":198,"name":"Mr. Baseball","steam_id":76561198112635823,"connected_time":987000000000,"state":"active","ping":39},{"user_id":184,"name":"FamishedNinja","steam_id":76561198310786497,"connected_time":2253000000000,"state":"active","ping":87},{"user_id":204,"name":"canadian birds","steam_id":76561198059466588,"connected_time":580000000000,"state":"active","ping":107},{"user_id":185,"name":"Crit","steam_id":76561198854805202,"connected_time":2225000000000,"state":"active","ping":73},{"user_id":205,"name":"gloobern","steam_id":76561198341190679,"connected_time":569000000000,"state":"active","ping":69},{"user_id":189,"name":"cwb","steam_id":76561198135667240,"connected_time":1668000000000,"state":"active","ping":80},{"user_id":196,"name":"duckypotato","steam_id":76561198047703790,"connected_time":1219000000000,"state":"active","ping":64},{"user_id":206,"name":"exephur","steam_id":76561198135763234,"connected_time":564000000000,"state":"active","ping":60},{"user_id":207,"name":"Furry exterminator","steam_id":76561199174242639,"connected_time":557000000000,"state":"active","ping":110},{"user_id":208,"name":"Starfruit66","steam_id":76561198069917277,"connected_time":542000000000,"state":"active","ping":74},{"user_id":171,"name":"Kbity","steam_id":76561198117708658,"connected_time":3182000000000,"state":"active","ping":65},{"user_id":158,"name":"Big Juicy","steam_id":76561198018062350,"connected_time":3886000000000,"state":"active","ping":62},{"user_id":146,"name":"dweaver","steam_id":76561198119610135,"connected_time":4492000000000,"state":"active","ping":92},{"user_id":177,"name":"Gas Station Pump #3","steam_id":76561198108655677,"connected_time":2443000000000,"state":"active","ping":97},{"user_id":163,"name":"Qwal0x","steam_id":76561198298324396,"connected_time":3440000000000,"state":"active","ping":70},{"user_id":159,"name":"Silexos","steam_id":76561198267639877,"connected_time":3859000000000,"state":"active","ping":74},{"user_id":210,"name":"Shattered Glass","steam_id":76561198116835391,"connected_time":492000000000,"state":"active","ping":138},{"user_id":199,"name":"MonteJT","steam_id":76561198055409360,"connected_time":981000000000,"state":"active","ping":44},{"user_id":194,"name":"iKickBabies","steam_id":76561199337400258,"connected_time":1378000000000,"state":"active","ping":73},{"user_id":192,"name":"A UsedNom","steam_id":76561198402832756,"connected_time":1454000000000,"state":"active","ping":55},{"user_id":211,"name":"Nova Academy of Salmon Action","steam_id":76561198021842526,"connected_time":478000000000,"state":"active","ping":82},{"user_id":212,"name":"ceres","steam_id":76561198291976960,"connected_time":475000000000,"state":"active","ping":75}]},{"server_id":406,"name":"Uncletopia | Seattle | 3 | Stopwatch Beta","name_short":"sea-3","host":"sea-1.us.uncletopia.com","port":27035,"enabled":true,"region":"us-west","cc":"us","latitude":47.608013,"longitude":-122.33517,"reserved":0,"last_update":"0001-01-01T00:00:00Z","name_a2s":"Uncletopia | Seattle | 3 | Stopwatch Beta","protocol":17,"map":"koth_viaduct","folder":"tf","game":"Team Fortress","app_id":440,"player_count":0,"max_players":24,"Bots":0,"server_type":"Dedicated","server_os":"Linux","password":true,"vac":true,"version":"7882260","steam_id":85568392924515217,"keywords":["cp","nocrits","nodmgspread","uncletopia"],"game_id":440,"stv_port":27036,"stv_name":"Uncletopia | Seattle | 3 | Stopwatch Beta | STV","players":null},{"server_id":17,"name":"Uncletopia | San Francisco | 1 | All Maps","name_short":"sfo-1","host":"sfo-1.us.uncletopia.com","port":27015,"enabled":true,"region":"us-west","cc":"us","latitude":37.77397,"longitude":-122.4313,"reserved":0,"last_update":"0001-01-01T00:00:00Z","name_a2s":"Uncletopia | San Francisco | 1 | All Maps","protocol":17,"map":"koth_viaduct","folder":"tf","game":"Team Fortress","app_id":440,"player_count":0,"max_players":24,"Bots":0,"server_type":"Dedicated","server_os":"Linux","password":true,"vac":true,"version":"7882260","steam_id":85568392924469999,"keywords":["cp","nocrits","nodmgspread","uncletopia"],"game_id":440,"stv_port":27016,"stv_name":"Uncletopia | San Francisco | 1 | All Maps | STV","players":null},{"server_id":18,"name":"Uncletopia | San Francisco | 2 | All Maps","name_short":"sfo-2","host":"sfo-1.us.uncletopia.com","port":27025,"enabled":true,"region":"us-west","cc":"us","latitude":37.77397,"longitude":-122.4313,"reserved":0,"last_update":"0001-01-01T00:00:00Z","name_a2s":"Uncletopia | San Francisco | 2 | All Maps","protocol":17,"map":"pl_rumford_event","folder":"tf","game":"Team Fortress","app_id":440,"player_count":24,"max_players":24,"Bots":0,"server_type":"Dedicated","server_os":"Linux","password":true,"vac":true,"version":"7882260","steam_id":85568392924470000,"keywords":["nocrits","nodmgspread","payload","uncletopia"],"game_id":440,"stv_port":27026,"stv_name":"Uncletopia | San Francisco | 2 | All Maps | STV","players":[{"user_id":555,"name":"mantra","steam_id":76561198023496266,"connected_time":832000000000,"state":"active","ping":78},{"user_id":485,"name":"ThatGamingKiwi","steam_id":76561199170522237,"connected_time":6739000000000,"state":"active","ping":125},{"user_id":550,"name":"somewhat silly","steam_id":76561198010269150,"connected_time":1283000000000,"state":"active","ping":59},{"user_id":557,"name":"Sasha","steam_id":76561198042276450,"connected_time":756000000000,"state":"active","ping":130},{"user_id":570,"name":"Harumi","steam_id":76561198146657288,"connected_time":88000000000,"state":"active","ping":135},{"user_id":524,"name":"Scorpion","steam_id":76561198325651066,"connected_time":3681000000000,"state":"active","ping":67},{"user_id":560,"name":"Quagsire Acquired","steam_id":76561198417169465,"connected_time":671000000000,"state":"active","ping":91},{"user_id":558,"name":"Chimpanzee","steam_id":76561198850387282,"connected_time":705000000000,"state":"active","ping":107},{"user_id":559,"name":"Tcmano","steam_id":76561198057233847,"connected_time":698000000000,"state":"active","ping":59},{"user_id":528,"name":"Nuck Chorris","steam_id":76561197962588421,"connected_time":3416000000000,"state":"active","ping":57},{"user_id":551,"name":"MintyFreshMentos","steam_id":76561198839944799,"connected_time":1252000000000,"state":"active","ping":49},{"user_id":512,"name":"cookypuss","steam_id":76561197961275239,"connected_time":4032000000000,"state":"active","ping":62},{"user_id":568,"name":"Ribombri","steam_id":76561198060164054,"connected_time":156000000000,"state":"active","ping":103},{"user_id":569,"name":"gnome zone","steam_id":76561198883349445,"connected_time":146000000000,"state":"active","ping":57},{"user_id":529,"name":"NotSharky","steam_id":76561198078910436,"connected_time":3397000000000,"state":"active","ping":61},{"user_id":564,"name":"Honesty","steam_id":76561198066094995,"connected_time":574000000000,"state":"active","ping":89},{"user_id":516,"name":"Drakon","steam_id":76561198078210822,"connected_time":3933000000000,"state":"active","ping":70},{"user_id":567,"name":"Sidekick","steam_id":76561198392740835,"connected_time":472000000000,"state":"active","ping":62},{"user_id":517,"name":"Jovo","steam_id":76561197993265970,"connected_time":3928000000000,"state":"active","ping":57},{"user_id":554,"name":"A tuna sub with extra mayo","steam_id":76561199043570426,"connected_time":994000000000,"state":"active","ping":131},{"user_id":571,"name":"Irase","steam_id":76561198065354440,"connected_time":80000000000,"state":"active","ping":66},{"user_id":548,"name":"Crozzes","steam_id":76561198046493551,"connected_time":1931000000000,"state":"active","ping":71},{"user_id":566,"name":"chrome 2008 (she/they)","steam_id":76561198321277216,"connected_time":536000000000,"state":"active","ping":66},{"user_id":453,"name":"helen keller","steam_id":76561197979870540,"connected_time":8523000000000,"state":"active","ping":105}]},{"server_id":19,"name":"Uncletopia | San Francisco | 3 | Stopwatch Beta","name_short":"sfo-3","host":"sfo-1.us.uncletopia.com","port":27035,"enabled":true,"region":"us-west","cc":"us","latitude":37.77397,"longitude":-122.4313,"reserved":0,"last_update":"0001-01-01T00:00:00Z","name_a2s":"Uncletopia | San Francisco | 3 | Stopwatch Beta","protocol":17,"map":"pl_snowycoast","folder":"tf","game":"Team Fortress","app_id":440,"player_count":0,"max_players":24,"Bots":0,"server_type":"Dedicated","server_os":"Linux","password":true,"vac":true,"version":"7882260","steam_id":85568392924742824,"keywords":["nocrits","nodmgspread","payload","uncletopia"],"game_id":440,"stv_port":27036,"stv_name":"Uncletopia | San Francisco | 3 | Stopwatch Beta | STV","players":null},{"server_id":20,"name":"Uncletopia | San Francisco | 4 | Community","name_short":"sfo-4","host":"sfo-1.us.uncletopia.com","port":27045,"enabled":true,"region":"us-west","cc":"us","latitude":37.77397,"longitude":-122.4313,"reserved":0,"last_update":"0001-01-01T00:00:00Z","name_a2s":"Uncletopia | San Francisco | 4 | Community","protocol":17,"map":"workshop/cp_glacier_rc6.ugc2905735376","folder":"tf","game":"Team Fortress","app_id":440,"player_count":0,"max_players":24,"Bots":0,"server_type":"Dedicated","server_os":"Linux","password":true,"vac":true,"version":"7882260","steam_id":85568392924742826,"keywords":["cp","nocrits","nodmgspread","uncletopia"],"game_id":440,"stv_port":27046,"stv_name":"Uncletopia | San Francisco | 4 | Community | STV","players":null},{"server_id":141,"name":"Uncletopia | Sydney | 1 | All Maps","name_short":"syd-1","host":"syd-1.au.uncletopia.com","port":27015,"enabled":true,"region":"au","cc":"au","latitude":-33.865143,"longitude":151.2099,"reserved":0,"last_update":"0001-01-01T00:00:00Z","name_a2s":"Uncletopia | Sydney | 1 | All Maps","protocol":17,"map":"cp_sunshine","folder":"tf","game":"Team Fortress","app_id":440,"player_count":0,"max_players":24,"Bots":0,"server_type":"Dedicated","server_os":"Linux","password":true,"vac":true,"version":"7882260","steam_id":85568392924470001,"keywords":["cp","nocrits","nodmgspread","uncletopia"],"game_id":440,"stv_port":27016,"stv_name":"Uncletopia | Sydney | 1 | All Maps | STV","players":null},{"server_id":123,"name":"Uncletopia | Sydney | 2 | All Maps","name_short":"syd-2","host":"syd-1.au.uncletopia.com","port":27025,"enabled":true,"region":"au","cc":"au","latitude":-33.865143,"longitude":151.2099,"reserved":0,"last_update":"0001-01-01T00:00:00Z","name_a2s":"Uncletopia | Sydney | 2 | All Maps","protocol":17,"map":"pl_upward","folder":"tf","game":"Team Fortress","app_id":440,"player_count":0,"max_players":24,"Bots":0,"server_type":"Dedicated","server_os":"Linux","password":true,"vac":true,"version":"7882260","steam_id":85568392924470002,"keywords":["nocrits","nodmgspread","payload","uncletopia"],"game_id":440,"stv_port":27026,"stv_name":"Uncletopia | Sydney | 2 | All Maps | STV","players":null},{"server_id":395,"name":"Uncletopia | Sydney | 3 | All Maps","name_short":"syd-3","host":"syd-1.au.uncletopia.com","port":27035,"enabled":true,"region":"au","cc":"au","latitude":-33.865143,"longitude":151.2099,"reserved":0,"last_update":"0001-01-01T00:00:00Z","name_a2s":"Uncletopia | Sydney | 3 | All Maps","protocol":17,"map":"pl_badwater","folder":"tf","game":"Team Fortress","app_id":440,"player_count":0,"max_players":24,"Bots":0,"server_type":"Dedicated","server_os":"Linux","password":true,"vac":true,"version":"7882260","steam_id":85568392925194467,"keywords":["nocrits","nodmgspread","payload","uncletopia"],"game_id":440,"stv_port":27036,"stv_name":"Uncletopia | Sydney | 3 | All Maps | STV","players":null},{"server_id":396,"name":"Uncletopia | Sydney | 4 | All Maps","name_short":"syd-4","host":"syd-1.au.uncletopia.com","port":27045,"enabled":true,"region":"au","cc":"au","latitude":-33.865143,"longitude":151.2099,"reserved":0,"last_update":"0001-01-01T00:00:00Z","name_a2s":"Uncletopia | Sydney | 4 | All Maps","protocol":17,"map":"cp_altitude","folder":"tf","game":"Team Fortress","app_id":440,"player_count":0,"max_players":24,"Bots":0,"server_type":"Dedicated","server_os":"Linux","password":true,"vac":true,"version":"7882260","steam_id":85568392925397958,"keywords":["cp","nocrits","nodmgspread","uncletopia"],"game_id":440,"stv_port":27046,"stv_name":"Uncletopia | Sydney | 4 | All Maps | STV","players":null},{"server_id":58,"name":"Uncletopia | Sydney | 5 | Stopwatch Beta","name_short":"syd-5","host":"syd-1.au.uncletopia.com","port":27055,"enabled":true,"region":"au","cc":"au","latitude":-33.865143,"longitude":151.2099,"reserved":0,"last_update":"0001-01-01T00:00:00Z","name_a2s":"Uncletopia | Sydney | 5 | Stopwatch Beta","protocol":17,"map":"koth_viaduct","folder":"tf","game":"Team Fortress","app_id":440,"player_count":0,"max_players":24,"Bots":0,"server_type":"Dedicated","server_os":"Linux","password":true,"vac":true,"version":"7882260","steam_id":85568392925397959,"keywords":["cp","nocrits","nodmgspread","uncletopia"],"game_id":440,"stv_port":27056,"stv_name":"Uncletopia | Sydney | 5 | Stopwatch Beta | STV","players":null},{"server_id":59,"name":"Uncletopia | Sydney | 6 | Community","name_short":"syd-6","host":"syd-1.au.uncletopia.com","port":27065,"enabled":true,"region":"au","cc":"au","latitude":-33.865143,"longitude":151.2099,"reserved":0,"last_update":"0001-01-01T00:00:00Z","name_a2s":"Uncletopia | Sydney | 6 | Community","protocol":17,"map":"workshop/pl_corrode_rc2.ugc546577989","folder":"tf","game":"Team Fortress","app_id":440,"player_count":0,"max_players":24,"Bots":0,"server_type":"Dedicated","server_os":"Linux","password":true,"vac":true,"version":"7882260","steam_id":85568392925397960,"keywords":["nocrits","nodmgspread","payload","uncletopia"],"game_id":440,"stv_port":27066,"stv_name":"Uncletopia | Sydney | 6 | Community | STV","players":null},{"server_id":49,"name":"Uncletopia | Warsaw | 1 | All Maps","name_short":"waw-1","host":"waw-1.pl.uncletopia.com","port":27015,"enabled":true,"region":"eu","cc":"pl","latitude":52.2297,"longitude":21.017532,"reserved":0,"last_update":"0001-01-01T00:00:00Z","name_a2s":"","protocol":0,"map":"","folder":"","game":"","app_id":0,"player_count":0,"max_players":0,"Bots":0,"server_type":"","server_os":"","password":false,"vac":false,"version":"","steam_id":0,"keywords":null,"game_id":0,"stv_port":0,"stv_name":"","players":null},{"server_id":50,"name":"Uncletopia | Warsaw | 2 | All Maps","name_short":"waw-2","host":"waw-1.pl.uncletopia.com","port":27025,"enabled":true,"region":"eu","cc":"pl","latitude":52.2297,"longitude":21.017532,"reserved":0,"last_update":"0001-01-01T00:00:00Z","name_a2s":"Uncletopia | Warsaw | 2 | All Maps","protocol":17,"map":"koth_viaduct","folder":"tf","game":"Team Fortress","app_id":440,"player_count":0,"max_players":24,"Bots":0,"server_type":"Dedicated","server_os":"Linux","password":true,"vac":true,"version":"7882260","steam_id":85568392925397851,"keywords":["cp","nocrits","nodmgspread","uncletopia"],"game_id":440,"stv_port":27026,"stv_name":"Uncletopia | Warsaw | 2 | All Maps | STV","players":null},{"server_id":51,"name":"Uncletopia | Warsaw | 3 | All Maps","name_short":"waw-3","host":"waw-1.pl.uncletopia.com","port":27035,"enabled":true,"region":"eu","cc":"pl","latitude":52.2297,"longitude":21.017532,"reserved":0,"last_update":"0001-01-01T00:00:00Z","name_a2s":"Uncletopia | Warsaw | 3 | All Maps","protocol":17,"map":"pl_swiftwater_final1","folder":"tf","game":"Team Fortress","app_id":440,"player_count":0,"max_players":24,"Bots":0,"server_type":"Dedicated","server_os":"Linux","password":true,"vac":true,"version":"7882260","steam_id":85568392925397852,"keywords":["nocrits","nodmgspread","payload","uncletopia"],"game_id":440,"stv_port":27036,"stv_name":"Uncletopia | Warsaw | 3 | All Maps | STV","players":null},{"server_id":52,"name":"Uncletopia | Warsaw | 4 | All Maps","name_short":"waw-4","host":"waw-1.pl.uncletopia.com","port":27045,"enabled":true,"region":"eu","cc":"pl","latitude":52.2297,"longitude":21.017532,"reserved":0,"last_update":"0001-01-01T00:00:00Z","name_a2s":"Uncletopia | Warsaw | 4 | All Maps","protocol":17,"map":"koth_cascade","folder":"tf","game":"Team Fortress","app_id":440,"player_count":0,"max_players":24,"Bots":0,"server_type":"Dedicated","server_os":"Linux","password":true,"vac":true,"version":"7882260","steam_id":85568392925397853,"keywords":["cp","nocrits","nodmgspread","uncletopia"],"game_id":440,"stv_port":27046,"stv_name":"Uncletopia | Warsaw | 4 | All Maps | STV","players":null},{"server_id":53,"name":"Uncletopia | Warsaw | 5 | Stopwatch Beta","name_short":"waw-5","host":"waw-1.pl.uncletopia.com","port":27055,"enabled":true,"region":"eu","cc":"pl","latitude":52.2297,"longitude":21.017532,"reserved":0,"last_update":"0001-01-01T00:00:00Z","name_a2s":"Uncletopia | Warsaw | 5 | Stopwatch Beta","protocol":17,"map":"cp_granary","folder":"tf","game":"Team Fortress","app_id":440,"player_count":0,"max_players":24,"Bots":0,"server_type":"Dedicated","server_os":"Linux","password":true,"vac":true,"version":"7882260","steam_id":85568392925397854,"keywords":["cp","nocrits","nodmgspread","uncletopia"],"game_id":440,"stv_port":27056,"stv_name":"Uncletopia | Warsaw | 5 | Stopwatch Beta | STV","players":null},{"server_id":54,"name":"Uncletopia | Warsaw | 6 | Community","name_short":"waw-6","host":"waw-1.pl.uncletopia.com","port":27065,"enabled":true,"region":"eu","cc":"pl","latitude":52.2297,"longitude":21.017532,"reserved":0,"last_update":"0001-01-01T00:00:00Z","name_a2s":"Uncletopia | Warsaw | 6 | Community","protocol":17,"map":"workshop/koth_bagel_rc6.ugc2514036946","folder":"tf","game":"Team Fortress","app_id":440,"player_count":0,"max_players":24,"Bots":0,"server_type":"Dedicated","server_os":"Linux","password":true,"vac":true,"version":"7882260","steam_id":85568392925397856,"keywords":["cp","nocrits","nodmgspread","uncletopia"],"game_id":440,"stv_port":27066,"stv_name":"Uncletopia | Warsaw | 6 | Community | STV","players":null}]}