{"status":true,"message":"","result":[{"server_id":9,"name":"Uncletopia | Atlanta | 1 | All Maps","name_short":"atl-1","host":"atl-1.us.uncletopia.com","port":27015,"enabled":true,"region":"us-east","cc":"us","latitude":33.753746,"longitude":-84.38633,"reserved":0,"last_update":"0001-01-01T00:00:00Z","name_a2s":"Uncletopia | Atlanta | 1 | All Maps","protocol":17,"map":"cp_snakewater_final1","folder":"tf","game":"Team Fortress","app_id":440,"player_count":0,"max_players":24,"Bots":0,"server_type":"Dedicated","server_os":"Linux","password":true,"vac":true,"version":"7757534","steam_id":85568392924469982,"keywords":["cp","nocrits","nodmgspread","uncletopia"],"game_id":440,"stv_port":27016,"stv_name":"Uncletopia | Atlanta | 1 | All Maps | STV","players":null},{"server_id":400,"name":"Uncletopia | Atlanta | 3 | Community","name_short":"atl-3","host":"atl-1.us.uncletopia.com","port":27035,"enabled":true,"region":"us-east","cc":"us","latitude":33.753746,"longitude":-84.38633,"reserved":0,"last_update":"0001-01-01T00:00:00Z","name_a2s":"Uncletopia | Atlanta | 3 | Community","protocol":17,"map":"workshop/koth_kemptown_rc1.ugc767410655","folder":"tf","game":"Team Fortress","app_id":440,"player_count":0,"max_players":32,"Bots":0,"server_type":"Dedicated","server_os":"Linux","password":true,"vac":true,"version":"7757534","steam_id":85568392924515187,"keywords":["cp","increased_maxplayers","nocrits","nodmgspread","uncletopia"],"game_id":440,"stv_port":27036,"stv_name":"Uncletopia | Atlanta | 3 | Community | STV","players":null},{"server_id":401,"name":"Uncletopia | Atlanta | 4 | No Payload","name_short":"atl-4","host":"atl-1.us.uncletopia.com","port":27045,"enabled":true,"region":"us-east","cc":"us","latitude":33.753746,"longitude":-84.38633,"reserved":0,"last_update":"0001-01-01T00:00:00Z","name_a2s":"","protocol":0,"map":"","folder":"","game":"","app_id":0,"player_count":0,"max_players":0,"Bots":0,"server_type":"","server_os":"","password":false,"vac":false,"version":"","steam_id":0,"keywords":null,"game_id":0,"stv_port":0,"stv_name":"","players":null},{"server_id":2,"name":"Uncletopia | Chicago | 1 | All Maps","name_short":"chi-1","host":"chi-1.us.uncletopia.com","port":27015,"enabled":true,"region":"us-central","cc":"us","latitude":41.881832,"longitude":-87.62318,"reserved":0,"last_update":"0001-01-01T00:00:00Z","name_a2s":"Uncletopia | Chicago | 1 | All Maps","protocol":17,"map":"pl_badwater","folder":"tf","game":"Team Fortress","app_id":440,"player_count":17,"max_players":24,"Bots":0,"server_type":"Dedicated","server_os":"Linux","password":true,"vac":true,"version":"7757534","steam_id":85568392924469984,"keywords":["nocrits","nodmgspread","payload","uncletopia"],"game_id":440,"stv_port":27016,"stv_name":"Uncletopia | Chicago | 1 | All Maps | STV","players":[{"user_id":1003,"name":"stall","steam_id":76561199152861652,"connected_time":2000000000,"state":"spawning","ping":39},{"user_id":926,"name":"C papi","steam_id":76561198027779564,"connected_time":7353000000000,"state":"active","ping":46},{"user_id":999,"name":"Oxycodone","steam_id":76561198250540576,"connected_time":348000000000,"state":"active","ping":77},{"user_id":982,"name":"daemon","steam_id":76561198001541433,"connected_time":1405000000000,"state":"active","ping":47},{"user_id":977,"name":"King Of The Chill","steam_id":76561197971394640,"connected_time":1995000000000,"state":"active","ping":93},{"user_id":983,"name":"popfulmail","steam_id":76561198865971290,"connected_time":1377000000000,"state":"active","ping":93},{"user_id":969,"name":"Anna","steam_id":76561197999657118,"connected_time":3269000000000,"state":"active","ping":73},{"user_id":984,"name":"With respect to x","steam_id":76561198088321636,"connected_time":1369000000000,"state":"active","ping":99},{"user_id":1001,"name":"It's_Amara!","steam_id":76561198978222943,"connected_time":201000000000,"state":"active","ping":59},{"user_id":978,"name":"triangleman","steam_id":76561198972733542,"connected_time":1810000000000,"state":"active","ping":54},{"user_id":907,"name":"Chrisscar","steam_id":76561198086298130,"connected_time":8641000000000,"state":"active","ping":101},{"user_id":991,"name":"macferdinand80","steam_id":76561199095597139,"connected_time":843000000000,"state":"active","ping":97},{"user_id":886,"name":"trappy (showered)","steam_id":76561198402801140,"connected_time":9993000000000,"state":"active","ping":58},{"user_id":989,"name":"Lac-77","steam_id":76561198127045046,"connected_time":1178000000000,"state":"active","ping":59},{"user_id":994,"name":"khil","steam_id":76561198042455487,"connected_time":562000000000,"state":"active","ping":36},{"user_id":974,"name":"Bliztank | RGL.gg","steam_id":76561198019252798,"connected_time":2666000000000,"state":"active","ping":56},{"user_id":980,"name":"Resident Thrussy Lender","steam_id":76561198071790583,"connected_time":1700000000000,"state":"active","ping":85}]},{"server_id":106,"name":"Uncletopia | Chicago | 2 | All Maps","name_short":"chi-2","host":"chi-1.us.uncletopia.com","port":27025,"enabled":true,"region":"us-central","cc":"us","latitude":41.881832,"longitude":-87.62318,"reserved":0,"last_update":"0001-01-01T00:00:00Z","name_a2s":"Uncletopia | Chicago | 2 | All Maps","protocol":17,"map":"pl_upward","folder":"tf","game":"Team Fortress","app_id":440,"player_count":24,"max_players":24,"Bots":0,"server_type":"Dedicated","server_os":"Linux","password":true,"vac":true,"version":"7757534","steam_id":85568392924469985,"keywords":["nocrits","nodmgspread","payload","uncletopia"],"game_id":440,"stv_port":27026,"stv_name":"Uncletopia | Chicago | 2 | All Maps | STV","players":[{"user_id":754,"name":"Leviathan","steam_id":76561197997528907,"connected_time":613000000000,"state":"active","ping":54},{"user_id":755,"name":"VBadcatt","steam_id":76561198146413536,"connected_time":517000000000,"state":"active","ping":75},{"user_id":753,"name":"Papa Stalin","steam_id":76561198298953716,"connected_time":651000000000,"state":"active","ping":175},{"user_id":756,"name":"Fivan","steam_id":76561198097145922,"connected_time":366000000000,"state":"active","ping":80},{"user_id":757,"name":"jubb","steam_id":76561198186865526,"connected_time":317000000000,"state":"active","ping":110},{"user_id":758,"name":"Just A Potato","steam_id":76561198056360867,"connected_time":306000000000,"state":"active","ping":81},{"user_id":750,"name":"AniMaL","steam_id":76561198044422572,"connected_time":837000000000,"state":"active","ping":158},{"user_id":759,"name":"Player 3","steam_id":76561199091527538,"connected_time":304000000000,"state":"active","ping":114},{"user_id":747,"name":"DJ Deoxys","steam_id":76561198322147008,"connected_time":1008000000000,"state":"active","ping":90},{"user_id":760,"name":"pip","steam_id":76561198193784201,"connected_time":286000000000,"state":"active","ping":70},{"user_id":728,"name":"jade","steam_id":76561198055611029,"connected_time":1770000000000,"state":"active","ping":63},{"user_id":751,"name":"aaron","steam_id":76561198308883028,"connected_time":772000000000,"state":"active","ping":110},{"user_id":733,"name":"Chuck Finley","steam_id":76561198027411284,"connected_time":1632000000000,"state":"active","ping":79},{"user_id":743,"name":"KotuAlls","steam_id":76561198325755844,"connected_time":1323000000000,"state":"active","ping":52},{"user_id":761,"name":"hierodule","steam_id":76561198023229665,"connected_time":285000000000,"state":"active","ping":71},{"user_id":762,"name":"Snoopist","steam_id":76561198144023761,"connected_time":263000000000,"state":"active","ping":32},{"user_id":712,"name":"Woahless","steam_id":76561198830320490,"connected_time":2986000000000,"state":"active","ping":50},{"user_id":763,"name":"Moofins","steam_id":76561198050291949,"connected_time":245000000000,"state":"active","ping":72},{"user_id":768,"name":"El Viejo Paulino","steam_id":76561198211944169,"connected_time":43000000000,"state":"active","ping":106},{"user_id":716,"name":"Swift Speedy","steam_id":76561198383402734,"connected_time":2962000000000,"state":"active","ping":74},{"user_id":765,"name":"mr. beaver","steam_id":76561198081361768,"connected_time":178000000000,"state":"active","ping":61},{"user_id":766,"name":"DronClon","steam_id":76561198158201216,"connected_time":103000000000,"state":"active","ping":167},{"user_id":769,"name":"Venezia","steam_id":76561197994107407,"connected_time":37000000000,"state":"active","ping":58},{"user_id":710,"name":"Moon'sDancer","steam_id":76561198062508965,"connected_time":3025000000000,"state":"active","ping":67}]},{"server_id":402,"name":"Uncletopia | Chicago | 3 | All Maps","name_short":"chi-3","host":"chi-1.us.uncletopia.com","port":27035,"enabled":true,"region":"us-central","cc":"us","latitude":41.881832,"longitude":-87.62318,"reserved":0,"last_update":"0001-01-01T00:00:00Z","name_a2s":"Uncletopia | Chicago | 3 | All Maps","protocol":17,"map":"pl_upward","folder":"tf","game":"Team Fortress","app_id":440,"player_count":0,"max_players":24,"Bots":0,"server_type":"Dedicated","server_os":"Linux","password":true,"vac":true,"version":"7757534","steam_id":85568392924515191,"keywords":["nocrits","nodmgspread","payload","uncletopia"],"game_id":440,"stv_port":27036,"stv_name":"Uncletopia | Chicago | 3 | All Maps | STV","players":null},{"server_id":403,"name":"Uncletopia | Chicago | 4 | All Maps","name_short":"chi-4","host":"chi-1.us.uncletopia.com","port":27045,"enabled":true,"region":"us-central","cc":"us","latitude":41.881832,"longitude":-87.62318,"reserved":0,"last_update":"0001-01-01T00:00:00Z","name_a2s":"Uncletopia | Chicago | 4 | All Maps","protocol":17,"map":"pl_swiftwater_final1","folder":"tf","game":"Team Fortress","app_id":440,"player_count":2,"max_players":24,"Bots":0,"server_type":"Dedicated","server_os":"Linux","password":true,"vac":true,"version":"7757534","steam_id":85568392924515193,"keywords":["nocrits","nodmgspread","payload","uncletopia"],"game_id":440,"stv_port":27046,"stv_name":"Uncletopia | Chicago | 4 | All Maps | STV","players":[{"user_id":965,"name":"werolat","steam_id":76561197960544784,"connected_time":773000000000,"state":"active","ping":130},{"user_id":968,"name":"bean drinker","steam_id":76561198044004639,"connected_time":720000000000,"state":"active","ping":69}]},{"server_id":36,"name":"Uncletopia | Chicago | 5 | All Maps","name_short":"chi-5","host":"chi-2.us.uncletopia.com","port":27015,"enabled":true,"region":"us-central","cc":"us","latitude":41.881832,"longitude":-87.62318,"reserved":0,"last_update":"0001-01-01T00:00:00Z","name_a2s":"Uncletopia | Chicago | 5 | All Maps","protocol":17,"map":"cp_mountainlab","folder":"tf","game":"Team Fortress","app_id":440,"player_count":0,"max_players":24,"Bots":0,"server_type":"Dedicated","server_os":"Linux","password":true,"vac":true,"version":"7757534","steam_id":85568392924866362,"keywords":["cp","nocrits","nodmgspread","uncletopia"],"game_id":440,"stv_port":27016,"stv_name":"Uncletopia | Chicago | 5 | All Maps | STV","players":null},{"server_id":37,"name":"Uncletopia | Chicago | 6 | All Maps","name_short":"chi-6","host":"chi-2.us.uncletopia.com","port":27025,"enabled":true,"region":"us-central","cc":"us","latitude":41.881832,"longitude":-87.62318,"reserved":0,"last_update":"0001-01-01T00:00:00Z","name_a2s":"Uncletopia | Chicago | 6 | All Maps","protocol":17,"map":"pl_pier","folder":"tf","game":"Team Fortress","app_id":440,"player_count":24,"max_players":24,"Bots":0,"server_type":"Dedicated","server_os":"Linux","password":true,"vac":true,"version":"7757534","steam_id":85568392924866363,"keywords":["nocrits","nodmgspread","payload","uncletopia"],"game_id":440,"stv_port":27026,"stv_name":"Uncletopia | Chicago | 6 | All Maps | STV","players":[{"user_id":513,"name":"BLU1 l Epifiny","steam_id":76561198027958086,"connected_time":923000000000,"state":"active","ping":63},{"user_id":514,"name":"ilovelatinahead","steam_id":76561198081303855,"connected_time":787000000000,"state":"active","ping":74},{"user_id":505,"name":"selarom | trade.tf |","steam_id":76561199069219350,"connected_time":1510000000000,"state":"active","ping":62},{"user_id":522,"name":"horace","steam_id":76561198035613413,"connected_time":349000000000,"state":"active","ping":72},{"user_id":516,"name":"THIRDPIERCE","steam_id":76561198405366314,"connected_time":703000000000,"state":"active","ping":81},{"user_id":517,"name":"vivi","steam_id":76561199027530775,"connected_time":694000000000,"state":"active","ping":107},{"user_id":478,"name":"Tactical Flatulence","steam_id":76561197999581730,"connected_time":2836000000000,"state":"active","ping":172},{"user_id":518,"name":"Hifumi Togo","steam_id":76561198074930636,"connected_time":612000000000,"state":"active","ping":42},{"user_id":501,"name":"The Canadian Femboy","steam_id":76561199198397328,"connected_time":1693000000000,"state":"active","ping":66},{"user_id":519,"name":"Slashes","steam_id":76561197968573499,"connected_time":574000000000,"state":"active","ping":54},{"user_id":468,"name":"Tito","steam_id":76561198041702529,"connected_time":3568000000000,"state":"active","ping":107},{"user_id":470,"name":"Kero","steam_id":76561198343231436,"connected_time":3497000000000,"state":"active","ping":60},{"user_id":520,"name":"Communist Killing Candy Cactus\ufffd","steam_id":76561198074980635,"connected_time":495000000000,"state":"active","ping":122},{"user_id":521,"name":"moe","steam_id":76561198929586245,"connected_time":488000000000,"state":"active","ping":92},{"user_id":420,"name":"Lane","steam_id":76561197965828506,"connected_time":6512000000000,"state":"active","ping":43},{"user_id":508,"name":"Antknee","steam_id":76561198263793809,"connected_time":1439000000000,"state":"active","ping":75},{"user_id":489,"name":"Nayru","steam_id":76561199088789298,"connected_time":2392000000000,"state":"active","ping":87},{"user_id":445,"name":"This Is My Gank Face!!","steam_id":76561198010239571,"connected_time":4989000000000,"state":"active","ping":81},{"user_id":510,"name":"Lore","steam_id":76561198098407538,"connected_time":1051000000000,"state":"active","ping":59},{"user_id":485,"name":"Cocksneed Fartin","steam_id":76561198126675787,"connected_time":2534000000000,"state":"active","ping":111},{"user_id":486,"name":"Joe Grumbo","steam_id":76561198048485190,"connected_time":2526000000000,"state":"active","ping":74},{"user_id":492,"name":"❤Blunt.Babe420❤","steam_id":76561199014055970,"connected_time":2321000000000,"state":"active","ping":57},{"user_id":503,"name":"Krellah","steam_id":76561198287045069,"connected_time":1665000000000,"state":"active","ping":62},{"user_id":512,"name":"|WS| Don't_Taze_Me_Bro","steam_id":76561198043289495,"connected_time":1036000000000,"state":"active","ping":72}]},{"server_id":38,"name":"Uncletopia | Chicago | 7 | Stopwatch Beta","name_short":"chi-7","host":"chi-2.us.uncletopia.com","port":27035,"enabled":true,"region":"us-central","cc":"us","latitude":41.881832,"longitude":-87.62318,"reserved":0,"last_update":"0001-01-01T00:00:00Z","name_a2s":"Uncletopia | Chicago | 7 | Stopwatch Beta","protocol":17,"map":"pl_upward","folder":"tf","game":"Team Fortress","app_id":440,"player_count":0,"max_players":24,"Bots":0,"server_type":"Dedicated","server_os":"Linux","password":true,"vac":true,"version":"7757534","steam_id":85568392924866364,"keywords":["nocrits","nodmgspread","payload","uncletopia"],"game_id":440,"stv_port":27036,"stv_name":"Uncletopia | Chicago | 7 | Stopwatch Beta | STV","players":null},{"server_id":39,"name":"Uncletopia | Chicago | 8 | Community","name_short":"chi-8","host":"chi-2.us.uncletopia.com","port":27045,"enabled":true,"region":"us-central","cc":"us","latitude":41.881832,"longitude":-87.62318,"reserved":0,"last_update":"0001-01-01T00:00:00Z","name_a2s":"Uncletopia | Chicago | 8 | Community","protocol":17,"map":"workshop/cp_snowbase_b18.ugc2081770490","folder":"tf","game":"Team Fortress","app_id":440,"player_count":0,"max_players":24,"Bots":0,"server_type":"Dedicated","server_os":"Linux","password":true,"vac":true,"version":"7757534","steam_id":85568392924866365,"keywords":["cp","nocrits","nodmgspread","uncletopia"],"game_id":440,"stv_port":27046,"stv_name":"Uncletopia | Chicago | 8 | Community | STV","players":null},{"server_id":8,"name":"Uncletopia | Dallas | 1 | All Maps","name_short":"dal-1","host":"dal-1.us.uncletopia.com","port":27015,"enabled":true,"region":"us-central","cc":"us","latitude":32.779167,"longitude":-96.80889,"reserved":0,"last_update":"0001-01-01T00:00:00Z","name_a2s":"Uncletopia | Dallas | 1 | All Maps","protocol":17,"map":"cp_steel","folder":"tf","game":"Team Fortress","app_id":440,"player_count":0,"max_players":24,"Bots":0,"server_type":"Dedicated","server_os":"Linux","password":true,"vac":true,"version":"7757534","steam_id":85568392924469986,"keywords":["cp","nocrits","nodmgspread","uncletopia"],"game_id":440,"stv_port":27016,"stv_name":"Uncletopia | Dallas | 1 | All Maps | STV","players":null},{"server_id":108,"name":"Uncletopia | Dallas | 2 | All Maps","name_short":"dal-2","host":"dal-1.us.uncletopia.com","port":27025,"enabled":true,"region":"us-central","cc":"us","latitude":32.779167,"longitude":-96.80889,"reserved":0,"last_update":"0001-01-01T00:00:00Z","name_a2s":"Uncletopia | Dallas | 2 | All Maps","protocol":17,"map":"koth_cascade","folder":"tf","game":"Team Fortress","app_id":440,"player_count":0,"max_players":24,"Bots":0,"server_type":"Dedicated","server_os":"Linux","password":true,"vac":true,"version":"7757534","steam_id":85568392924469988,"keywords":["cp","nocrits","nodmgspread","uncletopia"],"game_id":440,"stv_port":27026,"stv_name":"Uncletopia | Dallas | 2 | All Maps | STV","players":null},{"server_id":5,"name":"Uncletopia | Frankfurt | 1 | All Maps","name_short":"frk-1","host":"frk-1.de.uncletopia.com","port":27015,"enabled":true,"region":"eu","cc":"de","latitude":50.110924,"longitude":8.682127,"reserved":0,"last_update":"0001-01-01T00:00:00Z","name_a2s":"Uncletopia | Frankfurt | 1 | All Maps","protocol":17,"map":"koth_highpass","folder":"tf","game":"Team Fortress","app_id":440,"player_count":0,"max_players":24,"Bots":0,"server_type":"Dedicated","server_os":"Linux","password":true,"vac":true,"version":"7757534","steam_id":85568392924469989,"keywords":["cp","nocrits","nodmgspread","uncletopia"],"game_id":440,"stv_port":27016,"stv_name":"Uncletopia | Frankfurt | 1 | All Maps | STV","players":null},{"server_id":110,"name":"Uncletopia | Frankfurt | 2 | All Maps","name_short":"frk-2","host":"frk-1.de.uncletopia.com","port":27025,"enabled":true,"region":"eu","cc":"de","latitude":50.110924,"longitude":8.682127,"reserved":0,"last_update":"0001-01-01T00:00:00Z","name_a2s":"Uncletopia | Frankfurt | 2 | All Maps","protocol":17,"map":"pl_snowycoast","folder":"tf","game":"Team Fortress","app_id":440,"player_count":8,"max_players":24,"Bots":0,"server_type":"Dedicated","server_os":"Linux","password":true,"vac":true,"version":"7757534","steam_id":85568392924469990,"keywords":["nocrits","nodmgspread","payload","uncletopia"],"game_id":440,"stv_port":27026,"stv_name":"Uncletopia | Frankfurt | 2 | All Maps | STV","players":[{"user_id":3,"name":"estrogen deliver","steam_id":76561198190259726,"connected_time":846000000000,"state":"active","ping":76},{"user_id":4,"name":"fried","steam_id":76561198307522022,"connected_time":686000000000,"state":"active","ping":50},{"user_id":5,"name":"Ekstra","steam_id":76561199031147010,"connected_time":640000000000,"state":"active","ping":53},{"user_id":11,"name":"Fuvuk","steam_id":76561198044458593,"connected_time":42000000000,"state":"active","ping":91},{"user_id":7,"name":"Brinier","steam_id":76561199012604288,"connected_time":534000000000,"state":"active","ping":63},{"user_id":8,"name":"SantiThePug #ReviveTheCaber","steam_id":76561199049615996,"connected_time":226000000000,"state":"active","ping":68},{"user_id":9,"name":"Laki","steam_id":76561198126078953,"connected_time":223000000000,"state":"active","ping":101},{"user_id":12,"name":"963 frequency of gods","steam_id":76561199088506542,"connected_time":29000000000,"state":"active","ping":45}]},{"server_id":308,"name":"Uncletopia | Frankfurt | 3 | All Maps","name_short":"frk-3","host":"frk-1.de.uncletopia.com","port":27035,"enabled":true,"region":"eu","cc":"de","latitude":50.110924,"longitude":8.682127,"reserved":0,"last_update":"0001-01-01T00:00:00Z","name_a2s":"Uncletopia | Frankfurt | 3 | All Maps","protocol":17,"map":"cp_altitude","folder":"tf","game":"Team Fortress","app_id":440,"player_count":0,"max_players":24,"Bots":0,"server_type":"Dedicated","server_os":"Linux","password":true,"vac":true,"version":"7757534","steam_id":85568392924504274,"keywords":["cp","nocrits","nodmgspread","uncletopia"],"game_id":440,"stv_port":27036,"stv_name":"Uncletopia | Frankfurt | 3 | All Maps | STV","players":null},{"server_id":309,"name":"Uncletopia | Frankfurt | 4 | All Maps","name_short":"frk-4","host":"frk-1.de.uncletopia.com","port":27045,"enabled":true,"region":"eu","cc":"de","latitude":50.110924,"longitude":8.682127,"reserved":0,"last_update":"0001-01-01T00:00:00Z","name_a2s":"Uncletopia | Frankfurt | 4 | All Maps","protocol":17,"map":"cp_altitude","folder":"tf","game":"Team Fortress","app_id":440,"player_count":0,"max_players":24,"Bots":0,"server_type":"Dedicated","server_os":"Linux","password":true,"vac":true,"version":"7757534","steam_id":85568392924504275,"keywords":["cp","nocrits","nodmgspread","uncletopia"],"game_id":440,"stv_port":27046,"stv_name":"Uncletopia | Frankfurt | 4 | All Maps | STV","players":null},{"server_id":310,"name":"Uncletopia | Frankfurt | 5 | All Maps","name_short":"frk-5","host":"frk-1.de.uncletopia.com","port":27055,"enabled":true,"region":"eu","cc":"de","latitude":50.110924,"longitude":8.682127,"reserved":0,"last_update":"0001-01-01T00:00:00Z","name_a2s":"Uncletopia | Frankfurt | 5 | All Maps","protocol":17,"map":"pl_frontier_final","folder":"tf","game":"Team Fortress","app_id":440,"player_count":0,"max_players":24,"Bots":0,"server_type":"Dedicated","server_os":"Linux","password":true,"vac":true,"version":"7757534","steam_id":85568392924504277,"keywords":["nocrits","nodmgspread","payload","uncletopia"],"game_id":440,"stv_port":27056,"stv_name":"Uncletopia | Frankfurt | 5 | All Maps | STV","players":null},{"server_id":311,"name":"Uncletopia | Frankfurt | 6 | All Maps","name_short":"frk-6","host":"frk-1.de.uncletopia.com","port":27065,"enabled":true,"region":"eu","cc":"de","latitude":50.110924,"longitude":8.682127,"reserved":0,"last_update":"0001-01-01T00:00:00Z","name_a2s":"Uncletopia | Frankfurt | 6 | All Maps","protocol":17,"map":"koth_highpass","folder":"tf","game":"Team Fortress","app_id":440,"player_count":0,"max_players":24,"Bots":0,"server_type":"Dedicated","server_os":"Linux","password":true,"vac":true,"version":"7757534","steam_id":85568392924504278,"keywords":["cp","nocrits","nodmgspread","uncletopia"],"game_id":440,"stv_port":27066,"stv_name":"Uncletopia | Frankfurt | 6 | All Maps | STV","players":null},{"server_id":23,"name":"Uncletopia | Frankfurt | 7 | Stopwatch Beta","name_short":"frk-7","host":"frk-1.de.uncletopia.com","port":27075,"enabled":true,"region":"eu","cc":"de","latitude":50.110924,"longitude":8.682127,"reserved":0,"last_update":"0001-01-01T00:00:00Z","name_a2s":"Uncletopia | Frankfurt | 7 | Stopwatch Beta","protocol":17,"map":"pl_frontier_final","folder":"tf","game":"Team Fortress","app_id":440,"player_count":0,"max_players":24,"Bots":0,"server_type":"Dedicated","server_os":"Linux","password":true,"vac":true,"version":"7757534","steam_id":85568392924742827,"keywords":["nocrits","nodmgspread","payload","uncletopia"],"game_id":440,"stv_port":27076,"stv_name":"Uncletopia | Frankfurt | 7 | Stopwatch Beta | STV","players":null},{"server_id":24,"name":"Uncletopia | Frankfurt | 8 | Community","name_short":"frk-8","host":"frk-1.de.uncletopia.com","port":27085,"enabled":true,"region":"eu","cc":"de","latitude":50.110924,"longitude":8.682127,"reserved":0,"last_update":"0001-01-01T00:00:00Z","name_a2s":"Uncletopia | Frankfurt | 8 | Community","protocol":17,"map":"pl_badwater","folder":"tf","game":"Team Fortress","app_id":440,"player_count":0,"max_players":24,"Bots":0,"server_type":"Dedicated","server_os":"Linux","password":true,"vac":true,"version":"7757534","steam_id":85568392924742828,"keywords":["nocrits","nodmgspread","payload","uncletopia"],"game_id":440,"stv_port":27086,"stv_name":"Uncletopia | Frankfurt | 8 | Community | STV","players":null},{"server_id":202,"name":"Uncletopia | Hong Kong | 1 | All Maps","name_short":"hgk-1","host":"hgk-1.hk.uncletopia.com","port":27015,"enabled":true,"region":"asia","cc":"hk","latitude":22.302711,"longitude":114.177216,"reserved":0,"last_update":"0001-01-01T00:00:00Z","name_a2s":"Uncletopia | Hong Kong | 1 | All Maps","protocol":17,"map":"pl_upward","folder":"tf","game":"Team Fortress","app_id":440,"player_count":24,"max_players":24,"Bots":0,"server_type":"Dedicated","server_os":"Linux","password":true,"vac":true,"version":"7757534","steam_id":85568392924494504,"keywords":["nocrits","nodmgspread","payload","uncletopia"],"game_id":440,"stv_port":27016,"stv_name":"Uncletopia | Hong Kong | 1 | All Maps | STV","players":[{"user_id":211,"name":"water tastes good","steam_id":76561199375947670,"connected_time":5555000000000,"state":"active","ping":75},{"user_id":258,"name":"momosneakeradventure","steam_id":76561199046440440,"connected_time":1537000000000,"state":"active","ping":41},{"user_id":272,"name":"Kairos","steam_id":76561198079927520,"connected_time":828000000000,"state":"active","ping":41},{"user_id":273,"name":"Frog","steam_id":76561198409380406,"connected_time":751000000000,"state":"active","ping":106},{"user_id":233,"name":"Rephex","steam_id":76561198308185574,"connected_time":4551000000000,"state":"active","ping":133},{"user_id":260,"name":"spinach (new mouse)","steam_id":76561198042539541,"connected_time":1519000000000,"state":"active","ping":77},{"user_id":261,"name":"Windmill","steam_id":76561199230997986,"connected_time":1479000000000,"state":"active","ping":81},{"user_id":262,"name":". ᴗ.","steam_id":76561198208632261,"connected_time":1456000000000,"state":"active","ping":38},{"user_id":263,"name":"can we get much higher","steam_id":76561199390507975,"connected_time":1237000000000,"state":"active","ping":56},{"user_id":194,"name":"uptriste","steam_id":76561198158666692,"connected_time":8054000000000,"state":"active","ping":45},{"user_id":79,"name":"煙海 | Enkai","steam_id":76561198050460825,"connected_time":15227000000000,"state":"active","ping":78},{"user_id":212,"name":"Male Detected!","steam_id":76561199082459598,"connected_time":5259000000000,"state":"active","ping":89},{"user_id":269,"name":"Pizza_Jammies1345","steam_id":76561199228950246,"connected_time":936000000000,"state":"active","ping":169},{"user_id":276,"name":"Rebecca, EdgeRunner","steam_id":76561199023086791,"connected_time":553000000000,"state":"active","ping":59},{"user_id":271,"name":"gunshpee","steam_id":76561198834445483,"connected_time":859000000000,"state":"active","ping":58},{"user_id":183,"name":"母の肉団子@hao123.com","steam_id":76561198069561896,"connected_time":8887000000000,"state":"active","ping":43},{"user_id":266,"name":"Momoxhien","steam_id":76561198414997429,"connected_time":1151000000000,"state":"active","ping":57},{"user_id":226,"name":"Shinobimono","steam_id":76561198343322788,"connected_time":4724000000000,"state":"active","ping":137},{"user_id":234,"name":"Pisces","steam_id":76561198429887240,"connected_time":4514000000000,"state":"active","ping":72},{"user_id":215,"name":"Michael Scott","steam_id":76561198023082794,"connected_time":5062000000000,"state":"active","ping":57},{"user_id":243,"name":"Shivering Ice","steam_id":76561198101080156,"connected_time":3628000000000,"state":"active","ping":90},{"user_id":248,"name":"Phou","steam_id":76561198322136756,"connected_time":2771000000000,"state":"active","ping":91},{"user_id":202,"name":"Mega 00F","steam_id":76561198962485791,"connected_time":6866000000000,"state":"active","ping":129},{"user_id":222,"name":"Doormann","steam_id":76561199219230108,"connected_time":4784000000000,"state":"active","ping":74}]},{"server_id":1,"name":"Uncletopia | Los Angeles | 1 | All Maps","name_short":"lax-1","host":"lax-1.us.uncletopia.com","port":27015,"enabled":true,"region":"us-west","cc":"us","latitude":33.94279,"longitude":-118.41004,"reserved":0,"last_update":"0001-01-01T00:00:00Z","name_a2s":"Uncletopia | Los Angeles | 1 | All Maps","protocol":17,"map":"pl_snowycoast","folder":"tf","game":"Team Fortress","app_id":440,"player_count":24,"max_players":24,"Bots":0,"server_type":"Dedicated","server_os":"Linux","password":true,"vac":true,"version":"7757534","steam_id":85568392924469991,"keywords":["nocrits","nodmgspread","payload","uncletopia"],"game_id":440,"stv_port":27016,"stv_name":"Uncletopia | Los Angeles | 1 | All Maps | STV","players":[{"user_id":613,"name":"dash23™","steam_id":76561198314951185,"connected_time":375000000000,"state":"active","ping":79},{"user_id":628,"name":"Slippery","steam_id":76561199469441947,"connected_time":98000000000,"state":"active","ping":107},{"user_id":611,"name":"I miss a lot","steam_id":76561198185322979,"connected_time":492000000000,"state":"active","ping":169},{"user_id":614,"name":"Sir Galahad","steam_id":76561198195999859,"connected_time":363000000000,"state":"active","ping":82},{"user_id":612,"name":"bavzeed275","steam_id":76561199240218335,"connected_time":432000000000,"state":"active","ping":74},{"user_id":615,"name":"Barn.Jones1992","steam_id":76561198197981309,"connected_time":346000000000,"state":"active","ping":52},{"user_id":593,"name":"sniffy","steam_id":76561198184933255,"connected_time":1697000000000,"state":"active","ping":55},{"user_id":555,"name":"yamme","steam_id":76561198117849124,"connected_time":5056000000000,"state":"active","ping":47},{"user_id":622,"name":"one loud Honk","steam_id":76561198072502345,"connected_time":216000000000,"state":"active","ping":66},{"user_id":617,"name":"Kaluka","steam_id":76561198036861445,"connected_time":308000000000,"state":"active","ping":108},{"user_id":618,"name":"Rock Kickass","steam_id":76561198450510841,"connected_time":292000000000,"state":"active","ping":82},{"user_id":551,"name":"rmbl","steam_id":76561198150137369,"connected_time":5250000000000,"state":"active","ping":55},{"user_id":550,"name":"Hindmost","steam_id":76561199081837220,"connected_time":5433000000000,"state":"active","ping":98},{"user_id":619,"name":"BubbaGrump","steam_id":76561198044015857,"connected_time":283000000000,"state":"active","ping":67},{"user_id":620,"name":"Oober Jackalope","steam_id":76561198285747760,"connected_time":273000000000,"state":"active","ping":101},{"user_id":624,"name":"murph","steam_id":76561197973805634,"connected_time":173000000000,"state":"active","ping":62},{"user_id":539,"name":"Perididdle","steam_id":76561198056864606,"connected_time":6152000000000,"state":"active","ping":83},{"user_id":610,"name":"hotdogs in paris","steam_id":76561198046073848,"connected_time":574000000000,"state":"active","ping":69},{"user_id":625,"name":"Salt and Fries","steam_id":76561198102272728,"connected_time":151000000000,"state":"active","ping":45},{"user_id":605,"name":"NW","steam_id":76561199092907535,"connected_time":1023000000000,"state":"active","ping":97},{"user_id":602,"name":"Biznickel","steam_id":76561199422511230,"connected_time":1284000000000,"state":"active","ping":76},{"user_id":579,"name":"Wso1123","steam_id":76561198048040111,"connected_time":2249000000000,"state":"active","ping":61},{"user_id":627,"name":"Sokol","steam_id":76561198110327956,"connected_time":115000000000,"state":"active","ping":57},{"user_id":607,"name":"fulices","steam_id":76561198420163702,"connected_time":968000000000,"state":"active","ping":45}]},{"server_id":112,"name":"Uncletopia | Los Angeles | 2 | All Maps","name_short":"lax-2","host":"lax-1.us.uncletopia.com","port":27025,"enabled":true,"region":"us-west","cc":"us","latitude":33.94279,"longitude":-118.41004,"reserved":0,"last_update":"0001-01-01T00:00:00Z","name_a2s":"Uncletopia | Los Angeles | 2 | All Maps","protocol":17,"map":"pl_barnblitz","folder":"tf","game":"Team Fortress","app_id":440,"player_count":6,"max_players":24,"Bots":0,"server_type":"Dedicated","server_os":"Linux","password":true,"vac":true,"version":"7757534","steam_id":85568392924469992,"keywords":["nocrits","nodmgspread","payload","uncletopia"],"game_id":440,"stv_port":27026,"stv_name":"Uncletopia | Los Angeles | 2 | All Maps | STV","players":[{"user_id":547,"name":"Festive Bastard","steam_id":76561198094512904,"connected_time":1617000000000,"state":"active","ping":69},{"user_id":549,"name":"Room","steam_id":76561199174579733,"connected_time":991000000000,"state":"active","ping":113},{"user_id":545,"name":"Chillin Turt","steam_id":76561198025796849,"connected_time":1867000000000,"state":"active","ping":92},{"user_id":552,"name":"tideko","steam_id":76561199057677888,"connected_time":59000000000,"state":"active","ping":91},{"user_id":546,"name":"name420","steam_id":76561198129374525,"connected_time":1862000000000,"state":"active","ping":93},{"user_id":529,"name":"bash -lc ./asshat.sh","steam_id":76561198004584315,"connected_time":2607000000000,"state":"active","ping":90}]},{"server_id":324,"name":"Uncletopia | Los Angeles | 3 | All Maps","name_short":"lax-3","host":"lax-1.us.uncletopia.com","port":27035,"enabled":true,"region":"us-west","cc":"us","latitude":33.94279,"longitude":-118.41004,"reserved":0,"last_update":"0001-01-01T00:00:00Z","name_a2s":"Uncletopia | Los Angeles | 3 | All Maps","protocol":17,"map":"koth_highpass","folder":"tf","game":"Team Fortress","app_id":440,"player_count":0,"max_players":24,"Bots":0,"server_type":"Dedicated","server_os":"Linux","password":true,"vac":true,"version":"7757534","steam_id":85568392924510198,"keywords":["cp","nocrits","nodmgspread","uncletopia"],"game_id":440,"stv_port":27036,"stv_name":"Uncletopia | Los Angeles | 3 | All Maps | STV","players":null},{"server_id":25,"name":"Uncletopia | Los Angeles | 4 | Stopwatch Beta","name_short":"lax-4","host":"lax-1.us.uncletopia.com","port":27045,"enabled":true,"region":"us-west","cc":"us","latitude":33.94279,"longitude":-118.41004,"reserved":0,"last_update":"0001-01-01T00:00:00Z","name_a2s":"Uncletopia | Los Angeles | 4 | Stopwatch Beta","protocol":17,"map":"pl_frontier_final","folder":"tf","game":"Team Fortress","app_id":440,"player_count":0,"max_players":24,"Bots":0,"server_type":"Dedicated","server_os":"Linux","password":true,"vac":true,"version":"7757534","steam_id":85568392924510199,"keywords":["nocrits","nodmgspread","payload","uncletopia"],"game_id":440,"stv_port":27046,"stv_name":"Uncletopia | Los Angeles | 4 | Stopwatch Beta | STV","players":null},{"server_id":11,"name":"Uncletopia | London | 1 | All Maps","name_short":"lon-1","host":"lon-1.uk.uncletopia.com","port":27015,"enabled":true,"region":"eu","cc":"gb","latitude":51.509865,"longitude":-0.118092,"reserved":0,"last_update":"0001-01-01T00:00:00Z","name_a2s":"Uncletopia | London | 1 | All Maps","protocol":17,"map":"pl_barnblitz","folder":"tf","game":"Team Fortress","app_id":440,"player_count":24,"max_players":24,"Bots":0,"server_type":"Dedicated","server_os":"Linux","password":true,"vac":true,"version":"7757534","steam_id":85568392924367362,"keywords":["nocrits","nodmgspread","payload","uncletopia"],"game_id":440,"stv_port":27016,"stv_name":"Uncletopia | London | 1 | All Maps | STV","players":[{"user_id":38,"name":"Verculum","steam_id":76561198894912634,"connected_time":1621000000000,"state":"active","ping":124},{"user_id":57,"name":"The Wolf Leader","steam_id":76561198038007462,"connected_time":560000000000,"state":"active","ping":81},{"user_id":6,"name":"Sneaky boi","steam_id":76561199195985387,"connected_time":3118000000000,"state":"active","ping":88},{"user_id":49,"name":"remove trains","steam_id":76561199433578516,"connected_time":792000000000,"state":"active","ping":90},{"user_id":50,"name":"aura","steam_id":76561197991687793,"connected_time":792000000000,"state":"active","ping":74},{"user_id":9,"name":"r06u3","steam_id":76561198254099253,"connected_time":2981000000000,"state":"active","ping":187},{"user_id":16,"name":"BONK-TEC!","steam_id":76561198272667029,"connected_time":2622000000000,"state":"active","ping":52},{"user_id":11,"name":"Robin ★","steam_id":76561198124355408,"connected_time":2920000000000,"state":"active","ping":107},{"user_id":55,"name":"Hadmund Gaming","steam_id":76561198119454822,"connected_time":678000000000,"state":"active","ping":77},{"user_id":13,"name":"Guru","steam_id":76561198093853069,"connected_time":2827000000000,"state":"active","ping":69},{"user_id":14,"name":"Slow Mode","steam_id":76561199414716848,"connected_time":2771000000000,"state":"active","ping":75},{"user_id":15,"name":"Ｍａｃｉｎｔｏｓｈ","steam_id":76561198074294565,"connected_time":2735000000000,"state":"active","ping":86},{"user_id":51,"name":"ChrisMightShootYou (f2p)","steam_id":76561199002764196,"connected_time":779000000000,"state":"active","ping":100},{"user_id":42,"name":"KRVVC","steam_id":76561198052426266,"connected_time":1272000000000,"state":"active","ping":90},{"user_id":19,"name":"murderwow","steam_id":76561198024566944,"connected_time":2518000000000,"state":"active","ping":114},{"user_id":58,"name":"hellrunner","steam_id":76561198205309695,"connected_time":49000000000,"state":"active","ping":95},{"user_id":59,"name":"naleksi","steam_id":76561198018391055,"connected_time":36000000000,"state":"active","ping":93},{"user_id":28,"name":"Commander DM","steam_id":76561198059236770,"connected_time":2141000000000,"state":"active","ping":87},{"user_id":26,"name":"-gunripp0r^be / Obelix^","steam_id":76561197999306879,"connected_time":2242000000000,"state":"active","ping":105},{"user_id":31,"name":"hellbound","steam_id":76561198160562773,"connected_time":1955000000000,"state":"active","ping":89},{"user_id":56,"name":"XeniasPimp","steam_id":76561198126398022,"connected_time":678000000000,"state":"active","ping":85},{"user_id":36,"name":"ciliorkun18","steam_id":76561198228942500,"connected_time":1685000000000,"state":"active","ping":98},{"user_id":39,"name":"Larso","steam_id":76561198996464912,"connected_time":1618000000000,"state":"active","ping":77},{"user_id":40,"name":"Maxy Luck","steam_id":76561199009583144,"connected_time":1546000000000,"state":"active","ping":119}]},{"server_id":114,"name":"Uncletopia | London | 2 | All Maps","name_short":"lon-2","host":"lon-1.uk.uncletopia.com","port":27025,"enabled":true,"region":"eu","cc":"gb","latitude":51.509865,"longitude":-0.118092,"reserved":0,"last_update":"0001-01-01T00:00:00Z","name_a2s":"Uncletopia | London | 2 | All Maps","protocol":17,"map":"cp_snakewater_final1","folder":"tf","game":"Team Fortress","app_id":440,"player_count":0,"max_players":24,"Bots":0,"server_type":"Dedicated","server_os":"Linux","password":true,"vac":true,"version":"7757534","steam_id":85568392924470941,"keywords":["cp","nocrits","nodmgspread","uncletopia"],"game_id":440,"stv_port":27026,"stv_name":"Uncletopia | London | 2 | All Maps | STV","players":null},{"server_id":320,"name":"Uncletopia | London | 3 | All Maps","name_short":"lon-3","host":"lon-1.uk.uncletopia.com","port":27035,"enabled":true,"region":"eu","cc":"gb","latitude":51.509865,"longitude":-0.118092,"reserved":0,"last_update":"0001-01-01T00:00:00Z","name_a2s":"Uncletopia | London | 3 | All Maps","protocol":17,"map":"pl_badwater","folder":"tf","game":"Team Fortress","app_id":440,"player_count":0,"max_players":24,"Bots":0,"server_type":"Dedicated","server_os":"Linux","password":true,"vac":true,"version":"7757534","steam_id":85568392924510192,"keywords":["nocrits","nodmgspread","payload","uncletopia"],"game_id":440,"stv_port":27036,"stv_name":"Uncletopia | London | 3 | All Maps | STV","players":null},{"server_id":321,"name":"Uncletopia | London | 4 | All Maps","name_short":"lon-4","host":"lon-1.uk.uncletopia.com","port":27045,"enabled":true,"region":"eu","cc":"gb","latitude":51.509865,"longitude":-0.118092,"reserved":0,"last_update":"0001-01-01T00:00:00Z","name_a2s":"Uncletopia | London | 4 | All Maps","protocol":17,"map":"koth_viaduct","folder":"tf","game":"Team Fortress","app_id":440,"player_count":0,"max_players":24,"Bots":0,"server_type":"Dedicated","server_os":"Linux","password":true,"vac":true,"version":"7757534","steam_id":85568392924510193,"keywords":["cp","nocrits","nodmgspread","uncletopia"],"game_id":440,"stv_port":27046,"stv_name":"Uncletopia | London | 4 | All Maps | STV","players":null},{"server_id":21,"name":"Uncletopia | London | 5 | All Maps","name_short":"lon-5","host":"lon-1.uk.uncletopia.com","port":27055,"enabled":true,"region":"eu","cc":"gb","latitude":51.509865,"longitude":-0.118092,"reserved":0,"last_update":"0001-01-01T00:00:00Z","name_a2s":"Uncletopia | London | 5 | All Maps","protocol":17,"map":"cp_snakewater_final1","folder":"tf","game":"Team Fortress","app_id":440,"player_count":0,"max_players":24,"Bots":0,"server_type":"Dedicated","server_os":"Linux","password":true,"vac":true,"version":"7757534","steam_id":85568392924742829,"keywords":["cp","nocrits","nodmgspread","uncletopia"],"game_id":440,"stv_port":27056,"stv_name":"Uncletopia | London | 5 | All Maps | STV","players":null},{"server_id":22,"name":"Uncletopia | London | 6 | All Maps","name_short":"lon-6","host":"lon-1.uk.uncletopia.com","port":27065,"enabled":true,"region":"eu","cc":"gb","latitude":51.509865,"longitude":-0.118092,"reserved":0,"last_update":"0001-01-01T00:00:00Z","name_a2s":"Uncletopia | London | 6 | All Maps","protocol":17,"map":"koth_cascade","folder":"tf","game":"Team Fortress","app_id":440,"player_count":0,"max_players":24,"Bots":0,"server_type":"Dedicated","server_os":"Linux","password":true,"vac":true,"version":"7757534","steam_id":85568392924742830,"keywords":["cp","nocrits","nodmgspread","uncletopia"],"game_id":440,"stv_port":27066,"stv_name":"Uncletopia | London | 6 | All Maps | STV","players":null},{"server_id":40,"name":"Uncletopia | London | 7 | No Payload","name_short":"lon-7","host":"lon-1.uk.uncletopia.com","port":27075,"enabled":true,"region":"eu","cc":"gb","latitude":51.509865,"longitude":-0.118092,"reserved":0,"last_update":"0001-01-01T00:00:00Z","name_a2s":"Uncletopia | London | 7 | No Payload","protocol":17,"map":"cp_process_final","folder":"tf","game":"Team Fortress","app_id":440,"player_count":0,"max_players":24,"Bots":0,"server_type":"Dedicated","server_os":"Linux","password":true,"vac":true,"version":"7757534","steam_id":85568392924964314,"keywords":["cp","nocrits","nodmgspread","uncletopia"],"game_id":440,"stv_port":27076,"stv_name":"Uncletopia | London | 7 | No Payload | STV","players":null},{"server_id":41,"name":"Uncletopia | London | 8 | Community","name_short":"lon-8","host":"lon-1.uk.uncletopia.com","port":27085,"enabled":true,"region":"eu","cc":"gb","latitude":51.509865,"longitude":-0.118092,"reserved":0,"last_update":"0001-01-01T00:00:00Z","name_a2s":"Uncletopia | London | 8 | Community","protocol":17,"map":"pl_upward","folder":"tf","game":"Team Fortress","app_id":440,"player_count":0,"max_players":24,"Bots":0,"server_type":"Dedicated","server_os":"Linux","password":true,"vac":true,"version":"7757534","steam_id":85568392924964315,"keywords":["nocrits","nodmgspread","payload","uncletopia"],"game_id":440,"stv_port":27086,"stv_name":"Uncletopia | London | 8 | Community | STV","players":null},{"server_id":300,"name":"Uncletopia | Montréal | 1 | All Maps","name_short":"mtl-1","host":"mtl-1.ca.uncletopia.com","port":27015,"enabled":true,"region":"us-east","cc":"ca","latitude":45.50889,"longitude":-73.56167,"reserved":0,"last_update":"0001-01-01T00:00:00Z","name_a2s":"Uncletopia | Montréal | 1 | All Maps","protocol":17,"map":"koth_lakeside_final","folder":"tf","game":"Team Fortress","app_id":440,"player_count":0,"max_players":24,"Bots":0,"server_type":"Dedicated","server_os":"Linux","password":true,"vac":true,"version":"7757534","steam_id":85568392924500087,"keywords":["cp","nocrits","nodmgspread","uncletopia"],"game_id":440,"stv_port":27016,"stv_name":"Uncletopia | Montréal | 1 | All Maps | STV","players":null},{"server_id":301,"name":"Uncletopia | Montréal | 2 | All Maps","name_short":"mtl-2","host":"mtl-1.ca.uncletopia.com","port":27025,"enabled":true,"region":"us-east","cc":"ca","latitude":45.50889,"longitude":-73.56167,"reserved":0,"last_update":"0001-01-01T00:00:00Z","name_a2s":"Uncletopia | Montréal | 2 | All Maps","protocol":17,"map":"pl_pier","folder":"tf","game":"Team Fortress","app_id":440,"player_count":0,"max_players":24,"Bots":0,"server_type":"Dedicated","server_os":"Linux","password":true,"vac":true,"version":"7757534","steam_id":85568392924500088,"keywords":["nocrits","nodmgspread","payload","uncletopia"],"game_id":440,"stv_port":27026,"stv_name":"Uncletopia | Montréal | 2 | All Maps | STV","players":null},{"server_id":302,"name":"Uncletopia | Montréal | 3 | All Maps","name_short":"mtl-3","host":"mtl-1.ca.uncletopia.com","port":27035,"enabled":true,"region":"us-east","cc":"ca","latitude":45.50889,"longitude":-73.56167,"reserved":0,"last_update":"0001-01-01T00:00:00Z","name_a2s":"Uncletopia | Montréal | 3 | All Maps","protocol":17,"map":"pl_upward","folder":"tf","game":"Team Fortress","app_id":440,"player_count":0,"max_players":24,"Bots":0,"server_type":"Dedicated","server_os":"Linux","password":true,"vac":true,"version":"7757534","steam_id":85568392924500089,"keywords":["nocrits","nodmgspread","payload","uncletopia"],"game_id":440,"stv_port":27036,"stv_name":"Uncletopia | Montréal | 3 | All Maps | STV","players":null},{"server_id":303,"name":"Uncletopia | Montréal | 4 | No Payload","name_short":"mtl-4","host":"mtl-1.ca.uncletopia.com","port":27045,"enabled":true,"region":"us-east","cc":"ca","latitude":45.50889,"longitude":-73.56167,"reserved":0,"last_update":"0001-01-01T00:00:00Z","name_a2s":"Uncletopia | Montréal | 4 | No Payload","protocol":17,"map":"koth_viaduct","folder":"tf","game":"Team Fortress","app_id":440,"player_count":0,"max_players":24,"Bots":0,"server_type":"Dedicated","server_os":"Linux","password":true,"vac":true,"version":"7757534","steam_id":85568392924500090,"keywords":["cp","nocrits","nodmgspread","uncletopia"],"game_id":440,"stv_port":27046,"stv_name":"Uncletopia | Montréal | 4 | No Payload | STV","players":null},{"server_id":13,"name":"Uncletopia | New York City | 1 | All Maps","name_short":"nyc-1","host":"nyc-1.us.uncletopia.com","port":27015,"enabled":true,"region":"us-east","cc":"us","latitude":40.73061,"longitude":-73.93524,"reserved":0,"last_update":"0001-01-01T00:00:00Z","name_a2s":"Uncletopia | New York City | 1 | All Maps","protocol":17,"map":"cp_process_final","folder":"tf","game":"Team Fortress","app_id":440,"player_count":0,"max_players":24,"Bots":0,"server_type":"Dedicated","server_os":"Linux","password":true,"vac":true,"version":"7757534","steam_id":85568392924469993,"keywords":["cp","nocrits","nodmgspread","uncletopia"],"game_id":440,"stv_port":27016,"stv_name":"Uncletopia | New York City | 1 | All Maps | STV","players":null},{"server_id":14,"name":"Uncletopia | New York City | 2 | All Maps","name_short":"nyc-2","host":"nyc-1.us.uncletopia.com","port":27025,"enabled":true,"region":"us-east","cc":"us","latitude":40.73061,"longitude":-73.93524,"reserved":0,"last_update":"0001-01-01T00:00:00Z","name_a2s":"Uncletopia | New York City | 2 | All Maps","protocol":17,"map":"pl_borneo","folder":"tf","game":"Team Fortress","app_id":440,"player_count":22,"max_players":24,"Bots":0,"server_type":"Dedicated","server_os":"Linux","password":true,"vac":true,"version":"7757534","steam_id":85568392924469994,"keywords":["nocrits","nodmgspread","payload","uncletopia"],"game_id":440,"stv_port":27026,"stv_name":"Uncletopia | New York City | 2 | All Maps | STV","players":[{"user_id":543,"name":"The Demented Dr. Pussy","steam_id":76561198047557533,"connected_time":8494000000000,"state":"active","ping":59},{"user_id":585,"name":"judecunk","steam_id":76561198984505616,"connected_time":4012000000000,"state":"active","ping":133},{"user_id":607,"name":"Samsiel","steam_id":76561198094134951,"connected_time":897000000000,"state":"active","ping":92},{"user_id":558,"name":"Glitchy stick","steam_id":76561199013429386,"connected_time":6810000000000,"state":"active","ping":58},{"user_id":612,"name":"coconut","steam_id":76561198057136814,"connected_time":651000000000,"state":"active","ping":75},{"user_id":608,"name":"Rat Sushi","steam_id":76561198186589038,"connected_time":866000000000,"state":"active","ping":72},{"user_id":541,"name":"Little King Trash Mouth","steam_id":76561198241162728,"connected_time":9314000000000,"state":"active","ping":44},{"user_id":582,"name":"GhostCoffee","steam_id":76561198105228900,"connected_time":4267000000000,"state":"active","ping":33},{"user_id":594,"name":"Emily","steam_id":76561198323712841,"connected_time":2910000000000,"state":"active","ping":101},{"user_id":473,"name":"Landjrin","steam_id":76561198415410003,"connected_time":14613000000000,"state":"active","ping":112},{"user_id":617,"name":"Aristotle Voulton","steam_id":76561198100174923,"connected_time":395000000000,"state":"active","ping":92},{"user_id":573,"name":"roman","steam_id":76561198170066797,"connected_time":4745000000000,"state":"active","ping":59},{"user_id":618,"name":"Maxley","steam_id":76561198148602225,"connected_time":133000000000,"state":"active","ping":71},{"user_id":606,"name":"kefkja","steam_id":76561198283963218,"connected_time":1262000000000,"state":"active","ping":74},{"user_id":615,"name":"B    U    N    T    A","steam_id":76561198827726493,"connected_time":410000000000,"state":"active","ping":125},{"user_id":586,"name":"The Sauce Boss","steam_id":76561198056556496,"connected_time":3991000000000,"state":"active","ping":115},{"user_id":605,"name":"Emperor Dankatine","steam_id":76561198044741086,"connected_time":1487000000000,"state":"active","ping":104},{"user_id":616,"name":"Riske","steam_id":76561198115840568,"connected_time":407000000000,"state":"active","ping":63},{"user_id":611,"name":"PapaSpice","steam_id":76561198067328151,"connected_time":701000000000,"state":"active","ping":74},{"user_id":557,"name":"LordGooch","steam_id":76561198968335919,"connected_time":6841000000000,"state":"active","ping":114},{"user_id":556,"name":"flappyflap2","steam_id":76561198285048973,"connected_time":7180000000000,"state":"active","ping":41},{"user_id":610,"name":"ManicButtonMasher","steam_id":76561198026725131,"connected_time":743000000000,"state":"active","ping":101}]},{"server_id":15,"name":"Uncletopia | New York City | 3 | Stopwatch Beta","name_short":"nyc-3","host":"nyc-1.us.uncletopia.com","port":27035,"enabled":true,"region":"us-east","cc":"us","latitude":40.73061,"longitude":-73.93524,"reserved":0,"last_update":"0001-01-01T00:00:00Z","name_a2s":"Uncletopia | New York City | 3 | Stopwatch Beta","protocol":17,"map":"workshop/koth_ramjam_rc1.ugc459778887","folder":"tf","game":"Team Fortress","app_id":440,"player_count":0,"max_players":24,"Bots":0,"server_type":"Dedicated","server_os":"Linux","password":true,"vac":true,"version":"7757534","steam_id":85568392924742820,"keywords":["cp","nocrits","nodmgspread","uncletopia"],"game_id":440,"stv_port":27036,"stv_name":"Uncletopia | New York City | 3 | Stopwatch Beta | STV","players":null},{"server_id":16,"name":"Uncletopia | New York City | 4 | Community","name_short":"nyc-4","host":"nyc-1.us.uncletopia.com","port":27045,"enabled":true,"region":"us-east","cc":"us","latitude":40.73061,"longitude":-73.93524,"reserved":0,"last_update":"0001-01-01T00:00:00Z","name_a2s":"Uncletopia | New York City | 4 | Community","protocol":17,"map":"workshop/pl_divulgence_b4b.ugc2884808746","folder":"tf","game":"Team Fortress","app_id":440,"player_count":0,"max_players":24,"Bots":0,"server_type":"Dedicated","server_os":"Linux","password":true,"vac":true,"version":"7757534","steam_id":85568392924742821,"keywords":["nocrits","nodmgspread","payload","uncletopia"],"game_id":440,"stv_port":27046,"stv_name":"Uncletopia | New York City | 4 | Community | STV","players":null},{"server_id":142,"name":"Uncletopia | São Paulo | 1 | All Maps","name_short":"sao-1","host":"sao-1.br.uncletopia.com","port":27015,"enabled":true,"region":"sa","cc":"br","latitude":-23.533773,"longitude":-46.62529,"reserved":0,"last_update":"0001-01-01T00:00:00Z","name_a2s":"Uncletopia | São Paulo | 1 | All Maps","protocol":17,"map":"koth_viaduct","folder":"tf","game":"Team Fortress","app_id":440,"player_count":0,"max_players":24,"Bots":0,"server_type":"Dedicated","server_os":"Linux","password":true,"vac":true,"version":"7757534","steam_id":85568392924469996,"keywords":["cp","nocrits","nodmgspread","uncletopia"],"game_id":440,"stv_port":27016,"stv_name":"Uncletopia | São Paulo | 1 | All Maps | STV","players":null},{"server_id":143,"name":"Uncletopia | São Paulo | 2 | All Maps","name_short":"sao-2","host":"sao-2.br.uncletopia.com","port":27015,"enabled":true,"region":"sa","cc":"br","latitude":-23.533773,"longitude":-46.62529,"reserved":0,"last_update":"0001-01-01T00:00:00Z","name_a2s":"Uncletopia | São Paulo | 2 | All Maps","protocol":17,"map":"koth_lakeside_final","folder":"tf","game":"Team Fortress","app_id":440,"player_count":0,"max_players":24,"Bots":0,"server_type":"Dedicated","server_os":"Linux","password":true,"vac":true,"version":"7757534","steam_id":85568392924485349,"keywords":["cp","nocrits","nodmgspread","uncletopia"],"game_id":440,"stv_port":27016,"stv_name":"Uncletopia | São Paulo | 2 | All Maps | STV","players":null},{"server_id":7,"name":"Uncletopia | Seattle | 1 | All Maps","name_short":"sea-1","host":"sea-1.us.uncletopia.com","port":27015,"enabled":true,"region":"us-west","cc":"us","latitude":47.608013,"longitude":-122.33517,"reserved":0,"last_update":"0001-01-01T00:00:00Z","name_a2s":"Uncletopia | Seattle | 1 | All Maps","protocol":17,"map":"cp_altitude","folder":"tf","game":"Team Fortress","app_id":440,"player_count":25,"max_players":24,"Bots":0,"server_type":"Dedicated","server_os":"Linux","password":true,"vac":true,"version":"7757534","steam_id":85568392924469997,"keywords":["cp","nocrits","nodmgspread","uncletopia"],"game_id":440,"stv_port":27016,"stv_name":"Uncletopia | Seattle | 1 | All Maps | STV","players":[{"user_id":827,"name":"delight","steam_id":76561197980280272,"connected_time":1421000000000,"state":"active","ping":45},{"user_id":837,"name":"Wub","steam_id":76561198072947773,"connected_time":673000000000,"state":"active","ping":108},{"user_id":822,"name":"Sniff","steam_id":76561198010270922,"connected_time":2915000000000,"state":"active","ping":41},{"user_id":802,"name":"〣dust〣 -she/her-","steam_id":76561198045218909,"connected_time":5522000000000,"state":"active","ping":36},{"user_id":808,"name":"soup","steam_id":76561198043209046,"connected_time":4871000000000,"state":"active","ping":80},{"user_id":840,"name":"p9 dilf","steam_id":76561199041179985,"connected_time":98000000000,"state":"active","ping":59},{"user_id":757,"name":"Bryce Gobo","steam_id":76561199411560141,"connected_time":8889000000000,"state":"active","ping":46},{"user_id":839,"name":"monji","steam_id":76561198239598834,"connected_time":151000000000,"state":"active","ping":141},{"user_id":817,"name":"Sacrificial Wormy","steam_id":76561198054539200,"connected_time":3898000000000,"state":"active","ping":52},{"user_id":826,"name":"flishko","steam_id":76561198326489802,"connected_time":2340000000000,"state":"active","ping":54},{"user_id":717,"name":"Arsonist Goose","steam_id":76561198147441830,"connected_time":12336000000000,"state":"active","ping":74},{"user_id":829,"name":"strong and healthy gamer","steam_id":76561198049489349,"connected_time":1208000000000,"state":"active","ping":63},{"user_id":810,"name":"Closed.","steam_id":76561198212598967,"connected_time":4846000000000,"state":"active","ping":79},{"user_id":760,"name":"rorywashere /ᐠ - ˕ -マ Ⳋ","steam_id":76561198065825165,"connected_time":8863000000000,"state":"active","ping":122},{"user_id":704,"name":"rat gets the cheese","steam_id":76561198031234032,"connected_time":12857000000000,"state":"active","ping":93},{"user_id":830,"name":"lavender","steam_id":76561199069518286,"connected_time":728000000000,"state":"active","ping":74},{"user_id":815,"name":"squash","steam_id":76561198150281353,"connected_time":4075000000000,"state":"active","ping":58},{"user_id":833,"name":"Silver","steam_id":76561198071716025,"connected_time":712000000000,"state":"active","ping":65},{"user_id":789,"name":"Attrition","steam_id":76561197969881916,"connected_time":6675000000000,"state":"active","ping":59},{"user_id":824,"name":"Henchie!","steam_id":76561198047567464,"connected_time":2914000000000,"state":"active","ping":97},{"user_id":805,"name":"NEBULA","steam_id":76561198086878595,"connected_time":5337000000000,"state":"active","ping":75},{"user_id":820,"name":"shane","steam_id":76561198060491451,"connected_time":3845000000000,"state":"active","ping":89},{"user_id":755,"name":"Hassium","steam_id":76561198162541373,"connected_time":9250000000000,"state":"active","ping":59},{"user_id":835,"name":"ChuChu","steam_id":76561199443647976,"connected_time":712000000000,"state":"active","ping":97},{"user_id":836,"name":"grey","steam_id":76561198050618142,"connected_time":709000000000,"state":"active","ping":51}]},{"server_id":119,"name":"Uncletopia | Seattle | 2 | All Maps","name_short":"sea-2","host":"sea-1.us.uncletopia.com","port":27025,"enabled":true,"region":"us-west","cc":"us","latitude":47.608013,"longitude":-122.33517,"reserved":0,"last_update":"0001-01-01T00:00:00Z","name_a2s":"Uncletopia | Seattle | 2 | All Maps","protocol":17,"map":"cp_mercenarypark","folder":"tf","game":"Team Fortress","app_id":440,"player_count":9,"max_players":24,"Bots":0,"server_type":"Dedicated","server_os":"Linux","password":true,"vac":true,"version":"7757534","steam_id":85568392924469998,"keywords":["cp","nocrits","nodmgspread","uncletopia"],"game_id":440,"stv_port":27026,"stv_name":"Uncletopia | Seattle | 2 | All Maps | STV","players":[{"user_id":780,"name":"GordonFreemanJr","steam_id":76561198448957779,"connected_time":33000000000,"state":"active","ping":45},{"user_id":776,"name":"hosewater","steam_id":76561198023383126,"connected_time":179000000000,"state":"active","ping":46},{"user_id":769,"name":"Benton1234","steam_id":76561197984944189,"connected_time":527000000000,"state":"active","ping":101},{"user_id":770,"name":"soulbornfree","steam_id":76561198440822994,"connected_time":486000000000,"state":"active","ping":55},{"user_id":777,"name":"LordPotash","steam_id":76561198853709667,"connected_time":154000000000,"state":"active","ping":86},{"user_id":768,"name":"TwoScore","steam_id":76561198024412148,"connected_time":546000000000,"state":"active","ping":47},{"user_id":778,"name":"radicalPolio","steam_id":76561197961561855,"connected_time":116000000000,"state":"active","ping":89},{"user_id":779,"name":"ERRAfan72","steam_id":76561198025747866,"connected_time":105000000000,"state":"active","ping":40},{"user_id":751,"name":"Enchanced","steam_id":76561198797393854,"connected_time":1693000000000,"state":"active","ping":54}]},{"server_id":406,"name":"Uncletopia | Seattle | 3 | Stopwatch Beta","name_short":"sea-3","host":"sea-1.us.uncletopia.com","port":27035,"enabled":true,"region":"us-west","cc":"us","latitude":47.608013,"longitude":-122.33517,"reserved":0,"last_update":"0001-01-01T00:00:00Z","name_a2s":"Uncletopia | Seattle | 3 | Stopwatch Beta","protocol":17,"map":"workshop/koth_product_final.ugc454272353","folder":"tf","game":"Team Fortress","app_id":440,"player_count":0,"max_players":24,"Bots":0,"server_type":"Dedicated","server_os":"Linux","password":true,"vac":true,"version":"7757534","steam_id":85568392924515217,"keywords":["cp","nocrits","nodmgspread","uncletopia"],"game_id":440,"stv_port":27036,"stv_name":"Uncletopia | Seattle | 3 | Stopwatch Beta | STV","players":null},{"server_id":17,"name":"Uncletopia | San Francisco | 1 | All Maps","name_short":"sfo-1","host":"sfo-1.us.uncletopia.com","port":27015,"enabled":true,"region":"us-west","cc":"us","latitude":37.77397,"longitude":-122.4313,"reserved":0,"last_update":"0001-01-01T00:00:00Z","name_a2s":"Uncletopia | San Francisco | 1 | All Maps","protocol":17,"map":"koth_cascade","folder":"tf","game":"Team Fortress","app_id":440,"player_count":4,"max_players":24,"Bots":0,"server_type":"Dedicated","server_os":"Linux","password":true,"vac":true,"version":"7757534","steam_id":85568392924469999,"keywords":["cp","nocrits","nodmgspread","uncletopia"],"game_id":440,"stv_port":27016,"stv_name":"Uncletopia | San Francisco | 1 | All Maps | STV","players":[{"user_id":525,"name":"Miami","steam_id":76561198316753540,"connected_time":478000000000,"state":"active","ping":67},{"user_id":530,"name":"jackoooo","steam_id":76561198801849281,"connected_time":105000000000,"state":"spawning","ping":0},{"user_id":527,"name":"KingKong's Big Dong","steam_id":76561198313345413,"connected_time":460000000000,"state":"active","ping":85},{"user_id":528,"name":"uperlip","steam_id":76561199027475297,"connected_time":346000000000,"state":"active","ping":95}]},{"server_id":18,"name":"Uncletopia | San Francisco | 2 | All Maps","name_short":"sfo-2","host":"sfo-1.us.uncletopia.com","port":27025,"enabled":true,"region":"us-west","cc":"us","latitude":37.77397,"longitude":-122.4313,"reserved":0,"last_update":"0001-01-01T00:00:00Z","name_a2s":"Uncletopia | San Francisco | 2 | All Maps","protocol":17,"map":"cp_process_final","folder":"tf","game":"Team Fortress","app_id":440,"player_count":0,"max_players":24,"Bots":0,"server_type":"Dedicated","server_os":"Linux","password":true,"vac":true,"version":"7757534","steam_id":85568392924470000,"keywords":["cp","nocrits","nodmgspread","uncletopia"],"game_id":440,"stv_port":27026,"stv_name":"Uncletopia | San Francisco | 2 | All Maps | STV","players":null},{"server_id":19,"name":"Uncletopia | San Francisco | 3 | Stopwatch Beta","name_short":"sfo-3","host":"sfo-1.us.uncletopia.com","port":27035,"enabled":true,"region":"us-west","cc":"us","latitude":37.77397,"longitude":-122.4313,"reserved":0,"last_update":"0001-01-01T00:00:00Z","name_a2s":"Uncletopia | San Francisco | 3 | Stopwatch Beta","protocol":17,"map":"pl_borneo","folder":"tf","game":"Team Fortress","app_id":440,"player_count":0,"max_players":24,"Bots":0,"server_type":"Dedicated","server_os":"Linux","password":true,"vac":true,"version":"7757534","steam_id":85568392924742824,"keywords":["nocrits","nodmgspread","payload","uncletopia"],"game_id":440,"stv_port":27036,"stv_name":"Uncletopia | San Francisco | 3 | Stopwatch Beta | STV","players":null},{"server_id":20,"name":"Uncletopia | San Francisco | 4 | Community","name_short":"sfo-4","host":"sfo-1.us.uncletopia.com","port":27045,"enabled":true,"region":"us-west","cc":"us","latitude":37.77397,"longitude":-122.4313,"reserved":0,"last_update":"0001-01-01T00:00:00Z","name_a2s":"Uncletopia | San Francisco | 4 | Community","protocol":17,"map":"workshop/koth_bagel_rc5.ugc2514036946","folder":"tf","game":"Team Fortress","app_id":440,"player_count":3,"max_players":24,"Bots":0,"server_type":"Dedicated","server_os":"Linux","password":true,"vac":true,"version":"7757534","steam_id":85568392924742826,"keywords":["cp","nocrits","nodmgspread","uncletopia"],"game_id":440,"stv_port":27046,"stv_name":"Uncletopia | San Francisco | 4 | Community | STV","players":[{"user_id":23,"name":"Sayori","steam_id":76561198957479336,"connected_time":7683000000000,"state":"active","ping":97},{"user_id":26,"name":"Joker's Skull","steam_id":76561199185320627,"connected_time":6753000000000,"state":"active","ping":116},{"user_id":25,"name":"Doctor X (Michiko Daemon)","steam_id":76561199106264424,"connected_time":6968000000000,"state":"active","ping":97}]},{"server_id":141,"name":"Uncletopia | Sydney | 1 | All Maps","name_short":"syd-1","host":"syd-1.au.uncletopia.com","port":27015,"enabled":true,"region":"au","cc":"au","latitude":-33.865143,"longitude":151.2099,"reserved":0,"last_update":"0001-01-01T00:00:00Z","name_a2s":"Uncletopia | Sydney | 1 | All Maps","protocol":17,"map":"koth_king","folder":"tf","game":"Team Fortress","app_id":440,"player_count":24,"max_players":24,"Bots":0,"server_type":"Dedicated","server_os":"Linux","password":true,"vac":true,"version":"7757534","steam_id":85568392924470001,"keywords":["cp","nocrits","nodmgspread","uncletopia"],"game_id":440,"stv_port":27016,"stv_name":"Uncletopia | Sydney | 1 | All Maps | STV","players":[{"user_id":362,"name":"The Ghastly Gibus Gamer","steam_id":76561199146515563,"connected_time":2921000000000,"state":"active","ping":52},{"user_id":397,"name":"pacific202","steam_id":76561198420572723,"connected_time":356000000000,"state":"active","ping":81},{"user_id":386,"name":"BumBum","steam_id":76561198268844370,"connected_time":1061000000000,"state":"active","ping":67},{"user_id":396,"name":"Vox Andrews","steam_id":76561198053562039,"connected_time":423000000000,"state":"active","ping":77},{"user_id":336,"name":"Wake'n'Bake'n'Make'n'Bacon","steam_id":76561198061960926,"connected_time":5768000000000,"state":"active","ping":107},{"user_id":341,"name":"garnish master","steam_id":76561197996551827,"connected_time":5231000000000,"state":"active","ping":59},{"user_id":367,"name":"sweet","steam_id":76561198075311236,"connected_time":2769000000000,"state":"active","ping":52},{"user_id":390,"name":"ree boy","steam_id":76561199024189820,"connected_time":876000000000,"state":"active","ping":105},{"user_id":369,"name":"(1)The Ghastly Gibus Gamer","steam_id":76561199262196710,"connected_time":2740000000000,"state":"active","ping":38},{"user_id":370,"name":"ghostface","steam_id":76561198191945905,"connected_time":2722000000000,"state":"active","ping":52},{"user_id":401,"name":"Quetap","steam_id":76561198327462566,"connected_time":274000000000,"state":"active","ping":41},{"user_id":358,"name":"saudi ambassador messi","steam_id":76561198031293430,"connected_time":3163000000000,"state":"active","ping":90},{"user_id":363,"name":"Nenguu","steam_id":76561198243952386,"connected_time":2918000000000,"state":"active","ping":61},{"user_id":387,"name":"dumbvent","steam_id":76561198190062810,"connected_time":1038000000000,"state":"active","ping":60},{"user_id":385,"name":"nft","steam_id":76561199184547017,"connected_time":1137000000000,"state":"active","ping":44},{"user_id":399,"name":"Zeron","steam_id":76561198125778202,"connected_time":338000000000,"state":"active","ping":59},{"user_id":400,"name":"w4ffl5","steam_id":76561198358111518,"connected_time":296000000000,"state":"active","ping":51},{"user_id":317,"name":"Tantei Rotana","steam_id":76561198041204323,"connected_time":7984000000000,"state":"active","ping":60},{"user_id":267,"name":"soupy","steam_id":76561198073734936,"connected_time":11915000000000,"state":"active","ping":89},{"user_id":402,"name":"huey","steam_id":76561199069777966,"connected_time":108000000000,"state":"active","ping":67},{"user_id":343,"name":"Marzell","steam_id":76561198151276153,"connected_time":5112000000000,"state":"active","ping":86},{"user_id":383,"name":"Mr.Deathclaw","steam_id":76561198025419320,"connected_time":1295000000000,"state":"active","ping":50},{"user_id":393,"name":"Vortex Morez","steam_id":76561198833527091,"connected_time":761000000000,"state":"active","ping":151},{"user_id":394,"name":"Bigrichard","steam_id":76561198032092945,"connected_time":720000000000,"state":"active","ping":73}]},{"server_id":123,"name":"Uncletopia | Sydney | 2 | All Maps","name_short":"syd-2","host":"syd-1.au.uncletopia.com","port":27025,"enabled":true,"region":"au","cc":"au","latitude":-33.865143,"longitude":151.2099,"reserved":0,"last_update":"0001-01-01T00:00:00Z","name_a2s":"Uncletopia | Sydney | 2 | All Maps","protocol":17,"map":"pl_upward","folder":"tf","game":"Team Fortress","app_id":440,"player_count":19,"max_players":24,"Bots":0,"server_type":"Dedicated","server_os":"Linux","password":true,"vac":true,"version":"7757534","steam_id":85568392924470002,"keywords":["nocrits","nodmgspread","payload","uncletopia"],"game_id":440,"stv_port":27026,"stv_name":"Uncletopia | Sydney | 2 | All Maps | STV","players":[{"user_id":128,"name":"Finios","steam_id":76561198209013071,"connected_time":358000000000,"state":"active","ping":58},{"user_id":124,"name":"Hawk","steam_id":76561198135164277,"connected_time":656000000000,"state":"active","ping":48},{"user_id":126,"name":"Stubborn Sheepcow","steam_id":76561198065334258,"connected_time":507000000000,"state":"active","ping":96},{"user_id":113,"name":"Rags","steam_id":76561198179481430,"connected_time":1648000000000,"state":"active","ping":90},{"user_id":127,"name":"funny weapon hae","steam_id":76561199222027878,"connected_time":490000000000,"state":"active","ping":61},{"user_id":103,"name":"Easel (any/all)","steam_id":76561198049213583,"connected_time":2414000000000,"state":"active","ping":60},{"user_id":133,"name":"engineer gaming","steam_id":76561199218582893,"connected_time":52000000000,"state":"active","ping":200},{"user_id":134,"name":"CypressFluff (She/Her)","steam_id":76561198174667818,"connected_time":35000000000,"state":"spawning","ping":87},{"user_id":132,"name":"until yawn","steam_id":76561198170693338,"connected_time":234000000000,"state":"active","ping":75},{"user_id":93,"name":"Turbo_dip","steam_id":76561198446508846,"connected_time":3464000000000,"state":"active","ping":72},{"user_id":123,"name":"ggs","steam_id":76561198045264682,"connected_time":948000000000,"state":"active","ping":54},{"user_id":120,"name":"Balsamic Vinegar","steam_id":76561198260148888,"connected_time":1083000000000,"state":"active","ping":66},{"user_id":69,"name":"SUSHIMAN","steam_id":76561199089989428,"connected_time":4136000000000,"state":"active","ping":84},{"user_id":135,"name":"the dingo of death","steam_id":76561198093828661,"connected_time":4000000000,"state":"spawning","ping":78},{"user_id":109,"name":"Bin","steam_id":76561199117653318,"connected_time":1877000000000,"state":"active","ping":73},{"user_id":94,"name":"jbobanno3","steam_id":76561199200267518,"connected_time":3401000000000,"state":"active","ping":56},{"user_id":116,"name":"Splooge Fellow","steam_id":76561198067993108,"connected_time":1587000000000,"state":"active","ping":51},{"user_id":125,"name":"Fresh Produce Gaming","steam_id":76561198358483352,"connected_time":521000000000,"state":"active","ping":65},{"user_id":121,"name":"Charm","steam_id":76561198028891054,"connected_time":1072000000000,"state":"active","ping":60}]},{"server_id":395,"name":"Uncletopia | Sydney | 3 | All Maps","name_short":"syd-3","host":"syd-1.au.uncletopia.com","port":27035,"enabled":true,"region":"au","cc":"au","latitude":-33.865143,"longitude":151.2099,"reserved":0,"last_update":"0001-01-01T00:00:00Z","name_a2s":"Uncletopia | Sydney | 3 | All Maps","protocol":17,"map":"koth_viaduct","folder":"tf","game":"Team Fortress","app_id":440,"player_count":0,"max_players":24,"Bots":0,"server_type":"Dedicated","server_os":"Linux","password":true,"vac":true,"version":"7757534","steam_id":85568392925194467,"keywords":["cp","nocrits","nodmgspread","uncletopia"],"game_id":440,"stv_port":27036,"stv_name":"Uncletopia | Sydney | 3 | All Maps | STV","players":null},{"server_id":396,"name":"Uncletopia | Sydney | 4 | All Maps","name_short":"syd-4","host":"syd-1.au.uncletopia.com","port":27045,"enabled":true,"region":"au","cc":"au","latitude":-33.865143,"longitude":151.2099,"reserved":0,"last_update":"0001-01-01T00:00:00Z","name_a2s":"Uncletopia | Sydney | 4 | All Maps","protocol":17,"map":"koth_viaduct","folder":"tf","game":"Team Fortress","app_id":440,"player_count":0,"max_players":24,"Bots":0,"server_type":"Dedicated","server_os":"Linux","password":true,"vac":true,"version":"7757534","steam_id":85568392925397958,"keywords":["cp","nocrits","nodmgspread","uncletopia"],"game_id":440,"stv_port":27046,"stv_name":"Uncletopia | Sydney | 4 | All Maps | STV","players":null},{"server_id":58,"name":"Uncletopia | Sydney | 5 | Stopwatch Beta","name_short":"syd-5","host":"syd-1.au.uncletopia.com","port":27055,"enabled":true,"region":"au","cc":"au","latitude":-33.865143,"longitude":151.2099,"reserved":0,"last_update":"0001-01-01T00:00:00Z","name_a2s":"Uncletopia | Sydney | 5 | Stopwatch Beta","protocol":17,"map":"workshop/koth_ramjam_rc1.ugc459778887","folder":"tf","game":"Team Fortress","app_id":440,"player_count":0,"max_players":24,"Bots":0,"server_type":"Dedicated","server_os":"Linux","password":true,"vac":true,"version":"7757534","steam_id":85568392925397959,"keywords":["cp","nocrits","nodmgspread","uncletopia"],"game_id":440,"stv_port":27056,"stv_name":"Uncletopia | Sydney | 5 | Stopwatch Beta | STV","players":null},{"server_id":59,"name":"Uncletopia | Sydney | 6 | Community","name_short":"syd-6","host":"syd-1.au.uncletopia.com","port":27065,"enabled":true,"region":"au","cc":"au","latitude":-33.865143,"longitude":151.2099,"reserved":0,"last_update":"0001-01-01T00:00:00Z","name_a2s":"Uncletopia | Sydney | 6 | Community","protocol":17,"map":"cp_sunshine","folder":"tf","game":"Team Fortress","app_id":440,"player_count":0,"max_players":24,"Bots":0,"server_type":"Dedicated","server_os":"Linux","password":true,"vac":true,"version":"7757534","steam_id":85568392925397960,"keywords":["cp","nocrits","nodmgspread","uncletopia"],"game_id":440,"stv_port":27066,"stv_name":"Uncletopia | Sydney | 6 | Community | STV","players":null},{"server_id":49,"name":"Uncletopia | Warsaw | 1 | All Maps","name_short":"waw-1","host":"waw-1.pl.uncletopia.com","port":27015,"enabled":true,"region":"eu","cc":"pl","latitude":52.2297,"longitude":21.017532,"reserved":0,"last_update":"0001-01-01T00:00:00Z","name_a2s":"","protocol":0,"map":"","folder":"","game":"","app_id":0,"player_count":0,"max_players":0,"Bots":0,"server_type":"","server_os":"","password":false,"vac":false,"version":"","steam_id":0,"keywords":null,"game_id":0,"stv_port":0,"stv_name":"","players":null},{"server_id":50,"name":"Uncletopia | Warsaw | 2 | All Maps","name_short":"waw-2","host":"waw-1.pl.uncletopia.com","port":27025,"enabled":true,"region":"eu","cc":"pl","latitude":52.2297,"longitude":21.017532,"reserved":0,"last_update":"0001-01-01T00:00:00Z","name_a2s":"Uncletopia | Warsaw | 2 | All Maps","protocol":17,"map":"cp_process_final","folder":"tf","game":"Team Fortress","app_id":440,"player_count":0,"max_players":24,"Bots":0,"server_type":"Dedicated","server_os":"Linux","password":true,"vac":true,"version":"7757534","steam_id":85568392925397851,"keywords":["cp","nocrits","nodmgspread","uncletopia"],"game_id":440,"stv_port":27026,"stv_name":"Uncletopia | Warsaw | 2 | All Maps | STV","players":null},{"server_id":51,"name":"Uncletopia | Warsaw | 3 | All Maps","name_short":"waw-3","host":"waw-1.pl.uncletopia.com","port":27035,"enabled":true,"region":"eu","cc":"pl","latitude":52.2297,"longitude":21.017532,"reserved":0,"last_update":"0001-01-01T00:00:00Z","name_a2s":"Uncletopia | Warsaw | 3 | All Maps","protocol":17,"map":"pl_barnblitz","folder":"tf","game":"Team Fortress","app_id":440,"player_count":0,"max_players":24,"Bots":0,"server_type":"Dedicated","server_os":"Linux","password":true,"vac":true,"version":"7757534","steam_id":85568392925397852,"keywords":["nocrits","nodmgspread","payload","uncletopia"],"game_id":440,"stv_port":27036,"stv_name":"Uncletopia | Warsaw | 3 | All Maps | STV","players":null},{"server_id":52,"name":"Uncletopia | Warsaw | 4 | All Maps","name_short":"waw-4","host":"waw-1.pl.uncletopia.com","port":27045,"enabled":true,"region":"eu","cc":"pl","latitude":52.2297,"longitude":21.017532,"reserved":0,"last_update":"0001-01-01T00:00:00Z","name_a2s":"Uncletopia | Warsaw | 4 | All Maps","protocol":17,"map":"pl_snowycoast","folder":"tf","game":"Team Fortress","app_id":440,"player_count":0,"max_players":24,"Bots":0,"server_type":"Dedicated","server_os":"Linux","password":true,"vac":true,"version":"7757534","steam_id":85568392925397853,"keywords":["nocrits","nodmgspread","payload","uncletopia"],"game_id":440,"stv_port":27046,"stv_name":"Uncletopia | Warsaw | 4 | All Maps | STV","players":null},{"server_id":53,"name":"Uncletopia | Warsaw | 5 | Stopwatch Beta","name_short":"waw-5","host":"waw-1.pl.uncletopia.com","port":27055,"enabled":true,"region":"eu","cc":"pl","latitude":52.2297,"longitude":21.017532,"reserved":0,"last_update":"0001-01-01T00:00:00Z","name_a2s":"Uncletopia | Warsaw | 5 | Stopwatch Beta","protocol":17,"map":"pl_barnblitz","folder":"tf","game":"Team Fortress","app_id":440,"player_count":0,"max_players":24,"Bots":0,"server_type":"Dedicated","server_os":"Linux","password":true,"vac":true,"version":"7757534","steam_id":85568392925397854,"keywords":["nocrits","nodmgspread","payload","uncletopia"],"game_id":440,"stv_port":27056,"stv_name":"Uncletopia | Warsaw | 5 | Stopwatch Beta | STV","players":null},{"server_id":54,"name":"Uncletopia | Warsaw | 6 | Community","name_short":"waw-6","host":"waw-1.pl.uncletopia.com","port":27065,"enabled":true,"region":"eu","cc":"pl","latitude":52.2297,"longitude":21.017532,"reserved":0,"last_update":"0001-01-01T00:00:00Z","name_a2s":"Uncletopia | Warsaw | 6 | Community","protocol":17,"map":"pl_swiftwater_final1","folder":"tf","game":"Team Fortress","app_id":440,"player_count":0,"max_players":24,"Bots":0,"server_type":"Dedicated","server_os":"Linux","password":true,"vac":true,"version":"7757534","steam_id":85568392925397856,"keywords":["nocrits","nodmgspread","payload","uncletopia"],"game_id":440,"stv_port":27066,"stv_name":"Uncletopia | Warsaw | 6 | Community | STV","players":null}]}