{"status":true,"message":"","result":[{"server_id":9,"name":"Uncletopia | Atlanta | 1 | All Maps","name_short":"atl-1","host":"atl-1.us.uncletopia.com","port":27015,"enabled":true,"region":"us-east","cc":"us","latitude":33.753746,"longitude":-84.38633,"reserved":0,"last_update":"0001-01-01T00:00:00Z","name_a2s":"Uncletopia | Atlanta | 1 | All Maps","protocol":17,"map":"pl_snowycoast","folder":"tf","game":"Team Fortress","app_id":440,"player_count":24,"max_players":24,"Bots":0,"server_type":"Dedicated","server_os":"Linux","password":true,"vac":true,"version":"7708610","steam_id":85568392924469982,"keywords":["nocrits","nodmgspread","payload","uncletopia"],"game_id":440,"stv_port":27016,"stv_name":"Uncletopia | Atlanta | 1 | All Maps | STV","players":[{"user_id":608,"name":"garslo","steam_id":76561198044178157,"connected_time":745000000000,"state":"active","ping":97},{"user_id":543,"name":"mommy claus","steam_id":76561199230929836,"connected_time":6246000000000,"state":"active","ping":72},{"user_id":561,"name":"Nerd Killer","steam_id":76561198037072888,"connected_time":5050000000000,"state":"active","ping":69},{"user_id":577,"name":"ATL1 | Crystron","steam_id":76561198880437428,"connected_time":3371000000000,"state":"active","ping":80},{"user_id":603,"name":"Not a Doctor","steam_id":76561198097548687,"connected_time":1055000000000,"state":"active","ping":65},{"user_id":611,"name":"spoonful","steam_id":76561198927517471,"connected_time":497000000000,"state":"active","ping":51},{"user_id":595,"name":"Vibey","steam_id":76561198342873474,"connected_time":1805000000000,"state":"active","ping":65},{"user_id":548,"name":"Thotimus Begonimus","steam_id":76561197970275938,"connected_time":5896000000000,"state":"active","ping":44},{"user_id":589,"name":"ATL1 | Psionic Present","steam_id":76561198151019322,"connected_time":2325000000000,"state":"active","ping":61},{"user_id":551,"name":"Urbanzpinapple","steam_id":76561198115426938,"connected_time":5807000000000,"state":"active","ping":111},{"user_id":607,"name":"Monkey","steam_id":76561198031015186,"connected_time":866000000000,"state":"active","ping":70},{"user_id":590,"name":"fuckwit","steam_id":76561198342160837,"connected_time":2198000000000,"state":"active","ping":87},{"user_id":610,"name":"Rein","steam_id":76561198300340427,"connected_time":508000000000,"state":"active","ping":95},{"user_id":584,"name":"littlecatking","steam_id":76561199041359755,"connected_time":2997000000000,"state":"active","ping":83},{"user_id":618,"name":"com lag","steam_id":76561198019019392,"connected_time":6000000000,"state":"spawning","ping":95},{"user_id":592,"name":"كندوز","steam_id":76561198326987939,"connected_time":1898000000000,"state":"active","ping":70},{"user_id":602,"name":"CptSkippy","steam_id":76561198127439343,"connected_time":1076000000000,"state":"active","ping":97},{"user_id":529,"name":"Angel","steam_id":76561198175654911,"connected_time":7793000000000,"state":"active","ping":69},{"user_id":599,"name":"big dog","steam_id":76561198243918128,"connected_time":1225000000000,"state":"active","ping":57},{"user_id":617,"name":"ATL6 Deez Noel","steam_id":76561198246700372,"connected_time":334000000000,"state":"active","ping":57},{"user_id":604,"name":"Octobella Enthusiast","steam_id":76561198199266047,"connected_time":1044000000000,"state":"active","ping":50},{"user_id":581,"name":"Remy the rat","steam_id":76561198080519558,"connected_time":3290000000000,"state":"active","ping":64},{"user_id":615,"name":"James_Delvy","steam_id":76561198209634565,"connected_time":423000000000,"state":"active","ping":73},{"user_id":616,"name":"beats_femboy","steam_id":76561199245717718,"connected_time":391000000000,"state":"active","ping":74}]},{"server_id":400,"name":"Uncletopia | Atlanta | 3 | All Maps","name_short":"atl-3","host":"atl-1.us.uncletopia.com","port":27035,"enabled":true,"region":"us-east","cc":"us","latitude":33.753746,"longitude":-84.38633,"reserved":0,"last_update":"0001-01-01T00:00:00Z","name_a2s":"Uncletopia | Atlanta | 3 | All Maps","protocol":17,"map":"pl_swiftwater_final1","folder":"tf","game":"Team Fortress","app_id":440,"player_count":17,"max_players":24,"Bots":0,"server_type":"Dedicated","server_os":"Linux","password":true,"vac":true,"version":"7708610","steam_id":85568392924515187,"keywords":["nocrits","nodmgspread","payload","uncletopia"],"game_id":440,"stv_port":27036,"stv_name":"Uncletopia | Atlanta | 3 | All Maps | STV","players":[{"user_id":475,"name":"Skipz","steam_id":76561198425244550,"connected_time":4990000000000,"state":"active","ping":60},{"user_id":540,"name":"LYTEWERK","steam_id":76561198002819791,"connected_time":739000000000,"state":"active","ping":116},{"user_id":543,"name":"LIMBS","steam_id":76561198101220604,"connected_time":657000000000,"state":"active","ping":96},{"user_id":528,"name":"ScoobyBlue","steam_id":76561198054656885,"connected_time":1111000000000,"state":"active","ping":40},{"user_id":550,"name":"Anhkrehg","steam_id":76561197963201684,"connected_time":88000000000,"state":"active","ping":91},{"user_id":549,"name":"Errodingus","steam_id":76561198870104062,"connected_time":135000000000,"state":"active","ping":80},{"user_id":552,"name":"Lichy","steam_id":76561198310682841,"connected_time":5000000000,"state":"spawning","ping":64},{"user_id":542,"name":"ɘƚɒ⅃ɘƚɒ⅃ /./ =)(= \\.\\","steam_id":76561198053339372,"connected_time":691000000000,"state":"active","ping":150},{"user_id":545,"name":"TÖZI","steam_id":76561198045268695,"connected_time":577000000000,"state":"active","ping":64},{"user_id":541,"name":"Ay I'm Walkin' Here!","steam_id":76561198023967485,"connected_time":708000000000,"state":"active","ping":133},{"user_id":510,"name":"rayo","steam_id":76561198248754314,"connected_time":2899000000000,"state":"active","ping":104},{"user_id":535,"name":"Zuese","steam_id":76561198038659429,"connected_time":976000000000,"state":"active","ping":38},{"user_id":546,"name":"Toottoot","steam_id":76561197992404836,"connected_time":540000000000,"state":"active","ping":62},{"user_id":488,"name":"slothy","steam_id":76561198129871900,"connected_time":4406000000000,"state":"active","ping":55},{"user_id":548,"name":"Oddball","steam_id":76561198040440984,"connected_time":164000000000,"state":"active","ping":85},{"user_id":547,"name":"Apollo132","steam_id":76561198294392895,"connected_time":521000000000,"state":"active","ping":75},{"user_id":521,"name":"mudturtle","steam_id":76561198292734035,"connected_time":2233000000000,"state":"active","ping":52}]},{"server_id":401,"name":"Uncletopia | Atlanta | 4 | No Payload","name_short":"atl-4","host":"atl-1.us.uncletopia.com","port":27045,"enabled":true,"region":"us-east","cc":"us","latitude":33.753746,"longitude":-84.38633,"reserved":0,"last_update":"0001-01-01T00:00:00Z","name_a2s":"Uncletopia | Atlanta | 4 | No Payload","protocol":17,"map":"plr_bananabay","folder":"tf","game":"Team Fortress","app_id":440,"player_count":0,"max_players":24,"Bots":0,"server_type":"Dedicated","server_os":"Linux","password":true,"vac":true,"version":"7708610","steam_id":85568392924515188,"keywords":["nocrits","nodmgspread","payload","uncletopia"],"game_id":440,"stv_port":27046,"stv_name":"Uncletopia | Atlanta | 4 | No Payload | STV","players":null},{"server_id":2,"name":"Uncletopia | Chicago | 1 | All Maps","name_short":"chi-1","host":"chi-1.us.uncletopia.com","port":27015,"enabled":true,"region":"us-central","cc":"us","latitude":41.881832,"longitude":-87.62318,"reserved":0,"last_update":"0001-01-01T00:00:00Z","name_a2s":"Uncletopia | Chicago | 1 | All Maps","protocol":17,"map":"pl_borneo","folder":"tf","game":"Team Fortress","app_id":440,"player_count":24,"max_players":24,"Bots":0,"server_type":"Dedicated","server_os":"Linux","password":true,"vac":true,"version":"7708610","steam_id":85568392924469984,"keywords":["nocrits","nodmgspread","payload","uncletopia"],"game_id":440,"stv_port":27016,"stv_name":"Uncletopia | Chicago | 1 | All Maps | STV","players":[{"user_id":727,"name":"hashmap","steam_id":76561198043794014,"connected_time":2602000000000,"state":"active","ping":50},{"user_id":711,"name":"bonk","steam_id":76561198004823930,"connected_time":3116000000000,"state":"active","ping":60},{"user_id":708,"name":"Space-E","steam_id":76561198799417313,"connected_time":3432000000000,"state":"active","ping":71},{"user_id":715,"name":"DREW PEACOCK","steam_id":76561198065057392,"connected_time":2995000000000,"state":"active","ping":76},{"user_id":695,"name":"logos","steam_id":76561198038080028,"connected_time":4613000000000,"state":"active","ping":84},{"user_id":706,"name":"ÒwÓ","steam_id":76561197997304387,"connected_time":3584000000000,"state":"active","ping":74},{"user_id":735,"name":"stuporvillian","steam_id":76561198083796225,"connected_time":1826000000000,"state":"active","ping":52},{"user_id":707,"name":"lanoc","steam_id":76561198055415367,"connected_time":3509000000000,"state":"active","ping":46},{"user_id":680,"name":"sithreis","steam_id":76561198000564263,"connected_time":6193000000000,"state":"active","ping":62},{"user_id":705,"name":"CAdaverOusPRophet","steam_id":76561198045304110,"connected_time":3600000000000,"state":"active","ping":48},{"user_id":681,"name":"King","steam_id":76561198010019214,"connected_time":6187000000000,"state":"active","ping":51},{"user_id":718,"name":"Cleric","steam_id":76561198045887994,"connected_time":2833000000000,"state":"active","ping":45},{"user_id":740,"name":"Cappuccino","steam_id":76561198046658536,"connected_time":98000000000,"state":"active","ping":65},{"user_id":730,"name":"valtiel","steam_id":76561198165212575,"connected_time":2155000000000,"state":"active","ping":64},{"user_id":719,"name":"Im High","steam_id":76561198049954886,"connected_time":2831000000000,"state":"active","ping":66},{"user_id":693,"name":"Nate","steam_id":76561198068225765,"connected_time":4675000000000,"state":"active","ping":59},{"user_id":682,"name":"AlecTheNefarious","steam_id":76561198035291230,"connected_time":6187000000000,"state":"active","ping":64},{"user_id":734,"name":"ramen with milk","steam_id":76561198119096403,"connected_time":1973000000000,"state":"active","ping":62},{"user_id":721,"name":"cereal with water","steam_id":76561198091332884,"connected_time":2782000000000,"state":"active","ping":68},{"user_id":741,"name":"The Weatherman is fucking dying","steam_id":76561198000445420,"connected_time":98000000000,"state":"active","ping":130},{"user_id":601,"name":"Ras","steam_id":76561198123546775,"connected_time":11072000000000,"state":"active","ping":77},{"user_id":736,"name":"Ciryl Lyn","steam_id":76561198160091331,"connected_time":1363000000000,"state":"active","ping":62},{"user_id":729,"name":"stop","steam_id":76561198268686419,"connected_time":2221000000000,"state":"active","ping":49},{"user_id":738,"name":"Caught a Thundah","steam_id":76561198054495572,"connected_time":881000000000,"state":"active","ping":77}]},{"server_id":106,"name":"Uncletopia | Chicago | 2 | All Maps","name_short":"chi-2","host":"chi-1.us.uncletopia.com","port":27025,"enabled":true,"region":"us-central","cc":"us","latitude":41.881832,"longitude":-87.62318,"reserved":0,"last_update":"0001-01-01T00:00:00Z","name_a2s":"Uncletopia | Chicago | 2 | All Maps","protocol":17,"map":"koth_lakeside_final","folder":"tf","game":"Team Fortress","app_id":440,"player_count":0,"max_players":24,"Bots":0,"server_type":"Dedicated","server_os":"Linux","password":true,"vac":true,"version":"7708610","steam_id":85568392924469985,"keywords":["cp","nocrits","nodmgspread","uncletopia"],"game_id":440,"stv_port":27026,"stv_name":"Uncletopia | Chicago | 2 | All Maps | STV","players":null},{"server_id":402,"name":"Uncletopia | Chicago | 3 | All Maps","name_short":"chi-3","host":"chi-1.us.uncletopia.com","port":27035,"enabled":true,"region":"us-central","cc":"us","latitude":41.881832,"longitude":-87.62318,"reserved":0,"last_update":"0001-01-01T00:00:00Z","name_a2s":"Uncletopia | Chicago | 3 | All Maps","protocol":17,"map":"koth_cascade","folder":"tf","game":"Team Fortress","app_id":440,"player_count":1,"max_players":24,"Bots":0,"server_type":"Dedicated","server_os":"Linux","password":true,"vac":true,"version":"7708610","steam_id":85568392924515191,"keywords":["cp","nocrits","nodmgspread","uncletopia"],"game_id":440,"stv_port":27036,"stv_name":"Uncletopia | Chicago | 3 | All Maps | STV","players":[{"user_id":248,"name":"Smiles","steam_id":76561199229626037,"connected_time":280000000000,"state":"active","ping":94}]},{"server_id":403,"name":"Uncletopia | Chicago | 4 | All Maps","name_short":"chi-4","host":"chi-1.us.uncletopia.com","port":27045,"enabled":true,"region":"us-central","cc":"us","latitude":41.881832,"longitude":-87.62318,"reserved":0,"last_update":"0001-01-01T00:00:00Z","name_a2s":"Uncletopia | Chicago | 4 | All Maps","protocol":17,"map":"pl_upward","folder":"tf","game":"Team Fortress","app_id":440,"player_count":24,"max_players":24,"Bots":0,"server_type":"Dedicated","server_os":"Linux","password":true,"vac":true,"version":"7708610","steam_id":85568392924515193,"keywords":["nocrits","nodmgspread","payload","uncletopia"],"game_id":440,"stv_port":27046,"stv_name":"Uncletopia | Chicago | 4 | All Maps | STV","players":[{"user_id":259,"name":"Karma's Kringle Caper","steam_id":76561198059385185,"connected_time":168000000000,"state":"active","ping":75},{"user_id":250,"name":"pukey","steam_id":76561198125961489,"connected_time":833000000000,"state":"active","ping":72},{"user_id":257,"name":"Bogggyyy","steam_id":76561198111417325,"connected_time":202000000000,"state":"active","ping":50},{"user_id":248,"name":"The Scorcher","steam_id":76561198804901722,"connected_time":903000000000,"state":"active","ping":66},{"user_id":204,"name":"Highway Gothic","steam_id":76561198118102935,"connected_time":4473000000000,"state":"active","ping":51},{"user_id":258,"name":"Nossland","steam_id":76561198104202777,"connected_time":200000000000,"state":"active","ping":54},{"user_id":217,"name":"Coup de Grass","steam_id":76561198011643226,"connected_time":4114000000000,"state":"active","ping":45},{"user_id":253,"name":"Lore","steam_id":76561198098407538,"connected_time":631000000000,"state":"active","ping":46},{"user_id":260,"name":"agent_pea","steam_id":76561199006707663,"connected_time":134000000000,"state":"active","ping":70},{"user_id":249,"name":"Doxy_lsb","steam_id":76561198140441931,"connected_time":898000000000,"state":"active","ping":57},{"user_id":224,"name":"Friday Night","steam_id":76561198012091095,"connected_time":3209000000000,"state":"active","ping":56},{"user_id":237,"name":"totally not a pile of beans","steam_id":76561198119851931,"connected_time":1901000000000,"state":"active","ping":71},{"user_id":251,"name":"Gliglamesh","steam_id":76561198058221449,"connected_time":789000000000,"state":"active","ping":54},{"user_id":261,"name":"Jaydyn","steam_id":76561198140326797,"connected_time":39000000000,"state":"active","ping":74},{"user_id":243,"name":"ndvr","steam_id":76561199379200102,"connected_time":1512000000000,"state":"active","ping":67},{"user_id":132,"name":"motorized bar of soap","steam_id":76561198882404753,"connected_time":9465000000000,"state":"active","ping":79},{"user_id":240,"name":"Johnny Esports","steam_id":76561198115812405,"connected_time":1892000000000,"state":"active","ping":76},{"user_id":255,"name":"Goofball","steam_id":76561198061211537,"connected_time":460000000000,"state":"active","ping":60},{"user_id":215,"name":"CassandraRC7 (She/her)","steam_id":76561198094123940,"connected_time":4148000000000,"state":"active","ping":65},{"user_id":228,"name":"looloopaa","steam_id":76561198048179242,"connected_time":2917000000000,"state":"active","ping":54},{"user_id":241,"name":"jayv","steam_id":76561198210215504,"connected_time":1889000000000,"state":"active","ping":70},{"user_id":221,"name":"TriM","steam_id":76561198048332533,"connected_time":3725000000000,"state":"active","ping":50},{"user_id":220,"name":"Mr.Manman","steam_id":76561198826448660,"connected_time":4048000000000,"state":"active","ping":52},{"user_id":223,"name":"PintoVero","steam_id":76561198088369252,"connected_time":3232000000000,"state":"active","ping":61}]},{"server_id":36,"name":"Uncletopia | Chicago | 5 | All Maps","name_short":"chi-5","host":"chi-2.us.uncletopia.com","port":27015,"enabled":true,"region":"us-central","cc":"us","latitude":41.881832,"longitude":-87.62318,"reserved":0,"last_update":"0001-01-01T00:00:00Z","name_a2s":"Uncletopia | Chicago | 5 | All Maps","protocol":17,"map":"cp_mountainlab","folder":"tf","game":"Team Fortress","app_id":440,"player_count":0,"max_players":24,"Bots":0,"server_type":"Dedicated","server_os":"Linux","password":true,"vac":true,"version":"7708610","steam_id":85568392924866362,"keywords":["cp","nocrits","nodmgspread","uncletopia"],"game_id":440,"stv_port":27016,"stv_name":"Uncletopia | Chicago | 5 | All Maps | STV","players":null},{"server_id":37,"name":"Uncletopia | Chicago | 6 | All Maps","name_short":"chi-6","host":"chi-2.us.uncletopia.com","port":27025,"enabled":true,"region":"us-central","cc":"us","latitude":41.881832,"longitude":-87.62318,"reserved":0,"last_update":"0001-01-01T00:00:00Z","name_a2s":"Uncletopia | Chicago | 6 | All Maps","protocol":17,"map":"pl_swiftwater_final1","folder":"tf","game":"Team Fortress","app_id":440,"player_count":0,"max_players":24,"Bots":0,"server_type":"Dedicated","server_os":"Linux","password":true,"vac":true,"version":"7708610","steam_id":85568392924866363,"keywords":["nocrits","nodmgspread","payload","uncletopia"],"game_id":440,"stv_port":27026,"stv_name":"Uncletopia | Chicago | 6 | All Maps | STV","players":null},{"server_id":38,"name":"Uncletopia | Chicago | 7 | No Payload","name_short":"chi-7","host":"chi-2.us.uncletopia.com","port":27035,"enabled":true,"region":"us-central","cc":"us","latitude":41.881832,"longitude":-87.62318,"reserved":0,"last_update":"0001-01-01T00:00:00Z","name_a2s":"Uncletopia | Chicago | 7 | No Payload","protocol":17,"map":"koth_viaduct","folder":"tf","game":"Team Fortress","app_id":440,"player_count":0,"max_players":24,"Bots":0,"server_type":"Dedicated","server_os":"Linux","password":true,"vac":true,"version":"7708610","steam_id":85568392924866364,"keywords":["cp","nocrits","nodmgspread","uncletopia"],"game_id":440,"stv_port":0,"stv_name":"","players":null},{"server_id":39,"name":"Uncletopia | Chicago | 8 | Community","name_short":"chi-8","host":"chi-2.us.uncletopia.com","port":27045,"enabled":true,"region":"us-central","cc":"us","latitude":41.881832,"longitude":-87.62318,"reserved":0,"last_update":"0001-01-01T00:00:00Z","name_a2s":"Uncletopia | Chicago | 8 | Community","protocol":17,"map":"workshop/koth_slaughter_rc1.ugc1712845210","folder":"tf","game":"Team Fortress","app_id":440,"player_count":0,"max_players":24,"Bots":0,"server_type":"Dedicated","server_os":"Linux","password":true,"vac":true,"version":"7708610","steam_id":85568392924866365,"keywords":["cp","nocrits","nodmgspread","uncletopia"],"game_id":440,"stv_port":27046,"stv_name":"Uncletopia | Chicago | 8 | Community | STV","players":null},{"server_id":8,"name":"Uncletopia | Dallas | 1 | All Maps","name_short":"dal-1","host":"dal-1.us.uncletopia.com","port":27015,"enabled":true,"region":"us-central","cc":"us","latitude":32.779167,"longitude":-96.80889,"reserved":0,"last_update":"0001-01-01T00:00:00Z","name_a2s":"Uncletopia | Dallas | 1 | All Maps","protocol":17,"map":"ctf_doublecross_snowy","folder":"tf","game":"Team Fortress","app_id":440,"player_count":24,"max_players":24,"Bots":0,"server_type":"Dedicated","server_os":"Linux","password":true,"vac":true,"version":"7708610","steam_id":85568392924469986,"keywords":["ctf","nocrits","nodmgspread","uncletopia"],"game_id":440,"stv_port":27016,"stv_name":"Uncletopia | Dallas | 1 | All Maps | STV","players":[{"user_id":342,"name":"Legless","steam_id":76561198011863929,"connected_time":1944000000000,"state":"active","ping":60},{"user_id":330,"name":"Moonflower ✦","steam_id":76561198191782483,"connected_time":2981000000000,"state":"active","ping":48},{"user_id":190,"name":"Crusty Demons [REAL]","steam_id":76561198094620058,"connected_time":11256000000000,"state":"active","ping":51},{"user_id":346,"name":"Rusty","steam_id":76561198056557928,"connected_time":1328000000000,"state":"active","ping":48},{"user_id":325,"name":"Marc Antony","steam_id":76561198011366517,"connected_time":3523000000000,"state":"active","ping":74},{"user_id":278,"name":"HEX:RATIO","steam_id":76561199168548997,"connected_time":6368000000000,"state":"active","ping":50},{"user_id":337,"name":"Got Hat?","steam_id":76561197998486431,"connected_time":2586000000000,"state":"active","ping":77},{"user_id":347,"name":"SpiderString","steam_id":76561198092409181,"connected_time":1276000000000,"state":"active","ping":94},{"user_id":293,"name":"A Gamer [F2P]","steam_id":76561198138712892,"connected_time":5926000000000,"state":"active","ping":44},{"user_id":332,"name":"Phillip Jeffries","steam_id":76561198064052174,"connected_time":2821000000000,"state":"active","ping":90},{"user_id":333,"name":"SliFox115","steam_id":76561198006657143,"connected_time":2684000000000,"state":"active","ping":69},{"user_id":349,"name":"SavHud","steam_id":76561199111713748,"connected_time":1191000000000,"state":"active","ping":81},{"user_id":359,"name":"John berserk","steam_id":76561198880268129,"connected_time":156000000000,"state":"active","ping":77},{"user_id":360,"name":"intek","steam_id":76561198052705291,"connected_time":90000000000,"state":"active","ping":88},{"user_id":361,"name":"Nakirium","steam_id":76561199375820552,"connected_time":51000000000,"state":"active","ping":121},{"user_id":326,"name":"ldr","steam_id":76561198151135298,"connected_time":3459000000000,"state":"active","ping":73},{"user_id":355,"name":"WarriorInk","steam_id":76561198044022982,"connected_time":528000000000,"state":"active","ping":57},{"user_id":344,"name":"Achoo","steam_id":76561198009091066,"connected_time":1389000000000,"state":"active","ping":90},{"user_id":350,"name":"LuciD","steam_id":76561198242842394,"connected_time":1162000000000,"state":"active","ping":93},{"user_id":356,"name":"Caoticaos","steam_id":76561198114800227,"connected_time":439000000000,"state":"active","ping":161},{"user_id":351,"name":"John F. Kennedy","steam_id":76561198068825962,"connected_time":1126000000000,"state":"active","ping":86},{"user_id":343,"name":"The Krinkler","steam_id":76561198020308956,"connected_time":1673000000000,"state":"active","ping":60},{"user_id":353,"name":"RobloxFan2016","steam_id":76561198864845171,"connected_time":1046000000000,"state":"active","ping":102},{"user_id":358,"name":"No Hats :(","steam_id":76561199122232082,"connected_time":330000000000,"state":"active","ping":100}]},{"server_id":108,"name":"Uncletopia | Dallas | 2 | All Maps","name_short":"dal-2","host":"dal-1.us.uncletopia.com","port":27025,"enabled":true,"region":"us-central","cc":"us","latitude":32.779167,"longitude":-96.80889,"reserved":0,"last_update":"0001-01-01T00:00:00Z","name_a2s":"Uncletopia | Dallas | 2 | All Maps","protocol":17,"map":"pl_snowycoast","folder":"tf","game":"Team Fortress","app_id":440,"player_count":19,"max_players":24,"Bots":0,"server_type":"Dedicated","server_os":"Linux","password":true,"vac":true,"version":"7708610","steam_id":85568392924469988,"keywords":["nocrits","nodmgspread","payload","uncletopia"],"game_id":440,"stv_port":27026,"stv_name":"Uncletopia | Dallas | 2 | All Maps | STV","players":[{"user_id":366,"name":"violet","steam_id":76561198248461754,"connected_time":46000000000,"state":"active","ping":94},{"user_id":356,"name":"DrDuneStadler","steam_id":76561198348208007,"connected_time":890000000000,"state":"active","ping":113},{"user_id":360,"name":"SeniorPigu","steam_id":76561198072001437,"connected_time":514000000000,"state":"active","ping":104},{"user_id":348,"name":"Chazbaca","steam_id":76561198107913652,"connected_time":1320000000000,"state":"active","ping":78},{"user_id":316,"name":"Muffin","steam_id":76561198050715053,"connected_time":4459000000000,"state":"active","ping":73},{"user_id":365,"name":"Phil Collins","steam_id":76561198068868644,"connected_time":59000000000,"state":"active","ping":86},{"user_id":343,"name":"arma 3 mortar gunners","steam_id":76561199088864128,"connected_time":2060000000000,"state":"active","ping":105},{"user_id":363,"name":"jello","steam_id":76561198094320477,"connected_time":108000000000,"state":"active","ping":55},{"user_id":361,"name":"Tripp","steam_id":76561198411779080,"connected_time":211000000000,"state":"active","ping":93},{"user_id":367,"name":"NO-FUN LARRY","steam_id":76561198056214875,"connected_time":20000000000,"state":"spawning","ping":101},{"user_id":333,"name":"Jones","steam_id":76561198046037216,"connected_time":2794000000000,"state":"active","ping":131},{"user_id":346,"name":"Satori Komeiji","steam_id":76561198158211423,"connected_time":1510000000000,"state":"active","ping":68},{"user_id":336,"name":"El Doktor","steam_id":76561198413013439,"connected_time":2534000000000,"state":"active","ping":61},{"user_id":355,"name":"LogicalFurret","steam_id":76561198350604657,"connected_time":926000000000,"state":"active","ping":76},{"user_id":347,"name":"Yengozi","steam_id":76561198448764748,"connected_time":1443000000000,"state":"active","ping":75},{"user_id":345,"name":"Con Leche Zoidberg","steam_id":76561198027215706,"connected_time":1524000000000,"state":"active","ping":61},{"user_id":331,"name":"iluvtoust","steam_id":76561198869269207,"connected_time":2990000000000,"state":"active","ping":45},{"user_id":306,"name":"Shotty Man","steam_id":76561198175255334,"connected_time":5437000000000,"state":"active","ping":40},{"user_id":362,"name":"pandora da king","steam_id":76561198075490385,"connected_time":195000000000,"state":"active","ping":81}]},{"server_id":5,"name":"Uncletopia | Frankfurt | 1 | All Maps","name_short":"frk-1","host":"frk-1.de.uncletopia.com","port":27015,"enabled":true,"region":"eu","cc":"de","latitude":50.110924,"longitude":8.682127,"reserved":0,"last_update":"0001-01-01T00:00:00Z","name_a2s":"Uncletopia | Frankfurt | 1 | All Maps","protocol":17,"map":"cp_sunshine","folder":"tf","game":"Team Fortress","app_id":440,"player_count":0,"max_players":24,"Bots":0,"server_type":"Dedicated","server_os":"Linux","password":true,"vac":true,"version":"7708610","steam_id":85568392924469989,"keywords":["cp","nocrits","nodmgspread","uncletopia"],"game_id":440,"stv_port":27016,"stv_name":"Uncletopia | Frankfurt | 1 | All Maps | STV","players":null},{"server_id":110,"name":"Uncletopia | Frankfurt | 2 | All Maps","name_short":"frk-2","host":"frk-1.de.uncletopia.com","port":27025,"enabled":true,"region":"eu","cc":"de","latitude":50.110924,"longitude":8.682127,"reserved":0,"last_update":"0001-01-01T00:00:00Z","name_a2s":"Uncletopia | Frankfurt | 2 | All Maps","protocol":17,"map":"koth_cascade","folder":"tf","game":"Team Fortress","app_id":440,"player_count":0,"max_players":24,"Bots":0,"server_type":"Dedicated","server_os":"Linux","password":true,"vac":true,"version":"7708610","steam_id":85568392924469990,"keywords":["cp","nocrits","nodmgspread","uncletopia"],"game_id":440,"stv_port":27026,"stv_name":"Uncletopia | Frankfurt | 2 | All Maps | STV","players":null},{"server_id":308,"name":"Uncletopia | Frankfurt | 3 | All Maps","name_short":"frk-3","host":"frk-1.de.uncletopia.com","port":27035,"enabled":true,"region":"eu","cc":"de","latitude":50.110924,"longitude":8.682127,"reserved":0,"last_update":"0001-01-01T00:00:00Z","name_a2s":"Uncletopia | Frankfurt | 3 | All Maps","protocol":17,"map":"koth_highpass","folder":"tf","game":"Team Fortress","app_id":440,"player_count":0,"max_players":24,"Bots":0,"server_type":"Dedicated","server_os":"Linux","password":true,"vac":true,"version":"7708610","steam_id":85568392924504274,"keywords":["cp","nocrits","nodmgspread","uncletopia"],"game_id":440,"stv_port":27036,"stv_name":"Uncletopia | Frankfurt | 3 | All Maps | STV","players":null},{"server_id":309,"name":"Uncletopia | Frankfurt | 4 | All Maps","name_short":"frk-4","host":"frk-1.de.uncletopia.com","port":27045,"enabled":true,"region":"eu","cc":"de","latitude":50.110924,"longitude":8.682127,"reserved":0,"last_update":"0001-01-01T00:00:00Z","name_a2s":"Uncletopia | Frankfurt | 4 | All Maps","protocol":17,"map":"cp_snakewater_final1","folder":"tf","game":"Team Fortress","app_id":440,"player_count":0,"max_players":24,"Bots":0,"server_type":"Dedicated","server_os":"Linux","password":true,"vac":true,"version":"7708610","steam_id":85568392924504275,"keywords":["cp","nocrits","nodmgspread","uncletopia"],"game_id":440,"stv_port":27046,"stv_name":"Uncletopia | Frankfurt | 4 | All Maps | STV","players":null},{"server_id":310,"name":"Uncletopia | Frankfurt | 5 | All Maps","name_short":"frk-5","host":"frk-1.de.uncletopia.com","port":27055,"enabled":true,"region":"eu","cc":"de","latitude":50.110924,"longitude":8.682127,"reserved":0,"last_update":"0001-01-01T00:00:00Z","name_a2s":"Uncletopia | Frankfurt | 5 | All Maps","protocol":17,"map":"koth_lakeside_final","folder":"tf","game":"Team Fortress","app_id":440,"player_count":0,"max_players":24,"Bots":0,"server_type":"Dedicated","server_os":"Linux","password":true,"vac":true,"version":"7708610","steam_id":85568392924504277,"keywords":["cp","nocrits","nodmgspread","uncletopia"],"game_id":440,"stv_port":27056,"stv_name":"Uncletopia | Frankfurt | 5 | All Maps | STV","players":null},{"server_id":311,"name":"Uncletopia | Frankfurt | 6 | All Maps","name_short":"frk-6","host":"frk-1.de.uncletopia.com","port":27065,"enabled":true,"region":"eu","cc":"de","latitude":50.110924,"longitude":8.682127,"reserved":0,"last_update":"0001-01-01T00:00:00Z","name_a2s":"Uncletopia | Frankfurt | 6 | All Maps","protocol":17,"map":"koth_lakeside_final","folder":"tf","game":"Team Fortress","app_id":440,"player_count":0,"max_players":24,"Bots":0,"server_type":"Dedicated","server_os":"Linux","password":true,"vac":true,"version":"7708610","steam_id":85568392924504278,"keywords":["cp","nocrits","nodmgspread","uncletopia"],"game_id":440,"stv_port":27066,"stv_name":"Uncletopia | Frankfurt | 6 | All Maps | STV","players":null},{"server_id":23,"name":"Uncletopia | Frankfurt | 7 | No Payload","name_short":"frk-7","host":"frk-1.de.uncletopia.com","port":27075,"enabled":true,"region":"eu","cc":"de","latitude":50.110924,"longitude":8.682127,"reserved":0,"last_update":"0001-01-01T00:00:00Z","name_a2s":"Uncletopia | Frankfurt | 7 | No Payload","protocol":17,"map":"cp_granary","folder":"tf","game":"Team Fortress","app_id":440,"player_count":0,"max_players":24,"Bots":0,"server_type":"Dedicated","server_os":"Linux","password":true,"vac":true,"version":"7708610","steam_id":85568392924742827,"keywords":["cp","nocrits","nodmgspread","uncletopia"],"game_id":440,"stv_port":27076,"stv_name":"Uncletopia | Frankfurt | 7 | No Payload | STV","players":null},{"server_id":24,"name":"Uncletopia | Frankfurt | 8 | Community","name_short":"frk-8","host":"frk-1.de.uncletopia.com","port":27085,"enabled":true,"region":"eu","cc":"de","latitude":50.110924,"longitude":8.682127,"reserved":0,"last_update":"0001-01-01T00:00:00Z","name_a2s":"Uncletopia | Frankfurt | 8 | Community","protocol":17,"map":"workshop/koth_ramjam_v2_b2.ugc2865676487","folder":"tf","game":"Team Fortress","app_id":440,"player_count":0,"max_players":24,"Bots":0,"server_type":"Dedicated","server_os":"Linux","password":true,"vac":true,"version":"7708610","steam_id":85568392924742828,"keywords":["cp","nocrits","nodmgspread","uncletopia"],"game_id":440,"stv_port":27086,"stv_name":"Uncletopia | Frankfurt | 8 | Community | STV","players":null},{"server_id":202,"name":"Uncletopia | Hong Kong | 1 | All Maps","name_short":"hgk-1","host":"hgk-1.hk.uncletopia.com","port":27015,"enabled":true,"region":"asia","cc":"hk","latitude":22.302711,"longitude":114.177216,"reserved":0,"last_update":"0001-01-01T00:00:00Z","name_a2s":"Uncletopia | Hong Kong | 1 | All Maps","protocol":17,"map":"cp_dustbowl","folder":"tf","game":"Team Fortress","app_id":440,"player_count":13,"max_players":24,"Bots":0,"server_type":"Dedicated","server_os":"Linux","password":true,"vac":true,"version":"7708610","steam_id":85568392924494504,"keywords":["cp","nocrits","nodmgspread","uncletopia"],"game_id":440,"stv_port":27016,"stv_name":"Uncletopia | Hong Kong | 1 | All Maps | STV","players":[{"user_id":32,"name":"screaming sniper","steam_id":76561199085568674,"connected_time":4960000000000,"state":"active","ping":47},{"user_id":38,"name":"cellum95","steam_id":76561198172146871,"connected_time":4186000000000,"state":"active","ping":57},{"user_id":86,"name":"Banagi [F2P]","steam_id":76561199373908273,"connected_time":663000000000,"state":"active","ping":69},{"user_id":83,"name":"bonito borzoi","steam_id":76561198230213828,"connected_time":1069000000000,"state":"active","ping":60},{"user_id":84,"name":"Bertengkar","steam_id":76561198213031155,"connected_time":1051000000000,"state":"active","ping":90},{"user_id":90,"name":"comunistemu","steam_id":76561199097189028,"connected_time":148000000000,"state":"active","ping":80},{"user_id":49,"name":"bakabazooka(merrychrismas)","steam_id":76561198061628689,"connected_time":3707000000000,"state":"active","ping":48},{"user_id":66,"name":"Lúd","steam_id":76561198828840546,"connected_time":2267000000000,"state":"active","ping":73},{"user_id":68,"name":"P","steam_id":76561198304514505,"connected_time":2158000000000,"state":"active","ping":62},{"user_id":88,"name":"Dunce","steam_id":76561198097350308,"connected_time":418000000000,"state":"active","ping":76},{"user_id":89,"name":"Syndicate","steam_id":76561198411902742,"connected_time":399000000000,"state":"active","ping":96},{"user_id":76,"name":"timmy.1366","steam_id":76561199065433547,"connected_time":1811000000000,"state":"active","ping":75},{"user_id":80,"name":"LazyGuyEythan (SethEythan)","steam_id":76561198100007906,"connected_time":1673000000000,"state":"active","ping":80}]},{"server_id":1,"name":"Uncletopia | Los Angeles | 1 | All Maps","name_short":"lax-1","host":"lax-1.us.uncletopia.com","port":27015,"enabled":true,"region":"us-west","cc":"us","latitude":33.94279,"longitude":-118.41004,"reserved":0,"last_update":"0001-01-01T00:00:00Z","name_a2s":"Uncletopia | Los Angeles | 1 | All Maps","protocol":17,"map":"koth_cascade","folder":"tf","game":"Team Fortress","app_id":440,"player_count":0,"max_players":24,"Bots":0,"server_type":"Dedicated","server_os":"Linux","password":true,"vac":true,"version":"7708610","steam_id":85568392924469991,"keywords":["cp","nocrits","nodmgspread","uncletopia"],"game_id":440,"stv_port":27016,"stv_name":"Uncletopia | Los Angeles | 1 | All Maps | STV","players":null},{"server_id":112,"name":"Uncletopia | Los Angeles | 2 | All Maps","name_short":"lax-2","host":"lax-1.us.uncletopia.com","port":27025,"enabled":true,"region":"us-west","cc":"us","latitude":33.94279,"longitude":-118.41004,"reserved":0,"last_update":"0001-01-01T00:00:00Z","name_a2s":"Uncletopia | Los Angeles | 2 | All Maps","protocol":17,"map":"cp_process_final","folder":"tf","game":"Team Fortress","app_id":440,"player_count":24,"max_players":24,"Bots":0,"server_type":"Dedicated","server_os":"Linux","password":true,"vac":true,"version":"7708610","steam_id":85568392924469992,"keywords":["cp","nocrits","nodmgspread","uncletopia"],"game_id":440,"stv_port":27026,"stv_name":"Uncletopia | Los Angeles | 2 | All Maps | STV","players":[{"user_id":147,"name":"Gimmick","steam_id":76561198065873462,"connected_time":194000000000,"state":"active","ping":44},{"user_id":140,"name":"An00bismass","steam_id":76561198044084508,"connected_time":410000000000,"state":"active","ping":59},{"user_id":141,"name":"synin","steam_id":76561198076540384,"connected_time":400000000000,"state":"active","ping":46},{"user_id":133,"name":"SpinnerSpecial","steam_id":76561198065661869,"connected_time":836000000000,"state":"active","ping":83},{"user_id":64,"name":"firestabber","steam_id":76561198057055577,"connected_time":5609000000000,"state":"active","ping":75},{"user_id":143,"name":"Smiling","steam_id":76561198293407075,"connected_time":392000000000,"state":"active","ping":96},{"user_id":121,"name":"got that right","steam_id":76561198064656601,"connected_time":1217000000000,"state":"active","ping":188},{"user_id":115,"name":"YAG(+___+)GLE","steam_id":76561198066685074,"connected_time":1378000000000,"state":"active","ping":53},{"user_id":134,"name":"Cactus™ ♥","steam_id":76561198036441270,"connected_time":660000000000,"state":"active","ping":117},{"user_id":144,"name":"travisoscotoso","steam_id":76561198041168780,"connected_time":282000000000,"state":"active","ping":184},{"user_id":88,"name":"Agent Q","steam_id":76561198830829003,"connected_time":3981000000000,"state":"active","ping":78},{"user_id":124,"name":"trackball gaming","steam_id":76561198057371485,"connected_time":1167000000000,"state":"active","ping":56},{"user_id":138,"name":"RocketofPanda(It/They)","steam_id":76561198133133187,"connected_time":443000000000,"state":"active","ping":54},{"user_id":96,"name":"pickle","steam_id":76561199057899661,"connected_time":3014000000000,"state":"active","ping":48},{"user_id":79,"name":"CrazySpace","steam_id":76561198183980530,"connected_time":4722000000000,"state":"active","ping":59},{"user_id":52,"name":"Bauhaus","steam_id":76561198318126190,"connected_time":6456000000000,"state":"active","ping":161},{"user_id":145,"name":"aim canyon","steam_id":76561198075619480,"connected_time":267000000000,"state":"active","ping":52},{"user_id":81,"name":"Humus","steam_id":76561198175286355,"connected_time":4698000000000,"state":"active","ping":46},{"user_id":118,"name":"(Not) Storyteller","steam_id":76561198338997704,"connected_time":1232000000000,"state":"active","ping":51},{"user_id":125,"name":"benglengler","steam_id":76561198150137369,"connected_time":1165000000000,"state":"active","ping":55},{"user_id":135,"name":"MediMcMedistein","steam_id":76561198049897679,"connected_time":594000000000,"state":"active","ping":45},{"user_id":139,"name":"JJP","steam_id":76561198032914094,"connected_time":423000000000,"state":"active","ping":54},{"user_id":76,"name":"supcupman","steam_id":76561198051513866,"connected_time":5136000000000,"state":"active","ping":50},{"user_id":146,"name":"Skippies","steam_id":76561198131280715,"connected_time":264000000000,"state":"active","ping":115}]},{"server_id":324,"name":"Uncletopia | Los Angeles | 3 | All Maps","name_short":"lax-3","host":"lax-1.us.uncletopia.com","port":27035,"enabled":true,"region":"us-west","cc":"us","latitude":33.94279,"longitude":-118.41004,"reserved":0,"last_update":"0001-01-01T00:00:00Z","name_a2s":"Uncletopia | Los Angeles | 3 | All Maps","protocol":17,"map":"koth_highpass","folder":"tf","game":"Team Fortress","app_id":440,"player_count":0,"max_players":24,"Bots":0,"server_type":"Dedicated","server_os":"Linux","password":true,"vac":true,"version":"7708610","steam_id":85568392924510198,"keywords":["cp","nocrits","nodmgspread","uncletopia"],"game_id":440,"stv_port":27036,"stv_name":"Uncletopia | Los Angeles | 3 | All Maps | STV","players":null},{"server_id":25,"name":"Uncletopia | Los Angeles | 4 | No Payload","name_short":"lax-4","host":"lax-1.us.uncletopia.com","port":27045,"enabled":true,"region":"us-west","cc":"us","latitude":33.94279,"longitude":-118.41004,"reserved":0,"last_update":"0001-01-01T00:00:00Z","name_a2s":"Uncletopia | Los Angeles | 4 | No Payload","protocol":17,"map":"koth_lazarus","folder":"tf","game":"Team Fortress","app_id":440,"player_count":2,"max_players":24,"Bots":0,"server_type":"Dedicated","server_os":"Linux","password":true,"vac":true,"version":"7708610","steam_id":85568392924510199,"keywords":["cp","nocrits","nodmgspread","uncletopia"],"game_id":440,"stv_port":27046,"stv_name":"Uncletopia | Los Angeles | 4 | No Payload | STV","players":[{"user_id":10,"name":"jellyf!sh","steam_id":76561198050490587,"connected_time":489000000000,"state":"active","ping":75},{"user_id":11,"name":"asui tsuyu","steam_id":76561198081292755,"connected_time":459000000000,"state":"active","ping":79}]},{"server_id":11,"name":"Uncletopia | London | 1 | All Maps","name_short":"lon-1","host":"lon-1.uk.uncletopia.com","port":27015,"enabled":true,"region":"eu","cc":"gb","latitude":51.509865,"longitude":-0.118092,"reserved":0,"last_update":"0001-01-01T00:00:00Z","name_a2s":"Uncletopia | London | 1 | All Maps","protocol":17,"map":"pl_pier","folder":"tf","game":"Team Fortress","app_id":440,"player_count":0,"max_players":24,"Bots":0,"server_type":"Dedicated","server_os":"Linux","password":true,"vac":true,"version":"7708610","steam_id":85568392924367362,"keywords":["nocrits","nodmgspread","payload","uncletopia"],"game_id":440,"stv_port":27016,"stv_name":"Uncletopia | London | 1 | All Maps | STV","players":null},{"server_id":114,"name":"Uncletopia | London | 2 | All Maps","name_short":"lon-2","host":"lon-1.uk.uncletopia.com","port":27025,"enabled":true,"region":"eu","cc":"gb","latitude":51.509865,"longitude":-0.118092,"reserved":0,"last_update":"0001-01-01T00:00:00Z","name_a2s":"Uncletopia | London | 2 | All Maps","protocol":17,"map":"cp_snakewater_final1","folder":"tf","game":"Team Fortress","app_id":440,"player_count":0,"max_players":24,"Bots":0,"server_type":"Dedicated","server_os":"Linux","password":true,"vac":true,"version":"7708610","steam_id":85568392924470941,"keywords":["cp","nocrits","nodmgspread","uncletopia"],"game_id":440,"stv_port":27026,"stv_name":"Uncletopia | London | 2 | All Maps | STV","players":null},{"server_id":320,"name":"Uncletopia | London | 3 | All Maps","name_short":"lon-3","host":"lon-1.uk.uncletopia.com","port":27035,"enabled":true,"region":"eu","cc":"gb","latitude":51.509865,"longitude":-0.118092,"reserved":0,"last_update":"0001-01-01T00:00:00Z","name_a2s":"Uncletopia | London | 3 | All Maps","protocol":17,"map":"cp_sunshine","folder":"tf","game":"Team Fortress","app_id":440,"player_count":0,"max_players":24,"Bots":0,"server_type":"Dedicated","server_os":"Linux","password":true,"vac":true,"version":"7708610","steam_id":85568392924510192,"keywords":["cp","nocrits","nodmgspread","uncletopia"],"game_id":440,"stv_port":27036,"stv_name":"Uncletopia | London | 3 | All Maps | STV","players":null},{"server_id":321,"name":"Uncletopia | London | 4 | All Maps","name_short":"lon-4","host":"lon-1.uk.uncletopia.com","port":27045,"enabled":true,"region":"eu","cc":"gb","latitude":51.509865,"longitude":-0.118092,"reserved":0,"last_update":"0001-01-01T00:00:00Z","name_a2s":"Uncletopia | London | 4 | All Maps","protocol":17,"map":"cp_sunshine","folder":"tf","game":"Team Fortress","app_id":440,"player_count":0,"max_players":24,"Bots":0,"server_type":"Dedicated","server_os":"Linux","password":true,"vac":true,"version":"7708610","steam_id":85568392924510193,"keywords":["cp","nocrits","nodmgspread","uncletopia"],"game_id":440,"stv_port":27046,"stv_name":"Uncletopia | London | 4 | All Maps | STV","players":null},{"server_id":21,"name":"Uncletopia | London | 5 | All Maps","name_short":"lon-5","host":"lon-1.uk.uncletopia.com","port":27055,"enabled":true,"region":"eu","cc":"gb","latitude":51.509865,"longitude":-0.118092,"reserved":0,"last_update":"0001-01-01T00:00:00Z","name_a2s":"Uncletopia | London | 5 | All Maps","protocol":17,"map":"koth_lakeside_final","folder":"tf","game":"Team Fortress","app_id":440,"player_count":0,"max_players":24,"Bots":0,"server_type":"Dedicated","server_os":"Linux","password":true,"vac":true,"version":"7708610","steam_id":85568392924742829,"keywords":["cp","nocrits","nodmgspread","uncletopia"],"game_id":440,"stv_port":0,"stv_name":"","players":null},{"server_id":22,"name":"Uncletopia | London | 6 | All Maps","name_short":"lon-6","host":"lon-1.uk.uncletopia.com","port":27065,"enabled":true,"region":"eu","cc":"gb","latitude":51.509865,"longitude":-0.118092,"reserved":0,"last_update":"0001-01-01T00:00:00Z","name_a2s":"Uncletopia | London | 6 | All Maps","protocol":17,"map":"cp_snakewater_final1","folder":"tf","game":"Team Fortress","app_id":440,"player_count":0,"max_players":24,"Bots":0,"server_type":"Dedicated","server_os":"Linux","password":true,"vac":true,"version":"7708610","steam_id":85568392924742830,"keywords":["cp","nocrits","nodmgspread","uncletopia"],"game_id":440,"stv_port":27066,"stv_name":"Uncletopia | London | 6 | All Maps | STV","players":null},{"server_id":40,"name":"Uncletopia | London | 7 | No Payload","name_short":"lon-7","host":"lon-1.uk.uncletopia.com","port":27075,"enabled":true,"region":"eu","cc":"gb","latitude":51.509865,"longitude":-0.118092,"reserved":0,"last_update":"0001-01-01T00:00:00Z","name_a2s":"Uncletopia | London | 7 | No Payload","protocol":17,"map":"plr_hightower","folder":"tf","game":"Team Fortress","app_id":440,"player_count":0,"max_players":24,"Bots":0,"server_type":"Dedicated","server_os":"Linux","password":true,"vac":true,"version":"7708610","steam_id":85568392924964314,"keywords":["nocrits","nodmgspread","payload","uncletopia"],"game_id":440,"stv_port":27076,"stv_name":"Uncletopia | London | 7 | No Payload | STV","players":null},{"server_id":41,"name":"Uncletopia | London | 8 | Community","name_short":"lon-8","host":"lon-1.uk.uncletopia.com","port":27085,"enabled":true,"region":"eu","cc":"gb","latitude":51.509865,"longitude":-0.118092,"reserved":0,"last_update":"0001-01-01T00:00:00Z","name_a2s":"Uncletopia | London | 8 | Community","protocol":17,"map":"workshop/cp_reckoner_rc6.ugc674719999","folder":"tf","game":"Team Fortress","app_id":440,"player_count":0,"max_players":24,"Bots":0,"server_type":"Dedicated","server_os":"Linux","password":true,"vac":true,"version":"7708610","steam_id":85568392924964315,"keywords":["cp","nocrits","nodmgspread","uncletopia"],"game_id":440,"stv_port":27086,"stv_name":"Uncletopia | London | 8 | Community | STV","players":null},{"server_id":300,"name":"Uncletopia | Montréal | 1 | All Maps","name_short":"mtl-1","host":"mtl-1.ca.uncletopia.com","port":27015,"enabled":true,"region":"us-east","cc":"ca","latitude":45.50889,"longitude":-73.56167,"reserved":0,"last_update":"0001-01-01T00:00:00Z","name_a2s":"Uncletopia | Montréal | 1 | All Maps","protocol":17,"map":"koth_highpass","folder":"tf","game":"Team Fortress","app_id":440,"player_count":0,"max_players":24,"Bots":0,"server_type":"Dedicated","server_os":"Linux","password":true,"vac":true,"version":"7708610","steam_id":85568392924500087,"keywords":["cp","nocrits","nodmgspread","uncletopia"],"game_id":440,"stv_port":27016,"stv_name":"Uncletopia | Montréal | 1 | All Maps | STV","players":null},{"server_id":301,"name":"Uncletopia | Montréal | 2 | All Maps","name_short":"mtl-2","host":"mtl-1.ca.uncletopia.com","port":27025,"enabled":true,"region":"us-east","cc":"ca","latitude":45.50889,"longitude":-73.56167,"reserved":0,"last_update":"0001-01-01T00:00:00Z","name_a2s":"Uncletopia | Montréal | 2 | All Maps","protocol":17,"map":"koth_cascade","folder":"tf","game":"Team Fortress","app_id":440,"player_count":0,"max_players":24,"Bots":0,"server_type":"Dedicated","server_os":"Linux","password":true,"vac":true,"version":"7708610","steam_id":85568392924500088,"keywords":["cp","nocrits","nodmgspread","uncletopia"],"game_id":440,"stv_port":27026,"stv_name":"Uncletopia | Montréal | 2 | All Maps | STV","players":null},{"server_id":302,"name":"Uncletopia | Montréal | 3 | All Maps","name_short":"mtl-3","host":"mtl-1.ca.uncletopia.com","port":27035,"enabled":true,"region":"us-east","cc":"ca","latitude":45.50889,"longitude":-73.56167,"reserved":0,"last_update":"0001-01-01T00:00:00Z","name_a2s":"Uncletopia | Montréal | 3 | All Maps","protocol":17,"map":"koth_highpass","folder":"tf","game":"Team Fortress","app_id":440,"player_count":0,"max_players":24,"Bots":0,"server_type":"Dedicated","server_os":"Linux","password":true,"vac":true,"version":"7708610","steam_id":85568392924500089,"keywords":["cp","nocrits","nodmgspread","uncletopia"],"game_id":440,"stv_port":27036,"stv_name":"Uncletopia | Montréal | 3 | All Maps | STV","players":null},{"server_id":303,"name":"Uncletopia | Montréal | 4 | No Payload","name_short":"mtl-4","host":"mtl-1.ca.uncletopia.com","port":27045,"enabled":true,"region":"us-east","cc":"ca","latitude":45.50889,"longitude":-73.56167,"reserved":0,"last_update":"0001-01-01T00:00:00Z","name_a2s":"Uncletopia | Montréal | 4 | No Payload","protocol":17,"map":"ctf_sawmill","folder":"tf","game":"Team Fortress","app_id":440,"player_count":0,"max_players":24,"Bots":0,"server_type":"Dedicated","server_os":"Linux","password":true,"vac":true,"version":"7708610","steam_id":85568392924500090,"keywords":["ctf","nocrits","nodmgspread","uncletopia"],"game_id":440,"stv_port":27046,"stv_name":"Uncletopia | Montréal | 4 | No Payload | STV","players":null},{"server_id":13,"name":"Uncletopia | New York City | 1 | All Maps","name_short":"nyc-1","host":"nyc-1.us.uncletopia.com","port":27015,"enabled":true,"region":"us-east","cc":"us","latitude":40.73061,"longitude":-73.93524,"reserved":0,"last_update":"0001-01-01T00:00:00Z","name_a2s":"Uncletopia | New York City | 1 | All Maps","protocol":17,"map":"cp_snakewater_final1","folder":"tf","game":"Team Fortress","app_id":440,"player_count":0,"max_players":24,"Bots":0,"server_type":"Dedicated","server_os":"Linux","password":true,"vac":true,"version":"7708610","steam_id":85568392924469993,"keywords":["cp","nocrits","nodmgspread","uncletopia"],"game_id":440,"stv_port":27016,"stv_name":"Uncletopia | New York City | 1 | All Maps | STV","players":null},{"server_id":14,"name":"Uncletopia | New York City | 2 | All Maps","name_short":"nyc-2","host":"nyc-1.us.uncletopia.com","port":27025,"enabled":true,"region":"us-east","cc":"us","latitude":40.73061,"longitude":-73.93524,"reserved":0,"last_update":"0001-01-01T00:00:00Z","name_a2s":"Uncletopia | New York City | 2 | All Maps","protocol":17,"map":"pl_borneo","folder":"tf","game":"Team Fortress","app_id":440,"player_count":24,"max_players":24,"Bots":0,"server_type":"Dedicated","server_os":"Linux","password":true,"vac":true,"version":"7708610","steam_id":85568392924469994,"keywords":["nocrits","nodmgspread","payload","uncletopia"],"game_id":440,"stv_port":27026,"stv_name":"Uncletopia | New York City | 2 | All Maps | STV","players":[{"user_id":466,"name":"[festive] coms","steam_id":76561198359456881,"connected_time":2944000000000,"state":"active","ping":60},{"user_id":494,"name":"a sleepy weeb","steam_id":76561198118111687,"connected_time":77000000000,"state":"active","ping":56},{"user_id":481,"name":"Bingus Gaming","steam_id":76561198035619419,"connected_time":2019000000000,"state":"active","ping":52},{"user_id":456,"name":"Styx","steam_id":76561198104657428,"connected_time":3392000000000,"state":"active","ping":60},{"user_id":457,"name":"Flamefishy","steam_id":76561198190284347,"connected_time":3348000000000,"state":"active","ping":59},{"user_id":482,"name":"KnottyQuandle","steam_id":76561198061503017,"connected_time":1809000000000,"state":"active","ping":62},{"user_id":496,"name":"Dan","steam_id":76561199236719411,"connected_time":68000000000,"state":"active","ping":89},{"user_id":479,"name":"VGjakeg","steam_id":76561198082985835,"connected_time":2310000000000,"state":"active","ping":56},{"user_id":480,"name":"megaboi796","steam_id":76561198122995438,"connected_time":2098000000000,"state":"active","ping":56},{"user_id":491,"name":"onimoder","steam_id":76561198116908911,"connected_time":609000000000,"state":"active","ping":51},{"user_id":460,"name":"spacepiratebem","steam_id":76561198143351218,"connected_time":3217000000000,"state":"active","ping":60},{"user_id":469,"name":"ZekeThePlumber","steam_id":76561197995016724,"connected_time":2919000000000,"state":"active","ping":47},{"user_id":485,"name":"TaiDni","steam_id":76561198087750392,"connected_time":1658000000000,"state":"active","ping":107},{"user_id":434,"name":"Amaretto Sour","steam_id":76561198063112844,"connected_time":4243000000000,"state":"active","ping":59},{"user_id":435,"name":"cornsoup","steam_id":76561198083597196,"connected_time":4202000000000,"state":"active","ping":39},{"user_id":487,"name":"Lemur","steam_id":76561198065300466,"connected_time":966000000000,"state":"active","ping":59},{"user_id":461,"name":"Snazzi","steam_id":76561198085208276,"connected_time":3183000000000,"state":"active","ping":73},{"user_id":447,"name":"u/unhinged_person","steam_id":76561198085839920,"connected_time":3733000000000,"state":"active","ping":52},{"user_id":495,"name":"Boom13 LFT Am","steam_id":76561198126796502,"connected_time":72000000000,"state":"active","ping":77},{"user_id":493,"name":"Theo","steam_id":76561198132031026,"connected_time":87000000000,"state":"active","ping":60},{"user_id":498,"name":"Joji - Tick Tock","steam_id":76561198418414338,"connected_time":35000000000,"state":"active","ping":92},{"user_id":486,"name":"footoftheday","steam_id":76561198052712449,"connected_time":1628000000000,"state":"active","ping":78},{"user_id":492,"name":"mr.edderkopper","steam_id":76561198152614478,"connected_time":550000000000,"state":"active","ping":88},{"user_id":474,"name":"MAXIMUS","steam_id":76561198085809453,"connected_time":2732000000000,"state":"active","ping":68}]},{"server_id":15,"name":"Uncletopia | New York City | 3 | All Maps","name_short":"nyc-3","host":"nyc-1.us.uncletopia.com","port":27035,"enabled":true,"region":"us-east","cc":"us","latitude":40.73061,"longitude":-73.93524,"reserved":0,"last_update":"0001-01-01T00:00:00Z","name_a2s":"Uncletopia | New York City | 3 | All Maps","protocol":17,"map":"pl_badwater","folder":"tf","game":"Team Fortress","app_id":440,"player_count":20,"max_players":24,"Bots":0,"server_type":"Dedicated","server_os":"Linux","password":true,"vac":true,"version":"7708610","steam_id":85568392924742820,"keywords":["nocrits","nodmgspread","payload","uncletopia"],"game_id":440,"stv_port":27036,"stv_name":"Uncletopia | New York City | 3 | All Maps | STV","players":[{"user_id":438,"name":"gourmet salad","steam_id":76561198173128765,"connected_time":3143000000000,"state":"active","ping":37},{"user_id":416,"name":"Chilidestroy","steam_id":76561199101551797,"connected_time":4980000000000,"state":"active","ping":74},{"user_id":471,"name":"Among Us Booster Pack","steam_id":76561198068538473,"connected_time":611000000000,"state":"active","ping":90},{"user_id":442,"name":"sonic1394","steam_id":76561198054636788,"connected_time":2717000000000,"state":"active","ping":68},{"user_id":464,"name":"Fudgely","steam_id":76561198039425862,"connected_time":1432000000000,"state":"active","ping":57},{"user_id":391,"name":"KRELLAH","steam_id":76561198287045069,"connected_time":6691000000000,"state":"active","ping":58},{"user_id":465,"name":"Totouri","steam_id":76561198004229789,"connected_time":1416000000000,"state":"active","ping":66},{"user_id":472,"name":"Citizen Cyrus","steam_id":76561198158676927,"connected_time":565000000000,"state":"active","ping":100},{"user_id":473,"name":"anastasia","steam_id":76561197994492154,"connected_time":547000000000,"state":"active","ping":143},{"user_id":453,"name":"Habber The Quesomancer","steam_id":76561198049642751,"connected_time":2457000000000,"state":"active","ping":89},{"user_id":467,"name":"skaj","steam_id":76561198082278586,"connected_time":1285000000000,"state":"active","ping":79},{"user_id":468,"name":"I'm Only 4 Inches","steam_id":76561198055542546,"connected_time":1193000000000,"state":"active","ping":65},{"user_id":474,"name":"Bee","steam_id":76561198074681324,"connected_time":539000000000,"state":"active","ping":40},{"user_id":456,"name":"oof aim small brain","steam_id":76561198079925551,"connected_time":1941000000000,"state":"active","ping":54},{"user_id":478,"name":"goggothy","steam_id":76561198428033086,"connected_time":86000000000,"state":"active","ping":72},{"user_id":476,"name":"Duncan Idaho","steam_id":76561197988963861,"connected_time":290000000000,"state":"active","ping":47},{"user_id":477,"name":"blob","steam_id":76561198122375328,"connected_time":284000000000,"state":"active","ping":61},{"user_id":462,"name":"FireQuiz","steam_id":76561198107357249,"connected_time":1450000000000,"state":"active","ping":123},{"user_id":479,"name":"DeadSea","steam_id":76561198060532840,"connected_time":48000000000,"state":"active","ping":52},{"user_id":475,"name":"Kamin","steam_id":76561198255299559,"connected_time":414000000000,"state":"active","ping":109}]},{"server_id":16,"name":"Uncletopia | New York City | 4 | Community","name_short":"nyc-4","host":"nyc-1.us.uncletopia.com","port":27045,"enabled":true,"region":"us-east","cc":"us","latitude":40.73061,"longitude":-73.93524,"reserved":0,"last_update":"0001-01-01T00:00:00Z","name_a2s":"Uncletopia | New York City | 4 | Community","protocol":17,"map":"workshop/koth_ramjam_v2_b2.ugc2865676487","folder":"tf","game":"Team Fortress","app_id":440,"player_count":0,"max_players":24,"Bots":0,"server_type":"Dedicated","server_os":"Linux","password":true,"vac":true,"version":"7708610","steam_id":85568392924742821,"keywords":["cp","nocrits","nodmgspread","uncletopia"],"game_id":440,"stv_port":27046,"stv_name":"Uncletopia | New York City | 4 | Community | STV","players":null},{"server_id":142,"name":"Uncletopia | São Paulo | 1 | All Maps","name_short":"sao-1","host":"sao-1.br.uncletopia.com","port":27015,"enabled":true,"region":"sa","cc":"br","latitude":-23.533773,"longitude":-46.62529,"reserved":0,"last_update":"0001-01-01T00:00:00Z","name_a2s":"Uncletopia | São Paulo | 1 | All Maps","protocol":17,"map":"koth_viaduct","folder":"tf","game":"Team Fortress","app_id":440,"player_count":0,"max_players":24,"Bots":0,"server_type":"Dedicated","server_os":"Linux","password":true,"vac":true,"version":"7708610","steam_id":85568392924469996,"keywords":["cp","nocrits","nodmgspread","uncletopia"],"game_id":440,"stv_port":27016,"stv_name":"Uncletopia | São Paulo | 1 | All Maps | STV","players":null},{"server_id":143,"name":"Uncletopia | São Paulo | 2 | All Maps","name_short":"sao-2","host":"sao-2.br.uncletopia.com","port":27015,"enabled":true,"region":"sa","cc":"br","latitude":-23.533773,"longitude":-46.62529,"reserved":0,"last_update":"0001-01-01T00:00:00Z","name_a2s":"Uncletopia | São Paulo | 2 | All Maps","protocol":17,"map":"koth_cascade","folder":"tf","game":"Team Fortress","app_id":440,"player_count":0,"max_players":24,"Bots":0,"server_type":"Dedicated","server_os":"Linux","password":true,"vac":true,"version":"7708610","steam_id":85568392924485349,"keywords":["cp","nocrits","nodmgspread","uncletopia"],"game_id":440,"stv_port":27016,"stv_name":"Uncletopia | São Paulo | 2 | All Maps | STV","players":null},{"server_id":7,"name":"Uncletopia | Seattle | 1 | All Maps","name_short":"sea-1","host":"sea-1.us.uncletopia.com","port":27015,"enabled":true,"region":"us-west","cc":"us","latitude":47.608013,"longitude":-122.33517,"reserved":0,"last_update":"0001-01-01T00:00:00Z","name_a2s":"Uncletopia | Seattle | 1 | All Maps","protocol":17,"map":"pl_goldrush","folder":"tf","game":"Team Fortress","app_id":440,"player_count":24,"max_players":24,"Bots":0,"server_type":"Dedicated","server_os":"Linux","password":true,"vac":true,"version":"7708610","steam_id":85568392924469997,"keywords":["nocrits","nodmgspread","payload","uncletopia"],"game_id":440,"stv_port":27016,"stv_name":"Uncletopia | Seattle | 1 | All Maps | STV","players":[{"user_id":405,"name":"there is cum in my ramen","steam_id":76561198059815894,"connected_time":297000000000,"state":"active","ping":96},{"user_id":371,"name":"TROY","steam_id":76561197983852176,"connected_time":2675000000000,"state":"active","ping":77},{"user_id":370,"name":"Tom Skirrett","steam_id":76561198014600788,"connected_time":2763000000000,"state":"active","ping":74},{"user_id":406,"name":"LynBoByn","steam_id":76561198052911142,"connected_time":296000000000,"state":"active","ping":113},{"user_id":396,"name":"Spare(8)Ball","steam_id":76561197982432995,"connected_time":504000000000,"state":"active","ping":76},{"user_id":385,"name":"Zero","steam_id":76561199383267408,"connected_time":1506000000000,"state":"active","ping":107},{"user_id":395,"name":"Emalygaži","steam_id":76561198067803679,"connected_time":584000000000,"state":"active","ping":67},{"user_id":317,"name":"Grungus","steam_id":76561198047700230,"connected_time":6427000000000,"state":"active","ping":73},{"user_id":398,"name":"boo_thefeared","steam_id":76561198127967685,"connected_time":496000000000,"state":"active","ping":181},{"user_id":407,"name":"Nolan","steam_id":76561198169648081,"connected_time":55000000000,"state":"active","ping":99},{"user_id":379,"name":"squash","steam_id":76561198150281353,"connected_time":1843000000000,"state":"active","ping":65},{"user_id":397,"name":"Smoothie Criminal","steam_id":76561197965271246,"connected_time":501000000000,"state":"active","ping":108},{"user_id":376,"name":"J U K I E","steam_id":76561197962841151,"connected_time":2282000000000,"state":"active","ping":47},{"user_id":377,"name":"Meat Popsicle","steam_id":76561197974158687,"connected_time":2167000000000,"state":"active","ping":57},{"user_id":358,"name":"Jesus","steam_id":76561198018890911,"connected_time":3653000000000,"state":"active","ping":102},{"user_id":399,"name":"Evanb","steam_id":76561198042057792,"connected_time":485000000000,"state":"active","ping":54},{"user_id":367,"name":"visual comedy","steam_id":76561199224443704,"connected_time":3117000000000,"state":"active","ping":85},{"user_id":400,"name":"Bevan(The Manager)","steam_id":76561198073890273,"connected_time":454000000000,"state":"active","ping":60},{"user_id":394,"name":"Doctor Payne","steam_id":76561198025576587,"connected_time":830000000000,"state":"active","ping":53},{"user_id":403,"name":"JON","steam_id":76561198057971005,"connected_time":442000000000,"state":"active","ping":41},{"user_id":373,"name":"The Best Healer","steam_id":76561198079452621,"connected_time":2451000000000,"state":"active","ping":60},{"user_id":380,"name":"ubiquitous man","steam_id":76561198073782350,"connected_time":1808000000000,"state":"active","ping":88},{"user_id":386,"name":"Kuyumiester","steam_id":76561198126835302,"connected_time":1506000000000,"state":"active","ping":74},{"user_id":303,"name":"Pubk","steam_id":76561198095939571,"connected_time":7458000000000,"state":"active","ping":45}]},{"server_id":119,"name":"Uncletopia | Seattle | 2 | All Maps","name_short":"sea-2","host":"sea-1.us.uncletopia.com","port":27025,"enabled":true,"region":"us-west","cc":"us","latitude":47.608013,"longitude":-122.33517,"reserved":0,"last_update":"0001-01-01T00:00:00Z","name_a2s":"Uncletopia | Seattle | 2 | All Maps","protocol":17,"map":"cp_mountainlab","folder":"tf","game":"Team Fortress","app_id":440,"player_count":24,"max_players":24,"Bots":0,"server_type":"Dedicated","server_os":"Linux","password":true,"vac":true,"version":"7708610","steam_id":85568392924469998,"keywords":["cp","nocrits","nodmgspread","uncletopia"],"game_id":440,"stv_port":27026,"stv_name":"Uncletopia | Seattle | 2 | All Maps | STV","players":[{"user_id":289,"name":"SesataPomang","steam_id":76561198145133059,"connected_time":1427000000000,"state":"active","ping":97},{"user_id":243,"name":"BigNutGuizz","steam_id":76561198071169308,"connected_time":3422000000000,"state":"active","ping":49},{"user_id":282,"name":"Thanks Ants","steam_id":76561197966221018,"connected_time":1805000000000,"state":"active","ping":47},{"user_id":205,"name":"lili.winters","steam_id":76561199391478575,"connected_time":5437000000000,"state":"active","ping":62},{"user_id":298,"name":"KellyKapoor","steam_id":76561198040828123,"connected_time":655000000000,"state":"active","ping":60},{"user_id":235,"name":"weed boner","steam_id":76561198034131572,"connected_time":3904000000000,"state":"active","ping":41},{"user_id":212,"name":"Brison","steam_id":76561198051370524,"connected_time":5344000000000,"state":"active","ping":42},{"user_id":291,"name":"nelly modelo","steam_id":76561198044875206,"connected_time":1348000000000,"state":"active","ping":53},{"user_id":249,"name":"Idontknow","steam_id":76561199207044048,"connected_time":3126000000000,"state":"active","ping":44},{"user_id":267,"name":"Tw1tch3r","steam_id":76561199093785937,"connected_time":2627000000000,"state":"active","ping":101},{"user_id":299,"name":"Seal","steam_id":76561197970204043,"connected_time":272000000000,"state":"active","ping":36},{"user_id":283,"name":"Soap","steam_id":76561198074619142,"connected_time":1785000000000,"state":"active","ping":97},{"user_id":214,"name":"friend of the crow","steam_id":76561198146228439,"connected_time":5281000000000,"state":"active","ping":52},{"user_id":296,"name":"squid game","steam_id":76561199248960166,"connected_time":924000000000,"state":"active","ping":38},{"user_id":280,"name":"BLESSED WITH VIOLENCE","steam_id":76561198011675372,"connected_time":1848000000000,"state":"active","ping":62},{"user_id":222,"name":"A UsedNom","steam_id":76561198402832756,"connected_time":5005000000000,"state":"active","ping":51},{"user_id":274,"name":"JacenHan","steam_id":76561198077796718,"connected_time":2200000000000,"state":"active","ping":45},{"user_id":292,"name":"Taint","steam_id":76561198121610238,"connected_time":1344000000000,"state":"active","ping":47},{"user_id":287,"name":"Jacasola","steam_id":76561198055460402,"connected_time":1692000000000,"state":"active","ping":76},{"user_id":269,"name":"Court Wizard, Sir Dr. Clydesdal","steam_id":76561198149267697,"connected_time":2434000000000,"state":"active","ping":64},{"user_id":260,"name":"Nugakku","steam_id":76561198082346219,"connected_time":2802000000000,"state":"active","ping":88},{"user_id":293,"name":"Yorai20XX","steam_id":76561198082235591,"connected_time":1342000000000,"state":"active","ping":88},{"user_id":295,"name":"Flowey","steam_id":76561198442304406,"connected_time":1097000000000,"state":"active","ping":51},{"user_id":300,"name":"uufyfuu","steam_id":76561198142787212,"connected_time":242000000000,"state":"active","ping":70}]},{"server_id":17,"name":"Uncletopia | San Francisco | 1 | All Maps","name_short":"sfo-1","host":"sfo-1.us.uncletopia.com","port":27015,"enabled":true,"region":"us-west","cc":"us","latitude":37.77397,"longitude":-122.4313,"reserved":0,"last_update":"0001-01-01T00:00:00Z","name_a2s":"Uncletopia | San Francisco | 1 | All Maps","protocol":17,"map":"koth_highpass","folder":"tf","game":"Team Fortress","app_id":440,"player_count":0,"max_players":24,"Bots":0,"server_type":"Dedicated","server_os":"Linux","password":true,"vac":true,"version":"7708610","steam_id":85568392924469999,"keywords":["cp","nocrits","nodmgspread","uncletopia"],"game_id":440,"stv_port":27016,"stv_name":"Uncletopia | San Francisco | 1 | All Maps | STV","players":null},{"server_id":18,"name":"Uncletopia | San Francisco | 2 | All Maps","name_short":"sfo-2","host":"sfo-1.us.uncletopia.com","port":27025,"enabled":true,"region":"us-west","cc":"us","latitude":37.77397,"longitude":-122.4313,"reserved":0,"last_update":"0001-01-01T00:00:00Z","name_a2s":"Uncletopia | San Francisco | 2 | All Maps","protocol":17,"map":"cp_steel","folder":"tf","game":"Team Fortress","app_id":440,"player_count":24,"max_players":24,"Bots":0,"server_type":"Dedicated","server_os":"Linux","password":true,"vac":true,"version":"7708610","steam_id":85568392924470000,"keywords":["cp","nocrits","nodmgspread","uncletopia"],"game_id":440,"stv_port":27026,"stv_name":"Uncletopia | San Francisco | 2 | All Maps | STV","players":[{"user_id":100,"name":"amagicowl","steam_id":76561199060487814,"connected_time":1338000000000,"state":"active","ping":79},{"user_id":94,"name":"trans gaming troll (she/her)","steam_id":76561198085410622,"connected_time":1772000000000,"state":"active","ping":72},{"user_id":92,"name":"big car","steam_id":76561198067082350,"connected_time":1933000000000,"state":"active","ping":54},{"user_id":112,"name":"Merry Matches_","steam_id":76561198048925904,"connected_time":657000000000,"state":"active","ping":74},{"user_id":116,"name":"Mignyanne :3","steam_id":76561198048754056,"connected_time":407000000000,"state":"active","ping":49},{"user_id":81,"name":"Jax O'Gaytor","steam_id":76561198288922168,"connected_time":2296000000000,"state":"active","ping":67},{"user_id":119,"name":"OrangeShoes","steam_id":76561197971249940,"connected_time":289000000000,"state":"active","ping":100},{"user_id":85,"name":"Griffin","steam_id":76561198159339442,"connected_time":2084000000000,"state":"active","ping":122},{"user_id":86,"name":"keffers | Chrimbus Time","steam_id":76561198202338796,"connected_time":2069000000000,"state":"active","ping":118},{"user_id":113,"name":"||:♩♩♩♪:|| Opplydead","steam_id":76561198028630334,"connected_time":573000000000,"state":"active","ping":50},{"user_id":121,"name":"ASAP","steam_id":76561198987670639,"connected_time":236000000000,"state":"active","ping":49},{"user_id":87,"name":"Snorfledumpkins","steam_id":76561198017895993,"connected_time":2044000000000,"state":"active","ping":116},{"user_id":118,"name":"pumpkin lord","steam_id":76561198880607518,"connected_time":348000000000,"state":"active","ping":59},{"user_id":64,"name":"Kenpachi","steam_id":76561198803824764,"connected_time":3971000000000,"state":"active","ping":84},{"user_id":114,"name":"Dr. Fast M.D.","steam_id":76561198871298539,"connected_time":555000000000,"state":"active","ping":70},{"user_id":99,"name":"Szaint","steam_id":76561198165050614,"connected_time":1346000000000,"state":"active","ping":54},{"user_id":115,"name":"The odd duck","steam_id":76561199017353323,"connected_time":540000000000,"state":"active","ping":60},{"user_id":74,"name":"taishang","steam_id":76561198065328284,"connected_time":3123000000000,"state":"active","ping":57},{"user_id":106,"name":"delight","steam_id":76561197980280272,"connected_time":1189000000000,"state":"active","ping":69},{"user_id":120,"name":"mineblast99","steam_id":76561199065648954,"connected_time":284000000000,"state":"active","ping":112},{"user_id":103,"name":"quetzalcoatly","steam_id":76561198323389635,"connected_time":1306000000000,"state":"active","ping":127},{"user_id":107,"name":"Stormtroper","steam_id":76561198251067522,"connected_time":1057000000000,"state":"active","ping":92},{"user_id":50,"name":"Ian","steam_id":76561198159334435,"connected_time":4513000000000,"state":"active","ping":173},{"user_id":95,"name":"goochi","steam_id":76561198086799316,"connected_time":1595000000000,"state":"active","ping":59}]},{"server_id":19,"name":"Uncletopia | San Francisco | 3 | No Payload","name_short":"sfo-3","host":"sfo-1.us.uncletopia.com","port":27035,"enabled":true,"region":"us-west","cc":"us","latitude":37.77397,"longitude":-122.4313,"reserved":0,"last_update":"0001-01-01T00:00:00Z","name_a2s":"Uncletopia | San Francisco | 3 | No Payload","protocol":17,"map":"cp_coldfront","folder":"tf","game":"Team Fortress","app_id":440,"player_count":0,"max_players":24,"Bots":0,"server_type":"Dedicated","server_os":"Linux","password":true,"vac":true,"version":"7708610","steam_id":85568392924742824,"keywords":["cp","nocrits","nodmgspread","uncletopia"],"game_id":440,"stv_port":27036,"stv_name":"Uncletopia | San Francisco | 3 | No Payload | STV","players":null},{"server_id":20,"name":"Uncletopia | San Francisco | 4 | Community","name_short":"sfo-4","host":"sfo-1.us.uncletopia.com","port":27045,"enabled":true,"region":"us-west","cc":"us","latitude":37.77397,"longitude":-122.4313,"reserved":0,"last_update":"0001-01-01T00:00:00Z","name_a2s":"Uncletopia | San Francisco | 4 | Community","protocol":17,"map":"workshop/koth_synthetic_rc6a.ugc1549817316","folder":"tf","game":"Team Fortress","app_id":440,"player_count":0,"max_players":24,"Bots":0,"server_type":"Dedicated","server_os":"Linux","password":true,"vac":true,"version":"7708610","steam_id":85568392924742826,"keywords":["cp","nocrits","nodmgspread","uncletopia"],"game_id":440,"stv_port":27046,"stv_name":"Uncletopia | San Francisco | 4 | Community | STV","players":null},{"server_id":141,"name":"Uncletopia | Sydney | 1 | All Maps","name_short":"syd-1","host":"syd-1.au.uncletopia.com","port":27015,"enabled":true,"region":"au","cc":"au","latitude":-33.865143,"longitude":151.2099,"reserved":0,"last_update":"0001-01-01T00:00:00Z","name_a2s":"Uncletopia | Sydney | 1 | All Maps","protocol":17,"map":"pl_frontier_final","folder":"tf","game":"Team Fortress","app_id":440,"player_count":23,"max_players":24,"Bots":0,"server_type":"Dedicated","server_os":"Linux","password":true,"vac":true,"version":"7708610","steam_id":85568392924470001,"keywords":["nocrits","nodmgspread","payload","uncletopia"],"game_id":440,"stv_port":27016,"stv_name":"Uncletopia | Sydney | 1 | All Maps | STV","players":[{"user_id":134,"name":"KayGen","steam_id":76561198025787237,"connected_time":323000000000,"state":"active","ping":47},{"user_id":117,"name":"Tim","steam_id":76561198216730925,"connected_time":1286000000000,"state":"active","ping":52},{"user_id":124,"name":"Flak","steam_id":76561198205833232,"connected_time":796000000000,"state":"active","ping":44},{"user_id":104,"name":"carbonara stickydate launcher","steam_id":76561198212566375,"connected_time":2501000000000,"state":"active","ping":58},{"user_id":125,"name":"jimboco","steam_id":76561198250813408,"connected_time":751000000000,"state":"active","ping":60},{"user_id":122,"name":"i know what you did","steam_id":76561198958648398,"connected_time":1017000000000,"state":"active","ping":68},{"user_id":131,"name":"Headless","steam_id":76561198042423017,"connected_time":423000000000,"state":"active","ping":29},{"user_id":138,"name":"Lez","steam_id":76561198015904494,"connected_time":50000000000,"state":"active","ping":58},{"user_id":48,"name":"Kumbya Kumbya Kumbya Kumbya","steam_id":76561198117979249,"connected_time":6670000000000,"state":"active","ping":70},{"user_id":128,"name":"Top Ramen","steam_id":76561198028969833,"connected_time":556000000000,"state":"active","ping":45},{"user_id":55,"name":"D E T H","steam_id":76561198406959622,"connected_time":6345000000000,"state":"active","ping":49},{"user_id":43,"name":"ItsSnakey","steam_id":76561199187623513,"connected_time":6818000000000,"state":"active","ping":51},{"user_id":110,"name":"The Goodnight Kiwi","steam_id":76561198866433807,"connected_time":1991000000000,"state":"active","ping":61},{"user_id":105,"name":"Winky","steam_id":76561199059450243,"connected_time":2484000000000,"state":"active","ping":44},{"user_id":136,"name":"Quacc","steam_id":76561199004575266,"connected_time":71000000000,"state":"active","ping":54},{"user_id":107,"name":"snowy steel [HF]","steam_id":76561199024624434,"connected_time":2419000000000,"state":"active","ping":42},{"user_id":106,"name":"Marzell","steam_id":76561198151276153,"connected_time":2482000000000,"state":"active","ping":97},{"user_id":119,"name":"gerald","steam_id":76561198274740718,"connected_time":1169000000000,"state":"active","ping":59},{"user_id":120,"name":"Empr","steam_id":76561198024387396,"connected_time":1149000000000,"state":"active","ping":74},{"user_id":101,"name":"bird","steam_id":76561198258514103,"connected_time":2760000000000,"state":"active","ping":59},{"user_id":137,"name":"Bit_vt/TTV Cringe Ghost Neko","steam_id":76561198212958225,"connected_time":63000000000,"state":"active","ping":61},{"user_id":92,"name":"man ahhh","steam_id":76561198129577552,"connected_time":3855000000000,"state":"active","ping":76},{"user_id":116,"name":"Gavin Thunder","steam_id":76561198806160834,"connected_time":1317000000000,"state":"active","ping":75}]},{"server_id":123,"name":"Uncletopia | Sydney | 2 | All Maps","name_short":"syd-2","host":"syd-1.au.uncletopia.com","port":27025,"enabled":true,"region":"au","cc":"au","latitude":-33.865143,"longitude":151.2099,"reserved":0,"last_update":"0001-01-01T00:00:00Z","name_a2s":"Uncletopia | Sydney | 2 | All Maps","protocol":17,"map":"cp_sunshine","folder":"tf","game":"Team Fortress","app_id":440,"player_count":13,"max_players":24,"Bots":0,"server_type":"Dedicated","server_os":"Linux","password":true,"vac":true,"version":"7708610","steam_id":85568392924470002,"keywords":["cp","nocrits","nodmgspread","uncletopia"],"game_id":440,"stv_port":27026,"stv_name":"Uncletopia | Sydney | 2 | All Maps | STV","players":[{"user_id":63,"name":"ВЛАДЕЛИЦА","steam_id":76561198855684280,"connected_time":636000000000,"state":"active","ping":73},{"user_id":33,"name":"TW_light2022","steam_id":76561199393566784,"connected_time":2080000000000,"state":"active","ping":63},{"user_id":62,"name":"xX_sexhaver_Xx(real)","steam_id":76561199205171109,"connected_time":840000000000,"state":"active","ping":67},{"user_id":34,"name":"DIY Miracle","steam_id":76561198046228152,"connected_time":1981000000000,"state":"active","ping":66},{"user_id":64,"name":"Not A F2P","steam_id":76561198376756608,"connected_time":607000000000,"state":"active","ping":77},{"user_id":43,"name":"Branko","steam_id":76561199262196710,"connected_time":1628000000000,"state":"active","ping":44},{"user_id":55,"name":"witchita!","steam_id":76561198951178401,"connected_time":1270000000000,"state":"active","ping":74},{"user_id":41,"name":"The thing under the bed","steam_id":76561199305879202,"connected_time":1733000000000,"state":"active","ping":102},{"user_id":66,"name":"Solidmozza","steam_id":76561197976650325,"connected_time":284000000000,"state":"active","ping":49},{"user_id":45,"name":"Blueberry Rat","steam_id":76561198149219455,"connected_time":1533000000000,"state":"active","ping":49},{"user_id":48,"name":"cinder block","steam_id":76561198133277383,"connected_time":1491000000000,"state":"active","ping":47},{"user_id":60,"name":"burger fungus","steam_id":76561199075086027,"connected_time":990000000000,"state":"active","ping":62},{"user_id":61,"name":"f2p Spy","steam_id":76561198214232616,"connected_time":953000000000,"state":"active","ping":104}]},{"server_id":395,"name":"Uncletopia | Sydney | 3 | All Maps","name_short":"syd-3","host":"syd-1.au.uncletopia.com","port":27035,"enabled":true,"region":"au","cc":"au","latitude":-33.865143,"longitude":151.2099,"reserved":0,"last_update":"0001-01-01T00:00:00Z","name_a2s":"Uncletopia | Sydney | 3 | All Maps","protocol":17,"map":"koth_cascade","folder":"tf","game":"Team Fortress","app_id":440,"player_count":0,"max_players":24,"Bots":0,"server_type":"Dedicated","server_os":"Linux","password":true,"vac":true,"version":"7708610","steam_id":85568392925194467,"keywords":["cp","nocrits","nodmgspread","uncletopia"],"game_id":440,"stv_port":27036,"stv_name":"Uncletopia | Sydney | 3 | All Maps | STV","players":null},{"server_id":396,"name":"Uncletopia | Sydney | 4 | All Maps","name_short":"syd-4","host":"syd-1.au.uncletopia.com","port":27045,"enabled":true,"region":"au","cc":"au","latitude":-33.865143,"longitude":151.2099,"reserved":0,"last_update":"0001-01-01T00:00:00Z","name_a2s":"Uncletopia | Sydney | 4 | All Maps","protocol":17,"map":"koth_harvest_final","folder":"tf","game":"Team Fortress","app_id":440,"player_count":0,"max_players":24,"Bots":0,"server_type":"Dedicated","server_os":"Linux","password":true,"vac":true,"version":"7708610","steam_id":85568392925397958,"keywords":["cp","nocrits","nodmgspread","uncletopia"],"game_id":440,"stv_port":27046,"stv_name":"Uncletopia | Sydney | 4 | All Maps | STV","players":null},{"server_id":58,"name":"Uncletopia | Sydney | 5 | No Payload","name_short":"syd-5","host":"syd-1.au.uncletopia.com","port":27055,"enabled":true,"region":"au","cc":"au","latitude":-33.865143,"longitude":151.2099,"reserved":0,"last_update":"0001-01-01T00:00:00Z","name_a2s":"Uncletopia | Sydney | 5 | No Payload","protocol":17,"map":"koth_cascade","folder":"tf","game":"Team Fortress","app_id":440,"player_count":0,"max_players":24,"Bots":0,"server_type":"Dedicated","server_os":"Linux","password":true,"vac":true,"version":"7708610","steam_id":85568392925397959,"keywords":["cp","nocrits","nodmgspread","uncletopia"],"game_id":440,"stv_port":0,"stv_name":"","players":null},{"server_id":59,"name":"Uncletopia | Sydney | 6 | Community","name_short":"syd-6","host":"syd-1.au.uncletopia.com","port":27065,"enabled":true,"region":"au","cc":"au","latitude":-33.865143,"longitude":151.2099,"reserved":0,"last_update":"0001-01-01T00:00:00Z","name_a2s":"Uncletopia | Sydney | 6 | Community","protocol":17,"map":"workshop/koth_synthetic_rc6a.ugc1549817316","folder":"tf","game":"Team Fortress","app_id":440,"player_count":0,"max_players":24,"Bots":0,"server_type":"Dedicated","server_os":"Linux","password":true,"vac":true,"version":"7708610","steam_id":85568392925397960,"keywords":["cp","nocrits","nodmgspread","uncletopia"],"game_id":440,"stv_port":27066,"stv_name":"Uncletopia | Sydney | 6 | Community | STV","players":null},{"server_id":49,"name":"Uncletopia | Warsaw | 1 | All Maps","name_short":"waw-1","host":"waw-1.pl.uncletopia.com","port":27015,"enabled":true,"region":"eu","cc":"pl","latitude":52.2297,"longitude":21.017532,"reserved":0,"last_update":"0001-01-01T00:00:00Z","name_a2s":"Uncletopia | Warsaw | 1 | All Maps","protocol":17,"map":"pl_pier","folder":"tf","game":"Team Fortress","app_id":440,"player_count":0,"max_players":24,"Bots":0,"server_type":"Dedicated","server_os":"Linux","password":true,"vac":true,"version":"7708610","steam_id":85568392925397850,"keywords":["nocrits","nodmgspread","payload","uncletopia"],"game_id":440,"stv_port":27016,"stv_name":"Uncletopia | Warsaw | 1 | All Maps | STV","players":null},{"server_id":50,"name":"Uncletopia | Warsaw | 2 | All Maps","name_short":"waw-2","host":"waw-1.pl.uncletopia.com","port":27025,"enabled":true,"region":"eu","cc":"pl","latitude":52.2297,"longitude":21.017532,"reserved":0,"last_update":"0001-01-01T00:00:00Z","name_a2s":"Uncletopia | Warsaw | 2 | All Maps","protocol":17,"map":"cp_mountainlab","folder":"tf","game":"Team Fortress","app_id":440,"player_count":0,"max_players":24,"Bots":0,"server_type":"Dedicated","server_os":"Linux","password":true,"vac":true,"version":"7708610","steam_id":85568392925397851,"keywords":["cp","nocrits","nodmgspread","uncletopia"],"game_id":440,"stv_port":27026,"stv_name":"Uncletopia | Warsaw | 2 | All Maps | STV","players":null},{"server_id":51,"name":"Uncletopia | Warsaw | 3 | All Maps","name_short":"waw-3","host":"waw-1.pl.uncletopia.com","port":27035,"enabled":true,"region":"eu","cc":"pl","latitude":52.2297,"longitude":21.017532,"reserved":0,"last_update":"0001-01-01T00:00:00Z","name_a2s":"Uncletopia | Warsaw | 3 | All Maps","protocol":17,"map":"koth_cascade","folder":"tf","game":"Team Fortress","app_id":440,"player_count":0,"max_players":24,"Bots":0,"server_type":"Dedicated","server_os":"Linux","password":true,"vac":true,"version":"7708610","steam_id":85568392925397852,"keywords":["cp","nocrits","nodmgspread","uncletopia"],"game_id":440,"stv_port":0,"stv_name":"","players":null},{"server_id":52,"name":"Uncletopia | Warsaw | 4 | All Maps","name_short":"waw-4","host":"waw-1.pl.uncletopia.com","port":27045,"enabled":true,"region":"eu","cc":"pl","latitude":52.2297,"longitude":21.017532,"reserved":0,"last_update":"0001-01-01T00:00:00Z","name_a2s":"Uncletopia | Warsaw | 4 | All Maps","protocol":17,"map":"pl_badwater","folder":"tf","game":"Team Fortress","app_id":440,"player_count":0,"max_players":24,"Bots":0,"server_type":"Dedicated","server_os":"Linux","password":true,"vac":true,"version":"7708610","steam_id":85568392925397853,"keywords":["nocrits","nodmgspread","payload","uncletopia"],"game_id":440,"stv_port":27046,"stv_name":"Uncletopia | Warsaw | 4 | All Maps | STV","players":null},{"server_id":53,"name":"Uncletopia | Warsaw | 5 | No Payload","name_short":"waw-5","host":"waw-1.pl.uncletopia.com","port":27055,"enabled":true,"region":"eu","cc":"pl","latitude":52.2297,"longitude":21.017532,"reserved":0,"last_update":"0001-01-01T00:00:00Z","name_a2s":"Uncletopia | Warsaw | 5 | No Payload","protocol":17,"map":"cp_dustbowl","folder":"tf","game":"Team Fortress","app_id":440,"player_count":0,"max_players":24,"Bots":0,"server_type":"Dedicated","server_os":"Linux","password":true,"vac":true,"version":"7708610","steam_id":85568392925397854,"keywords":["cp","nocrits","nodmgspread","uncletopia"],"game_id":440,"stv_port":0,"stv_name":"","players":null},{"server_id":54,"name":"Uncletopia | Warsaw | 6 | Community","name_short":"waw-6","host":"waw-1.pl.uncletopia.com","port":27065,"enabled":true,"region":"eu","cc":"pl","latitude":52.2297,"longitude":21.017532,"reserved":0,"last_update":"0001-01-01T00:00:00Z","name_a2s":"Uncletopia | Warsaw | 6 | Community","protocol":17,"map":"koth_highpass","folder":"tf","game":"Team Fortress","app_id":440,"player_count":0,"max_players":24,"Bots":0,"server_type":"Dedicated","server_os":"Linux","password":true,"vac":true,"version":"7708610","steam_id":85568392925397856,"keywords":["cp","nocrits","nodmgspread","uncletopia"],"game_id":440,"stv_port":0,"stv_name":"","players":null}]}