{"status":true,"message":"","result":[{"server_id":9,"name":"Uncletopia | Atlanta | 1 | All Maps","name_short":"atl-1","host":"atl-1.us.uncletopia.com","port":27015,"enabled":true,"region":"us-east","cc":"us","latitude":33.753746,"longitude":-84.38633,"reserved":0,"last_update":"0001-01-01T00:00:00Z","name_a2s":"Uncletopia | Atlanta | 1 | All Maps","protocol":17,"map":"koth_cascade","folder":"tf","game":"Team Fortress","app_id":440,"player_count":0,"max_players":24,"Bots":0,"server_type":"Dedicated","server_os":"Linux","password":true,"vac":true,"version":"7757534","steam_id":85568392924469982,"keywords":["cp","nocrits","nodmgspread","uncletopia"],"game_id":440,"stv_port":27016,"stv_name":"Uncletopia | Atlanta | 1 | All Maps | STV","players":null},{"server_id":400,"name":"Uncletopia | Atlanta | 3 | Stopwatch Beta","name_short":"atl-3","host":"atl-1.us.uncletopia.com","port":27035,"enabled":true,"region":"us-east","cc":"us","latitude":33.753746,"longitude":-84.38633,"reserved":0,"last_update":"0001-01-01T00:00:00Z","name_a2s":"Uncletopia | Atlanta | 3 | Stopwatch Beta","protocol":17,"map":"workshop/pl_barnblitz_pro7.ugc582280235","folder":"tf","game":"Team Fortress","app_id":440,"player_count":0,"max_players":24,"Bots":0,"server_type":"Dedicated","server_os":"Linux","password":true,"vac":true,"version":"7757534","steam_id":85568392924515187,"keywords":["nocrits","nodmgspread","payload","uncletopia"],"game_id":440,"stv_port":27036,"stv_name":"Uncletopia | Atlanta | 3 | Stopwatch Beta | STV","players":null},{"server_id":401,"name":"Uncletopia | Atlanta | 4 | No Payload","name_short":"atl-4","host":"atl-1.us.uncletopia.com","port":27045,"enabled":true,"region":"us-east","cc":"us","latitude":33.753746,"longitude":-84.38633,"reserved":0,"last_update":"0001-01-01T00:00:00Z","name_a2s":"Uncletopia | Atlanta | 4 | No Payload","protocol":17,"map":"pl_pier","folder":"tf","game":"Team Fortress","app_id":440,"player_count":0,"max_players":24,"Bots":0,"server_type":"Dedicated","server_os":"Linux","password":true,"vac":true,"version":"7723704","steam_id":85568392924515188,"keywords":["nocrits","nodmgspread","payload","uncletopia"],"game_id":440,"stv_port":27046,"stv_name":"Uncletopia | Atlanta | 4 | No Payload | STV","players":null},{"server_id":2,"name":"Uncletopia | Chicago | 1 | All Maps","name_short":"chi-1","host":"chi-1.us.uncletopia.com","port":27015,"enabled":true,"region":"us-central","cc":"us","latitude":41.881832,"longitude":-87.62318,"reserved":0,"last_update":"0001-01-01T00:00:00Z","name_a2s":"Uncletopia | Chicago | 1 | All Maps","protocol":17,"map":"cp_egypt_final","folder":"tf","game":"Team Fortress","app_id":440,"player_count":24,"max_players":24,"Bots":0,"server_type":"Dedicated","server_os":"Linux","password":true,"vac":true,"version":"7757534","steam_id":85568392924469984,"keywords":["cp","nocrits","nodmgspread","uncletopia"],"game_id":440,"stv_port":27016,"stv_name":"Uncletopia | Chicago | 1 | All Maps | STV","players":[{"user_id":1029,"name":"winton","steam_id":76561198189997833,"connected_time":160000000000,"state":"active","ping":97},{"user_id":971,"name":"Merci?","steam_id":76561198096823118,"connected_time":5473000000000,"state":"active","ping":63},{"user_id":989,"name":"Vro","steam_id":76561198253396630,"connected_time":3439000000000,"state":"active","ping":89},{"user_id":1011,"name":"Lennu","steam_id":76561198060730154,"connected_time":2506000000000,"state":"active","ping":59},{"user_id":987,"name":"Magic Jack","steam_id":76561198227459488,"connected_time":3743000000000,"state":"active","ping":60},{"user_id":972,"name":"Goobigan","steam_id":76561198072790366,"connected_time":5462000000000,"state":"active","ping":108},{"user_id":992,"name":"YungPercules","steam_id":76561198990681169,"connected_time":3292000000000,"state":"active","ping":102},{"user_id":991,"name":"elyk37","steam_id":76561198124135253,"connected_time":3379000000000,"state":"active","ping":71},{"user_id":970,"name":"Lavender","steam_id":76561198142770666,"connected_time":5510000000000,"state":"active","ping":55},{"user_id":1026,"name":"xyt0nix","steam_id":76561199437938235,"connected_time":295000000000,"state":"active","ping":73},{"user_id":1030,"name":"Quirig","steam_id":76561198278256278,"connected_time":129000000000,"state":"active","ping":99},{"user_id":1015,"name":"Tarofel","steam_id":76561198051888035,"connected_time":1461000000000,"state":"active","ping":49},{"user_id":979,"name":"I make NSFW Art","steam_id":76561198939958767,"connected_time":4355000000000,"state":"active","ping":71},{"user_id":1032,"name":"Tenori","steam_id":76561198046773795,"connected_time":65000000000,"state":"active","ping":67},{"user_id":1025,"name":"BitterSweet","steam_id":76561198161342377,"connected_time":760000000000,"state":"active","ping":81},{"user_id":1022,"name":"mossy_woods","steam_id":76561198284350370,"connected_time":811000000000,"state":"active","ping":68},{"user_id":1031,"name":"Shrek is Kek","steam_id":76561198126373933,"connected_time":112000000000,"state":"active","ping":74},{"user_id":1017,"name":"Oddjob","steam_id":76561198976160793,"connected_time":1406000000000,"state":"active","ping":77},{"user_id":1033,"name":"Supreme Leader Gnomedolf Slonke","steam_id":76561198310594866,"connected_time":37000000000,"state":"active","ping":99},{"user_id":1034,"name":"ItsDifficultttt","steam_id":76561199402730529,"connected_time":32000000000,"state":"active","ping":73},{"user_id":1035,"name":"tragic | swiftyservers.com","steam_id":76561198024043469,"connected_time":30000000000,"state":"active","ping":74},{"user_id":1018,"name":"ScoutBox","steam_id":76561198111539895,"connected_time":836000000000,"state":"active","ping":92},{"user_id":1023,"name":"Subway Fan","steam_id":76561198336372790,"connected_time":811000000000,"state":"active","ping":47},{"user_id":1020,"name":"hypermetalsonic5","steam_id":76561198074267655,"connected_time":830000000000,"state":"active","ping":71}]},{"server_id":106,"name":"Uncletopia | Chicago | 2 | All Maps","name_short":"chi-2","host":"chi-1.us.uncletopia.com","port":27025,"enabled":true,"region":"us-central","cc":"us","latitude":41.881832,"longitude":-87.62318,"reserved":0,"last_update":"0001-01-01T00:00:00Z","name_a2s":"Uncletopia | Chicago | 2 | All Maps","protocol":17,"map":"cp_well","folder":"tf","game":"Team Fortress","app_id":440,"player_count":6,"max_players":24,"Bots":0,"server_type":"Dedicated","server_os":"Linux","password":true,"vac":true,"version":"7757534","steam_id":85568392924469985,"keywords":["cp","nocrits","nodmgspread","uncletopia"],"game_id":440,"stv_port":27026,"stv_name":"Uncletopia | Chicago | 2 | All Maps | STV","players":[{"user_id":1037,"name":"Random Dumbass","steam_id":76561198098144550,"connected_time":783000000000,"state":"active","ping":101},{"user_id":1039,"name":"sneakysquid (real)","steam_id":76561198800721329,"connected_time":642000000000,"state":"active","ping":85},{"user_id":1046,"name":"twitch.tv/Yoshi21 | TF2Pugs.com","steam_id":76561198002516729,"connected_time":4000000000,"state":"spawning","ping":67},{"user_id":1023,"name":"Gnome (wanted felon)","steam_id":76561199229771413,"connected_time":1931000000000,"state":"active","ping":82},{"user_id":1041,"name":"ultralisk52","steam_id":76561198051666604,"connected_time":365000000000,"state":"active","ping":57},{"user_id":1045,"name":"Saristan","steam_id":76561198093346048,"connected_time":243000000000,"state":"active","ping":63}]},{"server_id":402,"name":"Uncletopia | Chicago | 3 | All Maps","name_short":"chi-3","host":"chi-1.us.uncletopia.com","port":27035,"enabled":true,"region":"us-central","cc":"us","latitude":41.881832,"longitude":-87.62318,"reserved":0,"last_update":"0001-01-01T00:00:00Z","name_a2s":"Uncletopia | Chicago | 3 | All Maps","protocol":17,"map":"koth_cascade","folder":"tf","game":"Team Fortress","app_id":440,"player_count":0,"max_players":24,"Bots":0,"server_type":"Dedicated","server_os":"Linux","password":true,"vac":true,"version":"7757534","steam_id":85568392924515191,"keywords":["cp","nocrits","nodmgspread","uncletopia"],"game_id":440,"stv_port":27036,"stv_name":"Uncletopia | Chicago | 3 | All Maps | STV","players":null},{"server_id":403,"name":"Uncletopia | Chicago | 4 | All Maps","name_short":"chi-4","host":"chi-1.us.uncletopia.com","port":27045,"enabled":true,"region":"us-central","cc":"us","latitude":41.881832,"longitude":-87.62318,"reserved":0,"last_update":"0001-01-01T00:00:00Z","name_a2s":"Uncletopia | Chicago | 4 | All Maps","protocol":17,"map":"pl_swiftwater_final1","folder":"tf","game":"Team Fortress","app_id":440,"player_count":23,"max_players":24,"Bots":0,"server_type":"Dedicated","server_os":"Linux","password":true,"vac":true,"version":"7757534","steam_id":85568392924515193,"keywords":["nocrits","nodmgspread","payload","uncletopia"],"game_id":440,"stv_port":27046,"stv_name":"Uncletopia | Chicago | 4 | All Maps | STV","players":[{"user_id":836,"name":"Petey","steam_id":76561198007339151,"connected_time":237000000000,"state":"active","ping":81},{"user_id":818,"name":"nhstefanov","steam_id":76561198811811405,"connected_time":1159000000000,"state":"active","ping":156},{"user_id":838,"name":"SLUM","steam_id":76561199201239981,"connected_time":136000000000,"state":"active","ping":73},{"user_id":840,"name":"dzcreeper","steam_id":76561198072250723,"connected_time":87000000000,"state":"active","ping":75},{"user_id":813,"name":"Accursed","steam_id":76561198082217768,"connected_time":1725000000000,"state":"active","ping":77},{"user_id":842,"name":"aversa","steam_id":76561198840460101,"connected_time":53000000000,"state":"active","ping":61},{"user_id":709,"name":"KingQuaken","steam_id":76561198140733826,"connected_time":11481000000000,"state":"active","ping":83},{"user_id":844,"name":"Kol","steam_id":76561199151398882,"connected_time":17000000000,"state":"spawning","ping":82},{"user_id":822,"name":"winterarne","steam_id":76561198825138500,"connected_time":790000000000,"state":"active","ping":153},{"user_id":726,"name":"febfowl","steam_id":76561198023888890,"connected_time":9820000000000,"state":"active","ping":86},{"user_id":829,"name":"aineas.opsomer","steam_id":76561199234623493,"connected_time":456000000000,"state":"active","ping":152},{"user_id":817,"name":"Huey","steam_id":76561198972816386,"connected_time":1514000000000,"state":"active","ping":75},{"user_id":841,"name":"nameban","steam_id":76561198869995094,"connected_time":71000000000,"state":"active","ping":101},{"user_id":824,"name":"Got Oil?","steam_id":76561199238964574,"connected_time":639000000000,"state":"active","ping":72},{"user_id":825,"name":"creature","steam_id":76561198281892720,"connected_time":615000000000,"state":"active","ping":48},{"user_id":837,"name":"warrior","steam_id":76561198074500319,"connected_time":236000000000,"state":"active","ping":105},{"user_id":831,"name":"IDNTT","steam_id":76561198080859587,"connected_time":391000000000,"state":"active","ping":102},{"user_id":843,"name":"BuddStuddard","steam_id":76561198031660510,"connected_time":42000000000,"state":"active","ping":104},{"user_id":833,"name":"e","steam_id":76561198131245396,"connected_time":363000000000,"state":"active","ping":51},{"user_id":707,"name":"mrstealthg","steam_id":76561198059088381,"connected_time":11515000000000,"state":"active","ping":114},{"user_id":834,"name":"mr.edderkopper","steam_id":76561198152614478,"connected_time":264000000000,"state":"active","ping":55},{"user_id":835,"name":"pigswill","steam_id":76561197999081865,"connected_time":262000000000,"state":"active","ping":89},{"user_id":725,"name":"Snazzi","steam_id":76561198085208276,"connected_time":9855000000000,"state":"active","ping":77}]},{"server_id":36,"name":"Uncletopia | Chicago | 5 | All Maps","name_short":"chi-5","host":"chi-2.us.uncletopia.com","port":27015,"enabled":true,"region":"us-central","cc":"us","latitude":41.881832,"longitude":-87.62318,"reserved":0,"last_update":"0001-01-01T00:00:00Z","name_a2s":"Uncletopia | Chicago | 5 | All Maps","protocol":17,"map":"koth_viaduct","folder":"tf","game":"Team Fortress","app_id":440,"player_count":0,"max_players":24,"Bots":0,"server_type":"Dedicated","server_os":"Linux","password":true,"vac":true,"version":"7757534","steam_id":85568392924866362,"keywords":["cp","nocrits","nodmgspread","uncletopia"],"game_id":440,"stv_port":27016,"stv_name":"Uncletopia | Chicago | 5 | All Maps | STV","players":null},{"server_id":37,"name":"Uncletopia | Chicago | 6 | All Maps","name_short":"chi-6","host":"chi-2.us.uncletopia.com","port":27025,"enabled":true,"region":"us-central","cc":"us","latitude":41.881832,"longitude":-87.62318,"reserved":0,"last_update":"0001-01-01T00:00:00Z","name_a2s":"Uncletopia | Chicago | 6 | All Maps","protocol":17,"map":"cp_sunshine","folder":"tf","game":"Team Fortress","app_id":440,"player_count":0,"max_players":24,"Bots":0,"server_type":"Dedicated","server_os":"Linux","password":true,"vac":true,"version":"7757534","steam_id":85568392924866363,"keywords":["cp","nocrits","nodmgspread","uncletopia"],"game_id":440,"stv_port":27026,"stv_name":"Uncletopia | Chicago | 6 | All Maps | STV","players":null},{"server_id":38,"name":"Uncletopia | Chicago | 7 | Stopwatch Beta","name_short":"chi-7","host":"chi-2.us.uncletopia.com","port":27035,"enabled":true,"region":"us-central","cc":"us","latitude":41.881832,"longitude":-87.62318,"reserved":0,"last_update":"0001-01-01T00:00:00Z","name_a2s":"Uncletopia | Chicago | 7 | Stopwatch Beta","protocol":17,"map":"workshop/pl_vigil_rc9.ugc1266210012","folder":"tf","game":"Team Fortress","app_id":440,"player_count":0,"max_players":24,"Bots":0,"server_type":"Dedicated","server_os":"Linux","password":true,"vac":true,"version":"7757534","steam_id":85568392924866364,"keywords":["nocrits","nodmgspread","payload","uncletopia"],"game_id":440,"stv_port":27036,"stv_name":"Uncletopia | Chicago | 7 | Stopwatch Beta | STV","players":null},{"server_id":39,"name":"Uncletopia | Chicago | 8 | Community","name_short":"chi-8","host":"chi-2.us.uncletopia.com","port":27045,"enabled":true,"region":"us-central","cc":"us","latitude":41.881832,"longitude":-87.62318,"reserved":0,"last_update":"0001-01-01T00:00:00Z","name_a2s":"Uncletopia | Chicago | 8 | Community","protocol":17,"map":"workshop/koth_bagel_rc5.ugc2514036946","folder":"tf","game":"Team Fortress","app_id":440,"player_count":0,"max_players":24,"Bots":0,"server_type":"Dedicated","server_os":"Linux","password":true,"vac":true,"version":"7757534","steam_id":85568392924866365,"keywords":["cp","nocrits","nodmgspread","uncletopia"],"game_id":440,"stv_port":27046,"stv_name":"Uncletopia | Chicago | 8 | Community | STV","players":null},{"server_id":8,"name":"Uncletopia | Dallas | 1 | All Maps","name_short":"dal-1","host":"dal-1.us.uncletopia.com","port":27015,"enabled":true,"region":"us-central","cc":"us","latitude":32.779167,"longitude":-96.80889,"reserved":0,"last_update":"0001-01-01T00:00:00Z","name_a2s":"Uncletopia | Dallas | 1 | All Maps","protocol":17,"map":"koth_highpass","folder":"tf","game":"Team Fortress","app_id":440,"player_count":0,"max_players":24,"Bots":0,"server_type":"Dedicated","server_os":"Linux","password":true,"vac":true,"version":"7757534","steam_id":85568392924469986,"keywords":["cp","nocrits","nodmgspread","uncletopia"],"game_id":440,"stv_port":27016,"stv_name":"Uncletopia | Dallas | 1 | All Maps | STV","players":null},{"server_id":108,"name":"Uncletopia | Dallas | 2 | All Maps","name_short":"dal-2","host":"dal-1.us.uncletopia.com","port":27025,"enabled":true,"region":"us-central","cc":"us","latitude":32.779167,"longitude":-96.80889,"reserved":0,"last_update":"0001-01-01T00:00:00Z","name_a2s":"Uncletopia | Dallas | 2 | All Maps","protocol":17,"map":"pl_barnblitz","folder":"tf","game":"Team Fortress","app_id":440,"player_count":0,"max_players":24,"Bots":0,"server_type":"Dedicated","server_os":"Linux","password":true,"vac":true,"version":"7757534","steam_id":85568392924469988,"keywords":["nocrits","nodmgspread","payload","uncletopia"],"game_id":440,"stv_port":27026,"stv_name":"Uncletopia | Dallas | 2 | All Maps | STV","players":null},{"server_id":5,"name":"Uncletopia | Frankfurt | 1 | All Maps","name_short":"frk-1","host":"frk-1.de.uncletopia.com","port":27015,"enabled":true,"region":"eu","cc":"de","latitude":50.110924,"longitude":8.682127,"reserved":0,"last_update":"0001-01-01T00:00:00Z","name_a2s":"Uncletopia | Frankfurt | 1 | All Maps","protocol":17,"map":"pl_barnblitz","folder":"tf","game":"Team Fortress","app_id":440,"player_count":24,"max_players":24,"Bots":0,"server_type":"Dedicated","server_os":"Linux","password":true,"vac":true,"version":"7757534","steam_id":85568392924469989,"keywords":["nocrits","nodmgspread","payload","uncletopia"],"game_id":440,"stv_port":27016,"stv_name":"Uncletopia | Frankfurt | 1 | All Maps | STV","players":[{"user_id":84,"name":"SpilledMilk","steam_id":76561198174123971,"connected_time":140000000000,"state":"active","ping":57},{"user_id":62,"name":"ivanmixo","steam_id":76561198160213989,"connected_time":1583000000000,"state":"active","ping":55},{"user_id":81,"name":"pl_badwater","steam_id":76561198875409640,"connected_time":510000000000,"state":"active","ping":69},{"user_id":65,"name":"flora","steam_id":76561197994492154,"connected_time":1551000000000,"state":"active","ping":63},{"user_id":77,"name":"dollar foot long","steam_id":76561199250808808,"connected_time":933000000000,"state":"active","ping":76},{"user_id":16,"name":"Orochi","steam_id":76561198265192382,"connected_time":4219000000000,"state":"active","ping":60},{"user_id":69,"name":"Maximus","steam_id":76561198032472655,"connected_time":1486000000000,"state":"active","ping":59},{"user_id":45,"name":"Crab communist","steam_id":76561198368339225,"connected_time":3354000000000,"state":"active","ping":102},{"user_id":67,"name":"Bambas","steam_id":76561198274979955,"connected_time":1524000000000,"state":"active","ping":68},{"user_id":35,"name":"Kazz","steam_id":76561199055163044,"connected_time":3593000000000,"state":"active","ping":68},{"user_id":78,"name":"toust","steam_id":76561199103417422,"connected_time":729000000000,"state":"active","ping":60},{"user_id":25,"name":"Gnarville","steam_id":76561198006373329,"connected_time":3900000000000,"state":"active","ping":60},{"user_id":26,"name":"Tamamo","steam_id":76561198116789623,"connected_time":3807000000000,"state":"active","ping":57},{"user_id":51,"name":"Laki","steam_id":76561198126078953,"connected_time":2438000000000,"state":"active","ping":110},{"user_id":76,"name":"Pls.do.it!","steam_id":76561198211638119,"connected_time":981000000000,"state":"active","ping":56},{"user_id":52,"name":"dx_xb","steam_id":76561198064878900,"connected_time":2405000000000,"state":"active","ping":60},{"user_id":79,"name":"eww","steam_id":76561198061179194,"connected_time":663000000000,"state":"active","ping":85},{"user_id":32,"name":"goktwoxd","steam_id":76561198065114415,"connected_time":3703000000000,"state":"active","ping":68},{"user_id":86,"name":"Zogg","steam_id":76561198352683491,"connected_time":21000000000,"state":"spawning","ping":46},{"user_id":80,"name":"pate","steam_id":76561198313183297,"connected_time":556000000000,"state":"active","ping":77},{"user_id":85,"name":"ChaserFogFi","steam_id":76561199119836596,"connected_time":132000000000,"state":"active","ping":53},{"user_id":83,"name":"average cpp programmer","steam_id":76561198259249173,"connected_time":246000000000,"state":"active","ping":63},{"user_id":70,"name":"Magg","steam_id":76561198838569207,"connected_time":1470000000000,"state":"active","ping":85},{"user_id":73,"name":"risetime","steam_id":76561199232442508,"connected_time":1195000000000,"state":"active","ping":75}]},{"server_id":110,"name":"Uncletopia | Frankfurt | 2 | All Maps","name_short":"frk-2","host":"frk-1.de.uncletopia.com","port":27025,"enabled":true,"region":"eu","cc":"de","latitude":50.110924,"longitude":8.682127,"reserved":0,"last_update":"0001-01-01T00:00:00Z","name_a2s":"Uncletopia | Frankfurt | 2 | All Maps","protocol":17,"map":"pl_upward","folder":"tf","game":"Team Fortress","app_id":440,"player_count":24,"max_players":24,"Bots":0,"server_type":"Dedicated","server_os":"Linux","password":true,"vac":true,"version":"7757534","steam_id":85568392924469990,"keywords":["nocrits","nodmgspread","payload","uncletopia"],"game_id":440,"stv_port":27026,"stv_name":"Uncletopia | Frankfurt | 2 | All Maps | STV","players":[{"user_id":4,"name":"icebro","steam_id":76561199123450840,"connected_time":3593000000000,"state":"active","ping":67},{"user_id":5,"name":"☣Strale☣","steam_id":76561198026578820,"connected_time":3357000000000,"state":"active","ping":71},{"user_id":6,"name":"tolis","steam_id":76561198838534804,"connected_time":3151000000000,"state":"active","ping":108},{"user_id":24,"name":"DOS Vs Coughing Baby","steam_id":76561198846784757,"connected_time":1875000000000,"state":"active","ping":83},{"user_id":54,"name":"Hooggers","steam_id":76561198120447741,"connected_time":528000000000,"state":"active","ping":93},{"user_id":11,"name":"SetazeR","steam_id":76561198045639314,"connected_time":2387000000000,"state":"active","ping":85},{"user_id":10,"name":"Taskyy","steam_id":76561198134901175,"connected_time":2413000000000,"state":"active","ping":86},{"user_id":12,"name":"23 days til HL release.","steam_id":76561199176781811,"connected_time":2371000000000,"state":"active","ping":95},{"user_id":51,"name":"Nick","steam_id":76561198036109469,"connected_time":650000000000,"state":"active","ping":90},{"user_id":43,"name":"Gorlami","steam_id":76561198139623088,"connected_time":1066000000000,"state":"active","ping":81},{"user_id":15,"name":"Sauce™","steam_id":76561198155094400,"connected_time":2178000000000,"state":"active","ping":58},{"user_id":59,"name":"tenenbaum_2","steam_id":76561198075723636,"connected_time":57000000000,"state":"spawning","ping":5440},{"user_id":39,"name":"pussyhunter69","steam_id":76561198246334410,"connected_time":1111000000000,"state":"active","ping":59},{"user_id":20,"name":"The Funny Cat-Heaby","steam_id":76561198439978112,"connected_time":2028000000000,"state":"active","ping":108},{"user_id":44,"name":"DOME","steam_id":76561198085155381,"connected_time":961000000000,"state":"active","ping":75},{"user_id":49,"name":"2-D (secretly undercover)","steam_id":76561198287344223,"connected_time":734000000000,"state":"active","ping":97},{"user_id":25,"name":"Karsapaali","steam_id":76561198322322739,"connected_time":1798000000000,"state":"active","ping":88},{"user_id":26,"name":"clems17","steam_id":76561199420685482,"connected_time":1770000000000,"state":"active","ping":49},{"user_id":50,"name":"lem0nadina","steam_id":76561198427611007,"connected_time":702000000000,"state":"active","ping":150},{"user_id":37,"name":"TTV/pablo_ricco","steam_id":76561198279839318,"connected_time":1476000000000,"state":"active","ping":89},{"user_id":58,"name":"Vosteria","steam_id":76561198290253884,"connected_time":207000000000,"state":"active","ping":88},{"user_id":30,"name":"bombo112","steam_id":76561198059743551,"connected_time":1735000000000,"state":"active","ping":95},{"user_id":56,"name":"NIKITA","steam_id":76561197992927989,"connected_time":500000000000,"state":"active","ping":88},{"user_id":38,"name":"better call selo","steam_id":76561198976793469,"connected_time":1269000000000,"state":"active","ping":91}]},{"server_id":308,"name":"Uncletopia | Frankfurt | 3 | All Maps","name_short":"frk-3","host":"frk-1.de.uncletopia.com","port":27035,"enabled":true,"region":"eu","cc":"de","latitude":50.110924,"longitude":8.682127,"reserved":0,"last_update":"0001-01-01T00:00:00Z","name_a2s":"Uncletopia | Frankfurt | 3 | All Maps","protocol":17,"map":"koth_highpass","folder":"tf","game":"Team Fortress","app_id":440,"player_count":0,"max_players":24,"Bots":0,"server_type":"Dedicated","server_os":"Linux","password":true,"vac":true,"version":"7757534","steam_id":85568392924504274,"keywords":["cp","nocrits","nodmgspread","uncletopia"],"game_id":440,"stv_port":27036,"stv_name":"Uncletopia | Frankfurt | 3 | All Maps | STV","players":null},{"server_id":309,"name":"Uncletopia | Frankfurt | 4 | All Maps","name_short":"frk-4","host":"frk-1.de.uncletopia.com","port":27045,"enabled":true,"region":"eu","cc":"de","latitude":50.110924,"longitude":8.682127,"reserved":0,"last_update":"0001-01-01T00:00:00Z","name_a2s":"Uncletopia | Frankfurt | 4 | All Maps","protocol":17,"map":"pl_snowycoast","folder":"tf","game":"Team Fortress","app_id":440,"player_count":0,"max_players":24,"Bots":0,"server_type":"Dedicated","server_os":"Linux","password":true,"vac":true,"version":"7757534","steam_id":85568392924504275,"keywords":["nocrits","nodmgspread","payload","uncletopia"],"game_id":440,"stv_port":27046,"stv_name":"Uncletopia | Frankfurt | 4 | All Maps | STV","players":null},{"server_id":310,"name":"Uncletopia | Frankfurt | 5 | All Maps","name_short":"frk-5","host":"frk-1.de.uncletopia.com","port":27055,"enabled":true,"region":"eu","cc":"de","latitude":50.110924,"longitude":8.682127,"reserved":0,"last_update":"0001-01-01T00:00:00Z","name_a2s":"Uncletopia | Frankfurt | 5 | All Maps","protocol":17,"map":"cp_altitude","folder":"tf","game":"Team Fortress","app_id":440,"player_count":0,"max_players":24,"Bots":0,"server_type":"Dedicated","server_os":"Linux","password":true,"vac":true,"version":"7757534","steam_id":85568392924504277,"keywords":["cp","nocrits","nodmgspread","uncletopia"],"game_id":440,"stv_port":27056,"stv_name":"Uncletopia | Frankfurt | 5 | All Maps | STV","players":null},{"server_id":311,"name":"Uncletopia | Frankfurt | 6 | All Maps","name_short":"frk-6","host":"frk-1.de.uncletopia.com","port":27065,"enabled":true,"region":"eu","cc":"de","latitude":50.110924,"longitude":8.682127,"reserved":0,"last_update":"0001-01-01T00:00:00Z","name_a2s":"Uncletopia | Frankfurt | 6 | All Maps","protocol":17,"map":"koth_highpass","folder":"tf","game":"Team Fortress","app_id":440,"player_count":0,"max_players":24,"Bots":0,"server_type":"Dedicated","server_os":"Linux","password":true,"vac":true,"version":"7757534","steam_id":85568392924504278,"keywords":["cp","nocrits","nodmgspread","uncletopia"],"game_id":440,"stv_port":27066,"stv_name":"Uncletopia | Frankfurt | 6 | All Maps | STV","players":null},{"server_id":23,"name":"Uncletopia | Frankfurt | 7 | Stopwatch Beta","name_short":"frk-7","host":"frk-1.de.uncletopia.com","port":27075,"enabled":true,"region":"eu","cc":"de","latitude":50.110924,"longitude":8.682127,"reserved":0,"last_update":"0001-01-01T00:00:00Z","name_a2s":"Uncletopia | Frankfurt | 7 | Stopwatch Beta","protocol":17,"map":"pl_borneo","folder":"tf","game":"Team Fortress","app_id":440,"player_count":0,"max_players":24,"Bots":0,"server_type":"Dedicated","server_os":"Linux","password":true,"vac":true,"version":"7757534","steam_id":85568392924742827,"keywords":["nocrits","nodmgspread","payload","uncletopia"],"game_id":440,"stv_port":27076,"stv_name":"Uncletopia | Frankfurt | 7 | Stopwatch Beta | STV","players":null},{"server_id":24,"name":"Uncletopia | Frankfurt | 8 | Community","name_short":"frk-8","host":"frk-1.de.uncletopia.com","port":27085,"enabled":true,"region":"eu","cc":"de","latitude":50.110924,"longitude":8.682127,"reserved":0,"last_update":"0001-01-01T00:00:00Z","name_a2s":"Uncletopia | Frankfurt | 8 | Community","protocol":17,"map":"koth_cascade","folder":"tf","game":"Team Fortress","app_id":440,"player_count":0,"max_players":24,"Bots":0,"server_type":"Dedicated","server_os":"Linux","password":true,"vac":true,"version":"7757534","steam_id":85568392924742828,"keywords":["cp","nocrits","nodmgspread","uncletopia"],"game_id":440,"stv_port":27086,"stv_name":"Uncletopia | Frankfurt | 8 | Community | STV","players":null},{"server_id":202,"name":"Uncletopia | Hong Kong | 1 | All Maps","name_short":"hgk-1","host":"hgk-1.hk.uncletopia.com","port":27015,"enabled":true,"region":"asia","cc":"hk","latitude":22.302711,"longitude":114.177216,"reserved":0,"last_update":"0001-01-01T00:00:00Z","name_a2s":"Uncletopia | Hong Kong | 1 | All Maps","protocol":17,"map":"pl_upward","folder":"tf","game":"Team Fortress","app_id":440,"player_count":25,"max_players":24,"Bots":0,"server_type":"Dedicated","server_os":"Linux","password":true,"vac":true,"version":"7757534","steam_id":85568392924494504,"keywords":["nocrits","nodmgspread","payload","uncletopia"],"game_id":440,"stv_port":27016,"stv_name":"Uncletopia | Hong Kong | 1 | All Maps | STV","players":[{"user_id":344,"name":"sierra","steam_id":76561197969873415,"connected_time":1441000000000,"state":"active","ping":145},{"user_id":286,"name":"帕","steam_id":76561198439343999,"connected_time":5292000000000,"state":"active","ping":78},{"user_id":353,"name":"help me","steam_id":76561198339657566,"connected_time":526000000000,"state":"active","ping":130},{"user_id":340,"name":"SunShine","steam_id":76561198323642446,"connected_time":1464000000000,"state":"active","ping":111},{"user_id":295,"name":"LudE","steam_id":76561198828840546,"connected_time":4566000000000,"state":"active","ping":73},{"user_id":347,"name":"Iron Bomber!!!","steam_id":76561198203073201,"connected_time":1428000000000,"state":"active","ping":72},{"user_id":297,"name":"marikina boy","steam_id":76561199085409122,"connected_time":4518000000000,"state":"active","ping":55},{"user_id":354,"name":"qb","steam_id":76561198412329672,"connected_time":524000000000,"state":"active","ping":91},{"user_id":348,"name":"can we get much higher","steam_id":76561199390507975,"connected_time":1348000000000,"state":"active","ping":51},{"user_id":228,"name":"Windmill","steam_id":76561199230997986,"connected_time":12942000000000,"state":"active","ping":88},{"user_id":361,"name":"unoriginalname42","steam_id":76561199200897735,"connected_time":12000000000,"state":"spawning","ping":61},{"user_id":350,"name":"Peter Python","steam_id":76561198353760830,"connected_time":1195000000000,"state":"active","ping":128},{"user_id":356,"name":"UltraFat","steam_id":76561198253918132,"connected_time":507000000000,"state":"active","ping":95},{"user_id":357,"name":"serotonin","steam_id":76561198748035294,"connected_time":492000000000,"state":"active","ping":104},{"user_id":306,"name":"Bertengkar","steam_id":76561198213031155,"connected_time":3065000000000,"state":"active","ping":91},{"user_id":358,"name":"let cook","steam_id":76561198055553140,"connected_time":474000000000,"state":"active","ping":75},{"user_id":359,"name":"worndelight","steam_id":76561199056960214,"connected_time":426000000000,"state":"active","ping":137},{"user_id":362,"name":"Friedrice(Chris)","steam_id":76561199012496131,"connected_time":5000000000,"state":"spawning","ping":119},{"user_id":352,"name":"Momoxhien","steam_id":76561198414997429,"connected_time":529000000000,"state":"active","ping":63},{"user_id":296,"name":"greeny the korean jesus","steam_id":76561198024666371,"connected_time":4565000000000,"state":"active","ping":93},{"user_id":179,"name":"loreley","steam_id":76561198230213828,"connected_time":17600000000000,"state":"active","ping":61},{"user_id":284,"name":"Urotsuki","steam_id":76561198074339034,"connected_time":5760000000000,"state":"active","ping":78},{"user_id":351,"name":"\u003c\u003cDunce](:-p)-|---\u003c","steam_id":76561199190321580,"connected_time":551000000000,"state":"active","ping":67},{"user_id":355,"name":"Darknight","steam_id":76561199090139287,"connected_time":523000000000,"state":"active","ping":88},{"user_id":363,"name":"DVD","steam_id":76561198856677973,"connected_time":1000000000,"state":"spawning","ping":312}]},{"server_id":1,"name":"Uncletopia | Los Angeles | 1 | All Maps","name_short":"lax-1","host":"lax-1.us.uncletopia.com","port":27015,"enabled":true,"region":"us-west","cc":"us","latitude":33.94279,"longitude":-118.41004,"reserved":0,"last_update":"0001-01-01T00:00:00Z","name_a2s":"Uncletopia | Los Angeles | 1 | All Maps","protocol":17,"map":"cp_sunshine","folder":"tf","game":"Team Fortress","app_id":440,"player_count":0,"max_players":24,"Bots":0,"server_type":"Dedicated","server_os":"Linux","password":true,"vac":true,"version":"7757534","steam_id":85568392924469991,"keywords":["cp","nocrits","nodmgspread","uncletopia"],"game_id":440,"stv_port":27016,"stv_name":"Uncletopia | Los Angeles | 1 | All Maps | STV","players":null},{"server_id":112,"name":"Uncletopia | Los Angeles | 2 | All Maps","name_short":"lax-2","host":"lax-1.us.uncletopia.com","port":27025,"enabled":true,"region":"us-west","cc":"us","latitude":33.94279,"longitude":-118.41004,"reserved":0,"last_update":"0001-01-01T00:00:00Z","name_a2s":"Uncletopia | Los Angeles | 2 | All Maps","protocol":17,"map":"pl_frontier_final","folder":"tf","game":"Team Fortress","app_id":440,"player_count":24,"max_players":24,"Bots":0,"server_type":"Dedicated","server_os":"Linux","password":true,"vac":true,"version":"7757534","steam_id":85568392924469992,"keywords":["nocrits","nodmgspread","payload","uncletopia"],"game_id":440,"stv_port":27026,"stv_name":"Uncletopia | Los Angeles | 2 | All Maps | STV","players":[{"user_id":373,"name":"Dauntless Duelist","steam_id":76561198025056018,"connected_time":2943000000000,"state":"active","ping":74},{"user_id":357,"name":"FAC","steam_id":76561198009818412,"connected_time":3956000000000,"state":"active","ping":98},{"user_id":386,"name":"w key + left click + spacebar","steam_id":76561198319442494,"connected_time":1168000000000,"state":"active","ping":59},{"user_id":388,"name":"nella","steam_id":76561198079349621,"connected_time":648000000000,"state":"active","ping":51},{"user_id":356,"name":"TheBrocklobster","steam_id":76561198039682984,"connected_time":4053000000000,"state":"active","ping":59},{"user_id":387,"name":"monjiro","steam_id":76561198239598834,"connected_time":895000000000,"state":"active","ping":106},{"user_id":294,"name":"delight","steam_id":76561197980280272,"connected_time":8617000000000,"state":"active","ping":75},{"user_id":384,"name":"Battery_Included","steam_id":76561198067164431,"connected_time":1527000000000,"state":"active","ping":40},{"user_id":381,"name":"dandy","steam_id":76561197967362217,"connected_time":1702000000000,"state":"active","ping":50},{"user_id":390,"name":"daemon","steam_id":76561198001541433,"connected_time":595000000000,"state":"active","ping":120},{"user_id":394,"name":"Builder","steam_id":76561198042004822,"connected_time":156000000000,"state":"active","ping":51},{"user_id":351,"name":"everythingrhymeswithorange","steam_id":76561198010306193,"connected_time":4307000000000,"state":"active","ping":60},{"user_id":360,"name":"rorywashere /ᐠ - ˕ -マ Ⳋ","steam_id":76561198065825165,"connected_time":3776000000000,"state":"active","ping":102},{"user_id":392,"name":"nhoj_","steam_id":76561198048003380,"connected_time":482000000000,"state":"active","ping":44},{"user_id":261,"name":"p9 squash","steam_id":76561198150281353,"connected_time":11200000000000,"state":"active","ping":87},{"user_id":382,"name":"rice white","steam_id":76561198320732910,"connected_time":1676000000000,"state":"active","ping":119},{"user_id":380,"name":"Sterling Nano","steam_id":76561198048580088,"connected_time":1811000000000,"state":"active","ping":109},{"user_id":395,"name":"Totally Not a Potato","steam_id":76561198062288913,"connected_time":64000000000,"state":"active","ping":59},{"user_id":393,"name":"yomommasabitch","steam_id":76561198323217150,"connected_time":454000000000,"state":"active","ping":71},{"user_id":375,"name":"Altoids?","steam_id":76561197997323720,"connected_time":2655000000000,"state":"active","ping":90},{"user_id":371,"name":"Mercenary Alpha | trade.tf","steam_id":76561198057047071,"connected_time":3245000000000,"state":"active","ping":116},{"user_id":376,"name":"Shortbane","steam_id":76561198247166584,"connected_time":2596000000000,"state":"active","ping":91},{"user_id":383,"name":"xMystic_Fire","steam_id":76561198189961543,"connected_time":1649000000000,"state":"active","ping":86},{"user_id":385,"name":"p9 jorts","steam_id":76561199041179985,"connected_time":1337000000000,"state":"active","ping":93}]},{"server_id":324,"name":"Uncletopia | Los Angeles | 3 | All Maps","name_short":"lax-3","host":"lax-1.us.uncletopia.com","port":27035,"enabled":true,"region":"us-west","cc":"us","latitude":33.94279,"longitude":-118.41004,"reserved":0,"last_update":"0001-01-01T00:00:00Z","name_a2s":"Uncletopia | Los Angeles | 3 | All Maps","protocol":17,"map":"cp_sunshine","folder":"tf","game":"Team Fortress","app_id":440,"player_count":0,"max_players":24,"Bots":0,"server_type":"Dedicated","server_os":"Linux","password":true,"vac":true,"version":"7757534","steam_id":85568392924510198,"keywords":["cp","nocrits","nodmgspread","uncletopia"],"game_id":440,"stv_port":27036,"stv_name":"Uncletopia | Los Angeles | 3 | All Maps | STV","players":null},{"server_id":25,"name":"Uncletopia | Los Angeles | 4 | Stopwatch Beta","name_short":"lax-4","host":"lax-1.us.uncletopia.com","port":27045,"enabled":true,"region":"us-west","cc":"us","latitude":33.94279,"longitude":-118.41004,"reserved":0,"last_update":"0001-01-01T00:00:00Z","name_a2s":"Uncletopia | Los Angeles | 4 | Stopwatch Beta","protocol":17,"map":"koth_viaduct","folder":"tf","game":"Team Fortress","app_id":440,"player_count":0,"max_players":24,"Bots":0,"server_type":"Dedicated","server_os":"Linux","password":true,"vac":true,"version":"7757534","steam_id":85568392924510199,"keywords":["cp","nocrits","nodmgspread","uncletopia"],"game_id":440,"stv_port":27046,"stv_name":"Uncletopia | Los Angeles | 4 | Stopwatch Beta | STV","players":null},{"server_id":11,"name":"Uncletopia | London | 1 | All Maps","name_short":"lon-1","host":"lon-1.uk.uncletopia.com","port":27015,"enabled":true,"region":"eu","cc":"gb","latitude":51.509865,"longitude":-0.118092,"reserved":0,"last_update":"0001-01-01T00:00:00Z","name_a2s":"Uncletopia | London | 1 | All Maps","protocol":17,"map":"pl_barnblitz","folder":"tf","game":"Team Fortress","app_id":440,"player_count":24,"max_players":24,"Bots":0,"server_type":"Dedicated","server_os":"Linux","password":true,"vac":true,"version":"7757534","steam_id":85568392924367362,"keywords":["nocrits","nodmgspread","payload","uncletopia"],"game_id":440,"stv_port":27016,"stv_name":"Uncletopia | London | 1 | All Maps | STV","players":[{"user_id":51,"name":"santi","steam_id":76561199074895719,"connected_time":904000000000,"state":"active","ping":110},{"user_id":70,"name":"cob","steam_id":76561199303622823,"connected_time":393000000000,"state":"active","ping":62},{"user_id":67,"name":"Avedist","steam_id":76561198037236130,"connected_time":477000000000,"state":"active","ping":86},{"user_id":13,"name":"snooper main","steam_id":76561199073802389,"connected_time":3286000000000,"state":"active","ping":90},{"user_id":39,"name":"Mayor Wank from Wanker Town","steam_id":76561197998253588,"connected_time":1642000000000,"state":"active","ping":57},{"user_id":15,"name":"poliakov.noam","steam_id":76561199259322961,"connected_time":2933000000000,"state":"active","ping":100},{"user_id":65,"name":"Dogface","steam_id":76561198118379559,"connected_time":585000000000,"state":"active","ping":76},{"user_id":69,"name":"haledust","steam_id":76561199259786987,"connected_time":402000000000,"state":"active","ping":52},{"user_id":49,"name":"Grinch Gun","steam_id":76561198097789669,"connected_time":1161000000000,"state":"active","ping":71},{"user_id":59,"name":"bee","steam_id":76561198025553902,"connected_time":746000000000,"state":"active","ping":134},{"user_id":43,"name":"t9","steam_id":76561199031727302,"connected_time":1590000000000,"state":"active","ping":104},{"user_id":38,"name":"Bottom of the barrel terrorist","steam_id":76561198929386604,"connected_time":1890000000000,"state":"active","ping":87},{"user_id":76,"name":"Real","steam_id":76561198322220924,"connected_time":37000000000,"state":"active","ping":42},{"user_id":77,"name":"babygirl","steam_id":76561198029827784,"connected_time":35000000000,"state":"active","ping":106},{"user_id":71,"name":"cyx","steam_id":76561199316310715,"connected_time":392000000000,"state":"active","ping":103},{"user_id":66,"name":"Meet the sissy of tf2","steam_id":76561199467551436,"connected_time":529000000000,"state":"active","ping":85},{"user_id":75,"name":"Ampiong99","steam_id":76561199245197481,"connected_time":203000000000,"state":"active","ping":58},{"user_id":37,"name":"frey`","steam_id":76561197971548290,"connected_time":2188000000000,"state":"active","ping":75},{"user_id":73,"name":"LOBZIK","steam_id":76561198114830120,"connected_time":370000000000,"state":"active","ping":82},{"user_id":32,"name":"Marcos","steam_id":76561198798925721,"connected_time":2441000000000,"state":"active","ping":84},{"user_id":34,"name":"Lengard","steam_id":76561198094189180,"connected_time":2357000000000,"state":"active","ping":109},{"user_id":45,"name":"MtnDew","steam_id":76561199100059743,"connected_time":1377000000000,"state":"active","ping":112},{"user_id":36,"name":"oepidus","steam_id":76561198963841479,"connected_time":2333000000000,"state":"active","ping":93},{"user_id":55,"name":"Вадим Какашкин","steam_id":76561198383509320,"connected_time":833000000000,"state":"active","ping":84}]},{"server_id":114,"name":"Uncletopia | London | 2 | All Maps","name_short":"lon-2","host":"lon-1.uk.uncletopia.com","port":27025,"enabled":true,"region":"eu","cc":"gb","latitude":51.509865,"longitude":-0.118092,"reserved":0,"last_update":"0001-01-01T00:00:00Z","name_a2s":"Uncletopia | London | 2 | All Maps","protocol":17,"map":"pl_snowycoast","folder":"tf","game":"Team Fortress","app_id":440,"player_count":23,"max_players":24,"Bots":0,"server_type":"Dedicated","server_os":"Linux","password":true,"vac":true,"version":"7757534","steam_id":85568392924470941,"keywords":["nocrits","nodmgspread","payload","uncletopia"],"game_id":440,"stv_port":27026,"stv_name":"Uncletopia | London | 2 | All Maps | STV","players":[{"user_id":193,"name":"dafydd","steam_id":76561198052200325,"connected_time":2709000000000,"state":"active","ping":79},{"user_id":221,"name":"`Fox","steam_id":76561198079000692,"connected_time":655000000000,"state":"active","ping":143},{"user_id":216,"name":"TheGreenWolf","steam_id":76561198170607033,"connected_time":1049000000000,"state":"active","ping":73},{"user_id":217,"name":"Jørn","steam_id":76561199073257952,"connected_time":918000000000,"state":"active","ping":82},{"user_id":229,"name":"HimpoX","steam_id":76561198043946778,"connected_time":212000000000,"state":"active","ping":93},{"user_id":219,"name":"AngryBurrito","steam_id":76561197972778702,"connected_time":663000000000,"state":"active","ping":58},{"user_id":118,"name":"Choruptian","steam_id":76561198017686366,"connected_time":7278000000000,"state":"active","ping":69},{"user_id":162,"name":"_zipfile","steam_id":76561198066133808,"connected_time":4776000000000,"state":"active","ping":70},{"user_id":224,"name":"erobrine2","steam_id":76561198173218318,"connected_time":579000000000,"state":"active","ping":45},{"user_id":191,"name":"Tata Cobraz0r","steam_id":76561198017693962,"connected_time":2987000000000,"state":"active","ping":78},{"user_id":208,"name":"Johnny Sack","steam_id":76561198364121077,"connected_time":1830000000000,"state":"active","ping":95},{"user_id":16,"name":"Pineapple Okanつ ◕_◕ ༽\ufffd\ufffd","steam_id":76561198069199449,"connected_time":13997000000000,"state":"active","ping":106},{"user_id":223,"name":"NABER","steam_id":76561198831465151,"connected_time":613000000000,"state":"active","ping":86},{"user_id":226,"name":"lun4tic","steam_id":76561198850496647,"connected_time":559000000000,"state":"active","ping":77},{"user_id":230,"name":"crat","steam_id":76561198401398502,"connected_time":147000000000,"state":"active","ping":96},{"user_id":213,"name":"Velly65","steam_id":76561199179828982,"connected_time":1366000000000,"state":"active","ping":168},{"user_id":225,"name":"jovi_","steam_id":76561198449280552,"connected_time":572000000000,"state":"active","ping":52},{"user_id":227,"name":"dAg CS ⇄ TF2","steam_id":76561198047819527,"connected_time":464000000000,"state":"active","ping":108},{"user_id":209,"name":"Sakari","steam_id":76561197997811299,"connected_time":1814000000000,"state":"active","ping":67},{"user_id":220,"name":"aGreedGryphon","steam_id":76561198245175308,"connected_time":658000000000,"state":"active","ping":54},{"user_id":228,"name":"The Dark Destoryer","steam_id":76561198831440921,"connected_time":453000000000,"state":"active","ping":29},{"user_id":214,"name":"makarov","steam_id":76561198363892870,"connected_time":1322000000000,"state":"active","ping":74},{"user_id":215,"name":"no bitches nigusman","steam_id":76561199466723428,"connected_time":1138000000000,"state":"active","ping":89}]},{"server_id":320,"name":"Uncletopia | London | 3 | All Maps","name_short":"lon-3","host":"lon-1.uk.uncletopia.com","port":27035,"enabled":true,"region":"eu","cc":"gb","latitude":51.509865,"longitude":-0.118092,"reserved":0,"last_update":"0001-01-01T00:00:00Z","name_a2s":"Uncletopia | London | 3 | All Maps","protocol":17,"map":"pl_badwater","folder":"tf","game":"Team Fortress","app_id":440,"player_count":0,"max_players":24,"Bots":0,"server_type":"Dedicated","server_os":"Linux","password":true,"vac":true,"version":"7757534","steam_id":85568392924510192,"keywords":["nocrits","nodmgspread","payload","uncletopia"],"game_id":440,"stv_port":27036,"stv_name":"Uncletopia | London | 3 | All Maps | STV","players":null},{"server_id":321,"name":"Uncletopia | London | 4 | All Maps","name_short":"lon-4","host":"lon-1.uk.uncletopia.com","port":27045,"enabled":true,"region":"eu","cc":"gb","latitude":51.509865,"longitude":-0.118092,"reserved":0,"last_update":"0001-01-01T00:00:00Z","name_a2s":"Uncletopia | London | 4 | All Maps","protocol":17,"map":"cp_snakewater_final1","folder":"tf","game":"Team Fortress","app_id":440,"player_count":0,"max_players":24,"Bots":0,"server_type":"Dedicated","server_os":"Linux","password":true,"vac":true,"version":"7757534","steam_id":85568392924510193,"keywords":["cp","nocrits","nodmgspread","uncletopia"],"game_id":440,"stv_port":27046,"stv_name":"Uncletopia | London | 4 | All Maps | STV","players":null},{"server_id":21,"name":"Uncletopia | London | 5 | All Maps","name_short":"lon-5","host":"lon-1.uk.uncletopia.com","port":27055,"enabled":true,"region":"eu","cc":"gb","latitude":51.509865,"longitude":-0.118092,"reserved":0,"last_update":"0001-01-01T00:00:00Z","name_a2s":"Uncletopia | London | 5 | All Maps","protocol":17,"map":"cp_snakewater_final1","folder":"tf","game":"Team Fortress","app_id":440,"player_count":0,"max_players":24,"Bots":0,"server_type":"Dedicated","server_os":"Linux","password":true,"vac":true,"version":"7757534","steam_id":85568392924742829,"keywords":["cp","nocrits","nodmgspread","uncletopia"],"game_id":440,"stv_port":27056,"stv_name":"Uncletopia | London | 5 | All Maps | STV","players":null},{"server_id":22,"name":"Uncletopia | London | 6 | All Maps","name_short":"lon-6","host":"lon-1.uk.uncletopia.com","port":27065,"enabled":true,"region":"eu","cc":"gb","latitude":51.509865,"longitude":-0.118092,"reserved":0,"last_update":"0001-01-01T00:00:00Z","name_a2s":"Uncletopia | London | 6 | All Maps","protocol":17,"map":"pl_snowycoast","folder":"tf","game":"Team Fortress","app_id":440,"player_count":7,"max_players":24,"Bots":0,"server_type":"Dedicated","server_os":"Linux","password":true,"vac":true,"version":"7757534","steam_id":85568392924742830,"keywords":["nocrits","nodmgspread","payload","uncletopia"],"game_id":440,"stv_port":27066,"stv_name":"Uncletopia | London | 6 | All Maps | STV","players":[{"user_id":3,"name":"Qwerty (Kiwee)","steam_id":76561198991043855,"connected_time":683000000000,"state":"active","ping":48},{"user_id":4,"name":"RiAvoTheOfficial","steam_id":76561199121022061,"connected_time":494000000000,"state":"active","ping":135},{"user_id":5,"name":"Swedde","steam_id":76561198297296440,"connected_time":130000000000,"state":"active","ping":73},{"user_id":6,"name":"romaingallo","steam_id":76561198268112907,"connected_time":94000000000,"state":"spawning","ping":217},{"user_id":7,"name":"fried","steam_id":76561198307522022,"connected_time":84000000000,"state":"active","ping":43},{"user_id":8,"name":"Jose Luis Torrente","steam_id":76561199104305519,"connected_time":60000000000,"state":"active","ping":73},{"user_id":10,"name":"ilgazemre78","steam_id":76561199221451383,"connected_time":45000000000,"state":"spawning","ping":88}]},{"server_id":40,"name":"Uncletopia | London | 7 | No Payload","name_short":"lon-7","host":"lon-1.uk.uncletopia.com","port":27075,"enabled":true,"region":"eu","cc":"gb","latitude":51.509865,"longitude":-0.118092,"reserved":0,"last_update":"0001-01-01T00:00:00Z","name_a2s":"Uncletopia | London | 7 | No Payload","protocol":17,"map":"koth_harvest_final","folder":"tf","game":"Team Fortress","app_id":440,"player_count":0,"max_players":24,"Bots":0,"server_type":"Dedicated","server_os":"Linux","password":true,"vac":true,"version":"7757534","steam_id":85568392924964314,"keywords":["cp","nocrits","nodmgspread","uncletopia"],"game_id":440,"stv_port":27076,"stv_name":"Uncletopia | London | 7 | No Payload | STV","players":null},{"server_id":41,"name":"Uncletopia | London | 8 | Community","name_short":"lon-8","host":"lon-1.uk.uncletopia.com","port":27085,"enabled":true,"region":"eu","cc":"gb","latitude":51.509865,"longitude":-0.118092,"reserved":0,"last_update":"0001-01-01T00:00:00Z","name_a2s":"Uncletopia | London | 8 | Community","protocol":17,"map":"workshop/koth_ashville_final.ugc2130459942","folder":"tf","game":"Team Fortress","app_id":440,"player_count":0,"max_players":24,"Bots":0,"server_type":"Dedicated","server_os":"Linux","password":true,"vac":true,"version":"7757534","steam_id":85568392924964315,"keywords":["cp","nocrits","nodmgspread","uncletopia"],"game_id":440,"stv_port":27086,"stv_name":"Uncletopia | London | 8 | Community | STV","players":null},{"server_id":300,"name":"Uncletopia | Montréal | 1 | All Maps","name_short":"mtl-1","host":"mtl-1.ca.uncletopia.com","port":27015,"enabled":true,"region":"us-east","cc":"ca","latitude":45.50889,"longitude":-73.56167,"reserved":0,"last_update":"0001-01-01T00:00:00Z","name_a2s":"Uncletopia | Montréal | 1 | All Maps","protocol":17,"map":"koth_highpass","folder":"tf","game":"Team Fortress","app_id":440,"player_count":0,"max_players":24,"Bots":0,"server_type":"Dedicated","server_os":"Linux","password":true,"vac":true,"version":"7757534","steam_id":85568392924500087,"keywords":["cp","nocrits","nodmgspread","uncletopia"],"game_id":440,"stv_port":27016,"stv_name":"Uncletopia | Montréal | 1 | All Maps | STV","players":null},{"server_id":301,"name":"Uncletopia | Montréal | 2 | All Maps","name_short":"mtl-2","host":"mtl-1.ca.uncletopia.com","port":27025,"enabled":true,"region":"us-east","cc":"ca","latitude":45.50889,"longitude":-73.56167,"reserved":0,"last_update":"0001-01-01T00:00:00Z","name_a2s":"Uncletopia | Montréal | 2 | All Maps","protocol":17,"map":"koth_lakeside_final","folder":"tf","game":"Team Fortress","app_id":440,"player_count":0,"max_players":24,"Bots":0,"server_type":"Dedicated","server_os":"Linux","password":true,"vac":true,"version":"7757534","steam_id":85568392924500088,"keywords":["cp","nocrits","nodmgspread","uncletopia"],"game_id":440,"stv_port":27026,"stv_name":"Uncletopia | Montréal | 2 | All Maps | STV","players":null},{"server_id":302,"name":"Uncletopia | Montréal | 3 | All Maps","name_short":"mtl-3","host":"mtl-1.ca.uncletopia.com","port":27035,"enabled":true,"region":"us-east","cc":"ca","latitude":45.50889,"longitude":-73.56167,"reserved":0,"last_update":"0001-01-01T00:00:00Z","name_a2s":"Uncletopia | Montréal | 3 | All Maps","protocol":17,"map":"koth_cascade","folder":"tf","game":"Team Fortress","app_id":440,"player_count":0,"max_players":24,"Bots":0,"server_type":"Dedicated","server_os":"Linux","password":true,"vac":true,"version":"7757534","steam_id":85568392924500089,"keywords":["cp","nocrits","nodmgspread","uncletopia"],"game_id":440,"stv_port":27036,"stv_name":"Uncletopia | Montréal | 3 | All Maps | STV","players":null},{"server_id":303,"name":"Uncletopia | Montréal | 4 | No Payload","name_short":"mtl-4","host":"mtl-1.ca.uncletopia.com","port":27045,"enabled":true,"region":"us-east","cc":"ca","latitude":45.50889,"longitude":-73.56167,"reserved":0,"last_update":"0001-01-01T00:00:00Z","name_a2s":"Uncletopia | Montréal | 4 | No Payload","protocol":17,"map":"koth_lakeside_final","folder":"tf","game":"Team Fortress","app_id":440,"player_count":0,"max_players":24,"Bots":0,"server_type":"Dedicated","server_os":"Linux","password":true,"vac":true,"version":"7757534","steam_id":85568392924500090,"keywords":["cp","nocrits","nodmgspread","uncletopia"],"game_id":440,"stv_port":27046,"stv_name":"Uncletopia | Montréal | 4 | No Payload | STV","players":null},{"server_id":13,"name":"Uncletopia | New York City | 1 | All Maps","name_short":"nyc-1","host":"nyc-1.us.uncletopia.com","port":27015,"enabled":true,"region":"us-east","cc":"us","latitude":40.73061,"longitude":-73.93524,"reserved":0,"last_update":"0001-01-01T00:00:00Z","name_a2s":"Uncletopia | New York City | 1 | All Maps","protocol":17,"map":"cp_snakewater_final1","folder":"tf","game":"Team Fortress","app_id":440,"player_count":0,"max_players":24,"Bots":0,"server_type":"Dedicated","server_os":"Linux","password":true,"vac":true,"version":"7757534","steam_id":85568392924469993,"keywords":["cp","nocrits","nodmgspread","uncletopia"],"game_id":440,"stv_port":27016,"stv_name":"Uncletopia | New York City | 1 | All Maps | STV","players":null},{"server_id":14,"name":"Uncletopia | New York City | 2 | All Maps","name_short":"nyc-2","host":"nyc-1.us.uncletopia.com","port":27025,"enabled":true,"region":"us-east","cc":"us","latitude":40.73061,"longitude":-73.93524,"reserved":0,"last_update":"0001-01-01T00:00:00Z","name_a2s":"Uncletopia | New York City | 2 | All Maps","protocol":17,"map":"cp_egypt_final","folder":"tf","game":"Team Fortress","app_id":440,"player_count":0,"max_players":24,"Bots":0,"server_type":"Dedicated","server_os":"Linux","password":true,"vac":true,"version":"7757534","steam_id":85568392924469994,"keywords":["cp","nocrits","nodmgspread","uncletopia"],"game_id":440,"stv_port":27026,"stv_name":"Uncletopia | New York City | 2 | All Maps | STV","players":null},{"server_id":15,"name":"Uncletopia | New York City | 3 | Stopwatch Beta","name_short":"nyc-3","host":"nyc-1.us.uncletopia.com","port":27035,"enabled":true,"region":"us-east","cc":"us","latitude":40.73061,"longitude":-73.93524,"reserved":0,"last_update":"0001-01-01T00:00:00Z","name_a2s":"Uncletopia | New York City | 3 | Stopwatch Beta","protocol":17,"map":"workshop/koth_clearcut_b15.ugc2107050255","folder":"tf","game":"Team Fortress","app_id":440,"player_count":0,"max_players":24,"Bots":0,"server_type":"Dedicated","server_os":"Linux","password":true,"vac":true,"version":"7757534","steam_id":85568392924742820,"keywords":["cp","nocrits","nodmgspread","uncletopia"],"game_id":440,"stv_port":27036,"stv_name":"Uncletopia | New York City | 3 | Stopwatch Beta | STV","players":null},{"server_id":16,"name":"Uncletopia | New York City | 4 | Community","name_short":"nyc-4","host":"nyc-1.us.uncletopia.com","port":27045,"enabled":true,"region":"us-east","cc":"us","latitude":40.73061,"longitude":-73.93524,"reserved":0,"last_update":"0001-01-01T00:00:00Z","name_a2s":"Uncletopia | New York City | 4 | Community","protocol":17,"map":"workshop/pl_barnblitz_pro7.ugc582280235","folder":"tf","game":"Team Fortress","app_id":440,"player_count":0,"max_players":24,"Bots":0,"server_type":"Dedicated","server_os":"Linux","password":true,"vac":true,"version":"7757534","steam_id":85568392924742821,"keywords":["nocrits","nodmgspread","payload","uncletopia"],"game_id":440,"stv_port":27046,"stv_name":"Uncletopia | New York City | 4 | Community | STV","players":null},{"server_id":142,"name":"Uncletopia | São Paulo | 1 | All Maps","name_short":"sao-1","host":"sao-1.br.uncletopia.com","port":27015,"enabled":true,"region":"sa","cc":"br","latitude":-23.533773,"longitude":-46.62529,"reserved":0,"last_update":"0001-01-01T00:00:00Z","name_a2s":"Uncletopia | São Paulo | 1 | All Maps","protocol":17,"map":"pl_snowycoast","folder":"tf","game":"Team Fortress","app_id":440,"player_count":0,"max_players":24,"Bots":0,"server_type":"Dedicated","server_os":"Linux","password":true,"vac":true,"version":"7757534","steam_id":85568392924469996,"keywords":["nocrits","nodmgspread","payload","uncletopia"],"game_id":440,"stv_port":27016,"stv_name":"Uncletopia | São Paulo | 1 | All Maps | STV","players":null},{"server_id":143,"name":"Uncletopia | São Paulo | 2 | All Maps","name_short":"sao-2","host":"sao-2.br.uncletopia.com","port":27015,"enabled":true,"region":"sa","cc":"br","latitude":-23.533773,"longitude":-46.62529,"reserved":0,"last_update":"0001-01-01T00:00:00Z","name_a2s":"Uncletopia | São Paulo | 2 | All Maps","protocol":17,"map":"pl_barnblitz","folder":"tf","game":"Team Fortress","app_id":440,"player_count":0,"max_players":24,"Bots":0,"server_type":"Dedicated","server_os":"Linux","password":true,"vac":true,"version":"7757534","steam_id":85568392924485349,"keywords":["nocrits","nodmgspread","payload","uncletopia"],"game_id":440,"stv_port":27016,"stv_name":"Uncletopia | São Paulo | 2 | All Maps | STV","players":null},{"server_id":7,"name":"Uncletopia | Seattle | 1 | All Maps","name_short":"sea-1","host":"sea-1.us.uncletopia.com","port":27015,"enabled":true,"region":"us-west","cc":"us","latitude":47.608013,"longitude":-122.33517,"reserved":0,"last_update":"0001-01-01T00:00:00Z","name_a2s":"Uncletopia | Seattle | 1 | All Maps","protocol":17,"map":"pl_goldrush","folder":"tf","game":"Team Fortress","app_id":440,"player_count":24,"max_players":24,"Bots":0,"server_type":"Dedicated","server_os":"Linux","password":true,"vac":true,"version":"7757534","steam_id":85568392924469997,"keywords":["nocrits","nodmgspread","payload","uncletopia"],"game_id":440,"stv_port":27016,"stv_name":"Uncletopia | Seattle | 1 | All Maps | STV","players":[{"user_id":961,"name":"Ayayahuasca","steam_id":76561199002906056,"connected_time":120000000000,"state":"active","ping":47},{"user_id":851,"name":"Arsonist Goose","steam_id":76561198147441830,"connected_time":8331000000000,"state":"active","ping":72},{"user_id":953,"name":"Mr. Electric","steam_id":76561198071962415,"connected_time":1023000000000,"state":"active","ping":125},{"user_id":935,"name":"PopcornNinja101","steam_id":76561198330680181,"connected_time":2500000000000,"state":"active","ping":50},{"user_id":933,"name":"dragggg","steam_id":76561198222386220,"connected_time":2522000000000,"state":"active","ping":45},{"user_id":915,"name":"Samantha","steam_id":76561198127578307,"connected_time":4214000000000,"state":"active","ping":100},{"user_id":952,"name":"Sloome Lover","steam_id":76561198299879257,"connected_time":1192000000000,"state":"active","ping":67},{"user_id":886,"name":"Xyvanereth","steam_id":76561198844137326,"connected_time":6609000000000,"state":"active","ping":56},{"user_id":928,"name":"goldhed","steam_id":76561198051751133,"connected_time":3340000000000,"state":"active","ping":53},{"user_id":948,"name":"Hifumi Togo","steam_id":76561198074930636,"connected_time":1609000000000,"state":"active","ping":92},{"user_id":946,"name":"octavia117","steam_id":76561198163078406,"connected_time":1725000000000,"state":"active","ping":118},{"user_id":936,"name":"MonteJT","steam_id":76561198055409360,"connected_time":2486000000000,"state":"active","ping":42},{"user_id":932,"name":"SkyLark","steam_id":76561198303618132,"connected_time":2640000000000,"state":"active","ping":59},{"user_id":903,"name":"Sweets","steam_id":76561198998446307,"connected_time":5600000000000,"state":"active","ping":71},{"user_id":929,"name":"MINI CRIT!999","steam_id":76561198027649268,"connected_time":3299000000000,"state":"active","ping":94},{"user_id":962,"name":"Stranger Danger","steam_id":76561198115242460,"connected_time":33000000000,"state":"active","ping":50},{"user_id":893,"name":"Cloud","steam_id":76561198272454184,"connected_time":6455000000000,"state":"active","ping":177},{"user_id":957,"name":"shane","steam_id":76561198060491451,"connected_time":976000000000,"state":"active","ping":92},{"user_id":955,"name":"Hakuyer","steam_id":76561198098618247,"connected_time":997000000000,"state":"active","ping":51},{"user_id":951,"name":"kaeru","steam_id":76561198043789098,"connected_time":1375000000000,"state":"active","ping":63},{"user_id":941,"name":"Def","steam_id":76561198274777814,"connected_time":2340000000000,"state":"active","ping":65},{"user_id":960,"name":"kezia","steam_id":76561198059815894,"connected_time":428000000000,"state":"active","ping":104},{"user_id":896,"name":"Oomitch","steam_id":76561198071702759,"connected_time":6323000000000,"state":"active","ping":53},{"user_id":958,"name":"Seal","steam_id":76561197970204043,"connected_time":976000000000,"state":"active","ping":33}]},{"server_id":119,"name":"Uncletopia | Seattle | 2 | All Maps","name_short":"sea-2","host":"sea-1.us.uncletopia.com","port":27025,"enabled":true,"region":"us-west","cc":"us","latitude":47.608013,"longitude":-122.33517,"reserved":0,"last_update":"0001-01-01T00:00:00Z","name_a2s":"Uncletopia | Seattle | 2 | All Maps","protocol":17,"map":"pl_borneo","folder":"tf","game":"Team Fortress","app_id":440,"player_count":14,"max_players":24,"Bots":0,"server_type":"Dedicated","server_os":"Linux","password":true,"vac":true,"version":"7757534","steam_id":85568392924469998,"keywords":["nocrits","nodmgspread","payload","uncletopia"],"game_id":440,"stv_port":27026,"stv_name":"Uncletopia | Seattle | 2 | All Maps | STV","players":[{"user_id":565,"name":"your friend doge","steam_id":76561199339916575,"connected_time":1384000000000,"state":"active","ping":69},{"user_id":553,"name":"IggyYT","steam_id":76561198317980567,"connected_time":2477000000000,"state":"active","ping":115},{"user_id":578,"name":"Joseph \"Biden\" Stalin","steam_id":76561198213863907,"connected_time":196000000000,"state":"active","ping":77},{"user_id":554,"name":"Moffein","steam_id":76561198016739296,"connected_time":2293000000000,"state":"active","ping":57},{"user_id":575,"name":"Jack from Jack in The Box","steam_id":76561199083594971,"connected_time":575000000000,"state":"active","ping":76},{"user_id":579,"name":"Large Charles","steam_id":76561197999663001,"connected_time":80000000000,"state":"active","ping":70},{"user_id":566,"name":"Cinna Mon","steam_id":76561198005840633,"connected_time":1330000000000,"state":"active","ping":45},{"user_id":533,"name":"Twisted Freaking Cyclepath","steam_id":76561198080775161,"connected_time":3888000000000,"state":"active","ping":93},{"user_id":580,"name":"JohnnyGitGud","steam_id":76561198401455467,"connected_time":24000000000,"state":"active","ping":66},{"user_id":564,"name":"Kaluka","steam_id":76561198036861445,"connected_time":1558000000000,"state":"active","ping":121},{"user_id":568,"name":"Nalyk","steam_id":76561198043886843,"connected_time":1306000000000,"state":"active","ping":55},{"user_id":577,"name":"zuna","steam_id":76561199038981515,"connected_time":243000000000,"state":"active","ping":82},{"user_id":545,"name":"JJP","steam_id":76561198032914094,"connected_time":3185000000000,"state":"active","ping":62},{"user_id":504,"name":"Fu Qian Qian","steam_id":76561199081837220,"connected_time":6541000000000,"state":"active","ping":118}]},{"server_id":406,"name":"Uncletopia | Seattle | 3 | Stopwatch Beta","name_short":"sea-3","host":"sea-1.us.uncletopia.com","port":27035,"enabled":true,"region":"us-west","cc":"us","latitude":47.608013,"longitude":-122.33517,"reserved":0,"last_update":"0001-01-01T00:00:00Z","name_a2s":"Uncletopia | Seattle | 3 | Stopwatch Beta","protocol":17,"map":"koth_lakeside_final","folder":"tf","game":"Team Fortress","app_id":440,"player_count":0,"max_players":24,"Bots":0,"server_type":"Dedicated","server_os":"Linux","password":true,"vac":true,"version":"7757534","steam_id":85568392924515217,"keywords":["cp","nocrits","nodmgspread","uncletopia"],"game_id":440,"stv_port":27036,"stv_name":"Uncletopia | Seattle | 3 | Stopwatch Beta | STV","players":null},{"server_id":17,"name":"Uncletopia | San Francisco | 1 | All Maps","name_short":"sfo-1","host":"sfo-1.us.uncletopia.com","port":27015,"enabled":true,"region":"us-west","cc":"us","latitude":37.77397,"longitude":-122.4313,"reserved":0,"last_update":"0001-01-01T00:00:00Z","name_a2s":"Uncletopia | San Francisco | 1 | All Maps","protocol":17,"map":"pl_frontier_final","folder":"tf","game":"Team Fortress","app_id":440,"player_count":3,"max_players":24,"Bots":0,"server_type":"Dedicated","server_os":"Linux","password":true,"vac":true,"version":"7757534","steam_id":85568392924469999,"keywords":["nocrits","nodmgspread","payload","uncletopia"],"game_id":440,"stv_port":27016,"stv_name":"Uncletopia | San Francisco | 1 | All Maps | STV","players":[{"user_id":252,"name":"duck","steam_id":76561198828470191,"connected_time":0,"state":"spawning","ping":0},{"user_id":220,"name":"MrBob292","steam_id":76561199347166553,"connected_time":5136000000000,"state":"active","ping":76},{"user_id":240,"name":"Friend.","steam_id":76561199135505576,"connected_time":3346000000000,"state":"active","ping":221}]},{"server_id":18,"name":"Uncletopia | San Francisco | 2 | All Maps","name_short":"sfo-2","host":"sfo-1.us.uncletopia.com","port":27025,"enabled":true,"region":"us-west","cc":"us","latitude":37.77397,"longitude":-122.4313,"reserved":0,"last_update":"0001-01-01T00:00:00Z","name_a2s":"Uncletopia | San Francisco | 2 | All Maps","protocol":17,"map":"cp_snakewater_final1","folder":"tf","game":"Team Fortress","app_id":440,"player_count":0,"max_players":24,"Bots":0,"server_type":"Dedicated","server_os":"Linux","password":true,"vac":true,"version":"7757534","steam_id":85568392924470000,"keywords":["cp","nocrits","nodmgspread","uncletopia"],"game_id":440,"stv_port":27026,"stv_name":"Uncletopia | San Francisco | 2 | All Maps | STV","players":null},{"server_id":19,"name":"Uncletopia | San Francisco | 3 | Stopwatch Beta","name_short":"sfo-3","host":"sfo-1.us.uncletopia.com","port":27035,"enabled":true,"region":"us-west","cc":"us","latitude":37.77397,"longitude":-122.4313,"reserved":0,"last_update":"0001-01-01T00:00:00Z","name_a2s":"Uncletopia | San Francisco | 3 | Stopwatch Beta","protocol":17,"map":"koth_viaduct","folder":"tf","game":"Team Fortress","app_id":440,"player_count":0,"max_players":24,"Bots":0,"server_type":"Dedicated","server_os":"Linux","password":true,"vac":true,"version":"7757534","steam_id":85568392924742824,"keywords":["cp","nocrits","nodmgspread","uncletopia"],"game_id":440,"stv_port":27036,"stv_name":"Uncletopia | San Francisco | 3 | Stopwatch Beta | STV","players":null},{"server_id":20,"name":"Uncletopia | San Francisco | 4 | Community","name_short":"sfo-4","host":"sfo-1.us.uncletopia.com","port":27045,"enabled":true,"region":"us-west","cc":"us","latitude":37.77397,"longitude":-122.4313,"reserved":0,"last_update":"0001-01-01T00:00:00Z","name_a2s":"Uncletopia | San Francisco | 4 | Community","protocol":17,"map":"workshop/koth_slaughter_rc1.ugc1712845210","folder":"tf","game":"Team Fortress","app_id":440,"player_count":0,"max_players":24,"Bots":0,"server_type":"Dedicated","server_os":"Linux","password":true,"vac":true,"version":"7757534","steam_id":85568392924742826,"keywords":["cp","nocrits","nodmgspread","uncletopia"],"game_id":440,"stv_port":27046,"stv_name":"Uncletopia | San Francisco | 4 | Community | STV","players":null},{"server_id":141,"name":"Uncletopia | Sydney | 1 | All Maps","name_short":"syd-1","host":"syd-1.au.uncletopia.com","port":27015,"enabled":true,"region":"au","cc":"au","latitude":-33.865143,"longitude":151.2099,"reserved":0,"last_update":"0001-01-01T00:00:00Z","name_a2s":"Uncletopia | Sydney | 1 | All Maps","protocol":17,"map":"cp_dustbowl","folder":"tf","game":"Team Fortress","app_id":440,"player_count":24,"max_players":24,"Bots":0,"server_type":"Dedicated","server_os":"Linux","password":true,"vac":true,"version":"7757534","steam_id":85568392924470001,"keywords":["cp","nocrits","nodmgspread","uncletopia"],"game_id":440,"stv_port":27016,"stv_name":"Uncletopia | Sydney | 1 | All Maps | STV","players":[{"user_id":337,"name":"KiLLeD899","steam_id":76561198014784053,"connected_time":707000000000,"state":"active","ping":63},{"user_id":338,"name":"michael","steam_id":76561198052848358,"connected_time":542000000000,"state":"active","ping":65},{"user_id":343,"name":"Fatass Yoshi","steam_id":76561198033784848,"connected_time":375000000000,"state":"active","ping":56},{"user_id":291,"name":"Piklz","steam_id":76561198043384139,"connected_time":3777000000000,"state":"active","ping":57},{"user_id":292,"name":"Bobby Bigman","steam_id":76561198044679656,"connected_time":3623000000000,"state":"active","ping":58},{"user_id":339,"name":"H3ATHYJ","steam_id":76561198373769905,"connected_time":504000000000,"state":"active","ping":93},{"user_id":340,"name":"jim :)","steam_id":76561198127508905,"connected_time":449000000000,"state":"active","ping":35},{"user_id":342,"name":"Larry Springsteen","steam_id":76561198036815276,"connected_time":391000000000,"state":"active","ping":68},{"user_id":204,"name":"Raven","steam_id":76561198428025966,"connected_time":9626000000000,"state":"active","ping":65},{"user_id":326,"name":"Ganome Chilled","steam_id":76561198064898965,"connected_time":1475000000000,"state":"active","ping":91},{"user_id":306,"name":"Whomobile","steam_id":76561198005831324,"connected_time":2589000000000,"state":"active","ping":90},{"user_id":332,"name":"Moist","steam_id":76561198110566656,"connected_time":737000000000,"state":"active","ping":58},{"user_id":334,"name":"lemur","steam_id":76561198278239170,"connected_time":726000000000,"state":"active","ping":85},{"user_id":341,"name":"ziah","steam_id":76561198159375596,"connected_time":403000000000,"state":"active","ping":55},{"user_id":327,"name":"TheNeutrality","steam_id":76561199017954062,"connected_time":1264000000000,"state":"active","ping":174},{"user_id":313,"name":"Lv 9 Reborn Nubblet","steam_id":76561198069483103,"connected_time":2390000000000,"state":"active","ping":90},{"user_id":316,"name":"Tim","steam_id":76561198106191230,"connected_time":1991000000000,"state":"active","ping":87},{"user_id":335,"name":"robor","steam_id":76561198084686835,"connected_time":720000000000,"state":"active","ping":55},{"user_id":318,"name":"Dr. ugs","steam_id":76561198054804209,"connected_time":1928000000000,"state":"active","ping":87},{"user_id":345,"name":"Seagate","steam_id":76561198053796020,"connected_time":96000000000,"state":"active","ping":46},{"user_id":329,"name":"Hat","steam_id":76561199260847900,"connected_time":752000000000,"state":"active","ping":88},{"user_id":321,"name":"Consolidated Fart","steam_id":76561198924101909,"connected_time":1856000000000,"state":"active","ping":68},{"user_id":324,"name":"w4ffl5","steam_id":76561198358111518,"connected_time":1702000000000,"state":"active","ping":62},{"user_id":336,"name":"james16","steam_id":76561198362678073,"connected_time":719000000000,"state":"active","ping":36}]},{"server_id":123,"name":"Uncletopia | Sydney | 2 | All Maps","name_short":"syd-2","host":"syd-1.au.uncletopia.com","port":27025,"enabled":true,"region":"au","cc":"au","latitude":-33.865143,"longitude":151.2099,"reserved":0,"last_update":"0001-01-01T00:00:00Z","name_a2s":"Uncletopia | Sydney | 2 | All Maps","protocol":17,"map":"koth_cascade","folder":"tf","game":"Team Fortress","app_id":440,"player_count":0,"max_players":24,"Bots":0,"server_type":"Dedicated","server_os":"Linux","password":true,"vac":true,"version":"7757534","steam_id":85568392924470002,"keywords":["cp","nocrits","nodmgspread","uncletopia"],"game_id":440,"stv_port":27026,"stv_name":"Uncletopia | Sydney | 2 | All Maps | STV","players":null},{"server_id":395,"name":"Uncletopia | Sydney | 3 | All Maps","name_short":"syd-3","host":"syd-1.au.uncletopia.com","port":27035,"enabled":true,"region":"au","cc":"au","latitude":-33.865143,"longitude":151.2099,"reserved":0,"last_update":"0001-01-01T00:00:00Z","name_a2s":"Uncletopia | Sydney | 3 | All Maps","protocol":17,"map":"cp_process_final","folder":"tf","game":"Team Fortress","app_id":440,"player_count":6,"max_players":24,"Bots":0,"server_type":"Dedicated","server_os":"Linux","password":true,"vac":true,"version":"7757534","steam_id":85568392925194467,"keywords":["cp","nocrits","nodmgspread","uncletopia"],"game_id":440,"stv_port":27036,"stv_name":"Uncletopia | Sydney | 3 | All Maps | STV","players":[{"user_id":47,"name":"Lickle em' Lipsons","steam_id":76561199083645515,"connected_time":1506000000000,"state":"active","ping":60},{"user_id":48,"name":"CH4 #SAVE TF2","steam_id":76561198047815837,"connected_time":1359000000000,"state":"active","ping":84},{"user_id":52,"name":"Da Vinky?","steam_id":76561199056711109,"connected_time":153000000000,"state":"active","ping":40},{"user_id":53,"name":"owner","steam_id":76561198310550094,"connected_time":108000000000,"state":"active","ping":51},{"user_id":51,"name":"beth.cubitt","steam_id":76561198454733447,"connected_time":300000000000,"state":"active","ping":89},{"user_id":54,"name":"Siderpy","steam_id":76561198090225463,"connected_time":64000000000,"state":"active","ping":66}]},{"server_id":396,"name":"Uncletopia | Sydney | 4 | All Maps","name_short":"syd-4","host":"syd-1.au.uncletopia.com","port":27045,"enabled":true,"region":"au","cc":"au","latitude":-33.865143,"longitude":151.2099,"reserved":0,"last_update":"0001-01-01T00:00:00Z","name_a2s":"Uncletopia | Sydney | 4 | All Maps","protocol":17,"map":"koth_highpass","folder":"tf","game":"Team Fortress","app_id":440,"player_count":0,"max_players":24,"Bots":0,"server_type":"Dedicated","server_os":"Linux","password":true,"vac":true,"version":"7757534","steam_id":85568392925397958,"keywords":["cp","nocrits","nodmgspread","uncletopia"],"game_id":440,"stv_port":27046,"stv_name":"Uncletopia | Sydney | 4 | All Maps | STV","players":null},{"server_id":58,"name":"Uncletopia | Sydney | 5 | Stopwatch Beta","name_short":"syd-5","host":"syd-1.au.uncletopia.com","port":27055,"enabled":true,"region":"au","cc":"au","latitude":-33.865143,"longitude":151.2099,"reserved":0,"last_update":"0001-01-01T00:00:00Z","name_a2s":"Uncletopia | Sydney | 5 | Stopwatch Beta","protocol":17,"map":"pl_barnblitz","folder":"tf","game":"Team Fortress","app_id":440,"player_count":0,"max_players":24,"Bots":0,"server_type":"Dedicated","server_os":"Linux","password":true,"vac":true,"version":"7757534","steam_id":85568392925397959,"keywords":["nocrits","nodmgspread","payload","uncletopia"],"game_id":440,"stv_port":27056,"stv_name":"Uncletopia | Sydney | 5 | Stopwatch Beta | STV","players":null},{"server_id":59,"name":"Uncletopia | Sydney | 6 | Community","name_short":"syd-6","host":"syd-1.au.uncletopia.com","port":27065,"enabled":true,"region":"au","cc":"au","latitude":-33.865143,"longitude":151.2099,"reserved":0,"last_update":"0001-01-01T00:00:00Z","name_a2s":"Uncletopia | Sydney | 6 | Community","protocol":17,"map":"workshop/koth_ashville_final.ugc2130459942","folder":"tf","game":"Team Fortress","app_id":440,"player_count":0,"max_players":24,"Bots":0,"server_type":"Dedicated","server_os":"Linux","password":true,"vac":true,"version":"7757534","steam_id":85568392925397960,"keywords":["cp","nocrits","nodmgspread","uncletopia"],"game_id":440,"stv_port":27066,"stv_name":"Uncletopia | Sydney | 6 | Community | STV","players":null},{"server_id":49,"name":"Uncletopia | Warsaw | 1 | All Maps","name_short":"waw-1","host":"waw-1.pl.uncletopia.com","port":27015,"enabled":true,"region":"eu","cc":"pl","latitude":52.2297,"longitude":21.017532,"reserved":0,"last_update":"0001-01-01T00:00:00Z","name_a2s":"","protocol":0,"map":"","folder":"","game":"","app_id":0,"player_count":0,"max_players":0,"Bots":0,"server_type":"","server_os":"","password":false,"vac":false,"version":"","steam_id":0,"keywords":null,"game_id":0,"stv_port":0,"stv_name":"","players":null},{"server_id":50,"name":"Uncletopia | Warsaw | 2 | All Maps","name_short":"waw-2","host":"waw-1.pl.uncletopia.com","port":27025,"enabled":true,"region":"eu","cc":"pl","latitude":52.2297,"longitude":21.017532,"reserved":0,"last_update":"0001-01-01T00:00:00Z","name_a2s":"Uncletopia | Warsaw | 2 | All Maps","protocol":17,"map":"koth_highpass","folder":"tf","game":"Team Fortress","app_id":440,"player_count":0,"max_players":24,"Bots":0,"server_type":"Dedicated","server_os":"Linux","password":true,"vac":true,"version":"7757534","steam_id":85568392925397851,"keywords":["cp","nocrits","nodmgspread","uncletopia"],"game_id":440,"stv_port":27026,"stv_name":"Uncletopia | Warsaw | 2 | All Maps | STV","players":null},{"server_id":51,"name":"Uncletopia | Warsaw | 3 | All Maps","name_short":"waw-3","host":"waw-1.pl.uncletopia.com","port":27035,"enabled":true,"region":"eu","cc":"pl","latitude":52.2297,"longitude":21.017532,"reserved":0,"last_update":"0001-01-01T00:00:00Z","name_a2s":"Uncletopia | Warsaw | 3 | All Maps","protocol":17,"map":"koth_highpass","folder":"tf","game":"Team Fortress","app_id":440,"player_count":0,"max_players":24,"Bots":0,"server_type":"Dedicated","server_os":"Linux","password":true,"vac":true,"version":"7757534","steam_id":85568392925397852,"keywords":["cp","nocrits","nodmgspread","uncletopia"],"game_id":440,"stv_port":27036,"stv_name":"Uncletopia | Warsaw | 3 | All Maps | STV","players":null},{"server_id":52,"name":"Uncletopia | Warsaw | 4 | All Maps","name_short":"waw-4","host":"waw-1.pl.uncletopia.com","port":27045,"enabled":true,"region":"eu","cc":"pl","latitude":52.2297,"longitude":21.017532,"reserved":0,"last_update":"0001-01-01T00:00:00Z","name_a2s":"Uncletopia | Warsaw | 4 | All Maps","protocol":17,"map":"cp_dustbowl","folder":"tf","game":"Team Fortress","app_id":440,"player_count":0,"max_players":24,"Bots":0,"server_type":"Dedicated","server_os":"Linux","password":true,"vac":true,"version":"7757534","steam_id":85568392925397853,"keywords":["cp","nocrits","nodmgspread","uncletopia"],"game_id":440,"stv_port":27046,"stv_name":"Uncletopia | Warsaw | 4 | All Maps | STV","players":null},{"server_id":53,"name":"Uncletopia | Warsaw | 5 | Stopwatch Beta","name_short":"waw-5","host":"waw-1.pl.uncletopia.com","port":27055,"enabled":true,"region":"eu","cc":"pl","latitude":52.2297,"longitude":21.017532,"reserved":0,"last_update":"0001-01-01T00:00:00Z","name_a2s":"Uncletopia | Warsaw | 5 | Stopwatch Beta","protocol":17,"map":"workshop/pl_barnblitz_pro7.ugc582280235","folder":"tf","game":"Team Fortress","app_id":440,"player_count":0,"max_players":24,"Bots":0,"server_type":"Dedicated","server_os":"Linux","password":true,"vac":true,"version":"7757534","steam_id":85568392925397854,"keywords":["nocrits","nodmgspread","payload","uncletopia"],"game_id":440,"stv_port":27056,"stv_name":"Uncletopia | Warsaw | 5 | Stopwatch Beta | STV","players":null},{"server_id":54,"name":"Uncletopia | Warsaw | 6 | Community","name_short":"waw-6","host":"waw-1.pl.uncletopia.com","port":27065,"enabled":true,"region":"eu","cc":"pl","latitude":52.2297,"longitude":21.017532,"reserved":0,"last_update":"0001-01-01T00:00:00Z","name_a2s":"Uncletopia | Warsaw | 6 | Community","protocol":17,"map":"pl_barnblitz","folder":"tf","game":"Team Fortress","app_id":440,"player_count":0,"max_players":24,"Bots":0,"server_type":"Dedicated","server_os":"Linux","password":true,"vac":true,"version":"7757534","steam_id":85568392925397856,"keywords":["nocrits","nodmgspread","payload","uncletopia"],"game_id":440,"stv_port":27066,"stv_name":"Uncletopia | Warsaw | 6 | Community | STV","players":null}]}