{"status":true,"message":"","result":[{"server_id":9,"name":"Uncletopia | Atlanta | 1 | All Maps","name_short":"atl-1","host":"atl-1.us.uncletopia.com","port":27015,"enabled":true,"region":"us-east","cc":"us","latitude":33.753746,"longitude":-84.38633,"reserved":0,"last_update":"0001-01-01T00:00:00Z","name_a2s":"Uncletopia | Atlanta | 1 | All Maps","protocol":17,"map":"pl_barnblitz","folder":"tf","game":"Team Fortress","app_id":440,"player_count":24,"max_players":24,"Bots":0,"server_type":"Dedicated","server_os":"Linux","password":true,"vac":true,"version":"7961495","steam_id":85568392924469982,"keywords":["nocrits","nodmgspread","payload","uncletopia"],"game_id":440,"stv_port":27016,"stv_name":"Uncletopia | Atlanta | 1 | All Maps | STV","players":null},{"server_id":104,"name":"Uncletopia | Atlanta | 2 | All Maps","name_short":"atl-2","host":"atl-1.us.uncletopia.com","port":27025,"enabled":true,"region":"us-east","cc":"us","latitude":33.753746,"longitude":-84.38633,"reserved":0,"last_update":"0001-01-01T00:00:00Z","name_a2s":"Uncletopia | Atlanta | 2 | All Maps","protocol":17,"map":"koth_cascade","folder":"tf","game":"Team Fortress","app_id":440,"player_count":0,"max_players":24,"Bots":0,"server_type":"Dedicated","server_os":"Linux","password":true,"vac":true,"version":"7961495","steam_id":85568392924469983,"keywords":["cp","nocrits","nodmgspread","uncletopia"],"game_id":440,"stv_port":27026,"stv_name":"Uncletopia | Atlanta | 2 | All Maps | STV","players":null},{"server_id":400,"name":"Uncletopia | Atlanta | 3 | Stopwatch","name_short":"atl-3","host":"atl-1.us.uncletopia.com","port":27035,"enabled":true,"region":"us-east","cc":"us","latitude":33.753746,"longitude":-84.38633,"reserved":0,"last_update":"0001-01-01T00:00:00Z","name_a2s":"Uncletopia | Atlanta | 3 | Stopwatch","protocol":17,"map":"pl_badwater","folder":"tf","game":"Team Fortress","app_id":440,"player_count":0,"max_players":24,"Bots":0,"server_type":"Dedicated","server_os":"Linux","password":true,"vac":true,"version":"7961495","steam_id":85568392924515187,"keywords":["nocrits","nodmgspread","payload","uncletopia"],"game_id":440,"stv_port":27036,"stv_name":"Uncletopia | Atlanta | 3 | Stopwatch | STV","players":null},{"server_id":401,"name":"Uncletopia | Atlanta | 4 | Community","name_short":"atl-4","host":"atl-1.us.uncletopia.com","port":27045,"enabled":true,"region":"us-east","cc":"us","latitude":33.753746,"longitude":-84.38633,"reserved":0,"last_update":"0001-01-01T00:00:00Z","name_a2s":"Uncletopia | Atlanta | 4 | Community","protocol":17,"map":"koth_trenchfoot_b1a","folder":"tf","game":"Team Fortress","app_id":440,"player_count":0,"max_players":24,"Bots":0,"server_type":"Dedicated","server_os":"Linux","password":true,"vac":true,"version":"7961495","steam_id":85568392924515188,"keywords":["cp","nocrits","nodmgspread","uncletopia"],"game_id":440,"stv_port":27046,"stv_name":"Uncletopia | Atlanta | 4 | Community | STV","players":null},{"server_id":2,"name":"Uncletopia | Chicago | 1 | All Maps","name_short":"chi-1","host":"chi-1.us.uncletopia.com","port":27015,"enabled":true,"region":"us-central","cc":"us","latitude":41.881832,"longitude":-87.62318,"reserved":0,"last_update":"0001-01-01T00:00:00Z","name_a2s":"Uncletopia | Chicago | 1 | All Maps","protocol":17,"map":"pl_pier","folder":"tf","game":"Team Fortress","app_id":440,"player_count":0,"max_players":24,"Bots":0,"server_type":"Dedicated","server_os":"Linux","password":true,"vac":true,"version":"7961495","steam_id":85568392924469984,"keywords":["nocrits","nodmgspread","payload","uncletopia"],"game_id":440,"stv_port":27016,"stv_name":"Uncletopia | Chicago | 1 | All Maps | STV","players":null},{"server_id":106,"name":"Uncletopia | Chicago | 2 | All Maps","name_short":"chi-2","host":"chi-1.us.uncletopia.com","port":27025,"enabled":true,"region":"us-central","cc":"us","latitude":41.881832,"longitude":-87.62318,"reserved":0,"last_update":"0001-01-01T00:00:00Z","name_a2s":"Uncletopia | Chicago | 2 | All Maps","protocol":17,"map":"cp_mountainlab","folder":"tf","game":"Team Fortress","app_id":440,"player_count":0,"max_players":24,"Bots":0,"server_type":"Dedicated","server_os":"Linux","password":true,"vac":true,"version":"7961495","steam_id":85568392924469985,"keywords":["cp","nocrits","nodmgspread","uncletopia"],"game_id":440,"stv_port":27026,"stv_name":"Uncletopia | Chicago | 2 | All Maps | STV","players":null},{"server_id":402,"name":"Uncletopia | Chicago | 3 | All Maps","name_short":"chi-3","host":"chi-1.us.uncletopia.com","port":27035,"enabled":true,"region":"us-central","cc":"us","latitude":41.881832,"longitude":-87.62318,"reserved":0,"last_update":"0001-01-01T00:00:00Z","name_a2s":"Uncletopia | Chicago | 3 | All Maps","protocol":17,"map":"pl_borneo","folder":"tf","game":"Team Fortress","app_id":440,"player_count":24,"max_players":24,"Bots":0,"server_type":"Dedicated","server_os":"Linux","password":true,"vac":true,"version":"7961495","steam_id":85568392924515191,"keywords":["nocrits","nodmgspread","payload","uncletopia"],"game_id":440,"stv_port":27036,"stv_name":"Uncletopia | Chicago | 3 | All Maps | STV","players":[{"user_id":192,"name":"mio","steam_id":76561198239286750,"connected_time":2297000000000,"state":"active","ping":72},{"user_id":223,"name":"Sunflower","steam_id":76561198081223793,"connected_time":567000000000,"state":"active","ping":59},{"user_id":193,"name":"majorbobfunction","steam_id":76561198042464632,"connected_time":2293000000000,"state":"active","ping":55},{"user_id":224,"name":"Tom","steam_id":76561198070630154,"connected_time":562000000000,"state":"active","ping":88},{"user_id":171,"name":"Rat Smoker","steam_id":76561198090419068,"connected_time":4834000000000,"state":"active","ping":115},{"user_id":237,"name":"OneTrueCorvid","steam_id":76561199012953221,"connected_time":39000000000,"state":"spawning","ping":90},{"user_id":226,"name":"Amari","steam_id":76561198272446730,"connected_time":514000000000,"state":"active","ping":52},{"user_id":208,"name":"L0st","steam_id":76561198995114110,"connected_time":1579000000000,"state":"active","ping":90},{"user_id":213,"name":"Urbanzpinapple","steam_id":76561198115426938,"connected_time":1398000000000,"state":"active","ping":73},{"user_id":221,"name":"Rornir","steam_id":76561198081829615,"connected_time":598000000000,"state":"active","ping":32},{"user_id":216,"name":"Tri-Dot","steam_id":76561199075186597,"connected_time":1060000000000,"state":"active","ping":65},{"user_id":230,"name":"Kedata","steam_id":76561198047750050,"connected_time":261000000000,"state":"active","ping":45},{"user_id":214,"name":"Shady Businessman","steam_id":76561198143855968,"connected_time":1326000000000,"state":"active","ping":95},{"user_id":203,"name":"Lethal","steam_id":76561198055545714,"connected_time":1840000000000,"state":"active","ping":57},{"user_id":205,"name":"Meh","steam_id":76561198078187920,"connected_time":1626000000000,"state":"active","ping":82},{"user_id":231,"name":"Obsidian Obliterater","steam_id":76561198975824400,"connected_time":224000000000,"state":"active","ping":51},{"user_id":238,"name":"jmanmini","steam_id":76561199074216572,"connected_time":8000000000,"state":"spawning","ping":282},{"user_id":219,"name":"relay","steam_id":76561198314662811,"connected_time":758000000000,"state":"active","ping":90},{"user_id":234,"name":"Nefy","steam_id":76561198030017316,"connected_time":163000000000,"state":"active","ping":80},{"user_id":232,"name":"Novu","steam_id":76561198886997024,"connected_time":214000000000,"state":"active","ping":84},{"user_id":236,"name":"Distraction","steam_id":76561199445895882,"connected_time":50000000000,"state":"active","ping":80},{"user_id":233,"name":"Fatal","steam_id":76561198061407587,"connected_time":194000000000,"state":"active","ping":83},{"user_id":220,"name":"Bobby Dazzler È≠îÈêò","steam_id":76561198007405067,"connected_time":751000000000,"state":"active","ping":44},{"user_id":151,"name":"Toxic Ron","steam_id":76561198089302972,"connected_time":7543000000000,"state":"active","ping":61}]},{"server_id":403,"name":"Uncletopia | Chicago | 4 | All Maps","name_short":"chi-4","host":"chi-1.us.uncletopia.com","port":27045,"enabled":true,"region":"us-central","cc":"us","latitude":41.881832,"longitude":-87.62318,"reserved":0,"last_update":"0001-01-01T00:00:00Z","name_a2s":"Uncletopia | Chicago | 4 | All Maps","protocol":17,"map":"koth_cascade","folder":"tf","game":"Team Fortress","app_id":440,"player_count":0,"max_players":24,"Bots":0,"server_type":"Dedicated","server_os":"Linux","password":true,"vac":true,"version":"7961495","steam_id":85568392924515193,"keywords":["cp","nocrits","nodmgspread","uncletopia"],"game_id":440,"stv_port":27046,"stv_name":"Uncletopia | Chicago | 4 | All Maps | STV","players":null},{"server_id":36,"name":"Uncletopia | Chicago | 5 | All Maps","name_short":"chi-5","host":"chi-2.us.uncletopia.com","port":27015,"enabled":true,"region":"us-central","cc":"us","latitude":41.881832,"longitude":-87.62318,"reserved":0,"last_update":"0001-01-01T00:00:00Z","name_a2s":"Uncletopia | Chicago | 5 | All Maps","protocol":17,"map":"koth_highpass","folder":"tf","game":"Team Fortress","app_id":440,"player_count":0,"max_players":24,"Bots":0,"server_type":"Dedicated","server_os":"Linux","password":true,"vac":true,"version":"7961495","steam_id":85568392924866362,"keywords":["cp","nocrits","nodmgspread","uncletopia"],"game_id":440,"stv_port":27016,"stv_name":"Uncletopia | Chicago | 5 | All Maps | STV","players":null},{"server_id":37,"name":"Uncletopia | Chicago | 6 | All Maps","name_short":"chi-6","host":"chi-2.us.uncletopia.com","port":27025,"enabled":true,"region":"us-central","cc":"us","latitude":41.881832,"longitude":-87.62318,"reserved":0,"last_update":"0001-01-01T00:00:00Z","name_a2s":"Uncletopia | Chicago | 6 | All Maps","protocol":17,"map":"pl_frontier_final","folder":"tf","game":"Team Fortress","app_id":440,"player_count":0,"max_players":24,"Bots":0,"server_type":"Dedicated","server_os":"Linux","password":true,"vac":true,"version":"7961495","steam_id":85568392924866363,"keywords":["nocrits","nodmgspread","payload","uncletopia"],"game_id":440,"stv_port":27026,"stv_name":"Uncletopia | Chicago | 6 | All Maps | STV","players":null},{"server_id":38,"name":"Uncletopia | Chicago | 7 | Stopwatch","name_short":"chi-7","host":"chi-2.us.uncletopia.com","port":27035,"enabled":true,"region":"us-central","cc":"us","latitude":41.881832,"longitude":-87.62318,"reserved":0,"last_update":"0001-01-01T00:00:00Z","name_a2s":"Uncletopia | Chicago | 7 | Stopwatch","protocol":17,"map":"pl_badwater","folder":"tf","game":"Team Fortress","app_id":440,"player_count":0,"max_players":24,"Bots":0,"server_type":"Dedicated","server_os":"Linux","password":true,"vac":true,"version":"7961495","steam_id":85568392924866364,"keywords":["nocrits","nodmgspread","payload","uncletopia"],"game_id":440,"stv_port":27036,"stv_name":"Uncletopia | Chicago | 7 | Stopwatch | STV","players":null},{"server_id":39,"name":"Uncletopia | Chicago | 8 | Community","name_short":"chi-8","host":"chi-2.us.uncletopia.com","port":27045,"enabled":true,"region":"us-central","cc":"us","latitude":41.881832,"longitude":-87.62318,"reserved":0,"last_update":"0001-01-01T00:00:00Z","name_a2s":"Uncletopia | Chicago | 8 | Community","protocol":17,"map":"pl_pier","folder":"tf","game":"Team Fortress","app_id":440,"player_count":0,"max_players":24,"Bots":0,"server_type":"Dedicated","server_os":"Linux","password":true,"vac":true,"version":"7961495","steam_id":85568392924866365,"keywords":["nocrits","nodmgspread","payload","uncletopia"],"game_id":440,"stv_port":27046,"stv_name":"Uncletopia | Chicago | 8 | Community | STV","players":null},{"server_id":8,"name":"Uncletopia | Dallas | 1 | All Maps","name_short":"dal-1","host":"dal-1.us.uncletopia.com","port":27015,"enabled":true,"region":"us-central","cc":"us","latitude":32.779167,"longitude":-96.80889,"reserved":0,"last_update":"0001-01-01T00:00:00Z","name_a2s":"Uncletopia | Dallas | 1 | All Maps","protocol":17,"map":"pl_upward","folder":"tf","game":"Team Fortress","app_id":440,"player_count":15,"max_players":24,"Bots":0,"server_type":"Dedicated","server_os":"Linux","password":true,"vac":true,"version":"7961495","steam_id":85568392924469986,"keywords":["nocrits","nodmgspread","payload","uncletopia"],"game_id":440,"stv_port":27016,"stv_name":"Uncletopia | Dallas | 1 | All Maps | STV","players":[{"user_id":6,"name":"Alkzu","steam_id":76561198821833376,"connected_time":1706000000000,"state":"active","ping":105},{"user_id":16,"name":"Rustyorion","steam_id":76561198439186347,"connected_time":719000000000,"state":"active","ping":98},{"user_id":8,"name":"Els","steam_id":76561198354718934,"connected_time":1479000000000,"state":"active","ping":113},{"user_id":9,"name":"Borgor Boi","steam_id":76561199061388107,"connected_time":1303000000000,"state":"active","ping":96},{"user_id":21,"name":"NotAfraidOfSpiders","steam_id":76561199043160196,"connected_time":203000000000,"state":"active","ping":90},{"user_id":26,"name":"trash beast","steam_id":76561198015792736,"connected_time":11000000000,"state":"spawning","ping":90},{"user_id":12,"name":"anBee","steam_id":76561198050760807,"connected_time":1196000000000,"state":"active","ping":70},{"user_id":20,"name":"The Informant","steam_id":76561198293593033,"connected_time":302000000000,"state":"active","ping":60},{"user_id":14,"name":"big fish","steam_id":76561198186479818,"connected_time":748000000000,"state":"active","ping":180},{"user_id":23,"name":"RolloDex","steam_id":76561198111973019,"connected_time":143000000000,"state":"active","ping":59},{"user_id":17,"name":"God's Drunkest Driver","steam_id":76561199174579733,"connected_time":611000000000,"state":"active","ping":88},{"user_id":18,"name":"VixianUwU","steam_id":76561198948815060,"connected_time":594000000000,"state":"active","ping":75},{"user_id":19,"name":"Ulrich Stern","steam_id":76561198101739682,"connected_time":586000000000,"state":"active","ping":74},{"user_id":24,"name":"Sergi338","steam_id":76561198201866231,"connected_time":111000000000,"state":"active","ping":97},{"user_id":25,"name":"Willy","steam_id":76561198046508940,"connected_time":104000000000,"state":"active","ping":76}]},{"server_id":108,"name":"Uncletopia | Dallas | 2 | All Maps","name_short":"dal-2","host":"dal-1.us.uncletopia.com","port":27025,"enabled":true,"region":"us-central","cc":"us","latitude":32.779167,"longitude":-96.80889,"reserved":0,"last_update":"0001-01-01T00:00:00Z","name_a2s":"Uncletopia | Dallas | 2 | All Maps","protocol":17,"map":"pl_upward","folder":"tf","game":"Team Fortress","app_id":440,"player_count":24,"max_players":24,"Bots":0,"server_type":"Dedicated","server_os":"Linux","password":true,"vac":true,"version":"7961495","steam_id":85568392924469988,"keywords":["nocrits","nodmgspread","payload","uncletopia"],"game_id":440,"stv_port":27026,"stv_name":"Uncletopia | Dallas | 2 | All Maps | STV","players":[{"user_id":235,"name":"Kosmo","steam_id":76561198079015843,"connected_time":2949000000000,"state":"active","ping":59},{"user_id":188,"name":"n√∏bu","steam_id":76561198100614981,"connected_time":6256000000000,"state":"active","ping":115},{"user_id":261,"name":"Guy-76","steam_id":76561198331108559,"connected_time":1721000000000,"state":"active","ping":101},{"user_id":244,"name":"mountainkug","steam_id":76561199491802535,"connected_time":2743000000000,"state":"active","ping":113},{"user_id":241,"name":"Jaminhawk","steam_id":76561198308512984,"connected_time":2810000000000,"state":"active","ping":96},{"user_id":266,"name":"Dr. Medicine","steam_id":76561198165309820,"connected_time":1444000000000,"state":"active","ping":96},{"user_id":243,"name":"HTT.Aisaka","steam_id":76561198356957681,"connected_time":2759000000000,"state":"active","ping":104},{"user_id":267,"name":"Soupy Meal","steam_id":76561199056842761,"connected_time":1183000000000,"state":"active","ping":84},{"user_id":246,"name":"Minlit","steam_id":76561198205832799,"connected_time":2658000000000,"state":"active","ping":55},{"user_id":260,"name":"NastyGumbo","steam_id":76561198211943176,"connected_time":1882000000000,"state":"active","ping":72},{"user_id":248,"name":"Archangel","steam_id":76561198135480353,"connected_time":2550000000000,"state":"active","ping":87},{"user_id":258,"name":"KnightRider5000","steam_id":76561198150044298,"connected_time":2223000000000,"state":"active","ping":111},{"user_id":272,"name":"ardilla","steam_id":76561199104556891,"connected_time":855000000000,"state":"active","ping":81},{"user_id":276,"name":"Fred Durst's #1 Fan","steam_id":76561198282395338,"connected_time":625000000000,"state":"active","ping":101},{"user_id":270,"name":"TheBeanDude","steam_id":76561198887308622,"connected_time":999000000000,"state":"active","ping":202},{"user_id":251,"name":"Œõlex","steam_id":76561198024967421,"connected_time":2406000000000,"state":"active","ping":90},{"user_id":226,"name":"cheeseball","steam_id":76561198107078963,"connected_time":3470000000000,"state":"active","ping":81},{"user_id":265,"name":"exx","steam_id":76561198041421969,"connected_time":1500000000000,"state":"active","ping":89},{"user_id":271,"name":"Jade Jetts [She/They]","steam_id":76561198206130076,"connected_time":989000000000,"state":"active","ping":92},{"user_id":236,"name":"menonamed","steam_id":76561198199564382,"connected_time":2900000000000,"state":"active","ping":92},{"user_id":262,"name":"misterspud","steam_id":76561198195306218,"connected_time":1640000000000,"state":"active","ping":83},{"user_id":256,"name":"Smug Pug","steam_id":76561198059423334,"connected_time":2276000000000,"state":"active","ping":78},{"user_id":273,"name":"Mikael_01","steam_id":76561199080253129,"connected_time":808000000000,"state":"active","ping":194},{"user_id":275,"name":"Patio","steam_id":76561197986082608,"connected_time":767000000000,"state":"active","ping":119}]},{"server_id":404,"name":"Uncletopia | Dallas | 3 | All Maps","name_short":"dal-3","host":"dal-1.us.uncletopia.com","port":27035,"enabled":true,"region":"us-central","cc":"us","latitude":32.779167,"longitude":-96.80889,"reserved":0,"last_update":"0001-01-01T00:00:00Z","name_a2s":"Uncletopia | Dallas | 3 | All Maps","protocol":17,"map":"pl_badwater","folder":"tf","game":"Team Fortress","app_id":440,"player_count":0,"max_players":24,"Bots":0,"server_type":"Dedicated","server_os":"Linux","password":true,"vac":true,"version":"7961495","steam_id":85568392924515219,"keywords":["nocrits","nodmgspread","payload","uncletopia"],"game_id":440,"stv_port":27036,"stv_name":"Uncletopia | Dallas | 3 | All Maps | STV","players":null},{"server_id":405,"name":"Uncletopia | Dallas | 4 | Community","name_short":"dal-4","host":"dal-1.us.uncletopia.com","port":27045,"enabled":true,"region":"us-central","cc":"us","latitude":32.779167,"longitude":-96.80889,"reserved":0,"last_update":"0001-01-01T00:00:00Z","name_a2s":"Uncletopia | Dallas | 4 | Community","protocol":17,"map":"pl_pier","folder":"tf","game":"Team Fortress","app_id":440,"player_count":0,"max_players":24,"Bots":0,"server_type":"Dedicated","server_os":"Linux","password":true,"vac":true,"version":"7961495","steam_id":85568392924515220,"keywords":["nocrits","nodmgspread","payload","uncletopia"],"game_id":440,"stv_port":27046,"stv_name":"Uncletopia | Dallas | 4 | Community | STV","players":null},{"server_id":5,"name":"Uncletopia | Frankfurt | 1 | All Maps","name_short":"frk-1","host":"frk-1.de.uncletopia.com","port":27015,"enabled":true,"region":"eu","cc":"de","latitude":50.110924,"longitude":8.682127,"reserved":0,"last_update":"0001-01-01T00:00:00Z","name_a2s":"Uncletopia | Frankfurt | 1 | All Maps","protocol":17,"map":"pl_pier","folder":"tf","game":"Team Fortress","app_id":440,"player_count":24,"max_players":24,"Bots":0,"server_type":"Dedicated","server_os":"Linux","password":true,"vac":true,"version":"7961495","steam_id":85568392924469989,"keywords":["nocrits","nodmgspread","payload","uncletopia"],"game_id":440,"stv_port":27016,"stv_name":"Uncletopia | Frankfurt | 1 | All Maps | STV","players":[{"user_id":240,"name":"nice person","steam_id":76561198037237664,"connected_time":217000000000,"state":"active","ping":55},{"user_id":230,"name":"Mike","steam_id":76561198228455736,"connected_time":687000000000,"state":"active","ping":67},{"user_id":239,"name":"Dr.Sees [F2P]","steam_id":76561199219233587,"connected_time":310000000000,"state":"active","ping":78},{"user_id":162,"name":"Aspartus","steam_id":76561198101385763,"connected_time":5549000000000,"state":"active","ping":45},{"user_id":226,"name":"01101100 01101111 01101100","steam_id":76561198257541676,"connected_time":869000000000,"state":"active","ping":107},{"user_id":190,"name":"Arsonist","steam_id":76561199087953833,"connected_time":3615000000000,"state":"active","ping":96},{"user_id":241,"name":"Marabosha","steam_id":76561198137599173,"connected_time":193000000000,"state":"active","ping":104},{"user_id":169,"name":"steck","steam_id":76561197973948113,"connected_time":4859000000000,"state":"active","ping":47},{"user_id":225,"name":"quarks and stuff","steam_id":76561198137869662,"connected_time":954000000000,"state":"active","ping":50},{"user_id":222,"name":"Squash Nyderü•í Tarm Bryder\ufffd\ufffd\ufffd","steam_id":76561198300501653,"connected_time":1642000000000,"state":"active","ping":46},{"user_id":231,"name":"Leibeigener","steam_id":76561199275478305,"connected_time":672000000000,"state":"active","ping":37},{"user_id":158,"name":"Gugu","steam_id":76561198161822358,"connected_time":5907000000000,"state":"active","ping":52},{"user_id":197,"name":"Lucan","steam_id":76561198219195135,"connected_time":3398000000000,"state":"active","ping":55},{"user_id":224,"name":"Sommelier_","steam_id":76561198354180808,"connected_time":974000000000,"state":"active","ping":76},{"user_id":235,"name":"elmstJP ‚Ç™ F4.exe","steam_id":76561197997909480,"connected_time":550000000000,"state":"active","ping":75},{"user_id":175,"name":"Lloyder","steam_id":76561198099718482,"connected_time":4281000000000,"state":"active","ping":66},{"user_id":236,"name":"Carter","steam_id":76561198005243938,"connected_time":549000000000,"state":"active","ping":78},{"user_id":232,"name":"Kryastorm","steam_id":76561198045127892,"connected_time":664000000000,"state":"active","ping":62},{"user_id":206,"name":"Bullet magnet (FIN)","steam_id":76561197975715220,"connected_time":2782000000000,"state":"active","ping":86},{"user_id":195,"name":"SammyDodgers","steam_id":76561198282901336,"connected_time":3490000000000,"state":"active","ping":77},{"user_id":228,"name":"znunney","steam_id":76561199438501613,"connected_time":824000000000,"state":"active","ping":74},{"user_id":215,"name":"Wilderhammer","steam_id":76561198132133702,"connected_time":2442000000000,"state":"active","ping":45},{"user_id":237,"name":"The Manager of Sex","steam_id":76561198385989487,"connected_time":525000000000,"state":"active","ping":104},{"user_id":238,"name":"Coke Zero","steam_id":76561198158562873,"connected_time":465000000000,"state":"active","ping":58}]},{"server_id":110,"name":"Uncletopia | Frankfurt | 2 | All Maps","name_short":"frk-2","host":"frk-1.de.uncletopia.com","port":27025,"enabled":true,"region":"eu","cc":"de","latitude":50.110924,"longitude":8.682127,"reserved":0,"last_update":"0001-01-01T00:00:00Z","name_a2s":"Uncletopia | Frankfurt | 2 | All Maps","protocol":17,"map":"koth_lakeside_final","folder":"tf","game":"Team Fortress","app_id":440,"player_count":5,"max_players":24,"Bots":0,"server_type":"Dedicated","server_os":"Linux","password":true,"vac":true,"version":"7961495","steam_id":85568392924469990,"keywords":["cp","nocrits","nodmgspread","uncletopia"],"game_id":440,"stv_port":27026,"stv_name":"Uncletopia | Frankfurt | 2 | All Maps | STV","players":[{"user_id":189,"name":"The Business Man","steam_id":76561198059907124,"connected_time":41000000000,"state":"active","ping":163},{"user_id":188,"name":"BL4CKPL4T3","steam_id":76561198983185163,"connected_time":190000000000,"state":"active","ping":56},{"user_id":175,"name":"gyn spu","steam_id":76561198878687605,"connected_time":1014000000000,"state":"active","ping":96},{"user_id":183,"name":"sneaky snake","steam_id":76561198279965791,"connected_time":632000000000,"state":"active","ping":103},{"user_id":177,"name":"dolo","steam_id":76561198206672297,"connected_time":966000000000,"state":"active","ping":45}]},{"server_id":308,"name":"Uncletopia | Frankfurt | 3 | All Maps","name_short":"frk-3","host":"frk-1.de.uncletopia.com","port":27035,"enabled":true,"region":"eu","cc":"de","latitude":50.110924,"longitude":8.682127,"reserved":0,"last_update":"0001-01-01T00:00:00Z","name_a2s":"Uncletopia | Frankfurt | 3 | All Maps","protocol":17,"map":"pl_pier","folder":"tf","game":"Team Fortress","app_id":440,"player_count":23,"max_players":24,"Bots":0,"server_type":"Dedicated","server_os":"Linux","password":true,"vac":true,"version":"7961495","steam_id":85568392924504274,"keywords":["nocrits","nodmgspread","payload","uncletopia"],"game_id":440,"stv_port":27036,"stv_name":"Uncletopia | Frankfurt | 3 | All Maps | STV","players":[{"user_id":320,"name":"njofra","steam_id":76561199143737200,"connected_time":1545000000000,"state":"active","ping":83},{"user_id":321,"name":"Eric Coconut","steam_id":76561198910623003,"connected_time":1526000000000,"state":"active","ping":62},{"user_id":279,"name":"Vitun vittu","steam_id":76561198110679463,"connected_time":5452000000000,"state":"active","ping":76},{"user_id":280,"name":"jones","steam_id":76561198044434971,"connected_time":5450000000000,"state":"active","ping":58},{"user_id":322,"name":"Pvt Talbot","steam_id":76561198261001389,"connected_time":1509000000000,"state":"active","ping":45},{"user_id":327,"name":"tooter","steam_id":76561198020982278,"connected_time":1416000000000,"state":"active","ping":216},{"user_id":332,"name":"LemonLeCitron","steam_id":76561198215545267,"connected_time":568000000000,"state":"active","ping":85},{"user_id":298,"name":"Weebot00","steam_id":76561199479204459,"connected_time":3571000000000,"state":"active","ping":75},{"user_id":333,"name":"corralled","steam_id":76561198028648627,"connected_time":500000000000,"state":"active","ping":68},{"user_id":276,"name":"Paintbrush","steam_id":76561198119987705,"connected_time":6115000000000,"state":"active","ping":58},{"user_id":337,"name":"howabe","steam_id":76561197996486818,"connected_time":119000000000,"state":"active","ping":54},{"user_id":53,"name":"hyvakii705","steam_id":76561198086630552,"connected_time":19570000000000,"state":"active","ping":104},{"user_id":338,"name":"Zhyvje Bjelarus'!","steam_id":76561199293036742,"connected_time":6000000000,"state":"spawning","ping":44},{"user_id":335,"name":"TaiFaitter","steam_id":76561198844647170,"connected_time":225000000000,"state":"active","ping":84},{"user_id":324,"name":"istlauder","steam_id":76561199495542321,"connected_time":1463000000000,"state":"active","ping":86},{"user_id":265,"name":"Fart whisper","steam_id":76561198042593027,"connected_time":6920000000000,"state":"active","ping":82},{"user_id":313,"name":"yush","steam_id":76561198121688934,"connected_time":2322000000000,"state":"active","ping":73},{"user_id":294,"name":"Gaattori","steam_id":76561198065624683,"connected_time":3954000000000,"state":"active","ping":97},{"user_id":331,"name":"CLIF Bar Blueberry Crisp","steam_id":76561198060339391,"connected_time":883000000000,"state":"active","ping":45},{"user_id":336,"name":"thekoolest88","steam_id":76561199022415672,"connected_time":175000000000,"state":"active","ping":144},{"user_id":326,"name":"Aeglos","steam_id":76561198248698294,"connected_time":1439000000000,"state":"active","ping":80},{"user_id":318,"name":"Dolcelatte","steam_id":76561198038501770,"connected_time":1754000000000,"state":"active","ping":46},{"user_id":328,"name":"SODA!!!!!!!","steam_id":76561198107362485,"connected_time":1402000000000,"state":"active","ping":61}]},{"server_id":309,"name":"Uncletopia | Frankfurt | 4 | All Maps","name_short":"frk-4","host":"frk-1.de.uncletopia.com","port":27045,"enabled":true,"region":"eu","cc":"de","latitude":50.110924,"longitude":8.682127,"reserved":0,"last_update":"0001-01-01T00:00:00Z","name_a2s":"Uncletopia | Frankfurt | 4 | All Maps","protocol":17,"map":"pl_borneo","folder":"tf","game":"Team Fortress","app_id":440,"player_count":24,"max_players":24,"Bots":0,"server_type":"Dedicated","server_os":"Linux","password":true,"vac":true,"version":"7961495","steam_id":85568392924504275,"keywords":["nocrits","nodmgspread","payload","uncletopia"],"game_id":440,"stv_port":27046,"stv_name":"Uncletopia | Frankfurt | 4 | All Maps | STV","players":[{"user_id":144,"name":"jeannot lapin","steam_id":76561199057953617,"connected_time":660000000000,"state":"active","ping":62},{"user_id":137,"name":"pretty dick peso","steam_id":76561198798177799,"connected_time":1370000000000,"state":"active","ping":70},{"user_id":152,"name":"mq","steam_id":76561198091888948,"connected_time":318000000000,"state":"active","ping":45},{"user_id":75,"name":"rwota","steam_id":76561198385769722,"connected_time":5251000000000,"state":"active","ping":104},{"user_id":132,"name":"Valiant Mouse","steam_id":76561198119722453,"connected_time":1604000000000,"state":"active","ping":63},{"user_id":66,"name":"wasps","steam_id":76561198049485054,"connected_time":5936000000000,"state":"active","ping":75},{"user_id":159,"name":"silly penguin guy","steam_id":76561198123592400,"connected_time":43000000000,"state":"active","ping":377},{"user_id":120,"name":"spookjie","steam_id":76561198154860906,"connected_time":2260000000000,"state":"active","ping":65},{"user_id":149,"name":"Jimmy","steam_id":76561198366025417,"connected_time":497000000000,"state":"active","ping":130},{"user_id":146,"name":"ÏºÄÏ≤© ÌäÄÍπÄ","steam_id":76561199144235136,"connected_time":613000000000,"state":"active","ping":72},{"user_id":86,"name":"Nugget","steam_id":76561198338916407,"connected_time":4711000000000,"state":"active","ping":74},{"user_id":147,"name":"GGabe","steam_id":76561198117199068,"connected_time":602000000000,"state":"active","ping":90},{"user_id":115,"name":"Dj_Bear","steam_id":76561198149865187,"connected_time":2885000000000,"state":"active","ping":70},{"user_id":127,"name":"mixxxa_french","steam_id":76561198085098243,"connected_time":1999000000000,"state":"active","ping":106},{"user_id":83,"name":"roblan11","steam_id":76561198066839258,"connected_time":5088000000000,"state":"active","ping":42},{"user_id":139,"name":"Worm","steam_id":76561198296497176,"connected_time":1155000000000,"state":"active","ping":58},{"user_id":150,"name":"Shimass","steam_id":76561198867546842,"connected_time":474000000000,"state":"active","ping":54},{"user_id":140,"name":"Schogard","steam_id":76561198847318421,"connected_time":1148000000000,"state":"active","ping":128},{"user_id":157,"name":"Cosmetic brain","steam_id":76561198055936410,"connected_time":116000000000,"state":"active","ping":77},{"user_id":143,"name":"nevim","steam_id":76561199120843402,"connected_time":878000000000,"state":"active","ping":58},{"user_id":141,"name":"‡ºº‡ºó KEHHS ‡ºó‡ºΩ","steam_id":76561198350237463,"connected_time":1101000000000,"state":"active","ping":84},{"user_id":158,"name":"Pico","steam_id":76561198063552545,"connected_time":49000000000,"state":"active","ping":99},{"user_id":134,"name":"KaZa","steam_id":76561198106106803,"connected_time":1574000000000,"state":"active","ping":94},{"user_id":154,"name":"kallerannar","steam_id":76561199095701143,"connected_time":298000000000,"state":"active","ping":100}]},{"server_id":310,"name":"Uncletopia | Frankfurt | 5 | All Maps","name_short":"frk-5","host":"frk-1.de.uncletopia.com","port":27055,"enabled":true,"region":"eu","cc":"de","latitude":50.110924,"longitude":8.682127,"reserved":0,"last_update":"0001-01-01T00:00:00Z","name_a2s":"Uncletopia | Frankfurt | 5 | All Maps","protocol":17,"map":"cp_snakewater_final1","folder":"tf","game":"Team Fortress","app_id":440,"player_count":0,"max_players":24,"Bots":0,"server_type":"Dedicated","server_os":"Linux","password":true,"vac":true,"version":"7961495","steam_id":85568392924504277,"keywords":["cp","nocrits","nodmgspread","uncletopia"],"game_id":440,"stv_port":27056,"stv_name":"Uncletopia | Frankfurt | 5 | All Maps | STV","players":null},{"server_id":311,"name":"Uncletopia | Frankfurt | 6 | All Maps","name_short":"frk-6","host":"frk-1.de.uncletopia.com","port":27065,"enabled":true,"region":"eu","cc":"de","latitude":50.110924,"longitude":8.682127,"reserved":0,"last_update":"0001-01-01T00:00:00Z","name_a2s":"Uncletopia | Frankfurt | 6 | All Maps","protocol":17,"map":"pl_swiftwater_final1","folder":"tf","game":"Team Fortress","app_id":440,"player_count":24,"max_players":24,"Bots":0,"server_type":"Dedicated","server_os":"Linux","password":true,"vac":true,"version":"7961495","steam_id":85568392924504278,"keywords":["nocrits","nodmgspread","payload","uncletopia"],"game_id":440,"stv_port":27066,"stv_name":"Uncletopia | Frankfurt | 6 | All Maps | STV","players":[{"user_id":413,"name":"Pierdu","steam_id":76561198028705770,"connected_time":1531000000000,"state":"active","ping":70},{"user_id":372,"name":"mohemmedmokhter2005","steam_id":76561199197650506,"connected_time":5585000000000,"state":"active","ping":98},{"user_id":426,"name":"Dark ^^","steam_id":76561198036241064,"connected_time":402000000000,"state":"active","ping":66},{"user_id":402,"name":"Storm's Foreshadow","steam_id":76561198098462526,"connected_time":3128000000000,"state":"active","ping":70},{"user_id":415,"name":"sAmasam","steam_id":76561198114953928,"connected_time":1512000000000,"state":"active","ping":59},{"user_id":405,"name":"Naiten","steam_id":76561198051894514,"connected_time":2975000000000,"state":"active","ping":79},{"user_id":421,"name":"Chiers","steam_id":76561198073461642,"connected_time":1063000000000,"state":"active","ping":52},{"user_id":427,"name":"linkinparkfan123","steam_id":76561199033782005,"connected_time":367000000000,"state":"active","ping":89},{"user_id":333,"name":"YeetusFeetus","steam_id":76561199043598948,"connected_time":8428000000000,"state":"active","ping":114},{"user_id":423,"name":"Filin_Fill","steam_id":76561198044037139,"connected_time":762000000000,"state":"active","ping":97},{"user_id":430,"name":"Deckard","steam_id":76561198004704647,"connected_time":32000000000,"state":"active","ping":78},{"user_id":417,"name":"Corvax","steam_id":76561198127439185,"connected_time":1463000000000,"state":"active","ping":55},{"user_id":422,"name":"Thors","steam_id":76561197968739075,"connected_time":856000000000,"state":"active","ping":44},{"user_id":419,"name":"leadsquid","steam_id":76561198071544109,"connected_time":1248000000000,"state":"active","ping":122},{"user_id":376,"name":"The legendery balls","steam_id":76561199139344747,"connected_time":5305000000000,"state":"active","ping":110},{"user_id":428,"name":"DaxDef","steam_id":76561198143431864,"connected_time":359000000000,"state":"active","ping":67},{"user_id":425,"name":"Sera, Phoenix Witch ‡•ê","steam_id":76561198047988476,"connected_time":505000000000,"state":"active","ping":53},{"user_id":386,"name":"kastanomata","steam_id":76561198271832763,"connected_time":4962000000000,"state":"active","ping":78},{"user_id":418,"name":"coffee","steam_id":76561198382387303,"connected_time":1458000000000,"state":"active","ping":73},{"user_id":429,"name":"H2n9","steam_id":76561198055811259,"connected_time":254000000000,"state":"active","ping":69},{"user_id":399,"name":"Chucky.","steam_id":76561197969361063,"connected_time":3177000000000,"state":"active","ping":90},{"user_id":380,"name":"kryhu","steam_id":76561198293327713,"connected_time":5191000000000,"state":"active","ping":69},{"user_id":378,"name":"john fortress","steam_id":76561198013237629,"connected_time":5230000000000,"state":"active","ping":106},{"user_id":412,"name":"Gosman","steam_id":76561198062956955,"connected_time":1561000000000,"state":"active","ping":71}]},{"server_id":23,"name":"Uncletopia | Frankfurt | 7 | Stopwatch","name_short":"frk-7","host":"frk-1.de.uncletopia.com","port":27075,"enabled":true,"region":"eu","cc":"de","latitude":50.110924,"longitude":8.682127,"reserved":0,"last_update":"0001-01-01T00:00:00Z","name_a2s":"Uncletopia | Frankfurt | 7 | Stopwatch","protocol":17,"map":"koth_lakeside_final","folder":"tf","game":"Team Fortress","app_id":440,"player_count":0,"max_players":24,"Bots":0,"server_type":"Dedicated","server_os":"Linux","password":true,"vac":true,"version":"7961495","steam_id":85568392924742827,"keywords":["cp","nocrits","nodmgspread","uncletopia"],"game_id":440,"stv_port":27076,"stv_name":"Uncletopia | Frankfurt | 7 | Stopwatch | STV","players":null},{"server_id":24,"name":"Uncletopia | Frankfurt | 8 | Community","name_short":"frk-8","host":"frk-1.de.uncletopia.com","port":27085,"enabled":true,"region":"eu","cc":"de","latitude":50.110924,"longitude":8.682127,"reserved":0,"last_update":"0001-01-01T00:00:00Z","name_a2s":"Uncletopia | Frankfurt | 8 | Community","protocol":17,"map":"workshop/koth_ashville_final.ugc2130459942","folder":"tf","game":"Team Fortress","app_id":440,"player_count":0,"max_players":24,"Bots":0,"server_type":"Dedicated","server_os":"Linux","password":true,"vac":true,"version":"7961495","steam_id":85568392924742828,"keywords":["cp","nocrits","nodmgspread","uncletopia"],"game_id":440,"stv_port":27086,"stv_name":"Uncletopia | Frankfurt | 8 | Community | STV","players":null},{"server_id":202,"name":"Uncletopia | Hong Kong | 1 | All Maps","name_short":"hgk-1","host":"hgk-1.hk.uncletopia.com","port":27015,"enabled":true,"region":"asia","cc":"hk","latitude":22.302711,"longitude":114.177216,"reserved":0,"last_update":"0001-01-01T00:00:00Z","name_a2s":"Uncletopia | Hong Kong | 1 | All Maps","protocol":17,"map":"pl_frontier_final","folder":"tf","game":"Team Fortress","app_id":440,"player_count":24,"max_players":24,"Bots":0,"server_type":"Dedicated","server_os":"Linux","password":true,"vac":true,"version":"7961495","steam_id":85568392924494504,"keywords":["nocrits","nodmgspread","payload","uncletopia"],"game_id":440,"stv_port":27016,"stv_name":"Uncletopia | Hong Kong | 1 | All Maps | STV","players":[{"user_id":600,"name":"P","steam_id":76561198304514505,"connected_time":4774000000000,"state":"active","ping":73},{"user_id":637,"name":"swimminganxiety","steam_id":76561199435679013,"connected_time":2147000000000,"state":"active","ping":113},{"user_id":622,"name":"dax.","steam_id":76561198321885643,"connected_time":3464000000000,"state":"active","ping":41},{"user_id":626,"name":"j_rex","steam_id":76561198132473926,"connected_time":2996000000000,"state":"active","ping":86},{"user_id":645,"name":"Mango And WaterMelon","steam_id":76561198833898177,"connected_time":1706000000000,"state":"active","ping":101},{"user_id":635,"name":"Rokuri","steam_id":76561198098501872,"connected_time":2314000000000,"state":"active","ping":119},{"user_id":646,"name":"UZ","steam_id":76561198179320563,"connected_time":1598000000000,"state":"active","ping":82},{"user_id":624,"name":"Stupid Player","steam_id":76561198813103989,"connected_time":3265000000000,"state":"active","ping":83},{"user_id":650,"name":"@@","steam_id":76561198878176849,"connected_time":1399000000000,"state":"active","ping":90},{"user_id":504,"name":"Kurtie","steam_id":76561198144737876,"connected_time":7654000000000,"state":"active","ping":69},{"user_id":597,"name":"screamer","steam_id":76561198147950041,"connected_time":4831000000000,"state":"active","ping":87},{"user_id":454,"name":"Ïø†ÌÇ§","steam_id":76561197997220367,"connected_time":10885000000000,"state":"active","ping":55},{"user_id":666,"name":"YOLOp","steam_id":76561198009995591,"connected_time":179000000000,"state":"active","ping":70},{"user_id":584,"name":"Vortex Swagger","steam_id":76561198833527091,"connected_time":6126000000000,"state":"active","ping":92},{"user_id":664,"name":"Lumir„ÄéHin","steam_id":76561198076740402,"connected_time":430000000000,"state":"active","ping":87},{"user_id":618,"name":"Jun-char","steam_id":76561198126774704,"connected_time":3755000000000,"state":"active","ping":97},{"user_id":625,"name":"Pisces","steam_id":76561198429887240,"connected_time":3018000000000,"state":"active","ping":88},{"user_id":665,"name":"„Ñπ„Ñ∑","steam_id":76561199365665188,"connected_time":317000000000,"state":"active","ping":84},{"user_id":594,"name":"Pyro","steam_id":76561198144194541,"connected_time":5430000000000,"state":"active","ping":120},{"user_id":621,"name":"PP","steam_id":76561199066924529,"connected_time":3567000000000,"state":"active","ping":61},{"user_id":653,"name":"Sophia the librarian werewolf","steam_id":76561199131651798,"connected_time":1298000000000,"state":"active","ping":82},{"user_id":629,"name":"Samoyed","steam_id":76561198299150410,"connected_time":2903000000000,"state":"active","ping":83},{"user_id":656,"name":"Á∑ëËå∂","steam_id":76561198842038746,"connected_time":1168000000000,"state":"active","ping":102},{"user_id":663,"name":"arys","steam_id":76561198088743596,"connected_time":598000000000,"state":"active","ping":123}]},{"server_id":1,"name":"Uncletopia | Los Angeles | 1 | All Maps","name_short":"lax-1","host":"lax-1.us.uncletopia.com","port":27015,"enabled":true,"region":"us-west","cc":"us","latitude":33.94279,"longitude":-118.41004,"reserved":0,"last_update":"0001-01-01T00:00:00Z","name_a2s":"Uncletopia | Los Angeles | 1 | All Maps","protocol":17,"map":"cp_snakewater_final1","folder":"tf","game":"Team Fortress","app_id":440,"player_count":0,"max_players":24,"Bots":0,"server_type":"Dedicated","server_os":"Linux","password":true,"vac":true,"version":"7961495","steam_id":85568392924469991,"keywords":["cp","nocrits","nodmgspread","uncletopia"],"game_id":440,"stv_port":27016,"stv_name":"Uncletopia | Los Angeles | 1 | All Maps | STV","players":null},{"server_id":112,"name":"Uncletopia | Los Angeles | 2 | All Maps","name_short":"lax-2","host":"lax-1.us.uncletopia.com","port":27025,"enabled":true,"region":"us-west","cc":"us","latitude":33.94279,"longitude":-118.41004,"reserved":0,"last_update":"0001-01-01T00:00:00Z","name_a2s":"Uncletopia | Los Angeles | 2 | All Maps","protocol":17,"map":"cp_mountainlab","folder":"tf","game":"Team Fortress","app_id":440,"player_count":0,"max_players":24,"Bots":0,"server_type":"Dedicated","server_os":"Linux","password":true,"vac":true,"version":"7961495","steam_id":85568392924469992,"keywords":["cp","nocrits","nodmgspread","uncletopia"],"game_id":440,"stv_port":27026,"stv_name":"Uncletopia | Los Angeles | 2 | All Maps | STV","players":null},{"server_id":324,"name":"Uncletopia | Los Angeles | 3 | All Maps","name_short":"lax-3","host":"lax-1.us.uncletopia.com","port":27035,"enabled":true,"region":"us-west","cc":"us","latitude":33.94279,"longitude":-118.41004,"reserved":0,"last_update":"0001-01-01T00:00:00Z","name_a2s":"Uncletopia | Los Angeles | 3 | All Maps","protocol":17,"map":"koth_highpass","folder":"tf","game":"Team Fortress","app_id":440,"player_count":0,"max_players":24,"Bots":0,"server_type":"Dedicated","server_os":"Linux","password":true,"vac":true,"version":"7961495","steam_id":85568392924510198,"keywords":["cp","nocrits","nodmgspread","uncletopia"],"game_id":440,"stv_port":27036,"stv_name":"Uncletopia | Los Angeles | 3 | All Maps | STV","players":null},{"server_id":25,"name":"Uncletopia | Los Angeles | 4 | Stopwatch","name_short":"lax-4","host":"lax-1.us.uncletopia.com","port":27045,"enabled":true,"region":"us-west","cc":"us","latitude":33.94279,"longitude":-118.41004,"reserved":0,"last_update":"0001-01-01T00:00:00Z","name_a2s":"Uncletopia | Los Angeles | 4 | Stopwatch","protocol":17,"map":"pl_barnblitz","folder":"tf","game":"Team Fortress","app_id":440,"player_count":0,"max_players":24,"Bots":0,"server_type":"Dedicated","server_os":"Linux","password":true,"vac":true,"version":"7961495","steam_id":85568392924510199,"keywords":["nocrits","nodmgspread","payload","uncletopia"],"game_id":440,"stv_port":27046,"stv_name":"Uncletopia | Los Angeles | 4 | Stopwatch | STV","players":null},{"server_id":11,"name":"Uncletopia | London | 1 | All Maps","name_short":"lon-1","host":"lon-1.uk.uncletopia.com","port":27015,"enabled":true,"region":"eu","cc":"gb","latitude":51.509865,"longitude":-0.118092,"reserved":0,"last_update":"0001-01-01T00:00:00Z","name_a2s":"Uncletopia | London | 1 | All Maps","protocol":17,"map":"cp_altitude","folder":"tf","game":"Team Fortress","app_id":440,"player_count":20,"max_players":24,"Bots":0,"server_type":"Dedicated","server_os":"Linux","password":true,"vac":true,"version":"7961495","steam_id":85568392924367362,"keywords":["cp","nocrits","nodmgspread","uncletopia"],"game_id":440,"stv_port":27016,"stv_name":"Uncletopia | London | 1 | All Maps | STV","players":[{"user_id":480,"name":"ScottishPerson57","steam_id":76561198130501330,"connected_time":2798000000000,"state":"spawning","ping":84},{"user_id":460,"name":"XX_POTATO_WEDGIE_SNIPES_XX","steam_id":76561198256755222,"connected_time":3990000000000,"state":"spawning","ping":65},{"user_id":502,"name":"flop","steam_id":76561199225333422,"connected_time":1283000000000,"state":"spawning","ping":61},{"user_id":513,"name":"Purps","steam_id":76561198053886680,"connected_time":704000000000,"state":"spawning","ping":80},{"user_id":470,"name":"ABC555ABC666ABC555","steam_id":76561197995676953,"connected_time":3196000000000,"state":"spawning","ping":88},{"user_id":493,"name":"jermany","steam_id":76561198126599355,"connected_time":2296000000000,"state":"spawning","ping":61},{"user_id":512,"name":"Quantum","steam_id":76561198401018345,"connected_time":788000000000,"state":"spawning","ping":118},{"user_id":520,"name":"red‚ãÜmits","steam_id":76561198015590113,"connected_time":20000000000,"state":"connecting","ping":41},{"user_id":516,"name":"Reichskanzlerl‚úô","steam_id":76561199010757888,"connected_time":467000000000,"state":"spawning","ping":123},{"user_id":506,"name":"Aku+","steam_id":76561198813782795,"connected_time":1101000000000,"state":"spawning","ping":74},{"user_id":511,"name":"MaccyF","steam_id":76561198039214805,"connected_time":955000000000,"state":"spawning","ping":59},{"user_id":503,"name":"Stunner/John „ÉÑ","steam_id":76561199085822219,"connected_time":1278000000000,"state":"spawning","ping":122},{"user_id":517,"name":"Morbidly A Beast","steam_id":76561198251578274,"connected_time":408000000000,"state":"spawning","ping":117},{"user_id":508,"name":"Slav-matros","steam_id":76561198251977912,"connected_time":1051000000000,"state":"spawning","ping":107},{"user_id":519,"name":"shooer!","steam_id":76561198110531281,"connected_time":28000000000,"state":"connecting","ping":53},{"user_id":510,"name":"Dokuro","steam_id":76561198005413903,"connected_time":1007000000000,"state":"spawning","ping":77},{"user_id":514,"name":"Bl√•haj enjoyer (krayy)","steam_id":76561198035037830,"connected_time":538000000000,"state":"spawning","ping":77},{"user_id":488,"name":"Krucial","steam_id":76561198144464665,"connected_time":2480000000000,"state":"spawning","ping":45},{"user_id":518,"name":"‚ú™ Danny","steam_id":76561198104483241,"connected_time":152000000000,"state":"spawning","ping":60},{"user_id":457,"name":"Fu Manchu","steam_id":76561197995224539,"connected_time":4273000000000,"state":"spawning","ping":66}]},{"server_id":114,"name":"Uncletopia | London | 2 | All Maps","name_short":"lon-2","host":"lon-1.uk.uncletopia.com","port":27025,"enabled":true,"region":"eu","cc":"gb","latitude":51.509865,"longitude":-0.118092,"reserved":0,"last_update":"0001-01-01T00:00:00Z","name_a2s":"Uncletopia | London | 2 | All Maps","protocol":17,"map":"cp_altitude","folder":"tf","game":"Team Fortress","app_id":440,"player_count":0,"max_players":24,"Bots":0,"server_type":"Dedicated","server_os":"Linux","password":true,"vac":true,"version":"7961495","steam_id":85568392924470941,"keywords":["cp","nocrits","nodmgspread","uncletopia"],"game_id":440,"stv_port":27026,"stv_name":"Uncletopia | London | 2 | All Maps | STV","players":null},{"server_id":320,"name":"Uncletopia | London | 3 | All Maps","name_short":"lon-3","host":"lon-1.uk.uncletopia.com","port":27035,"enabled":true,"region":"eu","cc":"gb","latitude":51.509865,"longitude":-0.118092,"reserved":0,"last_update":"0001-01-01T00:00:00Z","name_a2s":"Uncletopia | London | 3 | All Maps","protocol":17,"map":"pl_borneo","folder":"tf","game":"Team Fortress","app_id":440,"player_count":24,"max_players":24,"Bots":0,"server_type":"Dedicated","server_os":"Linux","password":true,"vac":true,"version":"7961495","steam_id":85568392924510192,"keywords":["nocrits","nodmgspread","payload","uncletopia"],"game_id":440,"stv_port":27036,"stv_name":"Uncletopia | London | 3 | All Maps | STV","players":[{"user_id":331,"name":"gayboi farti","steam_id":76561199121999431,"connected_time":5687000000000,"state":"active","ping":33},{"user_id":284,"name":"AleXandriX","steam_id":76561198035203950,"connected_time":9347000000000,"state":"active","ping":61},{"user_id":407,"name":"Gent","steam_id":76561198037167890,"connected_time":1938000000000,"state":"active","ping":77},{"user_id":356,"name":"Me when fort no funny","steam_id":76561198082502910,"connected_time":4558000000000,"state":"active","ping":61},{"user_id":380,"name":":3","steam_id":76561198169471853,"connected_time":3254000000000,"state":"active","ping":38},{"user_id":414,"name":"unknown allies","steam_id":76561198372435881,"connected_time":1041000000000,"state":"active","ping":61},{"user_id":421,"name":"TrollFace","steam_id":76561198799317717,"connected_time":595000000000,"state":"active","ping":118},{"user_id":361,"name":"rafaandyaya","steam_id":76561199040138255,"connected_time":4491000000000,"state":"active","ping":50},{"user_id":411,"name":"Mikeal (4:3)","steam_id":76561198241759034,"connected_time":1406000000000,"state":"active","ping":90},{"user_id":365,"name":"Space","steam_id":76561198021572167,"connected_time":4373000000000,"state":"active","ping":45},{"user_id":425,"name":"mummi","steam_id":76561198137614047,"connected_time":331000000000,"state":"active","ping":67},{"user_id":387,"name":"MEDiUM","steam_id":76561198112328561,"connected_time":3108000000000,"state":"active","ping":84},{"user_id":364,"name":"Birdseye","steam_id":76561198025852216,"connected_time":4449000000000,"state":"active","ping":60},{"user_id":417,"name":"sewayx","steam_id":76561198049470667,"connected_time":790000000000,"state":"active","ping":78},{"user_id":415,"name":"your_local_penguin","steam_id":76561199224954346,"connected_time":1009000000000,"state":"active","ping":106},{"user_id":397,"name":"Coach McFish","steam_id":76561198210456405,"connected_time":2576000000000,"state":"active","ping":180},{"user_id":428,"name":"you can go anywhere","steam_id":76561199085984801,"connected_time":201000000000,"state":"active","ping":78},{"user_id":371,"name":"Andy","steam_id":76561198046918834,"connected_time":3818000000000,"state":"active","ping":59},{"user_id":419,"name":"Egtu","steam_id":76561198013757235,"connected_time":748000000000,"state":"active","ping":74},{"user_id":408,"name":"Jasperatus","steam_id":76561198196733750,"connected_time":1916000000000,"state":"active","ping":96},{"user_id":424,"name":"ratot","steam_id":76561198063132645,"connected_time":432000000000,"state":"active","ping":45},{"user_id":389,"name":"InariTPG (They Them)","steam_id":76561198872670782,"connected_time":3074000000000,"state":"active","ping":61},{"user_id":427,"name":"Fran","steam_id":76561199070516960,"connected_time":283000000000,"state":"active","ping":75},{"user_id":429,"name":"SuntanPikachu","steam_id":76561198121242476,"connected_time":105000000000,"state":"active","ping":58}]},{"server_id":321,"name":"Uncletopia | London | 4 | All Maps","name_short":"lon-4","host":"lon-1.uk.uncletopia.com","port":27045,"enabled":true,"region":"eu","cc":"gb","latitude":51.509865,"longitude":-0.118092,"reserved":0,"last_update":"0001-01-01T00:00:00Z","name_a2s":"Uncletopia | London | 4 | All Maps","protocol":17,"map":"cp_altitude","folder":"tf","game":"Team Fortress","app_id":440,"player_count":18,"max_players":24,"Bots":0,"server_type":"Dedicated","server_os":"Linux","password":true,"vac":true,"version":"7961495","steam_id":85568392924510193,"keywords":["cp","nocrits","nodmgspread","uncletopia"],"game_id":440,"stv_port":27046,"stv_name":"Uncletopia | London | 4 | All Maps | STV","players":[{"user_id":191,"name":"Scarlet","steam_id":76561198075966579,"connected_time":75000000000,"state":"active","ping":32},{"user_id":183,"name":"busgrabb","steam_id":76561198055768465,"connected_time":388000000000,"state":"active","ping":67},{"user_id":163,"name":"Spetse","steam_id":76561197990649972,"connected_time":1897000000000,"state":"active","ping":86},{"user_id":192,"name":"Soulman25 (FIN)","steam_id":76561198103611974,"connected_time":23000000000,"state":"active","ping":101},{"user_id":168,"name":"Keho","steam_id":76561198087962709,"connected_time":1389000000000,"state":"active","ping":66},{"user_id":165,"name":"Nick","steam_id":76561198036109469,"connected_time":1417000000000,"state":"active","ping":75},{"user_id":149,"name":"Tritone","steam_id":76561197999593563,"connected_time":3680000000000,"state":"active","ping":75},{"user_id":181,"name":"Doctor Mobius","steam_id":76561197971281806,"connected_time":419000000000,"state":"active","ping":72},{"user_id":188,"name":"Jonny J","steam_id":76561198027710849,"connected_time":115000000000,"state":"active","ping":90},{"user_id":143,"name":"Hexagon","steam_id":76561198151205758,"connected_time":4356000000000,"state":"active","ping":56},{"user_id":173,"name":"Pineappleman","steam_id":76561199074651648,"connected_time":1001000000000,"state":"active","ping":50},{"user_id":190,"name":"Swift","steam_id":76561197998799889,"connected_time":95000000000,"state":"active","ping":46},{"user_id":186,"name":"capslocked","steam_id":76561198095960796,"connected_time":224000000000,"state":"active","ping":65},{"user_id":121,"name":"Canpenbook64","steam_id":76561199195471984,"connected_time":5829000000000,"state":"active","ping":55},{"user_id":187,"name":"kreeekz","steam_id":76561198014431602,"connected_time":223000000000,"state":"active","ping":68},{"user_id":162,"name":"Mr. Mundy","steam_id":76561198132008918,"connected_time":2030000000000,"state":"active","ping":90},{"user_id":184,"name":"The Man Who Couldn't Cook","steam_id":76561198329640236,"connected_time":386000000000,"state":"active","ping":47},{"user_id":189,"name":"J'zargo Engineering","steam_id":76561198088898260,"connected_time":114000000000,"state":"active","ping":72}]},{"server_id":21,"name":"Uncletopia | London | 5 | All Maps","name_short":"lon-5","host":"lon-1.uk.uncletopia.com","port":27055,"enabled":true,"region":"eu","cc":"gb","latitude":51.509865,"longitude":-0.118092,"reserved":0,"last_update":"0001-01-01T00:00:00Z","name_a2s":"Uncletopia | London | 5 | All Maps","protocol":17,"map":"pl_upward","folder":"tf","game":"Team Fortress","app_id":440,"player_count":24,"max_players":24,"Bots":0,"server_type":"Dedicated","server_os":"Linux","password":true,"vac":true,"version":"7961495","steam_id":85568392924742829,"keywords":["nocrits","nodmgspread","payload","uncletopia"],"game_id":440,"stv_port":27056,"stv_name":"Uncletopia | London | 5 | All Maps | STV","players":[{"user_id":90,"name":"Egor Pomidor","steam_id":76561199175688390,"connected_time":74000000000,"state":"active","ping":89},{"user_id":71,"name":"midlpsyzl47","steam_id":76561199475972637,"connected_time":1276000000000,"state":"active","ping":69},{"user_id":73,"name":"Ch4bby","steam_id":76561198058792875,"connected_time":1203000000000,"state":"active","ping":58},{"user_id":65,"name":"orphan smeller","steam_id":76561198107876224,"connected_time":1596000000000,"state":"active","ping":54},{"user_id":72,"name":"gothmoth","steam_id":76561198386910896,"connected_time":1276000000000,"state":"active","ping":91},{"user_id":85,"name":"Fat Pigeon","steam_id":76561198817940142,"connected_time":336000000000,"state":"active","ping":46},{"user_id":64,"name":"OceanCow","steam_id":76561198343428913,"connected_time":1772000000000,"state":"active","ping":58},{"user_id":86,"name":"Lorenzo Lovers","steam_id":76561198073973581,"connected_time":318000000000,"state":"active","ping":86},{"user_id":68,"name":"Ziemniaczki z koperkiem","steam_id":76561198829123464,"connected_time":1458000000000,"state":"active","ping":85},{"user_id":77,"name":"Jon","steam_id":76561199380849468,"connected_time":608000000000,"state":"active","ping":62},{"user_id":34,"name":"vi","steam_id":76561198303147966,"connected_time":3194000000000,"state":"active","ping":42},{"user_id":81,"name":"Na z√°chodƒõ","steam_id":76561198383952144,"connected_time":479000000000,"state":"active","ping":155},{"user_id":79,"name":"sareena","steam_id":76561198810194062,"connected_time":529000000000,"state":"active","ping":72},{"user_id":58,"name":"BlenderGuy","steam_id":76561198889111945,"connected_time":1860000000000,"state":"active","ping":66},{"user_id":88,"name":"i do hard drugs on the regular","steam_id":76561198263228457,"connected_time":143000000000,"state":"active","ping":129},{"user_id":62,"name":"Gimble","steam_id":76561198964372777,"connected_time":1810000000000,"state":"active","ping":50},{"user_id":59,"name":"bogus","steam_id":76561198377555279,"connected_time":1853000000000,"state":"active","ping":146},{"user_id":75,"name":"Lorents","steam_id":76561198796919618,"connected_time":878000000000,"state":"active","ping":76},{"user_id":80,"name":"cobblestone","steam_id":76561198079123043,"connected_time":512000000000,"state":"active","ping":87},{"user_id":89,"name":"akakez","steam_id":76561198095432821,"connected_time":113000000000,"state":"active","ping":114},{"user_id":55,"name":"Boki","steam_id":76561198044553351,"connected_time":1932000000000,"state":"active","ping":60},{"user_id":56,"name":"Luuk","steam_id":76561198088266026,"connected_time":1889000000000,"state":"active","ping":49},{"user_id":57,"name":"BigBoyBroccoli","steam_id":76561198029337108,"connected_time":1881000000000,"state":"active","ping":63},{"user_id":61,"name":"Ixsus\u003c3","steam_id":76561198094756869,"connected_time":1841000000000,"state":"active","ping":61}]},{"server_id":22,"name":"Uncletopia | London | 6 | All Maps","name_short":"lon-6","host":"lon-1.uk.uncletopia.com","port":27065,"enabled":true,"region":"eu","cc":"gb","latitude":51.509865,"longitude":-0.118092,"reserved":0,"last_update":"0001-01-01T00:00:00Z","name_a2s":"Uncletopia | London | 6 | All Maps","protocol":17,"map":"cp_dustbowl","folder":"tf","game":"Team Fortress","app_id":440,"player_count":0,"max_players":24,"Bots":0,"server_type":"Dedicated","server_os":"Linux","password":true,"vac":true,"version":"7961495","steam_id":85568392924742830,"keywords":["cp","nocrits","nodmgspread","uncletopia"],"game_id":440,"stv_port":27066,"stv_name":"Uncletopia | London | 6 | All Maps | STV","players":null},{"server_id":40,"name":"Uncletopia | London | 7 | Stopwatch","name_short":"lon-7","host":"lon-1.uk.uncletopia.com","port":27075,"enabled":true,"region":"eu","cc":"gb","latitude":51.509865,"longitude":-0.118092,"reserved":0,"last_update":"0001-01-01T00:00:00Z","name_a2s":"Uncletopia | London | 7 | Stopwatch","protocol":17,"map":"koth_highpass","folder":"tf","game":"Team Fortress","app_id":440,"player_count":2,"max_players":24,"Bots":0,"server_type":"Dedicated","server_os":"Linux","password":true,"vac":true,"version":"7961495","steam_id":85568392924964314,"keywords":["cp","nocrits","nodmgspread","uncletopia"],"game_id":440,"stv_port":27076,"stv_name":"Uncletopia | London | 7 | Stopwatch | STV","players":[{"user_id":5,"name":"Baked Beans Gaming","steam_id":76561199177778966,"connected_time":478000000000,"state":"active","ping":47},{"user_id":6,"name":"MiniMozza_09","steam_id":76561198823264601,"connected_time":458000000000,"state":"active","ping":42}]},{"server_id":41,"name":"Uncletopia | London | 8 | Community","name_short":"lon-8","host":"lon-1.uk.uncletopia.com","port":27085,"enabled":true,"region":"eu","cc":"gb","latitude":51.509865,"longitude":-0.118092,"reserved":0,"last_update":"0001-01-01T00:00:00Z","name_a2s":"Uncletopia | London | 8 | Community","protocol":17,"map":"workshop/cp_glassworks_rc6a.ugc454118349","folder":"tf","game":"Team Fortress","app_id":440,"player_count":0,"max_players":24,"Bots":0,"server_type":"Dedicated","server_os":"Linux","password":true,"vac":true,"version":"7961495","steam_id":85568392924964315,"keywords":["cp","nocrits","nodmgspread","uncletopia"],"game_id":440,"stv_port":27086,"stv_name":"Uncletopia | London | 8 | Community | STV","players":null},{"server_id":300,"name":"Uncletopia | Montr√©al | 1 | All Maps","name_short":"mtl-1","host":"mtl-1.ca.uncletopia.com","port":27015,"enabled":true,"region":"us-east","cc":"ca","latitude":45.50889,"longitude":-73.56167,"reserved":0,"last_update":"0001-01-01T00:00:00Z","name_a2s":"","protocol":0,"map":"","folder":"","game":"","app_id":0,"player_count":0,"max_players":0,"Bots":0,"server_type":"","server_os":"","password":false,"vac":false,"version":"","steam_id":0,"keywords":null,"game_id":0,"stv_port":0,"stv_name":"","players":null},{"server_id":301,"name":"Uncletopia | Montr√©al | 2 | All Maps","name_short":"mtl-2","host":"mtl-1.ca.uncletopia.com","port":27025,"enabled":true,"region":"us-east","cc":"ca","latitude":45.50889,"longitude":-73.56167,"reserved":0,"last_update":"0001-01-01T00:00:00Z","name_a2s":"","protocol":0,"map":"","folder":"","game":"","app_id":0,"player_count":0,"max_players":0,"Bots":0,"server_type":"","server_os":"","password":false,"vac":false,"version":"","steam_id":0,"keywords":null,"game_id":0,"stv_port":0,"stv_name":"","players":null},{"server_id":302,"name":"Uncletopia | Montr√©al | 3 | All Maps","name_short":"mtl-3","host":"mtl-1.ca.uncletopia.com","port":27035,"enabled":true,"region":"us-east","cc":"ca","latitude":45.50889,"longitude":-73.56167,"reserved":0,"last_update":"0001-01-01T00:00:00Z","name_a2s":"","protocol":0,"map":"","folder":"","game":"","app_id":0,"player_count":0,"max_players":0,"Bots":0,"server_type":"","server_os":"","password":false,"vac":false,"version":"","steam_id":0,"keywords":null,"game_id":0,"stv_port":0,"stv_name":"","players":null},{"server_id":303,"name":"Uncletopia | Montr√©al | 4 | No Payload","name_short":"mtl-4","host":"mtl-1.ca.uncletopia.com","port":27045,"enabled":true,"region":"us-east","cc":"ca","latitude":45.50889,"longitude":-73.56167,"reserved":0,"last_update":"0001-01-01T00:00:00Z","name_a2s":"","protocol":0,"map":"","folder":"","game":"","app_id":0,"player_count":0,"max_players":0,"Bots":0,"server_type":"","server_os":"","password":false,"vac":false,"version":"","steam_id":0,"keywords":null,"game_id":0,"stv_port":0,"stv_name":"","players":null},{"server_id":13,"name":"Uncletopia | New York City | 1 | All Maps","name_short":"nyc-1","host":"nyc-1.us.uncletopia.com","port":27015,"enabled":true,"region":"us-east","cc":"us","latitude":40.73061,"longitude":-73.93524,"reserved":0,"last_update":"0001-01-01T00:00:00Z","name_a2s":"Uncletopia | New York City | 1 | All Maps","protocol":17,"map":"koth_highpass","folder":"tf","game":"Team Fortress","app_id":440,"player_count":2,"max_players":24,"Bots":0,"server_type":"Dedicated","server_os":"Linux","password":true,"vac":true,"version":"7961495","steam_id":85568392924469993,"keywords":["cp","nocrits","nodmgspread","uncletopia"],"game_id":440,"stv_port":27016,"stv_name":"Uncletopia | New York City | 1 | All Maps | STV","players":[{"user_id":5,"name":"tlewis31558","steam_id":76561198066311016,"connected_time":1962000000000,"state":"active","ping":114},{"user_id":6,"name":"Boot Mcstink","steam_id":76561199226873917,"connected_time":1883000000000,"state":"active","ping":75}]},{"server_id":14,"name":"Uncletopia | New York City | 2 | All Maps","name_short":"nyc-2","host":"nyc-1.us.uncletopia.com","port":27025,"enabled":true,"region":"us-east","cc":"us","latitude":40.73061,"longitude":-73.93524,"reserved":0,"last_update":"0001-01-01T00:00:00Z","name_a2s":"Uncletopia | New York City | 2 | All Maps","protocol":17,"map":"pl_upward","folder":"tf","game":"Team Fortress","app_id":440,"player_count":24,"max_players":24,"Bots":0,"server_type":"Dedicated","server_os":"Linux","password":true,"vac":true,"version":"7961495","steam_id":85568392924469994,"keywords":["nocrits","nodmgspread","payload","uncletopia"],"game_id":440,"stv_port":27026,"stv_name":"Uncletopia | New York City | 2 | All Maps | STV","players":[{"user_id":128,"name":"Still Grillby","steam_id":76561198161275243,"connected_time":209000000000,"state":"active","ping":59},{"user_id":114,"name":"general.b","steam_id":76561198162480519,"connected_time":655000000000,"state":"active","ping":63},{"user_id":127,"name":"Froyo Ding Dong","steam_id":76561198379421700,"connected_time":270000000000,"state":"active","ping":56},{"user_id":82,"name":"yee haw","steam_id":76561198398638164,"connected_time":2692000000000,"state":"active","ping":77},{"user_id":123,"name":"Gamer Princess","steam_id":76561198048205270,"connected_time":375000000000,"state":"active","ping":64},{"user_id":115,"name":"Ian","steam_id":76561198059717554,"connected_time":635000000000,"state":"active","ping":45},{"user_id":119,"name":"JambaJuice","steam_id":76561198806736231,"connected_time":532000000000,"state":"active","ping":55},{"user_id":132,"name":"DarthInvad3r","steam_id":76561198388426716,"connected_time":49000000000,"state":"active","ping":45},{"user_id":72,"name":"Ambi","steam_id":76561198218669111,"connected_time":3368000000000,"state":"active","ping":66},{"user_id":129,"name":"b4rry","steam_id":76561198365887154,"connected_time":123000000000,"state":"active","ping":57},{"user_id":94,"name":"Deltaco","steam_id":76561198094572694,"connected_time":1943000000000,"state":"active","ping":115},{"user_id":113,"name":"E-Gab","steam_id":76561199059397250,"connected_time":734000000000,"state":"active","ping":128},{"user_id":88,"name":"bad","steam_id":76561198090531755,"connected_time":2602000000000,"state":"active","ping":89},{"user_id":117,"name":"Salixiola","steam_id":76561198042177809,"connected_time":576000000000,"state":"active","ping":75},{"user_id":120,"name":"Preacher","steam_id":76561198022215764,"connected_time":484000000000,"state":"active","ping":61},{"user_id":105,"name":"negus 2","steam_id":76561198043862737,"connected_time":1148000000000,"state":"active","ping":42},{"user_id":108,"name":"Thog","steam_id":76561198093699060,"connected_time":1069000000000,"state":"active","ping":41},{"user_id":121,"name":"Ôº≤Ôº•Ôº§","steam_id":76561198030282308,"connected_time":477000000000,"state":"active","ping":134},{"user_id":124,"name":"meowfang","steam_id":76561198123056791,"connected_time":370000000000,"state":"active","ping":49},{"user_id":130,"name":"ErAeRaLl","steam_id":76561198798628554,"connected_time":111000000000,"state":"active","ping":60},{"user_id":97,"name":"Walmart Employee","steam_id":76561198840373909,"connected_time":1875000000000,"state":"active","ping":97},{"user_id":125,"name":"zogs","steam_id":76561198323491654,"connected_time":367000000000,"state":"active","ping":75},{"user_id":126,"name":"Trollstoy","steam_id":76561198072017175,"connected_time":300000000000,"state":"active","ping":146},{"user_id":131,"name":"yansi","steam_id":76561199080955459,"connected_time":82000000000,"state":"active","ping":45}]},{"server_id":15,"name":"Uncletopia | New York City | 3 | Stopwatch","name_short":"nyc-3","host":"nyc-1.us.uncletopia.com","port":27035,"enabled":true,"region":"us-east","cc":"us","latitude":40.73061,"longitude":-73.93524,"reserved":0,"last_update":"0001-01-01T00:00:00Z","name_a2s":"Uncletopia | New York City | 3 | Stopwatch","protocol":17,"map":"pl_snowycoast","folder":"tf","game":"Team Fortress","app_id":440,"player_count":0,"max_players":24,"Bots":0,"server_type":"Dedicated","server_os":"Linux","password":true,"vac":true,"version":"7961495","steam_id":85568392924742820,"keywords":["nocrits","nodmgspread","payload","uncletopia"],"game_id":440,"stv_port":27036,"stv_name":"Uncletopia | New York City | 3 | Stopwatch | STV","players":null},{"server_id":16,"name":"Uncletopia | New York City | 4 | Community","name_short":"nyc-4","host":"nyc-1.us.uncletopia.com","port":27045,"enabled":true,"region":"us-east","cc":"us","latitude":40.73061,"longitude":-73.93524,"reserved":0,"last_update":"0001-01-01T00:00:00Z","name_a2s":"Uncletopia | New York City | 4 | Community","protocol":17,"map":"cp_altitude","folder":"tf","game":"Team Fortress","app_id":440,"player_count":0,"max_players":24,"Bots":0,"server_type":"Dedicated","server_os":"Linux","password":true,"vac":true,"version":"7961495","steam_id":85568392924742821,"keywords":["cp","nocrits","nodmgspread","uncletopia"],"game_id":440,"stv_port":27046,"stv_name":"Uncletopia | New York City | 4 | Community | STV","players":null},{"server_id":142,"name":"Uncletopia | S√£o Paulo | 1 | All Maps","name_short":"sao-1","host":"sao-1.br.uncletopia.com","port":27015,"enabled":true,"region":"sa","cc":"br","latitude":-23.533773,"longitude":-46.62529,"reserved":0,"last_update":"0001-01-01T00:00:00Z","name_a2s":"Uncletopia | S√£o Paulo | 1 | All Maps","protocol":17,"map":"cp_mountainlab","folder":"tf","game":"Team Fortress","app_id":440,"player_count":0,"max_players":24,"Bots":0,"server_type":"Dedicated","server_os":"Linux","password":true,"vac":true,"version":"7961495","steam_id":85568392924469996,"keywords":["cp","nocrits","nodmgspread","uncletopia"],"game_id":440,"stv_port":27016,"stv_name":"Uncletopia | S√£o Paulo | 1 | All Maps | STV","players":null},{"server_id":143,"name":"Uncletopia | S√£o Paulo | 2 | Community","name_short":"sao-2","host":"sao-2.br.uncletopia.com","port":27015,"enabled":true,"region":"sa","cc":"br","latitude":-23.533773,"longitude":-46.62529,"reserved":0,"last_update":"0001-01-01T00:00:00Z","name_a2s":"Uncletopia | S√£o Paulo | 2 | Community","protocol":17,"map":"pl_badwater","folder":"tf","game":"Team Fortress","app_id":440,"player_count":0,"max_players":24,"Bots":0,"server_type":"Dedicated","server_os":"Linux","password":true,"vac":true,"version":"7961495","steam_id":85568392924485349,"keywords":["nocrits","nodmgspread","payload","uncletopia"],"game_id":440,"stv_port":27016,"stv_name":"Uncletopia | S√£o Paulo | 2 | Community | STV","players":null},{"server_id":7,"name":"Uncletopia | Seattle | 1 | All Maps","name_short":"sea-1","host":"sea-1.us.uncletopia.com","port":27015,"enabled":true,"region":"us-west","cc":"us","latitude":47.608013,"longitude":-122.33517,"reserved":0,"last_update":"0001-01-01T00:00:00Z","name_a2s":"Uncletopia | Seattle | 1 | All Maps","protocol":17,"map":"pl_barnblitz","folder":"tf","game":"Team Fortress","app_id":440,"player_count":0,"max_players":24,"Bots":0,"server_type":"Dedicated","server_os":"Linux","password":true,"vac":true,"version":"7961495","steam_id":85568392924469997,"keywords":["nocrits","nodmgspread","payload","uncletopia"],"game_id":440,"stv_port":27016,"stv_name":"Uncletopia | Seattle | 1 | All Maps | STV","players":null},{"server_id":119,"name":"Uncletopia | Seattle | 2 | All Maps","name_short":"sea-2","host":"sea-1.us.uncletopia.com","port":27025,"enabled":true,"region":"us-west","cc":"us","latitude":47.608013,"longitude":-122.33517,"reserved":0,"last_update":"0001-01-01T00:00:00Z","name_a2s":"Uncletopia | Seattle | 2 | All Maps","protocol":17,"map":"pl_frontier_final","folder":"tf","game":"Team Fortress","app_id":440,"player_count":0,"max_players":24,"Bots":0,"server_type":"Dedicated","server_os":"Linux","password":true,"vac":true,"version":"7961495","steam_id":85568392924469998,"keywords":["nocrits","nodmgspread","payload","uncletopia"],"game_id":440,"stv_port":27026,"stv_name":"Uncletopia | Seattle | 2 | All Maps | STV","players":null},{"server_id":406,"name":"Uncletopia | Seattle | 3 | Stopwatch","name_short":"sea-3","host":"sea-1.us.uncletopia.com","port":27035,"enabled":true,"region":"us-west","cc":"us","latitude":47.608013,"longitude":-122.33517,"reserved":0,"last_update":"0001-01-01T00:00:00Z","name_a2s":"Uncletopia | Seattle | 3 | Stopwatch","protocol":17,"map":"koth_lakeside_final","folder":"tf","game":"Team Fortress","app_id":440,"player_count":0,"max_players":24,"Bots":0,"server_type":"Dedicated","server_os":"Linux","password":true,"vac":true,"version":"7961495","steam_id":85568392924515217,"keywords":["cp","nocrits","nodmgspread","uncletopia"],"game_id":440,"stv_port":27036,"stv_name":"Uncletopia | Seattle | 3 | Stopwatch | STV","players":null},{"server_id":17,"name":"Uncletopia | San Francisco | 1 | All Maps","name_short":"sfo-1","host":"sfo-1.us.uncletopia.com","port":27015,"enabled":true,"region":"us-west","cc":"us","latitude":37.77397,"longitude":-122.4313,"reserved":0,"last_update":"0001-01-01T00:00:00Z","name_a2s":"Uncletopia | San Francisco | 1 | All Maps","protocol":17,"map":"koth_cascade","folder":"tf","game":"Team Fortress","app_id":440,"player_count":0,"max_players":24,"Bots":0,"server_type":"Dedicated","server_os":"Linux","password":true,"vac":true,"version":"7961495","steam_id":85568392924469999,"keywords":["cp","nocrits","nodmgspread","uncletopia"],"game_id":440,"stv_port":27016,"stv_name":"Uncletopia | San Francisco | 1 | All Maps | STV","players":null},{"server_id":18,"name":"Uncletopia | San Francisco | 2 | All Maps","name_short":"sfo-2","host":"sfo-1.us.uncletopia.com","port":27025,"enabled":true,"region":"us-west","cc":"us","latitude":37.77397,"longitude":-122.4313,"reserved":0,"last_update":"0001-01-01T00:00:00Z","name_a2s":"Uncletopia | San Francisco | 2 | All Maps","protocol":17,"map":"koth_viaduct","folder":"tf","game":"Team Fortress","app_id":440,"player_count":0,"max_players":24,"Bots":0,"server_type":"Dedicated","server_os":"Linux","password":true,"vac":true,"version":"7961495","steam_id":85568392924470000,"keywords":["cp","nocrits","nodmgspread","uncletopia"],"game_id":440,"stv_port":27026,"stv_name":"Uncletopia | San Francisco | 2 | All Maps | STV","players":null},{"server_id":19,"name":"Uncletopia | San Francisco | 3 | Stopwatch","name_short":"sfo-3","host":"sfo-1.us.uncletopia.com","port":27035,"enabled":true,"region":"us-west","cc":"us","latitude":37.77397,"longitude":-122.4313,"reserved":0,"last_update":"0001-01-01T00:00:00Z","name_a2s":"Uncletopia | San Francisco | 3 | Stopwatch","protocol":17,"map":"pl_pier","folder":"tf","game":"Team Fortress","app_id":440,"player_count":0,"max_players":24,"Bots":0,"server_type":"Dedicated","server_os":"Linux","password":true,"vac":true,"version":"7961495","steam_id":85568392924742824,"keywords":["nocrits","nodmgspread","payload","uncletopia"],"game_id":440,"stv_port":27036,"stv_name":"Uncletopia | San Francisco | 3 | Stopwatch | STV","players":null},{"server_id":20,"name":"Uncletopia | San Francisco | 4 | Community","name_short":"sfo-4","host":"sfo-1.us.uncletopia.com","port":27045,"enabled":true,"region":"us-west","cc":"us","latitude":37.77397,"longitude":-122.4313,"reserved":0,"last_update":"0001-01-01T00:00:00Z","name_a2s":"Uncletopia | San Francisco | 4 | Community","protocol":17,"map":"pl_pier","folder":"tf","game":"Team Fortress","app_id":440,"player_count":0,"max_players":24,"Bots":0,"server_type":"Dedicated","server_os":"Linux","password":true,"vac":true,"version":"7961495","steam_id":85568392924742826,"keywords":["nocrits","nodmgspread","payload","uncletopia"],"game_id":440,"stv_port":27046,"stv_name":"Uncletopia | San Francisco | 4 | Community | STV","players":null},{"server_id":141,"name":"Uncletopia | Sydney | 1 | All Maps","name_short":"syd-1","host":"syd-1.au.uncletopia.com","port":27015,"enabled":true,"region":"au","cc":"au","latitude":-33.865143,"longitude":151.2099,"reserved":0,"last_update":"0001-01-01T00:00:00Z","name_a2s":"Uncletopia | Sydney | 1 | All Maps","protocol":17,"map":"pl_swiftwater_final1","folder":"tf","game":"Team Fortress","app_id":440,"player_count":0,"max_players":24,"Bots":0,"server_type":"Dedicated","server_os":"Linux","password":true,"vac":true,"version":"7961495","steam_id":85568392924470001,"keywords":["nocrits","nodmgspread","payload","uncletopia"],"game_id":440,"stv_port":27016,"stv_name":"Uncletopia | Sydney | 1 | All Maps | STV","players":null},{"server_id":123,"name":"Uncletopia | Sydney | 2 | All Maps","name_short":"syd-2","host":"syd-1.au.uncletopia.com","port":27025,"enabled":true,"region":"au","cc":"au","latitude":-33.865143,"longitude":151.2099,"reserved":0,"last_update":"0001-01-01T00:00:00Z","name_a2s":"Uncletopia | Sydney | 2 | All Maps","protocol":17,"map":"koth_viaduct","folder":"tf","game":"Team Fortress","app_id":440,"player_count":0,"max_players":24,"Bots":0,"server_type":"Dedicated","server_os":"Linux","password":true,"vac":true,"version":"7961495","steam_id":85568392924470002,"keywords":["cp","nocrits","nodmgspread","uncletopia"],"game_id":440,"stv_port":27026,"stv_name":"Uncletopia | Sydney | 2 | All Maps | STV","players":null},{"server_id":395,"name":"Uncletopia | Sydney | 3 | All Maps","name_short":"syd-3","host":"syd-1.au.uncletopia.com","port":27035,"enabled":true,"region":"au","cc":"au","latitude":-33.865143,"longitude":151.2099,"reserved":0,"last_update":"0001-01-01T00:00:00Z","name_a2s":"Uncletopia | Sydney | 3 | All Maps","protocol":17,"map":"koth_lakeside_final","folder":"tf","game":"Team Fortress","app_id":440,"player_count":0,"max_players":24,"Bots":0,"server_type":"Dedicated","server_os":"Linux","password":true,"vac":true,"version":"7961495","steam_id":85568392925194467,"keywords":["cp","nocrits","nodmgspread","uncletopia"],"game_id":440,"stv_port":27036,"stv_name":"Uncletopia | Sydney | 3 | All Maps | STV","players":null},{"server_id":396,"name":"Uncletopia | Sydney | 4 | All Maps","name_short":"syd-4","host":"syd-1.au.uncletopia.com","port":27045,"enabled":true,"region":"au","cc":"au","latitude":-33.865143,"longitude":151.2099,"reserved":0,"last_update":"0001-01-01T00:00:00Z","name_a2s":"Uncletopia | Sydney | 4 | All Maps","protocol":17,"map":"koth_lakeside_final","folder":"tf","game":"Team Fortress","app_id":440,"player_count":0,"max_players":24,"Bots":0,"server_type":"Dedicated","server_os":"Linux","password":true,"vac":true,"version":"7961495","steam_id":85568392925397958,"keywords":["cp","nocrits","nodmgspread","uncletopia"],"game_id":440,"stv_port":27046,"stv_name":"Uncletopia | Sydney | 4 | All Maps | STV","players":null},{"server_id":58,"name":"Uncletopia | Sydney | 5 | Stopwatch","name_short":"syd-5","host":"syd-1.au.uncletopia.com","port":27055,"enabled":true,"region":"au","cc":"au","latitude":-33.865143,"longitude":151.2099,"reserved":0,"last_update":"0001-01-01T00:00:00Z","name_a2s":"Uncletopia | Sydney | 5 | Stopwatch","protocol":17,"map":"workshop/koth_ashville_final.ugc2130459942","folder":"tf","game":"Team Fortress","app_id":440,"player_count":0,"max_players":24,"Bots":0,"server_type":"Dedicated","server_os":"Linux","password":true,"vac":true,"version":"7961495","steam_id":85568392925397959,"keywords":["cp","nocrits","nodmgspread","uncletopia"],"game_id":440,"stv_port":27056,"stv_name":"Uncletopia | Sydney | 5 | Stopwatch | STV","players":null},{"server_id":59,"name":"Uncletopia | Sydney | 6 | Community","name_short":"syd-6","host":"syd-1.au.uncletopia.com","port":27065,"enabled":true,"region":"au","cc":"au","latitude":-33.865143,"longitude":151.2099,"reserved":0,"last_update":"0001-01-01T00:00:00Z","name_a2s":"Uncletopia | Sydney | 6 | Community","protocol":17,"map":"workshop/rd_asteroid_redux_b1.ugc2154902912","folder":"tf","game":"Team Fortress","app_id":440,"player_count":0,"max_players":24,"Bots":0,"server_type":"Dedicated","server_os":"Linux","password":true,"vac":true,"version":"7961495","steam_id":85568392925397960,"keywords":["beta","nocrits","nodmgspread","rd","uncletopia"],"game_id":440,"stv_port":27066,"stv_name":"Uncletopia | Sydney | 6 | Community | STV","players":null},{"server_id":49,"name":"Uncletopia | Warsaw | 1 | All Maps","name_short":"waw-1","host":"waw-1.pl.uncletopia.com","port":27015,"enabled":true,"region":"eu","cc":"pl","latitude":52.2297,"longitude":21.017532,"reserved":0,"last_update":"0001-01-01T00:00:00Z","name_a2s":"Uncletopia | Warsaw | 1 | All Maps","protocol":17,"map":"pl_snowycoast","folder":"tf","game":"Team Fortress","app_id":440,"player_count":4,"max_players":24,"Bots":0,"server_type":"Dedicated","server_os":"Linux","password":true,"vac":true,"version":"7961495","steam_id":85568392925397850,"keywords":["nocrits","nodmgspread","payload","uncletopia"],"game_id":440,"stv_port":27016,"stv_name":"Uncletopia | Warsaw | 1 | All Maps | STV","players":[{"user_id":3,"name":"Ryuuk","steam_id":76561199206604883,"connected_time":3545000000000,"state":"active","ping":80},{"user_id":14,"name":"SpeedY","steam_id":76561199238207915,"connected_time":812000000000,"state":"active","ping":120},{"user_id":8,"name":"guzol","steam_id":76561198323704633,"connected_time":1840000000000,"state":"active","ping":41},{"user_id":11,"name":"–î–∂–µ–∫–µ—Ç","steam_id":76561198327897125,"connected_time":1587000000000,"state":"active","ping":94}]},{"server_id":50,"name":"Uncletopia | Warsaw | 2 | All Maps","name_short":"waw-2","host":"waw-1.pl.uncletopia.com","port":27025,"enabled":true,"region":"eu","cc":"pl","latitude":52.2297,"longitude":21.017532,"reserved":0,"last_update":"0001-01-01T00:00:00Z","name_a2s":"Uncletopia | Warsaw | 2 | All Maps","protocol":17,"map":"pl_barnblitz","folder":"tf","game":"Team Fortress","app_id":440,"player_count":0,"max_players":24,"Bots":0,"server_type":"Dedicated","server_os":"Linux","password":true,"vac":true,"version":"7961495","steam_id":85568392925397851,"keywords":["nocrits","nodmgspread","payload","uncletopia"],"game_id":440,"stv_port":27026,"stv_name":"Uncletopia | Warsaw | 2 | All Maps | STV","players":null},{"server_id":51,"name":"Uncletopia | Warsaw | 3 | All Maps","name_short":"waw-3","host":"waw-1.pl.uncletopia.com","port":27035,"enabled":true,"region":"eu","cc":"pl","latitude":52.2297,"longitude":21.017532,"reserved":0,"last_update":"0001-01-01T00:00:00Z","name_a2s":"Uncletopia | Warsaw | 3 | All Maps","protocol":17,"map":"pl_barnblitz","folder":"tf","game":"Team Fortress","app_id":440,"player_count":0,"max_players":24,"Bots":0,"server_type":"Dedicated","server_os":"Linux","password":true,"vac":true,"version":"7961495","steam_id":85568392925397852,"keywords":["nocrits","nodmgspread","payload","uncletopia"],"game_id":440,"stv_port":27036,"stv_name":"Uncletopia | Warsaw | 3 | All Maps | STV","players":null},{"server_id":52,"name":"Uncletopia | Warsaw | 4 | All Maps","name_short":"waw-4","host":"waw-1.pl.uncletopia.com","port":27045,"enabled":true,"region":"eu","cc":"pl","latitude":52.2297,"longitude":21.017532,"reserved":0,"last_update":"0001-01-01T00:00:00Z","name_a2s":"Uncletopia | Warsaw | 4 | All Maps","protocol":17,"map":"pl_borneo","folder":"tf","game":"Team Fortress","app_id":440,"player_count":0,"max_players":24,"Bots":0,"server_type":"Dedicated","server_os":"Linux","password":true,"vac":true,"version":"7961495","steam_id":85568392925397853,"keywords":["nocrits","nodmgspread","payload","uncletopia"],"game_id":440,"stv_port":27046,"stv_name":"Uncletopia | Warsaw | 4 | All Maps | STV","players":null},{"server_id":53,"name":"Uncletopia | Warsaw | 5 | Stopwatch","name_short":"waw-5","host":"waw-1.pl.uncletopia.com","port":27055,"enabled":true,"region":"eu","cc":"pl","latitude":52.2297,"longitude":21.017532,"reserved":0,"last_update":"0001-01-01T00:00:00Z","name_a2s":"Uncletopia | Warsaw | 5 | Stopwatch","protocol":17,"map":"workshop/koth_product_final.ugc454272353","folder":"tf","game":"Team Fortress","app_id":440,"player_count":0,"max_players":24,"Bots":0,"server_type":"Dedicated","server_os":"Linux","password":true,"vac":true,"version":"7961495","steam_id":85568392925397854,"keywords":["cp","nocrits","nodmgspread","uncletopia"],"game_id":440,"stv_port":27056,"stv_name":"Uncletopia | Warsaw | 5 | Stopwatch | STV","players":null},{"server_id":54,"name":"Uncletopia | Warsaw | 6 | Community","name_short":"waw-6","host":"waw-1.pl.uncletopia.com","port":27065,"enabled":true,"region":"eu","cc":"pl","latitude":52.2297,"longitude":21.017532,"reserved":0,"last_update":"0001-01-01T00:00:00Z","name_a2s":"Uncletopia | Warsaw | 6 | Community","protocol":17,"map":"workshop/koth_ashville_final.ugc2130459942","folder":"tf","game":"Team Fortress","app_id":440,"player_count":0,"max_players":24,"Bots":0,"server_type":"Dedicated","server_os":"Linux","password":true,"vac":true,"version":"7961495","steam_id":85568392925397856,"keywords":["cp","nocrits","nodmgspread","uncletopia"],"game_id":440,"stv_port":27066,"stv_name":"Uncletopia | Warsaw | 6 | Community | STV","players":null}]}