{"status":true,"message":"","result":[{"server_id":9,"name":"Uncletopia | Atlanta | 1 | All Maps","name_short":"atl-1","host":"atl-1.us.uncletopia.com","port":27015,"enabled":true,"region":"us-east","cc":"us","latitude":33.753746,"longitude":-84.38633,"reserved":0,"last_update":"0001-01-01T00:00:00Z","name_a2s":"Uncletopia | Atlanta | 1 | All Maps","protocol":17,"map":"pl_pier","folder":"tf","game":"Team Fortress","app_id":440,"player_count":24,"max_players":24,"Bots":0,"server_type":"Dedicated","server_os":"Linux","password":true,"vac":true,"version":"7961495","steam_id":85568392924469982,"keywords":["nocrits","nodmgspread","payload","uncletopia"],"game_id":440,"stv_port":27016,"stv_name":"Uncletopia | Atlanta | 1 | All Maps | STV","players":[{"user_id":519,"name":"com lag","steam_id":76561198019019392,"connected_time":4030000000000,"state":"active","ping":61},{"user_id":560,"name":"Kickpuncher","steam_id":76561198121528357,"connected_time":249000000000,"state":"active","ping":74},{"user_id":528,"name":"ash","steam_id":76561198127890645,"connected_time":2826000000000,"state":"active","ping":73},{"user_id":542,"name":"Alphowlet98","steam_id":76561199093985532,"connected_time":1492000000000,"state":"active","ping":142},{"user_id":547,"name":"--_Cook_--","steam_id":76561198080855748,"connected_time":752000000000,"state":"active","ping":62},{"user_id":540,"name":"chexo4","steam_id":76561198150532531,"connected_time":2012000000000,"state":"active","ping":52},{"user_id":548,"name":"hammed burger :(","steam_id":76561199405376783,"connected_time":751000000000,"state":"active","ping":86},{"user_id":524,"name":"why","steam_id":76561199059732212,"connected_time":3559000000000,"state":"active","ping":53},{"user_id":503,"name":"joe","steam_id":76561198045781320,"connected_time":5804000000000,"state":"active","ping":63},{"user_id":551,"name":"Temina","steam_id":76561198978778718,"connected_time":468000000000,"state":"active","ping":121},{"user_id":549,"name":"elder scrolls 6","steam_id":76561198113364714,"connected_time":739000000000,"state":"active","ping":59},{"user_id":565,"name":"Generator","steam_id":76561198011762257,"connected_time":30000000000,"state":"spawning","ping":161},{"user_id":531,"name":"FEBLUCAXZ","steam_id":76561198355845884,"connected_time":2810000000000,"state":"active","ping":109},{"user_id":561,"name":"the adventure of mr poop","steam_id":76561198986534519,"connected_time":213000000000,"state":"active","ping":121},{"user_id":544,"name":"Intro Bonito","steam_id":76561198119478838,"connected_time":1467000000000,"state":"active","ping":46},{"user_id":532,"name":"feed the gator, coward","steam_id":76561198018508494,"connected_time":2798000000000,"state":"active","ping":78},{"user_id":539,"name":"Twa","steam_id":76561198295529541,"connected_time":2060000000000,"state":"active","ping":74},{"user_id":562,"name":"Throathurt","steam_id":76561198030711450,"connected_time":211000000000,"state":"active","ping":61},{"user_id":550,"name":"cat points","steam_id":76561197971152439,"connected_time":738000000000,"state":"active","ping":80},{"user_id":566,"name":"vape cat","steam_id":76561198929250778,"connected_time":26000000000,"state":"active","ping":46},{"user_id":492,"name":"Harbor Seal","steam_id":76561198162631724,"connected_time":7230000000000,"state":"active","ping":81},{"user_id":546,"name":"plutonium isotope","steam_id":76561198319442494,"connected_time":1362000000000,"state":"active","ping":126},{"user_id":558,"name":"tgirl frothing","steam_id":76561198249206656,"connected_time":306000000000,"state":"active","ping":88},{"user_id":529,"name":"NovaSc6ut","steam_id":76561198277163301,"connected_time":2824000000000,"state":"active","ping":86}]},{"server_id":104,"name":"Uncletopia | Atlanta | 2 | All Maps","name_short":"atl-2","host":"atl-1.us.uncletopia.com","port":27025,"enabled":true,"region":"us-east","cc":"us","latitude":33.753746,"longitude":-84.38633,"reserved":0,"last_update":"0001-01-01T00:00:00Z","name_a2s":"Uncletopia | Atlanta | 2 | All Maps","protocol":17,"map":"pl_snowycoast","folder":"tf","game":"Team Fortress","app_id":440,"player_count":24,"max_players":24,"Bots":0,"server_type":"Dedicated","server_os":"Linux","password":true,"vac":true,"version":"7961495","steam_id":85568392924469983,"keywords":["nocrits","nodmgspread","payload","uncletopia"],"game_id":440,"stv_port":27026,"stv_name":"Uncletopia | Atlanta | 2 | All Maps | STV","players":[{"user_id":393,"name":"Red","steam_id":76561198001939529,"connected_time":1655000000000,"state":"active","ping":84},{"user_id":357,"name":"Dr_Cecil","steam_id":76561198873862113,"connected_time":3995000000000,"state":"active","ping":95},{"user_id":265,"name":"Mythical Lag","steam_id":76561198347031281,"connected_time":7596000000000,"state":"active","ping":66},{"user_id":410,"name":"Papa Smoke","steam_id":76561198181348206,"connected_time":580000000000,"state":"active","ping":59},{"user_id":391,"name":"Skyblade64","steam_id":76561198042177790,"connected_time":1779000000000,"state":"active","ping":77},{"user_id":406,"name":"Townze","steam_id":76561198081827165,"connected_time":1157000000000,"state":"active","ping":51},{"user_id":378,"name":"QuakAtack","steam_id":76561198870770157,"connected_time":2508000000000,"state":"active","ping":94},{"user_id":377,"name":"Joe Rogan (real)","steam_id":76561198359511515,"connected_time":2520000000000,"state":"active","ping":63},{"user_id":413,"name":"Ath√°natos","steam_id":76561198803061318,"connected_time":382000000000,"state":"active","ping":60},{"user_id":414,"name":"wckid","steam_id":76561198044856349,"connected_time":288000000000,"state":"active","ping":66},{"user_id":397,"name":"STONE VIBES","steam_id":76561198138575520,"connected_time":1568000000000,"state":"active","ping":88},{"user_id":340,"name":"He rolls his own","steam_id":76561198058162684,"connected_time":5234000000000,"state":"active","ping":86},{"user_id":388,"name":"Jesse Bear","steam_id":76561198217075305,"connected_time":2033000000000,"state":"active","ping":69},{"user_id":380,"name":"DarkenedPolarity","steam_id":76561199073099596,"connected_time":2462000000000,"state":"active","ping":67},{"user_id":398,"name":"Zesty","steam_id":76561198062733651,"connected_time":1558000000000,"state":"active","ping":60},{"user_id":415,"name":"Five","steam_id":76561198026640473,"connected_time":33000000000,"state":"active","ping":104},{"user_id":382,"name":"Azazellotl","steam_id":76561198824814392,"connected_time":2430000000000,"state":"active","ping":70},{"user_id":404,"name":"Asanez3","steam_id":76561198037381436,"connected_time":1266000000000,"state":"active","ping":91},{"user_id":409,"name":"Blehnder","steam_id":76561198172097526,"connected_time":615000000000,"state":"active","ping":82},{"user_id":387,"name":"G4Vi","steam_id":76561197998117895,"connected_time":2119000000000,"state":"active","ping":80},{"user_id":408,"name":"ther","steam_id":76561199191376935,"connected_time":657000000000,"state":"active","ping":100},{"user_id":412,"name":"Filthy Hobo","steam_id":76561198174373015,"connected_time":460000000000,"state":"active","ping":115},{"user_id":403,"name":"Scautis ( Roof Monkey )","steam_id":76561198018619027,"connected_time":1296000000000,"state":"active","ping":81},{"user_id":384,"name":"AMistake","steam_id":76561199379196708,"connected_time":2389000000000,"state":"active","ping":68}]},{"server_id":400,"name":"Uncletopia | Atlanta | 3 | Stopwatch","name_short":"atl-3","host":"atl-1.us.uncletopia.com","port":27035,"enabled":true,"region":"us-east","cc":"us","latitude":33.753746,"longitude":-84.38633,"reserved":0,"last_update":"0001-01-01T00:00:00Z","name_a2s":"Uncletopia | Atlanta | 3 | Stopwatch","protocol":17,"map":"workshop/koth_clearcut_b15.ugc2107050255","folder":"tf","game":"Team Fortress","app_id":440,"player_count":0,"max_players":24,"Bots":0,"server_type":"Dedicated","server_os":"Linux","password":true,"vac":true,"version":"7961495","steam_id":85568392924515187,"keywords":["cp","nocrits","nodmgspread","uncletopia"],"game_id":440,"stv_port":27036,"stv_name":"Uncletopia | Atlanta | 3 | Stopwatch | STV","players":null},{"server_id":401,"name":"Uncletopia | Atlanta | 4 | Community","name_short":"atl-4","host":"atl-1.us.uncletopia.com","port":27045,"enabled":true,"region":"us-east","cc":"us","latitude":33.753746,"longitude":-84.38633,"reserved":0,"last_update":"0001-01-01T00:00:00Z","name_a2s":"Uncletopia | Atlanta | 4 | Community","protocol":17,"map":"cp_sunshine","folder":"tf","game":"Team Fortress","app_id":440,"player_count":0,"max_players":24,"Bots":0,"server_type":"Dedicated","server_os":"Linux","password":true,"vac":true,"version":"7961495","steam_id":85568392924515188,"keywords":["cp","nocrits","nodmgspread","uncletopia"],"game_id":440,"stv_port":27046,"stv_name":"Uncletopia | Atlanta | 4 | Community | STV","players":null},{"server_id":2,"name":"Uncletopia | Chicago | 1 | All Maps","name_short":"chi-1","host":"chi-1.us.uncletopia.com","port":27015,"enabled":true,"region":"us-central","cc":"us","latitude":41.881832,"longitude":-87.62318,"reserved":0,"last_update":"0001-01-01T00:00:00Z","name_a2s":"Uncletopia | Chicago | 1 | All Maps","protocol":17,"map":"cp_mountainlab","folder":"tf","game":"Team Fortress","app_id":440,"player_count":24,"max_players":24,"Bots":0,"server_type":"Dedicated","server_os":"Linux","password":true,"vac":true,"version":"7961495","steam_id":85568392924469984,"keywords":["cp","nocrits","nodmgspread","uncletopia"],"game_id":440,"stv_port":27016,"stv_name":"Uncletopia | Chicago | 1 | All Maps | STV","players":[{"user_id":852,"name":"KYLE KYLESON","steam_id":76561198021920887,"connected_time":3514000000000,"state":"active","ping":32},{"user_id":814,"name":"LULW WHAT IS HE DOING?","steam_id":76561198031675881,"connected_time":6420000000000,"state":"active","ping":38},{"user_id":892,"name":"bad spy player","steam_id":76561198873699671,"connected_time":814000000000,"state":"active","ping":105},{"user_id":856,"name":"Big Chungus","steam_id":76561198010019214,"connected_time":3186000000000,"state":"active","ping":69},{"user_id":896,"name":"Brawns","steam_id":76561198045190199,"connected_time":189000000000,"state":"active","ping":76},{"user_id":853,"name":"üçíbutaüçí","steam_id":76561198135538212,"connected_time":3398000000000,"state":"active","ping":59},{"user_id":740,"name":"TheGreythreat","steam_id":76561198021995538,"connected_time":10663000000000,"state":"active","ping":65},{"user_id":882,"name":"The Foolish Samurai","steam_id":76561198094494945,"connected_time":1275000000000,"state":"active","ping":106},{"user_id":868,"name":"AlecTheNefarious","steam_id":76561198035291230,"connected_time":2254000000000,"state":"active","ping":70},{"user_id":895,"name":"DevoutPage14990","steam_id":76561198831347354,"connected_time":229000000000,"state":"active","ping":84},{"user_id":841,"name":"tack","steam_id":76561198408477421,"connected_time":4447000000000,"state":"active","ping":75},{"user_id":871,"name":"java","steam_id":76561198030276792,"connected_time":2237000000000,"state":"active","ping":59},{"user_id":865,"name":"lanoc","steam_id":76561198055415367,"connected_time":2798000000000,"state":"active","ping":59},{"user_id":884,"name":"Shystie","steam_id":76561198025371440,"connected_time":1211000000000,"state":"active","ping":84},{"user_id":894,"name":"MR SKELTAL","steam_id":76561198031089598,"connected_time":772000000000,"state":"active","ping":69},{"user_id":890,"name":"Praise_to_the_Flashlight!","steam_id":76561199001728789,"connected_time":824000000000,"state":"active","ping":62},{"user_id":860,"name":"on that zaza?","steam_id":76561198038713198,"connected_time":3133000000000,"state":"active","ping":64},{"user_id":891,"name":"RealStanzy","steam_id":76561199060261003,"connected_time":824000000000,"state":"active","ping":71},{"user_id":885,"name":"westward (was/were)","steam_id":76561198805512350,"connected_time":1205000000000,"state":"active","ping":104},{"user_id":861,"name":"sithreis","steam_id":76561198000564263,"connected_time":3038000000000,"state":"active","ping":74},{"user_id":877,"name":"BB Lorexav","steam_id":76561198207565988,"connected_time":2119000000000,"state":"active","ping":75},{"user_id":893,"name":"nelly modelo","steam_id":76561198044875206,"connected_time":814000000000,"state":"active","ping":85},{"user_id":888,"name":"Raspylightining","steam_id":76561198148343305,"connected_time":840000000000,"state":"active","ping":55},{"user_id":831,"name":"RiceRiceDesu","steam_id":76561198018568723,"connected_time":4914000000000,"state":"active","ping":65}]},{"server_id":106,"name":"Uncletopia | Chicago | 2 | All Maps","name_short":"chi-2","host":"chi-1.us.uncletopia.com","port":27025,"enabled":true,"region":"us-central","cc":"us","latitude":41.881832,"longitude":-87.62318,"reserved":0,"last_update":"0001-01-01T00:00:00Z","name_a2s":"Uncletopia | Chicago | 2 | All Maps","protocol":17,"map":"pl_barnblitz","folder":"tf","game":"Team Fortress","app_id":440,"player_count":24,"max_players":24,"Bots":0,"server_type":"Dedicated","server_os":"Linux","password":true,"vac":true,"version":"7961495","steam_id":85568392924469985,"keywords":["nocrits","nodmgspread","payload","uncletopia"],"game_id":440,"stv_port":27026,"stv_name":"Uncletopia | Chicago | 2 | All Maps | STV","players":[{"user_id":520,"name":"Phillips 66","steam_id":76561198026875868,"connected_time":1693000000000,"state":"active","ping":53},{"user_id":532,"name":"XBaconX","steam_id":76561198069500207,"connected_time":1006000000000,"state":"active","ping":92},{"user_id":519,"name":"kratomSnorter.1quarter","steam_id":76561198946987511,"connected_time":1721000000000,"state":"active","ping":85},{"user_id":505,"name":"ThatOneKnight","steam_id":76561198388583650,"connected_time":2882000000000,"state":"active","ping":47},{"user_id":506,"name":"Gay Balls","steam_id":76561198392112347,"connected_time":2634000000000,"state":"active","ping":57},{"user_id":512,"name":"GKumo","steam_id":76561198023175868,"connected_time":2303000000000,"state":"active","ping":106},{"user_id":459,"name":"MedRed‚Ñ¢ #IATAH","steam_id":76561198002962970,"connected_time":5908000000000,"state":"active","ping":93},{"user_id":535,"name":"Der Krieger105","steam_id":76561197978384609,"connected_time":938000000000,"state":"active","ping":91},{"user_id":521,"name":"zpalmtree","steam_id":76561198134307620,"connected_time":1612000000000,"state":"active","ping":58},{"user_id":529,"name":"WhatisKetchup","steam_id":76561199211104298,"connected_time":1049000000000,"state":"active","ping":75},{"user_id":518,"name":"slep.py","steam_id":76561197988287144,"connected_time":1732000000000,"state":"active","ping":56},{"user_id":533,"name":"Les Savy Raz","steam_id":76561198078594872,"connected_time":1005000000000,"state":"active","ping":85},{"user_id":509,"name":"I Am Alpharius","steam_id":76561198033100226,"connected_time":2364000000000,"state":"active","ping":69},{"user_id":525,"name":"Laura Palmer Gaming","steam_id":76561198282965733,"connected_time":1411000000000,"state":"active","ping":72},{"user_id":528,"name":"Mufalito","steam_id":76561198951889482,"connected_time":1187000000000,"state":"active","ping":133},{"user_id":483,"name":"bath","steam_id":76561197969993352,"connected_time":3828000000000,"state":"active","ping":65},{"user_id":495,"name":"The Announcer's Feet","steam_id":76561199501227879,"connected_time":3249000000000,"state":"active","ping":96},{"user_id":530,"name":"HalfDead","steam_id":76561198049700226,"connected_time":1047000000000,"state":"active","ping":85},{"user_id":531,"name":"Remix.SMG","steam_id":76561198052895933,"connected_time":1041000000000,"state":"active","ping":77},{"user_id":487,"name":"Fraglin","steam_id":76561198124964000,"connected_time":3818000000000,"state":"active","ping":64},{"user_id":524,"name":"The Nikocado Enjoyer","steam_id":76561198263154374,"connected_time":1534000000000,"state":"active","ping":67},{"user_id":472,"name":"Swash","steam_id":76561197969421355,"connected_time":4564000000000,"state":"active","ping":59},{"user_id":478,"name":"cheesebooger","steam_id":76561198041770884,"connected_time":4030000000000,"state":"active","ping":104},{"user_id":488,"name":"Natsuki the Scunt","steam_id":76561199175922684,"connected_time":3813000000000,"state":"active","ping":113}]},{"server_id":402,"name":"Uncletopia | Chicago | 3 | All Maps","name_short":"chi-3","host":"chi-1.us.uncletopia.com","port":27035,"enabled":true,"region":"us-central","cc":"us","latitude":41.881832,"longitude":-87.62318,"reserved":0,"last_update":"0001-01-01T00:00:00Z","name_a2s":"Uncletopia | Chicago | 3 | All Maps","protocol":17,"map":"cp_dustbowl","folder":"tf","game":"Team Fortress","app_id":440,"player_count":24,"max_players":24,"Bots":0,"server_type":"Dedicated","server_os":"Linux","password":true,"vac":true,"version":"7961495","steam_id":85568392924515191,"keywords":["cp","nocrits","nodmgspread","uncletopia"],"game_id":440,"stv_port":27036,"stv_name":"Uncletopia | Chicago | 3 | All Maps | STV","players":[{"user_id":465,"name":"Bandoleon","steam_id":76561199075155791,"connected_time":3956000000000,"state":"active","ping":60},{"user_id":495,"name":"jneubauer1620","steam_id":76561199228634006,"connected_time":1062000000000,"state":"active","ping":61},{"user_id":453,"name":"NinjaboySC","steam_id":76561198157305426,"connected_time":5410000000000,"state":"active","ping":62},{"user_id":470,"name":"GoGo is a Drunk Slut","steam_id":76561198023080645,"connected_time":3166000000000,"state":"active","ping":79},{"user_id":448,"name":"Gunden","steam_id":76561198124380112,"connected_time":5655000000000,"state":"active","ping":59},{"user_id":478,"name":"butterthoughts","steam_id":76561198025120284,"connected_time":2426000000000,"state":"active","ping":77},{"user_id":481,"name":"Muffin","steam_id":76561198111403028,"connected_time":2346000000000,"state":"active","ping":52},{"user_id":475,"name":"I'm not a rapper","steam_id":76561198307516731,"connected_time":2458000000000,"state":"active","ping":75},{"user_id":479,"name":"Violinja","steam_id":76561198324875899,"connected_time":2426000000000,"state":"active","ping":59},{"user_id":476,"name":"SpockASD","steam_id":76561198830243167,"connected_time":2437000000000,"state":"active","ping":72},{"user_id":444,"name":"dulg","steam_id":76561198127640309,"connected_time":6098000000000,"state":"active","ping":89},{"user_id":498,"name":"Yarman53","steam_id":76561198099889202,"connected_time":490000000000,"state":"active","ping":30},{"user_id":497,"name":"THE FOOL","steam_id":76561198243965308,"connected_time":494000000000,"state":"active","ping":94},{"user_id":501,"name":"Chirrungaso","steam_id":76561198063822640,"connected_time":43000000000,"state":"active","ping":271},{"user_id":435,"name":"37 septillion tapeworms","steam_id":76561198186128723,"connected_time":6263000000000,"state":"active","ping":74},{"user_id":499,"name":"Hayden","steam_id":76561198046863508,"connected_time":282000000000,"state":"active","ping":67},{"user_id":488,"name":"trobin120","steam_id":76561199122420273,"connected_time":1755000000000,"state":"active","ping":66},{"user_id":473,"name":"Coms","steam_id":76561198204995668,"connected_time":2746000000000,"state":"active","ping":77},{"user_id":483,"name":"[SGN] karma","steam_id":76561198377749499,"connected_time":2276000000000,"state":"active","ping":66},{"user_id":489,"name":"BiggFoot","steam_id":76561197998605599,"connected_time":1562000000000,"state":"active","ping":88},{"user_id":447,"name":"twinblock","steam_id":76561198157414556,"connected_time":5738000000000,"state":"active","ping":84},{"user_id":500,"name":"ILoveMashedPotatoes","steam_id":76561199109544282,"connected_time":248000000000,"state":"active","ping":61},{"user_id":445,"name":"Kim Wexler","steam_id":76561198964107245,"connected_time":5760000000000,"state":"active","ping":91},{"user_id":496,"name":"Duke","steam_id":76561199498553459,"connected_time":987000000000,"state":"active","ping":60}]},{"server_id":403,"name":"Uncletopia | Chicago | 4 | All Maps","name_short":"chi-4","host":"chi-1.us.uncletopia.com","port":27045,"enabled":true,"region":"us-central","cc":"us","latitude":41.881832,"longitude":-87.62318,"reserved":0,"last_update":"0001-01-01T00:00:00Z","name_a2s":"Uncletopia | Chicago | 4 | All Maps","protocol":17,"map":"pl_frontier_final","folder":"tf","game":"Team Fortress","app_id":440,"player_count":24,"max_players":24,"Bots":0,"server_type":"Dedicated","server_os":"Linux","password":true,"vac":true,"version":"7961495","steam_id":85568392924515193,"keywords":["nocrits","nodmgspread","payload","uncletopia"],"game_id":440,"stv_port":27046,"stv_name":"Uncletopia | Chicago | 4 | All Maps | STV","players":[{"user_id":588,"name":"roddy ricch - ballin","steam_id":76561198111290441,"connected_time":2588000000000,"state":"active","ping":58},{"user_id":586,"name":"Meiji","steam_id":76561198971753591,"connected_time":2779000000000,"state":"active","ping":61},{"user_id":582,"name":"Captain Buggy","steam_id":76561198024444448,"connected_time":3075000000000,"state":"active","ping":91},{"user_id":602,"name":"TastyWheat","steam_id":76561198855061918,"connected_time":567000000000,"state":"active","ping":102},{"user_id":603,"name":"Paul the llama","steam_id":76561198079629530,"connected_time":555000000000,"state":"active","ping":119},{"user_id":604,"name":"topeg","steam_id":76561198406333796,"connected_time":481000000000,"state":"active","ping":111},{"user_id":571,"name":"Pyroshark","steam_id":76561198133599422,"connected_time":3811000000000,"state":"active","ping":73},{"user_id":605,"name":"LooseJuice","steam_id":76561198042181014,"connected_time":475000000000,"state":"active","ping":117},{"user_id":606,"name":"Always Here for You","steam_id":76561198219252313,"connected_time":455000000000,"state":"active","ping":64},{"user_id":612,"name":"Engineer2650","steam_id":76561198121410799,"connected_time":3000000000,"state":"spawning","ping":72},{"user_id":577,"name":"Grand Piano Tuna","steam_id":76561198135137213,"connected_time":3715000000000,"state":"active","ping":54},{"user_id":543,"name":"corntent","steam_id":76561198824847948,"connected_time":6395000000000,"state":"active","ping":61},{"user_id":589,"name":"BMoney","steam_id":76561198799389030,"connected_time":2550000000000,"state":"active","ping":142},{"user_id":599,"name":"AWGER","steam_id":76561198284683624,"connected_time":1220000000000,"state":"active","ping":86},{"user_id":608,"name":"Missing Minus","steam_id":76561198120822928,"connected_time":419000000000,"state":"active","ping":54},{"user_id":539,"name":"ErenJenga54","steam_id":76561199066185761,"connected_time":6578000000000,"state":"active","ping":127},{"user_id":601,"name":"Mystikkal","steam_id":76561198003949147,"connected_time":953000000000,"state":"active","ping":116},{"user_id":593,"name":"WaluigiThyme","steam_id":76561198347579460,"connected_time":2396000000000,"state":"active","ping":116},{"user_id":597,"name":"Frontier Psychiatrist","steam_id":76561198038689088,"connected_time":1969000000000,"state":"active","ping":90},{"user_id":600,"name":"ÓÉåÓÅ•HibekiÓÅ•ÓÉå","steam_id":76561198078053347,"connected_time":1210000000000,"state":"active","ping":86},{"user_id":579,"name":"kim wexler","steam_id":76561199199795741,"connected_time":3693000000000,"state":"active","ping":72},{"user_id":609,"name":"(TPT) Ghost","steam_id":76561198123262873,"connected_time":310000000000,"state":"active","ping":121},{"user_id":610,"name":"Lars Ulrich (real)","steam_id":76561198099296029,"connected_time":304000000000,"state":"active","ping":56},{"user_id":594,"name":"Illegal Mayo","steam_id":76561198107807617,"connected_time":2386000000000,"state":"active","ping":95}]},{"server_id":36,"name":"Uncletopia | Chicago | 5 | All Maps","name_short":"chi-5","host":"chi-2.us.uncletopia.com","port":27015,"enabled":true,"region":"us-central","cc":"us","latitude":41.881832,"longitude":-87.62318,"reserved":0,"last_update":"0001-01-01T00:00:00Z","name_a2s":"Uncletopia | Chicago | 5 | All Maps","protocol":17,"map":"pl_snowycoast","folder":"tf","game":"Team Fortress","app_id":440,"player_count":0,"max_players":24,"Bots":0,"server_type":"Dedicated","server_os":"Linux","password":true,"vac":true,"version":"7961495","steam_id":85568392924866362,"keywords":["nocrits","nodmgspread","payload","uncletopia"],"game_id":440,"stv_port":27016,"stv_name":"Uncletopia | Chicago | 5 | All Maps | STV","players":null},{"server_id":37,"name":"Uncletopia | Chicago | 6 | All Maps","name_short":"chi-6","host":"chi-2.us.uncletopia.com","port":27025,"enabled":true,"region":"us-central","cc":"us","latitude":41.881832,"longitude":-87.62318,"reserved":0,"last_update":"0001-01-01T00:00:00Z","name_a2s":"Uncletopia | Chicago | 6 | All Maps","protocol":17,"map":"pl_frontier_final","folder":"tf","game":"Team Fortress","app_id":440,"player_count":24,"max_players":24,"Bots":0,"server_type":"Dedicated","server_os":"Linux","password":true,"vac":true,"version":"7961495","steam_id":85568392924866363,"keywords":["nocrits","nodmgspread","payload","uncletopia"],"game_id":440,"stv_port":27026,"stv_name":"Uncletopia | Chicago | 6 | All Maps | STV","players":[{"user_id":436,"name":"Jimmy","steam_id":76561198059948196,"connected_time":1266000000000,"state":"active","ping":87},{"user_id":414,"name":"1-800-GHOST-DANCE","steam_id":76561198835430429,"connected_time":1883000000000,"state":"active","ping":89},{"user_id":456,"name":"Chad Detrius","steam_id":76561199234844876,"connected_time":243000000000,"state":"active","ping":68},{"user_id":432,"name":"Alejandro","steam_id":76561197970051493,"connected_time":1413000000000,"state":"active","ping":119},{"user_id":439,"name":"The Horselords and Animal Gods","steam_id":76561197975094050,"connected_time":1241000000000,"state":"active","ping":112},{"user_id":449,"name":"Mustapha Lemieux","steam_id":76561198151666102,"connected_time":1019000000000,"state":"active","ping":96},{"user_id":437,"name":"Stock Dog","steam_id":76561198070469034,"connected_time":1265000000000,"state":"active","ping":94},{"user_id":417,"name":"Yoshimelon","steam_id":76561198253054325,"connected_time":1837000000000,"state":"active","ping":62},{"user_id":452,"name":"Locke","steam_id":76561197988245513,"connected_time":864000000000,"state":"active","ping":81},{"user_id":450,"name":"Vladimir Puddin","steam_id":76561198139674520,"connected_time":979000000000,"state":"active","ping":55},{"user_id":447,"name":"SpongeBucket","steam_id":76561198393553085,"connected_time":1106000000000,"state":"active","ping":111},{"user_id":419,"name":"Capit√°n √Ñxis-Flores Kuroki","steam_id":76561198353865006,"connected_time":1815000000000,"state":"active","ping":75},{"user_id":459,"name":"Mitsuba","steam_id":76561198034175095,"connected_time":135000000000,"state":"active","ping":115},{"user_id":352,"name":"A Puppy","steam_id":76561198828184456,"connected_time":6538000000000,"state":"active","ping":67},{"user_id":442,"name":"dash","steam_id":76561198043889548,"connected_time":1195000000000,"state":"active","ping":105},{"user_id":451,"name":"RainboomCrash","steam_id":76561198065612273,"connected_time":973000000000,"state":"active","ping":104},{"user_id":420,"name":"tubby","steam_id":76561198174982661,"connected_time":1802000000000,"state":"active","ping":83},{"user_id":444,"name":"CantPlayAtAll","steam_id":76561198132749765,"connected_time":1139000000000,"state":"active","ping":115},{"user_id":445,"name":"0_0","steam_id":76561198091875604,"connected_time":1129000000000,"state":"active","ping":86},{"user_id":458,"name":"Plunderphonic","steam_id":76561198062565784,"connected_time":171000000000,"state":"active","ping":74},{"user_id":411,"name":"-Avh-","steam_id":76561198087593160,"connected_time":2719000000000,"state":"active","ping":70},{"user_id":430,"name":"Jones","steam_id":76561198046037216,"connected_time":1567000000000,"state":"active","ping":80},{"user_id":454,"name":"Omegaman","steam_id":76561198034579579,"connected_time":562000000000,"state":"active","ping":87},{"user_id":455,"name":"Kafuka","steam_id":76561198014404374,"connected_time":422000000000,"state":"active","ping":90}]},{"server_id":38,"name":"Uncletopia | Chicago | 7 | Stopwatch","name_short":"chi-7","host":"chi-2.us.uncletopia.com","port":27035,"enabled":true,"region":"us-central","cc":"us","latitude":41.881832,"longitude":-87.62318,"reserved":0,"last_update":"0001-01-01T00:00:00Z","name_a2s":"Uncletopia | Chicago | 7 | Stopwatch","protocol":17,"map":"workshop/pl_barnblitz_pro7.ugc582280235","folder":"tf","game":"Team Fortress","app_id":440,"player_count":0,"max_players":24,"Bots":0,"server_type":"Dedicated","server_os":"Linux","password":true,"vac":true,"version":"7961495","steam_id":85568392924866364,"keywords":["nocrits","nodmgspread","payload","uncletopia"],"game_id":440,"stv_port":27036,"stv_name":"Uncletopia | Chicago | 7 | Stopwatch | STV","players":null},{"server_id":39,"name":"Uncletopia | Chicago | 8 | Community","name_short":"chi-8","host":"chi-2.us.uncletopia.com","port":27045,"enabled":true,"region":"us-central","cc":"us","latitude":41.881832,"longitude":-87.62318,"reserved":0,"last_update":"0001-01-01T00:00:00Z","name_a2s":"Uncletopia | Chicago | 8 | Community","protocol":17,"map":"workshop/pl_cactuscanyon_redux_final2.ugc2579644293","folder":"tf","game":"Team Fortress","app_id":440,"player_count":0,"max_players":24,"Bots":0,"server_type":"Dedicated","server_os":"Linux","password":true,"vac":true,"version":"7961495","steam_id":85568392924866365,"keywords":["nocrits","nodmgspread","payload","uncletopia"],"game_id":440,"stv_port":27046,"stv_name":"Uncletopia | Chicago | 8 | Community | STV","players":null},{"server_id":8,"name":"Uncletopia | Dallas | 1 | All Maps","name_short":"dal-1","host":"dal-1.us.uncletopia.com","port":27015,"enabled":true,"region":"us-central","cc":"us","latitude":32.779167,"longitude":-96.80889,"reserved":0,"last_update":"0001-01-01T00:00:00Z","name_a2s":"Uncletopia | Dallas | 1 | All Maps","protocol":17,"map":"pl_upward","folder":"tf","game":"Team Fortress","app_id":440,"player_count":24,"max_players":24,"Bots":0,"server_type":"Dedicated","server_os":"Linux","password":true,"vac":true,"version":"7961495","steam_id":85568392924469986,"keywords":["nocrits","nodmgspread","payload","uncletopia"],"game_id":440,"stv_port":27016,"stv_name":"Uncletopia | Dallas | 1 | All Maps | STV","players":[{"user_id":453,"name":"cixcin","steam_id":76561199215821942,"connected_time":186000000000,"state":"active","ping":48},{"user_id":378,"name":"‚ù§ Ashley ‚ù§","steam_id":76561198056428303,"connected_time":5661000000000,"state":"active","ping":76},{"user_id":424,"name":"Shmoopy","steam_id":76561198030459152,"connected_time":2133000000000,"state":"active","ping":75},{"user_id":444,"name":"poggerchamp","steam_id":76561199145124973,"connected_time":453000000000,"state":"active","ping":49},{"user_id":443,"name":"Absurdly Obese Cat","steam_id":76561198073202543,"connected_time":477000000000,"state":"active","ping":105},{"user_id":442,"name":"supcupman","steam_id":76561198051513866,"connected_time":524000000000,"state":"active","ping":103},{"user_id":445,"name":"SugerCrash","steam_id":76561199187685119,"connected_time":435000000000,"state":"active","ping":87},{"user_id":447,"name":"self sufficient kitten","steam_id":76561197960592612,"connected_time":408000000000,"state":"active","ping":104},{"user_id":413,"name":"[TRR/IO] Tangerine Baker","steam_id":76561199004774964,"connected_time":2960000000000,"state":"active","ping":101},{"user_id":421,"name":"penzfan","steam_id":76561198230422640,"connected_time":2485000000000,"state":"active","ping":64},{"user_id":430,"name":"ShapedSilver","steam_id":76561199073305310,"connected_time":1967000000000,"state":"active","ping":60},{"user_id":403,"name":"BADWOLF42","steam_id":76561198055447523,"connected_time":3385000000000,"state":"active","ping":57},{"user_id":448,"name":"Argon","steam_id":76561199254804349,"connected_time":403000000000,"state":"active","ping":83},{"user_id":449,"name":"Ajax","steam_id":76561198071310833,"connected_time":388000000000,"state":"active","ping":74},{"user_id":441,"name":"errant","steam_id":76561197961758410,"connected_time":770000000000,"state":"active","ping":45},{"user_id":423,"name":"hittign dabong","steam_id":76561198097588802,"connected_time":2199000000000,"state":"active","ping":66},{"user_id":454,"name":"Tritium","steam_id":76561198043305626,"connected_time":182000000000,"state":"active","ping":100},{"user_id":426,"name":"Kuyumiester","steam_id":76561198126835302,"connected_time":2065000000000,"state":"active","ping":61},{"user_id":435,"name":"Warzard","steam_id":76561199154051413,"connected_time":1715000000000,"state":"active","ping":112},{"user_id":450,"name":"Shawnballshard77","steam_id":76561198113716047,"connected_time":373000000000,"state":"active","ping":92},{"user_id":374,"name":"Real_Jakepaul","steam_id":76561198170243578,"connected_time":5721000000000,"state":"active","ping":117},{"user_id":437,"name":"insectoid","steam_id":76561198122677314,"connected_time":1709000000000,"state":"active","ping":68},{"user_id":451,"name":"bodybuilderpro","steam_id":76561198362916241,"connected_time":370000000000,"state":"active","ping":79},{"user_id":440,"name":"daxx","steam_id":76561197971296086,"connected_time":1459000000000,"state":"active","ping":90}]},{"server_id":108,"name":"Uncletopia | Dallas | 2 | All Maps","name_short":"dal-2","host":"dal-1.us.uncletopia.com","port":27025,"enabled":true,"region":"us-central","cc":"us","latitude":32.779167,"longitude":-96.80889,"reserved":0,"last_update":"0001-01-01T00:00:00Z","name_a2s":"Uncletopia | Dallas | 2 | All Maps","protocol":17,"map":"pl_upward","folder":"tf","game":"Team Fortress","app_id":440,"player_count":24,"max_players":24,"Bots":0,"server_type":"Dedicated","server_os":"Linux","password":true,"vac":true,"version":"7961495","steam_id":85568392924469988,"keywords":["nocrits","nodmgspread","payload","uncletopia"],"game_id":440,"stv_port":27026,"stv_name":"Uncletopia | Dallas | 2 | All Maps | STV","players":[{"user_id":529,"name":"Tang","steam_id":76561198121340574,"connected_time":2797000000000,"state":"active","ping":81},{"user_id":568,"name":"gunch","steam_id":76561198029318657,"connected_time":1054000000000,"state":"active","ping":37},{"user_id":585,"name":"Force Nature","steam_id":76561198390522839,"connected_time":476000000000,"state":"active","ping":111},{"user_id":571,"name":"sooley","steam_id":76561198134500189,"connected_time":1013000000000,"state":"active","ping":130},{"user_id":573,"name":"Arthur SSJ2","steam_id":76561198043678479,"connected_time":938000000000,"state":"active","ping":69},{"user_id":576,"name":"Hovg9000","steam_id":76561199191556710,"connected_time":713000000000,"state":"active","ping":97},{"user_id":577,"name":"Storebrand Vegeta","steam_id":76561197999105221,"connected_time":701000000000,"state":"active","ping":80},{"user_id":575,"name":"Rdforzer","steam_id":76561198243101872,"connected_time":787000000000,"state":"active","ping":83},{"user_id":586,"name":"FREAKS","steam_id":76561198285819311,"connected_time":262000000000,"state":"active","ping":88},{"user_id":567,"name":"Ulrich Stern","steam_id":76561198101739682,"connected_time":1243000000000,"state":"active","ping":72},{"user_id":590,"name":"Devoid","steam_id":76561198254039012,"connected_time":110000000000,"state":"active","ping":77},{"user_id":587,"name":"d5","steam_id":76561199339997328,"connected_time":259000000000,"state":"active","ping":57},{"user_id":564,"name":"cringeass nae-nae girl","steam_id":76561198108753857,"connected_time":1368000000000,"state":"active","ping":79},{"user_id":574,"name":"GotYourGoat","steam_id":76561197995171850,"connected_time":908000000000,"state":"active","ping":99},{"user_id":579,"name":"Mega Madness","steam_id":76561198204862037,"connected_time":683000000000,"state":"active","ping":54},{"user_id":591,"name":"HoaroBatty","steam_id":76561198120361221,"connected_time":77000000000,"state":"active","ping":46},{"user_id":492,"name":"Light-Work","steam_id":76561198084263001,"connected_time":5000000000000,"state":"active","ping":49},{"user_id":546,"name":"my b","steam_id":76561198007464245,"connected_time":2168000000000,"state":"active","ping":83},{"user_id":589,"name":"FREE TIBET!","steam_id":76561197996366011,"connected_time":141000000000,"state":"active","ping":103},{"user_id":580,"name":"TheRatKing","steam_id":76561198022661341,"connected_time":680000000000,"state":"active","ping":80},{"user_id":581,"name":"Firecrotch Fredo","steam_id":76561198099658220,"connected_time":674000000000,"state":"active","ping":114},{"user_id":565,"name":"Sam","steam_id":76561198084143136,"connected_time":1362000000000,"state":"active","ping":45},{"user_id":582,"name":"Goob-A-Bue","steam_id":76561198050535135,"connected_time":672000000000,"state":"active","ping":90},{"user_id":583,"name":"mrthugpug1732","steam_id":76561198881200768,"connected_time":660000000000,"state":"active","ping":99}]},{"server_id":404,"name":"Uncletopia | Dallas | 3 | All Maps","name_short":"dal-3","host":"dal-1.us.uncletopia.com","port":27035,"enabled":true,"region":"us-central","cc":"us","latitude":32.779167,"longitude":-96.80889,"reserved":0,"last_update":"0001-01-01T00:00:00Z","name_a2s":"Uncletopia | Dallas | 3 | All Maps","protocol":17,"map":"cp_dustbowl","folder":"tf","game":"Team Fortress","app_id":440,"player_count":24,"max_players":24,"Bots":0,"server_type":"Dedicated","server_os":"Linux","password":true,"vac":true,"version":"7961495","steam_id":85568392924515219,"keywords":["cp","nocrits","nodmgspread","uncletopia"],"game_id":440,"stv_port":27036,"stv_name":"Uncletopia | Dallas | 3 | All Maps | STV","players":[{"user_id":262,"name":"Yosh","steam_id":76561198027078899,"connected_time":1491000000000,"state":"active","ping":75},{"user_id":269,"name":"CatLike Pigeon","steam_id":76561198171716030,"connected_time":1180000000000,"state":"active","ping":100},{"user_id":264,"name":"posed2","steam_id":76561198017539604,"connected_time":1432000000000,"state":"active","ping":75},{"user_id":223,"name":"Shabooyaroll-call","steam_id":76561198112306237,"connected_time":4711000000000,"state":"active","ping":85},{"user_id":277,"name":"The All-Seeing Tim","steam_id":76561198075510786,"connected_time":335000000000,"state":"active","ping":70},{"user_id":271,"name":"Chicago Shoplifter","steam_id":76561197986530028,"connected_time":1076000000000,"state":"active","ping":101},{"user_id":259,"name":"Just Luck","steam_id":76561198294350105,"connected_time":2033000000000,"state":"active","ping":65},{"user_id":212,"name":"wajanta","steam_id":76561199040280852,"connected_time":5656000000000,"state":"active","ping":59},{"user_id":276,"name":"Excalibrine","steam_id":76561198129312118,"connected_time":530000000000,"state":"active","ping":90},{"user_id":270,"name":"Jerry","steam_id":76561198847369985,"connected_time":1136000000000,"state":"active","ping":51},{"user_id":215,"name":"R8 Me M8 8/8","steam_id":76561198025280917,"connected_time":5183000000000,"state":"active","ping":84},{"user_id":183,"name":"Lord_Dabbatron","steam_id":76561199058480985,"connected_time":7120000000000,"state":"active","ping":55},{"user_id":278,"name":"King of Hearts (Voivode)","steam_id":76561198102152681,"connected_time":205000000000,"state":"active","ping":71},{"user_id":237,"name":"BronzeLeagueHero","steam_id":76561198088309711,"connected_time":4264000000000,"state":"active","ping":56},{"user_id":245,"name":"krebex","steam_id":76561198004660630,"connected_time":3524000000000,"state":"active","ping":57},{"user_id":226,"name":"Mr. Luggy","steam_id":76561198072723392,"connected_time":4678000000000,"state":"active","ping":69},{"user_id":257,"name":"Bombsgamer","steam_id":76561198350009050,"connected_time":2142000000000,"state":"active","ping":100},{"user_id":267,"name":"Ket","steam_id":76561198241951244,"connected_time":1408000000000,"state":"active","ping":64},{"user_id":279,"name":"a Disappointment","steam_id":76561198150306783,"connected_time":205000000000,"state":"active","ping":69},{"user_id":252,"name":"L to the OG","steam_id":76561199215811448,"connected_time":3103000000000,"state":"active","ping":92},{"user_id":273,"name":"George Holdin' W Bush","steam_id":76561198030066204,"connected_time":1042000000000,"state":"active","ping":77},{"user_id":275,"name":"Starfruit66","steam_id":76561198069917277,"connected_time":971000000000,"state":"active","ping":109},{"user_id":242,"name":"participant","steam_id":76561198820716379,"connected_time":3812000000000,"state":"active","ping":51},{"user_id":280,"name":"Fairlife Cow","steam_id":76561198242227952,"connected_time":204000000000,"state":"active","ping":70}]},{"server_id":405,"name":"Uncletopia | Dallas | 4 | Community","name_short":"dal-4","host":"dal-1.us.uncletopia.com","port":27045,"enabled":true,"region":"us-central","cc":"us","latitude":32.779167,"longitude":-96.80889,"reserved":0,"last_update":"0001-01-01T00:00:00Z","name_a2s":"Uncletopia | Dallas | 4 | Community","protocol":17,"map":"workshop/koth_bagel_rc6.ugc2514036946","folder":"tf","game":"Team Fortress","app_id":440,"player_count":0,"max_players":24,"Bots":0,"server_type":"Dedicated","server_os":"Linux","password":true,"vac":true,"version":"7961495","steam_id":85568392924515220,"keywords":["cp","nocrits","nodmgspread","uncletopia"],"game_id":440,"stv_port":27046,"stv_name":"Uncletopia | Dallas | 4 | Community | STV","players":null},{"server_id":5,"name":"Uncletopia | Frankfurt | 1 | All Maps","name_short":"frk-1","host":"frk-1.de.uncletopia.com","port":27015,"enabled":true,"region":"eu","cc":"de","latitude":50.110924,"longitude":8.682127,"reserved":0,"last_update":"0001-01-01T00:00:00Z","name_a2s":"Uncletopia | Frankfurt | 1 | All Maps","protocol":17,"map":"koth_highpass","folder":"tf","game":"Team Fortress","app_id":440,"player_count":0,"max_players":24,"Bots":0,"server_type":"Dedicated","server_os":"Linux","password":true,"vac":true,"version":"7961495","steam_id":85568392924469989,"keywords":["cp","nocrits","nodmgspread","uncletopia"],"game_id":440,"stv_port":27016,"stv_name":"Uncletopia | Frankfurt | 1 | All Maps | STV","players":null},{"server_id":110,"name":"Uncletopia | Frankfurt | 2 | All Maps","name_short":"frk-2","host":"frk-1.de.uncletopia.com","port":27025,"enabled":true,"region":"eu","cc":"de","latitude":50.110924,"longitude":8.682127,"reserved":0,"last_update":"0001-01-01T00:00:00Z","name_a2s":"Uncletopia | Frankfurt | 2 | All Maps","protocol":17,"map":"cp_dustbowl","folder":"tf","game":"Team Fortress","app_id":440,"player_count":0,"max_players":24,"Bots":0,"server_type":"Dedicated","server_os":"Linux","password":true,"vac":true,"version":"7961495","steam_id":85568392924469990,"keywords":["cp","nocrits","nodmgspread","uncletopia"],"game_id":440,"stv_port":27026,"stv_name":"Uncletopia | Frankfurt | 2 | All Maps | STV","players":null},{"server_id":308,"name":"Uncletopia | Frankfurt | 3 | All Maps","name_short":"frk-3","host":"frk-1.de.uncletopia.com","port":27035,"enabled":true,"region":"eu","cc":"de","latitude":50.110924,"longitude":8.682127,"reserved":0,"last_update":"0001-01-01T00:00:00Z","name_a2s":"Uncletopia | Frankfurt | 3 | All Maps","protocol":17,"map":"pl_barnblitz","folder":"tf","game":"Team Fortress","app_id":440,"player_count":0,"max_players":24,"Bots":0,"server_type":"Dedicated","server_os":"Linux","password":true,"vac":true,"version":"7961495","steam_id":85568392924504274,"keywords":["nocrits","nodmgspread","payload","uncletopia"],"game_id":440,"stv_port":27036,"stv_name":"Uncletopia | Frankfurt | 3 | All Maps | STV","players":null},{"server_id":309,"name":"Uncletopia | Frankfurt | 4 | All Maps","name_short":"frk-4","host":"frk-1.de.uncletopia.com","port":27045,"enabled":true,"region":"eu","cc":"de","latitude":50.110924,"longitude":8.682127,"reserved":0,"last_update":"0001-01-01T00:00:00Z","name_a2s":"Uncletopia | Frankfurt | 4 | All Maps","protocol":17,"map":"koth_highpass","folder":"tf","game":"Team Fortress","app_id":440,"player_count":0,"max_players":24,"Bots":0,"server_type":"Dedicated","server_os":"Linux","password":true,"vac":true,"version":"7961495","steam_id":85568392924504275,"keywords":["cp","nocrits","nodmgspread","uncletopia"],"game_id":440,"stv_port":27046,"stv_name":"Uncletopia | Frankfurt | 4 | All Maps | STV","players":null},{"server_id":310,"name":"Uncletopia | Frankfurt | 5 | All Maps","name_short":"frk-5","host":"frk-1.de.uncletopia.com","port":27055,"enabled":true,"region":"eu","cc":"de","latitude":50.110924,"longitude":8.682127,"reserved":0,"last_update":"0001-01-01T00:00:00Z","name_a2s":"Uncletopia | Frankfurt | 5 | All Maps","protocol":17,"map":"pl_badwater","folder":"tf","game":"Team Fortress","app_id":440,"player_count":0,"max_players":24,"Bots":0,"server_type":"Dedicated","server_os":"Linux","password":true,"vac":true,"version":"7961495","steam_id":85568392924504277,"keywords":["nocrits","nodmgspread","payload","uncletopia"],"game_id":440,"stv_port":27056,"stv_name":"Uncletopia | Frankfurt | 5 | All Maps | STV","players":null},{"server_id":311,"name":"Uncletopia | Frankfurt | 6 | All Maps","name_short":"frk-6","host":"frk-1.de.uncletopia.com","port":27065,"enabled":true,"region":"eu","cc":"de","latitude":50.110924,"longitude":8.682127,"reserved":0,"last_update":"0001-01-01T00:00:00Z","name_a2s":"Uncletopia | Frankfurt | 6 | All Maps","protocol":17,"map":"cp_altitude","folder":"tf","game":"Team Fortress","app_id":440,"player_count":0,"max_players":24,"Bots":0,"server_type":"Dedicated","server_os":"Linux","password":true,"vac":true,"version":"7961495","steam_id":85568392924504278,"keywords":["cp","nocrits","nodmgspread","uncletopia"],"game_id":440,"stv_port":27066,"stv_name":"Uncletopia | Frankfurt | 6 | All Maps | STV","players":null},{"server_id":23,"name":"Uncletopia | Frankfurt | 7 | Stopwatch","name_short":"frk-7","host":"frk-1.de.uncletopia.com","port":27075,"enabled":true,"region":"eu","cc":"de","latitude":50.110924,"longitude":8.682127,"reserved":0,"last_update":"0001-01-01T00:00:00Z","name_a2s":"Uncletopia | Frankfurt | 7 | Stopwatch","protocol":17,"map":"pl_frontier_final","folder":"tf","game":"Team Fortress","app_id":440,"player_count":0,"max_players":24,"Bots":0,"server_type":"Dedicated","server_os":"Linux","password":true,"vac":true,"version":"7961495","steam_id":85568392924742827,"keywords":["nocrits","nodmgspread","payload","uncletopia"],"game_id":440,"stv_port":27076,"stv_name":"Uncletopia | Frankfurt | 7 | Stopwatch | STV","players":null},{"server_id":24,"name":"Uncletopia | Frankfurt | 8 | Community","name_short":"frk-8","host":"frk-1.de.uncletopia.com","port":27085,"enabled":true,"region":"eu","cc":"de","latitude":50.110924,"longitude":8.682127,"reserved":0,"last_update":"0001-01-01T00:00:00Z","name_a2s":"Uncletopia | Frankfurt | 8 | Community","protocol":17,"map":"cp_mountainlab","folder":"tf","game":"Team Fortress","app_id":440,"player_count":0,"max_players":24,"Bots":0,"server_type":"Dedicated","server_os":"Linux","password":true,"vac":true,"version":"7961495","steam_id":85568392924742828,"keywords":["cp","nocrits","nodmgspread","uncletopia"],"game_id":440,"stv_port":27086,"stv_name":"Uncletopia | Frankfurt | 8 | Community | STV","players":null},{"server_id":202,"name":"Uncletopia | Hong Kong | 1 | All Maps","name_short":"hgk-1","host":"hgk-1.hk.uncletopia.com","port":27015,"enabled":true,"region":"asia","cc":"hk","latitude":22.302711,"longitude":114.177216,"reserved":0,"last_update":"0001-01-01T00:00:00Z","name_a2s":"Uncletopia | Hong Kong | 1 | All Maps","protocol":17,"map":"koth_highpass","folder":"tf","game":"Team Fortress","app_id":440,"player_count":0,"max_players":24,"Bots":0,"server_type":"Dedicated","server_os":"Linux","password":true,"vac":true,"version":"7961495","steam_id":85568392924494504,"keywords":["cp","nocrits","nodmgspread","uncletopia"],"game_id":440,"stv_port":27016,"stv_name":"Uncletopia | Hong Kong | 1 | All Maps | STV","players":null},{"server_id":1,"name":"Uncletopia | Los Angeles | 1 | All Maps","name_short":"lax-1","host":"lax-1.us.uncletopia.com","port":27015,"enabled":true,"region":"us-west","cc":"us","latitude":33.94279,"longitude":-118.41004,"reserved":0,"last_update":"0001-01-01T00:00:00Z","name_a2s":"Uncletopia | Los Angeles | 1 | All Maps","protocol":17,"map":"cp_process_final","folder":"tf","game":"Team Fortress","app_id":440,"player_count":24,"max_players":24,"Bots":0,"server_type":"Dedicated","server_os":"Linux","password":true,"vac":true,"version":"7961495","steam_id":85568392924469991,"keywords":["cp","nocrits","nodmgspread","uncletopia"],"game_id":440,"stv_port":27016,"stv_name":"Uncletopia | Los Angeles | 1 | All Maps | STV","players":[{"user_id":219,"name":"Olitude","steam_id":76561199238964574,"connected_time":887000000000,"state":"active","ping":46},{"user_id":211,"name":"Mr. Noodle","steam_id":76561198025280658,"connected_time":1484000000000,"state":"active","ping":56},{"user_id":189,"name":"My Five Nights at Freddys Movie","steam_id":76561198256886614,"connected_time":3408000000000,"state":"active","ping":87},{"user_id":169,"name":"Angelmaster","steam_id":76561198815474379,"connected_time":5166000000000,"state":"active","ping":49},{"user_id":185,"name":"Evelyn!","steam_id":76561198881145760,"connected_time":3766000000000,"state":"active","ping":44},{"user_id":186,"name":"ZeroEmpires","steam_id":76561198044112464,"connected_time":3720000000000,"state":"active","ping":66},{"user_id":208,"name":"tt","steam_id":76561198367170145,"connected_time":1509000000000,"state":"active","ping":95},{"user_id":217,"name":"r u guys going trick or treatin","steam_id":76561199074585110,"connected_time":1216000000000,"state":"active","ping":44},{"user_id":210,"name":"Stubbi Oni","steam_id":76561198071974384,"connected_time":1488000000000,"state":"active","ping":128},{"user_id":157,"name":"ACK","steam_id":76561198130390689,"connected_time":6147000000000,"state":"active","ping":70},{"user_id":154,"name":"HopeTheNeko","steam_id":76561199159285465,"connected_time":6912000000000,"state":"active","ping":59},{"user_id":196,"name":"TacoMan4Life","steam_id":76561198832562728,"connected_time":3101000000000,"state":"active","ping":61},{"user_id":220,"name":"nescoceo","steam_id":76561198040801160,"connected_time":316000000000,"state":"active","ping":45},{"user_id":215,"name":"TheBrocklobster","steam_id":76561198039682984,"connected_time":1315000000000,"state":"active","ping":60},{"user_id":218,"name":"hart","steam_id":76561198046073848,"connected_time":1109000000000,"state":"active","ping":71},{"user_id":117,"name":"Casey","steam_id":76561198068810896,"connected_time":9459000000000,"state":"active","ping":93},{"user_id":213,"name":"tRiCkStAb","steam_id":76561197984716005,"connected_time":1465000000000,"state":"active","ping":58},{"user_id":204,"name":"TimeForHype","steam_id":76561197996714494,"connected_time":2280000000000,"state":"active","ping":75},{"user_id":155,"name":"Jovi Boy","steam_id":76561198046605691,"connected_time":6640000000000,"state":"active","ping":60},{"user_id":194,"name":"filtered by cp_steel","steam_id":76561198031409921,"connected_time":3335000000000,"state":"active","ping":59},{"user_id":199,"name":"cielael","steam_id":76561198043971956,"connected_time":2417000000000,"state":"active","ping":46},{"user_id":216,"name":"NAWWWWWWWWWWW","steam_id":76561198878913441,"connected_time":1307000000000,"state":"active","ping":48},{"user_id":183,"name":"rat","steam_id":76561198130412963,"connected_time":4125000000000,"state":"active","ping":84},{"user_id":195,"name":"JOHN WICK","steam_id":76561198091877422,"connected_time":3252000000000,"state":"active","ping":91}]},{"server_id":112,"name":"Uncletopia | Los Angeles | 2 | All Maps","name_short":"lax-2","host":"lax-1.us.uncletopia.com","port":27025,"enabled":true,"region":"us-west","cc":"us","latitude":33.94279,"longitude":-118.41004,"reserved":0,"last_update":"0001-01-01T00:00:00Z","name_a2s":"Uncletopia | Los Angeles | 2 | All Maps","protocol":17,"map":"pl_borneo","folder":"tf","game":"Team Fortress","app_id":440,"player_count":24,"max_players":24,"Bots":0,"server_type":"Dedicated","server_os":"Linux","password":true,"vac":true,"version":"7961495","steam_id":85568392924469992,"keywords":["nocrits","nodmgspread","payload","uncletopia"],"game_id":440,"stv_port":27026,"stv_name":"Uncletopia | Los Angeles | 2 | All Maps | STV","players":[{"user_id":177,"name":"blast a hoe","steam_id":76561198294281809,"connected_time":3425000000000,"state":"active","ping":54},{"user_id":182,"name":"waggyaggy","steam_id":76561197998241407,"connected_time":3098000000000,"state":"active","ping":49},{"user_id":201,"name":"Drilly22","steam_id":76561198068838338,"connected_time":954000000000,"state":"active","ping":84},{"user_id":166,"name":"boosh","steam_id":76561198034218020,"connected_time":3798000000000,"state":"active","ping":72},{"user_id":197,"name":"ars110","steam_id":76561198030492435,"connected_time":984000000000,"state":"active","ping":90},{"user_id":119,"name":"celestia ludenberg","steam_id":76561199196437823,"connected_time":8026000000000,"state":"active","ping":69},{"user_id":193,"name":"moe","steam_id":76561198929586245,"connected_time":2019000000000,"state":"active","ping":40},{"user_id":156,"name":"Lemonade Juice","steam_id":76561198402892608,"connected_time":4323000000000,"state":"active","ping":48},{"user_id":208,"name":"fortzei","steam_id":76561198210920541,"connected_time":36000000000,"state":"spawning","ping":58},{"user_id":202,"name":"pooblygonzooly2012","steam_id":76561198982054880,"connected_time":933000000000,"state":"active","ping":57},{"user_id":180,"name":"JACK BRUNO","steam_id":76561198027957690,"connected_time":3131000000000,"state":"active","ping":59},{"user_id":171,"name":"Xtar","steam_id":76561198301774048,"connected_time":3736000000000,"state":"active","ping":86},{"user_id":209,"name":"californjoe","steam_id":76561197965047795,"connected_time":34000000000,"state":"active","ping":45},{"user_id":191,"name":"011sra","steam_id":76561199489542125,"connected_time":2260000000000,"state":"active","ping":65},{"user_id":176,"name":"Shmegal20","steam_id":76561198063477556,"connected_time":3508000000000,"state":"active","ping":115},{"user_id":184,"name":"Antonpirulero10","steam_id":76561198253036781,"connected_time":3085000000000,"state":"active","ping":69},{"user_id":175,"name":"Dinosaur","steam_id":76561199079626189,"connected_time":3541000000000,"state":"active","ping":93},{"user_id":196,"name":"lordstinkdemon666","steam_id":76561198073914311,"connected_time":1080000000000,"state":"active","ping":44},{"user_id":134,"name":"Sterling Nano","steam_id":76561198048580088,"connected_time":6827000000000,"state":"active","ping":56},{"user_id":207,"name":"Keamy","steam_id":76561199471434875,"connected_time":191000000000,"state":"active","ping":77},{"user_id":210,"name":"Sahalanthro","steam_id":76561199073298722,"connected_time":7000000000,"state":"active","ping":188},{"user_id":204,"name":"rmbl (fork eater)","steam_id":76561198150137369,"connected_time":848000000000,"state":"active","ping":45},{"user_id":206,"name":"Tmiracle","steam_id":76561198052375275,"connected_time":584000000000,"state":"active","ping":45},{"user_id":132,"name":"Schmupp","steam_id":76561198150928115,"connected_time":6843000000000,"state":"active","ping":57}]},{"server_id":324,"name":"Uncletopia | Los Angeles | 3 | All Maps","name_short":"lax-3","host":"lax-1.us.uncletopia.com","port":27035,"enabled":true,"region":"us-west","cc":"us","latitude":33.94279,"longitude":-118.41004,"reserved":0,"last_update":"0001-01-01T00:00:00Z","name_a2s":"Uncletopia | Los Angeles | 3 | All Maps","protocol":17,"map":"koth_viaduct","folder":"tf","game":"Team Fortress","app_id":440,"player_count":0,"max_players":24,"Bots":0,"server_type":"Dedicated","server_os":"Linux","password":true,"vac":true,"version":"7961495","steam_id":85568392924510198,"keywords":["cp","nocrits","nodmgspread","uncletopia"],"game_id":440,"stv_port":27036,"stv_name":"Uncletopia | Los Angeles | 3 | All Maps | STV","players":null},{"server_id":25,"name":"Uncletopia | Los Angeles | 4 | Stopwatch","name_short":"lax-4","host":"lax-1.us.uncletopia.com","port":27045,"enabled":true,"region":"us-west","cc":"us","latitude":33.94279,"longitude":-118.41004,"reserved":0,"last_update":"0001-01-01T00:00:00Z","name_a2s":"Uncletopia | Los Angeles | 4 | Stopwatch","protocol":17,"map":"cp_process_final","folder":"tf","game":"Team Fortress","app_id":440,"player_count":0,"max_players":24,"Bots":0,"server_type":"Dedicated","server_os":"Linux","password":true,"vac":true,"version":"7961495","steam_id":85568392924510199,"keywords":["cp","nocrits","nodmgspread","uncletopia"],"game_id":440,"stv_port":27046,"stv_name":"Uncletopia | Los Angeles | 4 | Stopwatch | STV","players":null},{"server_id":11,"name":"Uncletopia | London | 1 | All Maps","name_short":"lon-1","host":"lon-1.uk.uncletopia.com","port":27015,"enabled":true,"region":"eu","cc":"gb","latitude":51.509865,"longitude":-0.118092,"reserved":0,"last_update":"0001-01-01T00:00:00Z","name_a2s":"Uncletopia | London | 1 | All Maps","protocol":17,"map":"pl_frontier_final","folder":"tf","game":"Team Fortress","app_id":440,"player_count":5,"max_players":24,"Bots":0,"server_type":"Dedicated","server_os":"Linux","password":true,"vac":true,"version":"7961495","steam_id":85568392924367362,"keywords":["nocrits","nodmgspread","payload","uncletopia"],"game_id":440,"stv_port":27016,"stv_name":"Uncletopia | London | 1 | All Maps | STV","players":[{"user_id":1008,"name":"kkk [AI]","steam_id":76561198117319649,"connected_time":910000000000,"state":"active","ping":126},{"user_id":995,"name":"Black Tom","steam_id":76561198335730273,"connected_time":2693000000000,"state":"active","ping":55},{"user_id":987,"name":"Robotnik gaming","steam_id":76561198070536845,"connected_time":3773000000000,"state":"active","ping":81},{"user_id":994,"name":"Yip","steam_id":76561198946540436,"connected_time":2834000000000,"state":"active","ping":59},{"user_id":1000,"name":"yuno appreciator","steam_id":76561198083286511,"connected_time":2423000000000,"state":"active","ping":33}]},{"server_id":114,"name":"Uncletopia | London | 2 | All Maps","name_short":"lon-2","host":"lon-1.uk.uncletopia.com","port":27025,"enabled":true,"region":"eu","cc":"gb","latitude":51.509865,"longitude":-0.118092,"reserved":0,"last_update":"0001-01-01T00:00:00Z","name_a2s":"Uncletopia | London | 2 | All Maps","protocol":17,"map":"cp_dustbowl","folder":"tf","game":"Team Fortress","app_id":440,"player_count":0,"max_players":24,"Bots":0,"server_type":"Dedicated","server_os":"Linux","password":true,"vac":true,"version":"7961495","steam_id":85568392924470941,"keywords":["cp","nocrits","nodmgspread","uncletopia"],"game_id":440,"stv_port":27026,"stv_name":"Uncletopia | London | 2 | All Maps | STV","players":null},{"server_id":320,"name":"Uncletopia | London | 3 | All Maps","name_short":"lon-3","host":"lon-1.uk.uncletopia.com","port":27035,"enabled":true,"region":"eu","cc":"gb","latitude":51.509865,"longitude":-0.118092,"reserved":0,"last_update":"0001-01-01T00:00:00Z","name_a2s":"Uncletopia | London | 3 | All Maps","protocol":17,"map":"cp_process_final","folder":"tf","game":"Team Fortress","app_id":440,"player_count":0,"max_players":24,"Bots":0,"server_type":"Dedicated","server_os":"Linux","password":true,"vac":true,"version":"7961495","steam_id":85568392924510192,"keywords":["cp","nocrits","nodmgspread","uncletopia"],"game_id":440,"stv_port":27036,"stv_name":"Uncletopia | London | 3 | All Maps | STV","players":null},{"server_id":321,"name":"Uncletopia | London | 4 | All Maps","name_short":"lon-4","host":"lon-1.uk.uncletopia.com","port":27045,"enabled":true,"region":"eu","cc":"gb","latitude":51.509865,"longitude":-0.118092,"reserved":0,"last_update":"0001-01-01T00:00:00Z","name_a2s":"Uncletopia | London | 4 | All Maps","protocol":17,"map":"cp_mountainlab","folder":"tf","game":"Team Fortress","app_id":440,"player_count":0,"max_players":24,"Bots":0,"server_type":"Dedicated","server_os":"Linux","password":true,"vac":true,"version":"7961495","steam_id":85568392924510193,"keywords":["cp","nocrits","nodmgspread","uncletopia"],"game_id":440,"stv_port":27046,"stv_name":"Uncletopia | London | 4 | All Maps | STV","players":null},{"server_id":21,"name":"Uncletopia | London | 5 | All Maps","name_short":"lon-5","host":"lon-1.uk.uncletopia.com","port":27055,"enabled":true,"region":"eu","cc":"gb","latitude":51.509865,"longitude":-0.118092,"reserved":0,"last_update":"0001-01-01T00:00:00Z","name_a2s":"Uncletopia | London | 5 | All Maps","protocol":17,"map":"plr_pipeline","folder":"tf","game":"Team Fortress","app_id":440,"player_count":0,"max_players":24,"Bots":0,"server_type":"Dedicated","server_os":"Linux","password":true,"vac":true,"version":"7961495","steam_id":85568392924742829,"keywords":["nocrits","nodmgspread","payload","uncletopia"],"game_id":440,"stv_port":27056,"stv_name":"Uncletopia | London | 5 | All Maps | STV","players":null},{"server_id":22,"name":"Uncletopia | London | 6 | All Maps","name_short":"lon-6","host":"lon-1.uk.uncletopia.com","port":27065,"enabled":true,"region":"eu","cc":"gb","latitude":51.509865,"longitude":-0.118092,"reserved":0,"last_update":"0001-01-01T00:00:00Z","name_a2s":"Uncletopia | London | 6 | All Maps","protocol":17,"map":"pl_pier","folder":"tf","game":"Team Fortress","app_id":440,"player_count":0,"max_players":24,"Bots":0,"server_type":"Dedicated","server_os":"Linux","password":true,"vac":true,"version":"7961495","steam_id":85568392924742830,"keywords":["nocrits","nodmgspread","payload","uncletopia"],"game_id":440,"stv_port":27066,"stv_name":"Uncletopia | London | 6 | All Maps | STV","players":null},{"server_id":40,"name":"Uncletopia | London | 7 | Stopwatch","name_short":"lon-7","host":"lon-1.uk.uncletopia.com","port":27075,"enabled":true,"region":"eu","cc":"gb","latitude":51.509865,"longitude":-0.118092,"reserved":0,"last_update":"0001-01-01T00:00:00Z","name_a2s":"Uncletopia | London | 7 | Stopwatch","protocol":17,"map":"koth_lakeside_final","folder":"tf","game":"Team Fortress","app_id":440,"player_count":0,"max_players":24,"Bots":0,"server_type":"Dedicated","server_os":"Linux","password":true,"vac":true,"version":"7961495","steam_id":85568392924964314,"keywords":["cp","nocrits","nodmgspread","uncletopia"],"game_id":440,"stv_port":27076,"stv_name":"Uncletopia | London | 7 | Stopwatch | STV","players":null},{"server_id":41,"name":"Uncletopia | London | 8 | Community","name_short":"lon-8","host":"lon-1.uk.uncletopia.com","port":27085,"enabled":true,"region":"eu","cc":"gb","latitude":51.509865,"longitude":-0.118092,"reserved":0,"last_update":"0001-01-01T00:00:00Z","name_a2s":"Uncletopia | London | 8 | Community","protocol":17,"map":"workshop/pl_corrode_rc2.ugc546577989","folder":"tf","game":"Team Fortress","app_id":440,"player_count":0,"max_players":24,"Bots":0,"server_type":"Dedicated","server_os":"Linux","password":true,"vac":true,"version":"7961495","steam_id":85568392924964315,"keywords":["nocrits","nodmgspread","payload","uncletopia"],"game_id":440,"stv_port":27086,"stv_name":"Uncletopia | London | 8 | Community | STV","players":null},{"server_id":300,"name":"Uncletopia | Montr√©al | 1 | One Thousand Uncles","name_short":"mtl-1","host":"mtl-1.ca.uncletopia.com","port":27015,"enabled":true,"region":"us-east","cc":"ca","latitude":45.50889,"longitude":-73.56167,"reserved":0,"last_update":"0001-01-01T00:00:00Z","name_a2s":"","protocol":0,"map":"","folder":"","game":"","app_id":0,"player_count":0,"max_players":0,"Bots":0,"server_type":"","server_os":"","password":false,"vac":false,"version":"","steam_id":0,"keywords":null,"game_id":0,"stv_port":0,"stv_name":"","players":null},{"server_id":301,"name":"Uncletopia | Montr√©al | 2 | One Thousand Uncles","name_short":"mtl-2","host":"mtl-1.ca.uncletopia.com","port":27025,"enabled":true,"region":"us-east","cc":"ca","latitude":45.50889,"longitude":-73.56167,"reserved":0,"last_update":"0001-01-01T00:00:00Z","name_a2s":"","protocol":0,"map":"","folder":"","game":"","app_id":0,"player_count":0,"max_players":0,"Bots":0,"server_type":"","server_os":"","password":false,"vac":false,"version":"","steam_id":0,"keywords":null,"game_id":0,"stv_port":0,"stv_name":"","players":null},{"server_id":302,"name":"Uncletopia | Montr√©al | 3 | One Thousand Uncles","name_short":"mtl-3","host":"mtl-1.ca.uncletopia.com","port":27035,"enabled":true,"region":"us-east","cc":"ca","latitude":45.50889,"longitude":-73.56167,"reserved":0,"last_update":"0001-01-01T00:00:00Z","name_a2s":"","protocol":0,"map":"","folder":"","game":"","app_id":0,"player_count":0,"max_players":0,"Bots":0,"server_type":"","server_os":"","password":false,"vac":false,"version":"","steam_id":0,"keywords":null,"game_id":0,"stv_port":0,"stv_name":"","players":null},{"server_id":13,"name":"Uncletopia | New York City | 1 | All Maps","name_short":"nyc-1","host":"nyc-1.us.uncletopia.com","port":27015,"enabled":true,"region":"us-east","cc":"us","latitude":40.73061,"longitude":-73.93524,"reserved":0,"last_update":"0001-01-01T00:00:00Z","name_a2s":"Uncletopia | New York City | 1 | All Maps","protocol":17,"map":"pl_upward","folder":"tf","game":"Team Fortress","app_id":440,"player_count":24,"max_players":24,"Bots":0,"server_type":"Dedicated","server_os":"Linux","password":true,"vac":true,"version":"7961495","steam_id":85568392924469993,"keywords":["nocrits","nodmgspread","payload","uncletopia"],"game_id":440,"stv_port":27016,"stv_name":"Uncletopia | New York City | 1 | All Maps | STV","players":[{"user_id":433,"name":"Major Woody","steam_id":76561198835541533,"connected_time":99000000000,"state":"active","ping":103},{"user_id":388,"name":"Voracious Puma","steam_id":76561197963621649,"connected_time":1710000000000,"state":"active","ping":86},{"user_id":428,"name":"L. Ron Hoyabembe","steam_id":76561198306393090,"connected_time":344000000000,"state":"active","ping":63},{"user_id":382,"name":"Mixed Up","steam_id":76561198042570322,"connected_time":2479000000000,"state":"active","ping":75},{"user_id":389,"name":"lebron bugleberry","steam_id":76561198060288611,"connected_time":1655000000000,"state":"active","ping":59},{"user_id":354,"name":"space man","steam_id":76561198066333670,"connected_time":5140000000000,"state":"active","ping":70},{"user_id":422,"name":"he suckin on my rick til i mort","steam_id":76561198310711692,"connected_time":965000000000,"state":"active","ping":167},{"user_id":419,"name":"‚õß AlphaSatanOmega ‚õß","steam_id":76561198035125511,"connected_time":1118000000000,"state":"active","ping":54},{"user_id":423,"name":"Perpul","steam_id":76561198075458738,"connected_time":837000000000,"state":"active","ping":90},{"user_id":420,"name":"YungMaser","steam_id":76561199226165394,"connected_time":1112000000000,"state":"active","ping":115},{"user_id":429,"name":"FoxyTheFish","steam_id":76561199074190919,"connected_time":339000000000,"state":"active","ping":119},{"user_id":396,"name":"ùìïùìÆùì∂ùì´ùì∏ùîÇùì©\ufffd\ufffd\ufffd","steam_id":76561198220055885,"connected_time":1530000000000,"state":"active","ping":60},{"user_id":424,"name":"fried rice","steam_id":76561198928939100,"connected_time":756000000000,"state":"active","ping":93},{"user_id":430,"name":"Cwiishe","steam_id":76561199482943969,"connected_time":312000000000,"state":"active","ping":51},{"user_id":376,"name":"quack","steam_id":76561198138783216,"connected_time":2737000000000,"state":"active","ping":37},{"user_id":426,"name":"CORGI.EXE","steam_id":76561198077093432,"connected_time":503000000000,"state":"active","ping":54},{"user_id":427,"name":"twitch.tv/axities","steam_id":76561198278008225,"connected_time":383000000000,"state":"active","ping":61},{"user_id":387,"name":"Yuzu","steam_id":76561198417913035,"connected_time":1802000000000,"state":"active","ping":73},{"user_id":383,"name":"Nine-Tails Delsin","steam_id":76561198149825187,"connected_time":2474000000000,"state":"active","ping":151},{"user_id":431,"name":"Sputnuts","steam_id":76561198236857310,"connected_time":309000000000,"state":"active","ping":45},{"user_id":434,"name":"·óúÀ¨·óú","steam_id":76561198049076233,"connected_time":38000000000,"state":"active","ping":55},{"user_id":333,"name":"Fudgely","steam_id":76561198039425862,"connected_time":7179000000000,"state":"active","ping":76},{"user_id":366,"name":"jorjor wells","steam_id":76561199073429082,"connected_time":3759000000000,"state":"active","ping":61},{"user_id":398,"name":"MOUSE4LOCK","steam_id":76561198930221211,"connected_time":1473000000000,"state":"active","ping":119}]},{"server_id":14,"name":"Uncletopia | New York City | 2 | All Maps","name_short":"nyc-2","host":"nyc-1.us.uncletopia.com","port":27025,"enabled":true,"region":"us-east","cc":"us","latitude":40.73061,"longitude":-73.93524,"reserved":0,"last_update":"0001-01-01T00:00:00Z","name_a2s":"Uncletopia | New York City | 2 | All Maps","protocol":17,"map":"pl_borneo","folder":"tf","game":"Team Fortress","app_id":440,"player_count":19,"max_players":24,"Bots":0,"server_type":"Dedicated","server_os":"Linux","password":true,"vac":true,"version":"7961495","steam_id":85568392924469994,"keywords":["nocrits","nodmgspread","payload","uncletopia"],"game_id":440,"stv_port":27026,"stv_name":"Uncletopia | New York City | 2 | All Maps | STV","players":[{"user_id":687,"name":"gagobears","steam_id":76561198086008437,"connected_time":3398000000000,"state":"active","ping":90},{"user_id":716,"name":"Person","steam_id":76561198093244204,"connected_time":684000000000,"state":"active","ping":60},{"user_id":686,"name":"black tar estrogen","steam_id":76561198043911582,"connected_time":3413000000000,"state":"active","ping":44},{"user_id":688,"name":"sadako","steam_id":76561198170642407,"connected_time":3373000000000,"state":"active","ping":60},{"user_id":707,"name":"Smoke","steam_id":76561198140627349,"connected_time":1258000000000,"state":"active","ping":74},{"user_id":708,"name":"flip flop man(Lee)","steam_id":76561198374860339,"connected_time":1173000000000,"state":"active","ping":130},{"user_id":648,"name":"dave :3","steam_id":76561198135961731,"connected_time":5492000000000,"state":"active","ping":97},{"user_id":720,"name":"The Final Terminus","steam_id":76561197964985183,"connected_time":91000000000,"state":"active","ping":44},{"user_id":709,"name":"Racist Elmo","steam_id":76561198880311217,"connected_time":1163000000000,"state":"active","ping":89},{"user_id":666,"name":"WitheringLeo","steam_id":76561198046722918,"connected_time":4575000000000,"state":"active","ping":63},{"user_id":655,"name":"ndvr","steam_id":76561199379200102,"connected_time":5279000000000,"state":"active","ping":49},{"user_id":710,"name":"Sir_Dounut_III","steam_id":76561198447537093,"connected_time":1146000000000,"state":"active","ping":61},{"user_id":712,"name":"thai","steam_id":76561198052462287,"connected_time":1103000000000,"state":"active","ping":109},{"user_id":713,"name":"Viennetta","steam_id":76561198044088335,"connected_time":1054000000000,"state":"active","ping":45},{"user_id":722,"name":"‰∏≠ÂõΩÈªëÂÆ¢Áî∑‰∫∫","steam_id":76561198209641323,"connected_time":57000000000,"state":"active","ping":91},{"user_id":705,"name":"foxxy","steam_id":76561198211308328,"connected_time":1522000000000,"state":"active","ping":45},{"user_id":714,"name":"Xeme","steam_id":76561198804059729,"connected_time":1018000000000,"state":"active","ping":44},{"user_id":690,"name":"Fridgidaere","steam_id":76561198131467867,"connected_time":3296000000000,"state":"active","ping":105},{"user_id":719,"name":"juanjoesc","steam_id":76561198186368430,"connected_time":263000000000,"state":"active","ping":133}]},{"server_id":15,"name":"Uncletopia | New York City | 3 | Stopwatch","name_short":"nyc-3","host":"nyc-1.us.uncletopia.com","port":27035,"enabled":true,"region":"us-east","cc":"us","latitude":40.73061,"longitude":-73.93524,"reserved":0,"last_update":"0001-01-01T00:00:00Z","name_a2s":"Uncletopia | New York City | 3 | Stopwatch","protocol":17,"map":"koth_highpass","folder":"tf","game":"Team Fortress","app_id":440,"player_count":0,"max_players":24,"Bots":0,"server_type":"Dedicated","server_os":"Linux","password":true,"vac":true,"version":"7961495","steam_id":85568392924742820,"keywords":["cp","nocrits","nodmgspread","uncletopia"],"game_id":440,"stv_port":27036,"stv_name":"Uncletopia | New York City | 3 | Stopwatch | STV","players":null},{"server_id":16,"name":"Uncletopia | New York City | 4 | Community","name_short":"nyc-4","host":"nyc-1.us.uncletopia.com","port":27045,"enabled":true,"region":"us-east","cc":"us","latitude":40.73061,"longitude":-73.93524,"reserved":0,"last_update":"0001-01-01T00:00:00Z","name_a2s":"Uncletopia | New York City | 4 | Community","protocol":17,"map":"workshop/koth_product_final.ugc454272353","folder":"tf","game":"Team Fortress","app_id":440,"player_count":0,"max_players":24,"Bots":0,"server_type":"Dedicated","server_os":"Linux","password":true,"vac":true,"version":"7961495","steam_id":85568392924742821,"keywords":["cp","nocrits","nodmgspread","uncletopia"],"game_id":440,"stv_port":27046,"stv_name":"Uncletopia | New York City | 4 | Community | STV","players":null},{"server_id":142,"name":"Uncletopia | S√£o Paulo | 1 | All Maps","name_short":"sao-1","host":"sao-1.br.uncletopia.com","port":27015,"enabled":true,"region":"sa","cc":"br","latitude":-23.533773,"longitude":-46.62529,"reserved":0,"last_update":"0001-01-01T00:00:00Z","name_a2s":"Uncletopia | S√£o Paulo | 1 | All Maps","protocol":17,"map":"koth_cascade","folder":"tf","game":"Team Fortress","app_id":440,"player_count":0,"max_players":24,"Bots":0,"server_type":"Dedicated","server_os":"Linux","password":true,"vac":true,"version":"7961495","steam_id":85568392924469996,"keywords":["cp","nocrits","nodmgspread","uncletopia"],"game_id":440,"stv_port":27016,"stv_name":"Uncletopia | S√£o Paulo | 1 | All Maps | STV","players":null},{"server_id":143,"name":"Uncletopia | S√£o Paulo | 2 | Community","name_short":"sao-2","host":"sao-2.br.uncletopia.com","port":27015,"enabled":true,"region":"sa","cc":"br","latitude":-23.533773,"longitude":-46.62529,"reserved":0,"last_update":"0001-01-01T00:00:00Z","name_a2s":"Uncletopia | S√£o Paulo | 2 | Community","protocol":17,"map":"workshop/koth_slaughter_rc1.ugc1712845210","folder":"tf","game":"Team Fortress","app_id":440,"player_count":0,"max_players":24,"Bots":0,"server_type":"Dedicated","server_os":"Linux","password":true,"vac":true,"version":"7961495","steam_id":85568392924485349,"keywords":["cp","nocrits","nodmgspread","uncletopia"],"game_id":440,"stv_port":27016,"stv_name":"Uncletopia | S√£o Paulo | 2 | Community | STV","players":null},{"server_id":7,"name":"Uncletopia | Seattle | 1 | All Maps","name_short":"sea-1","host":"sea-1.us.uncletopia.com","port":27015,"enabled":true,"region":"us-west","cc":"us","latitude":47.608013,"longitude":-122.33517,"reserved":0,"last_update":"0001-01-01T00:00:00Z","name_a2s":"Uncletopia | Seattle | 1 | All Maps","protocol":17,"map":"pl_badwater","folder":"tf","game":"Team Fortress","app_id":440,"player_count":24,"max_players":24,"Bots":0,"server_type":"Dedicated","server_os":"Linux","password":true,"vac":true,"version":"7961495","steam_id":85568392924469997,"keywords":["nocrits","nodmgspread","payload","uncletopia"],"game_id":440,"stv_port":27016,"stv_name":"Uncletopia | Seattle | 1 | All Maps | STV","players":[{"user_id":617,"name":"Pile of Spinach","steam_id":76561198043068841,"connected_time":1053000000000,"state":"active","ping":60},{"user_id":623,"name":"Skabbety","steam_id":76561198168044257,"connected_time":804000000000,"state":"active","ping":43},{"user_id":616,"name":"Strikerbolt","steam_id":76561199095622897,"connected_time":1071000000000,"state":"active","ping":81},{"user_id":610,"name":"Puskinti","steam_id":76561198032120688,"connected_time":2062000000000,"state":"active","ping":54},{"user_id":626,"name":"reverie","steam_id":76561198168158637,"connected_time":519000000000,"state":"active","ping":80},{"user_id":577,"name":"Daz","steam_id":76561198041431938,"connected_time":4076000000000,"state":"active","ping":50},{"user_id":599,"name":"Axolotl Gaming","steam_id":76561198343988802,"connected_time":2476000000000,"state":"active","ping":78},{"user_id":624,"name":"MrPenguin","steam_id":76561199374387317,"connected_time":786000000000,"state":"active","ping":62},{"user_id":597,"name":"spenca","steam_id":76561198025371154,"connected_time":2512000000000,"state":"active","ping":71},{"user_id":582,"name":"sillymoder2005","steam_id":76561198202235495,"connected_time":3873000000000,"state":"active","ping":37},{"user_id":621,"name":"Azary56","steam_id":76561198321404617,"connected_time":923000000000,"state":"active","ping":66},{"user_id":618,"name":"Brody Yukin","steam_id":76561198084712019,"connected_time":1049000000000,"state":"active","ping":86},{"user_id":619,"name":"josie","steam_id":76561198170848553,"connected_time":1041000000000,"state":"active","ping":46},{"user_id":606,"name":"Thanks Ants","steam_id":76561197966221018,"connected_time":2280000000000,"state":"active","ping":38},{"user_id":484,"name":"lker","steam_id":76561197976975075,"connected_time":12209000000000,"state":"active","ping":113},{"user_id":615,"name":"Luca","steam_id":76561198125087140,"connected_time":1076000000000,"state":"active","ping":46},{"user_id":603,"name":"Pyrotek‚Å¥","steam_id":76561198072747672,"connected_time":2428000000000,"state":"active","ping":86},{"user_id":612,"name":"Banette","steam_id":76561198215458333,"connected_time":1996000000000,"state":"active","ping":48},{"user_id":594,"name":"The_Man","steam_id":76561199194890696,"connected_time":2855000000000,"state":"active","ping":103},{"user_id":628,"name":"DaddyGalaxy","steam_id":76561198139697796,"connected_time":167000000000,"state":"active","ping":59},{"user_id":622,"name":"MyMonkeyBaby","steam_id":76561198046896670,"connected_time":893000000000,"state":"active","ping":45},{"user_id":625,"name":"deadsoon","steam_id":76561198312889455,"connected_time":727000000000,"state":"active","ping":121},{"user_id":627,"name":"fungi@bowie.gg","steam_id":76561198169755734,"connected_time":326000000000,"state":"active","ping":70},{"user_id":544,"name":"baedeker","steam_id":76561199081837220,"connected_time":7553000000000,"state":"active","ping":96}]},{"server_id":119,"name":"Uncletopia | Seattle | 2 | All Maps","name_short":"sea-2","host":"sea-1.us.uncletopia.com","port":27025,"enabled":true,"region":"us-west","cc":"us","latitude":47.608013,"longitude":-122.33517,"reserved":0,"last_update":"0001-01-01T00:00:00Z","name_a2s":"Uncletopia | Seattle | 2 | All Maps","protocol":17,"map":"pl_frontier_final","folder":"tf","game":"Team Fortress","app_id":440,"player_count":24,"max_players":24,"Bots":0,"server_type":"Dedicated","server_os":"Linux","password":true,"vac":true,"version":"7961495","steam_id":85568392924469998,"keywords":["nocrits","nodmgspread","payload","uncletopia"],"game_id":440,"stv_port":27026,"stv_name":"Uncletopia | Seattle | 2 | All Maps | STV","players":[{"user_id":373,"name":"Lily Thorn","steam_id":76561198305488625,"connected_time":1760000000000,"state":"active","ping":56},{"user_id":396,"name":"vacachimuela","steam_id":76561198297332421,"connected_time":102000000000,"state":"active","ping":51},{"user_id":370,"name":"Macho Man","steam_id":76561198062247260,"connected_time":2024000000000,"state":"active","ping":71},{"user_id":318,"name":"alagon","steam_id":76561198312491066,"connected_time":6771000000000,"state":"active","ping":45},{"user_id":325,"name":"worker","steam_id":76561198039608940,"connected_time":6201000000000,"state":"active","ping":54},{"user_id":382,"name":"Mr Beast","steam_id":76561198100385184,"connected_time":1188000000000,"state":"active","ping":100},{"user_id":374,"name":"ju n","steam_id":76561199026569241,"connected_time":1678000000000,"state":"active","ping":161},{"user_id":387,"name":"trackpad gaming | f2p","steam_id":76561198840414371,"connected_time":619000000000,"state":"active","ping":57},{"user_id":386,"name":"lag","steam_id":76561198117898839,"connected_time":883000000000,"state":"active","ping":105},{"user_id":314,"name":"kaeslark1","steam_id":76561199059460838,"connected_time":7071000000000,"state":"active","ping":45},{"user_id":351,"name":"dodecadron","steam_id":76561198027397222,"connected_time":3918000000000,"state":"active","ping":70},{"user_id":389,"name":"FireQuiz","steam_id":76561198107357249,"connected_time":383000000000,"state":"active","ping":44},{"user_id":388,"name":"Useless","steam_id":76561198116079299,"connected_time":425000000000,"state":"active","ping":51},{"user_id":383,"name":"Limp Pumpo Discography Fan Club","steam_id":76561198145748479,"connected_time":1159000000000,"state":"active","ping":56},{"user_id":395,"name":"Angry_p3nguin","steam_id":76561198086275722,"connected_time":159000000000,"state":"active","ping":48},{"user_id":305,"name":"Owls = Government Drones","steam_id":76561198439793697,"connected_time":7766000000000,"state":"active","ping":90},{"user_id":390,"name":"kenZino","steam_id":76561197967971192,"connected_time":378000000000,"state":"active","ping":53},{"user_id":385,"name":"pjrock101","steam_id":76561198070616561,"connected_time":1096000000000,"state":"active","ping":48},{"user_id":397,"name":"Mitzi","steam_id":76561198149907898,"connected_time":8000000000,"state":"spawning","ping":62},{"user_id":350,"name":"KingSquirrel","steam_id":76561198074042752,"connected_time":3968000000000,"state":"active","ping":55},{"user_id":391,"name":"Poundcake","steam_id":76561198042196918,"connected_time":340000000000,"state":"active","ping":48},{"user_id":288,"name":"chanoc","steam_id":76561198026734746,"connected_time":8881000000000,"state":"active","ping":60},{"user_id":393,"name":"2 Point Tom","steam_id":76561198087617008,"connected_time":253000000000,"state":"active","ping":67},{"user_id":377,"name":"Spicy Chicken","steam_id":76561198074209737,"connected_time":1377000000000,"state":"active","ping":91}]},{"server_id":406,"name":"Uncletopia | Seattle | 3 | Stopwatch","name_short":"sea-3","host":"sea-1.us.uncletopia.com","port":27035,"enabled":true,"region":"us-west","cc":"us","latitude":47.608013,"longitude":-122.33517,"reserved":0,"last_update":"0001-01-01T00:00:00Z","name_a2s":"Uncletopia | Seattle | 3 | Stopwatch","protocol":17,"map":"workshop/koth_ashville_final.ugc2130459942","folder":"tf","game":"Team Fortress","app_id":440,"player_count":0,"max_players":24,"Bots":0,"server_type":"Dedicated","server_os":"Linux","password":true,"vac":true,"version":"7961495","steam_id":85568392924515217,"keywords":["cp","nocrits","nodmgspread","uncletopia"],"game_id":440,"stv_port":27036,"stv_name":"Uncletopia | Seattle | 3 | Stopwatch | STV","players":null},{"server_id":17,"name":"Uncletopia | San Francisco | 1 | All Maps","name_short":"sfo-1","host":"sfo-1.us.uncletopia.com","port":27015,"enabled":true,"region":"us-west","cc":"us","latitude":37.77397,"longitude":-122.4313,"reserved":0,"last_update":"0001-01-01T00:00:00Z","name_a2s":"Uncletopia | San Francisco | 1 | All Maps","protocol":17,"map":"pl_upward","folder":"tf","game":"Team Fortress","app_id":440,"player_count":23,"max_players":24,"Bots":0,"server_type":"Dedicated","server_os":"Linux","password":true,"vac":true,"version":"7961495","steam_id":85568392924469999,"keywords":["nocrits","nodmgspread","payload","uncletopia"],"game_id":440,"stv_port":27016,"stv_name":"Uncletopia | San Francisco | 1 | All Maps | STV","players":[{"user_id":430,"name":"Snoopist","steam_id":76561198144023761,"connected_time":168000000000,"state":"active","ping":78},{"user_id":399,"name":"Tenzin Gyatso","steam_id":76561198258980884,"connected_time":2116000000000,"state":"active","ping":78},{"user_id":428,"name":"Piss Man","steam_id":76561199446367874,"connected_time":303000000000,"state":"active","ping":81},{"user_id":426,"name":"avarageguy182","steam_id":76561198331918588,"connected_time":413000000000,"state":"active","ping":90},{"user_id":379,"name":"jamassExD","steam_id":76561198454033607,"connected_time":3454000000000,"state":"active","ping":73},{"user_id":431,"name":"gretchling","steam_id":76561198046111695,"connected_time":160000000000,"state":"active","ping":87},{"user_id":401,"name":"JawnyMac","steam_id":76561198179529599,"connected_time":2079000000000,"state":"active","ping":55},{"user_id":432,"name":"Maid 'n' China","steam_id":76561198423392976,"connected_time":92000000000,"state":"active","ping":73},{"user_id":412,"name":"Kaz","steam_id":76561198394758363,"connected_time":1285000000000,"state":"active","ping":64},{"user_id":433,"name":"i love u","steam_id":76561198062768872,"connected_time":26000000000,"state":"active","ping":64},{"user_id":376,"name":"Shin","steam_id":76561198149886500,"connected_time":3697000000000,"state":"active","ping":115},{"user_id":377,"name":"Pant Nickle","steam_id":76561198268321810,"connected_time":3689000000000,"state":"active","ping":88},{"user_id":434,"name":"erm... krill yourself?","steam_id":76561198095121758,"connected_time":18000000000,"state":"active","ping":44},{"user_id":435,"name":"Khrono691","steam_id":76561198246227600,"connected_time":15000000000,"state":"active","ping":68},{"user_id":429,"name":"Skier","steam_id":76561198119447181,"connected_time":285000000000,"state":"active","ping":73},{"user_id":406,"name":"bubbles","steam_id":76561198040940902,"connected_time":1969000000000,"state":"active","ping":45},{"user_id":436,"name":"Plinko","steam_id":76561197968530638,"connected_time":9000000000,"state":"active","ping":134},{"user_id":411,"name":"Saint Edible","steam_id":76561198054534439,"connected_time":1449000000000,"state":"active","ping":71},{"user_id":416,"name":"Dova","steam_id":76561198079481047,"connected_time":1092000000000,"state":"active","ping":47},{"user_id":437,"name":"pigswill","steam_id":76561197999081865,"connected_time":5000000000,"state":"spawning","ping":119},{"user_id":417,"name":"Orange Mann Bad","steam_id":76561198021126964,"connected_time":1082000000000,"state":"active","ping":69},{"user_id":419,"name":"090-nsalih","steam_id":76561199467467873,"connected_time":817000000000,"state":"active","ping":182},{"user_id":388,"name":"Cats pretend they're smart","steam_id":76561197987182097,"connected_time":3019000000000,"state":"active","ping":58}]},{"server_id":18,"name":"Uncletopia | San Francisco | 2 | All Maps","name_short":"sfo-2","host":"sfo-1.us.uncletopia.com","port":27025,"enabled":true,"region":"us-west","cc":"us","latitude":37.77397,"longitude":-122.4313,"reserved":0,"last_update":"0001-01-01T00:00:00Z","name_a2s":"Uncletopia | San Francisco | 2 | All Maps","protocol":17,"map":"pl_upward","folder":"tf","game":"Team Fortress","app_id":440,"player_count":3,"max_players":24,"Bots":0,"server_type":"Dedicated","server_os":"Linux","password":true,"vac":true,"version":"7961495","steam_id":85568392924470000,"keywords":["nocrits","nodmgspread","payload","uncletopia"],"game_id":440,"stv_port":27026,"stv_name":"Uncletopia | San Francisco | 2 | All Maps | STV","players":[{"user_id":19,"name":"foolishpeacock","steam_id":76561199226652412,"connected_time":866000000000,"state":"active","ping":86},{"user_id":20,"name":"Mom","steam_id":76561198207936000,"connected_time":731000000000,"state":"active","ping":32},{"user_id":22,"name":"God's Drunkest Driver","steam_id":76561199174579733,"connected_time":662000000000,"state":"active","ping":109}]},{"server_id":19,"name":"Uncletopia | San Francisco | 3 | Stopwatch","name_short":"sfo-3","host":"sfo-1.us.uncletopia.com","port":27035,"enabled":true,"region":"us-west","cc":"us","latitude":37.77397,"longitude":-122.4313,"reserved":0,"last_update":"0001-01-01T00:00:00Z","name_a2s":"Uncletopia | San Francisco | 3 | Stopwatch","protocol":17,"map":"workshop/cp_reckoner_rc6.ugc674719999","folder":"tf","game":"Team Fortress","app_id":440,"player_count":0,"max_players":24,"Bots":0,"server_type":"Dedicated","server_os":"Linux","password":true,"vac":true,"version":"7961495","steam_id":85568392924742824,"keywords":["cp","nocrits","nodmgspread","uncletopia"],"game_id":440,"stv_port":27036,"stv_name":"Uncletopia | San Francisco | 3 | Stopwatch | STV","players":null},{"server_id":20,"name":"Uncletopia | San Francisco | 4 | Community","name_short":"sfo-4","host":"sfo-1.us.uncletopia.com","port":27045,"enabled":true,"region":"us-west","cc":"us","latitude":37.77397,"longitude":-122.4313,"reserved":0,"last_update":"0001-01-01T00:00:00Z","name_a2s":"Uncletopia | San Francisco | 4 | Community","protocol":17,"map":"workshop/pl_badwater_pro_v12.ugc2142942074","folder":"tf","game":"Team Fortress","app_id":440,"player_count":23,"max_players":24,"Bots":0,"server_type":"Dedicated","server_os":"Linux","password":true,"vac":true,"version":"7961495","steam_id":85568392924742826,"keywords":["nocrits","nodmgspread","payload","uncletopia"],"game_id":440,"stv_port":27046,"stv_name":"Uncletopia | San Francisco | 4 | Community | STV","players":[{"user_id":10,"name":"Pancake Lizard","steam_id":76561198057311158,"connected_time":3203000000000,"state":"active","ping":73},{"user_id":11,"name":"CurryWeek","steam_id":76561198050890046,"connected_time":2946000000000,"state":"active","ping":60},{"user_id":12,"name":"a familiar cat","steam_id":76561198080046542,"connected_time":2663000000000,"state":"active","ping":60},{"user_id":13,"name":"ilun","steam_id":76561198042913843,"connected_time":2613000000000,"state":"active","ping":75},{"user_id":14,"name":"Wick","steam_id":76561198062996360,"connected_time":2609000000000,"state":"active","ping":70},{"user_id":43,"name":"TheTalentlessChicken","steam_id":76561198148390834,"connected_time":929000000000,"state":"active","ping":67},{"user_id":17,"name":"Hooks Mead","steam_id":76561198081968029,"connected_time":2037000000000,"state":"active","ping":65},{"user_id":55,"name":"DanthePunman","steam_id":76561198453724913,"connected_time":298000000000,"state":"active","ping":122},{"user_id":44,"name":"Master Of Whales","steam_id":76561198349104889,"connected_time":842000000000,"state":"active","ping":79},{"user_id":59,"name":"unit","steam_id":76561198058033361,"connected_time":122000000000,"state":"active","ping":63},{"user_id":22,"name":"type \"bad med\" to kick","steam_id":76561198076402476,"connected_time":1669000000000,"state":"active","ping":71},{"user_id":56,"name":"ohohaye","steam_id":76561198043911164,"connected_time":283000000000,"state":"active","ping":52},{"user_id":51,"name":"goopgrabber","steam_id":76561199029951083,"connected_time":516000000000,"state":"active","ping":45},{"user_id":47,"name":"BlackNailPolish","steam_id":76561198068531582,"connected_time":620000000000,"state":"active","ping":58},{"user_id":48,"name":"Dilf","steam_id":76561198162609605,"connected_time":604000000000,"state":"active","ping":71},{"user_id":34,"name":"tapwater16","steam_id":76561198065347016,"connected_time":1430000000000,"state":"active","ping":51},{"user_id":35,"name":"shtummy","steam_id":76561198271940610,"connected_time":1422000000000,"state":"active","ping":55},{"user_id":36,"name":"butterlordthing???????","steam_id":76561198069745191,"connected_time":1391000000000,"state":"active","ping":70},{"user_id":37,"name":"Master Genius","steam_id":76561198081142123,"connected_time":1386000000000,"state":"active","ping":121},{"user_id":57,"name":"Escapism","steam_id":76561198045302512,"connected_time":242000000000,"state":"active","ping":72},{"user_id":50,"name":"bogdagod","steam_id":76561198286968297,"connected_time":573000000000,"state":"active","ping":62},{"user_id":58,"name":"La()VaJ()86","steam_id":76561198247547042,"connected_time":145000000000,"state":"active","ping":52},{"user_id":42,"name":"chrischrischris3018@yahoo.com","steam_id":76561198137316053,"connected_time":1297000000000,"state":"active","ping":91}]},{"server_id":141,"name":"Uncletopia | Sydney | 1 | All Maps","name_short":"syd-1","host":"syd-1.au.uncletopia.com","port":27015,"enabled":true,"region":"au","cc":"au","latitude":-33.865143,"longitude":151.2099,"reserved":0,"last_update":"0001-01-01T00:00:00Z","name_a2s":"Uncletopia | Sydney | 1 | All Maps","protocol":17,"map":"koth_viaduct","folder":"tf","game":"Team Fortress","app_id":440,"player_count":0,"max_players":24,"Bots":0,"server_type":"Dedicated","server_os":"Linux","password":true,"vac":true,"version":"7961495","steam_id":85568392924470001,"keywords":["cp","nocrits","nodmgspread","uncletopia"],"game_id":440,"stv_port":27016,"stv_name":"Uncletopia | Sydney | 1 | All Maps | STV","players":null},{"server_id":123,"name":"Uncletopia | Sydney | 2 | All Maps","name_short":"syd-2","host":"syd-1.au.uncletopia.com","port":27025,"enabled":true,"region":"au","cc":"au","latitude":-33.865143,"longitude":151.2099,"reserved":0,"last_update":"0001-01-01T00:00:00Z","name_a2s":"Uncletopia | Sydney | 2 | All Maps","protocol":17,"map":"koth_lakeside_final","folder":"tf","game":"Team Fortress","app_id":440,"player_count":0,"max_players":24,"Bots":0,"server_type":"Dedicated","server_os":"Linux","password":true,"vac":true,"version":"7961495","steam_id":85568392924470002,"keywords":["cp","nocrits","nodmgspread","uncletopia"],"game_id":440,"stv_port":27026,"stv_name":"Uncletopia | Sydney | 2 | All Maps | STV","players":null},{"server_id":395,"name":"Uncletopia | Sydney | 3 | All Maps","name_short":"syd-3","host":"syd-1.au.uncletopia.com","port":27035,"enabled":true,"region":"au","cc":"au","latitude":-33.865143,"longitude":151.2099,"reserved":0,"last_update":"0001-01-01T00:00:00Z","name_a2s":"Uncletopia | Sydney | 3 | All Maps","protocol":17,"map":"pl_frontier_final","folder":"tf","game":"Team Fortress","app_id":440,"player_count":3,"max_players":24,"Bots":0,"server_type":"Dedicated","server_os":"Linux","password":true,"vac":true,"version":"7961495","steam_id":85568392925194467,"keywords":["nocrits","nodmgspread","payload","uncletopia"],"game_id":440,"stv_port":27036,"stv_name":"Uncletopia | Sydney | 3 | All Maps | STV","players":[{"user_id":3,"name":"J2PWN","steam_id":76561198409287854,"connected_time":1478000000000,"state":"active","ping":97},{"user_id":4,"name":"Gravitas","steam_id":76561198061391894,"connected_time":991000000000,"state":"active","ping":88},{"user_id":5,"name":"touchem","steam_id":76561199082450690,"connected_time":312000000000,"state":"active","ping":57}]},{"server_id":396,"name":"Uncletopia | Sydney | 4 | All Maps","name_short":"syd-4","host":"syd-1.au.uncletopia.com","port":27045,"enabled":true,"region":"au","cc":"au","latitude":-33.865143,"longitude":151.2099,"reserved":0,"last_update":"0001-01-01T00:00:00Z","name_a2s":"Uncletopia | Sydney | 4 | All Maps","protocol":17,"map":"cp_process_final","folder":"tf","game":"Team Fortress","app_id":440,"player_count":0,"max_players":24,"Bots":0,"server_type":"Dedicated","server_os":"Linux","password":true,"vac":true,"version":"7961495","steam_id":85568392925397958,"keywords":["cp","nocrits","nodmgspread","uncletopia"],"game_id":440,"stv_port":27046,"stv_name":"Uncletopia | Sydney | 4 | All Maps | STV","players":null},{"server_id":58,"name":"Uncletopia | Sydney | 5 | Stopwatch","name_short":"syd-5","host":"syd-1.au.uncletopia.com","port":27055,"enabled":true,"region":"au","cc":"au","latitude":-33.865143,"longitude":151.2099,"reserved":0,"last_update":"0001-01-01T00:00:00Z","name_a2s":"Uncletopia | Sydney | 5 | Stopwatch","protocol":17,"map":"pl_frontier_final","folder":"tf","game":"Team Fortress","app_id":440,"player_count":0,"max_players":24,"Bots":0,"server_type":"Dedicated","server_os":"Linux","password":true,"vac":true,"version":"7961495","steam_id":85568392925397959,"keywords":["nocrits","nodmgspread","payload","uncletopia"],"game_id":440,"stv_port":27056,"stv_name":"Uncletopia | Sydney | 5 | Stopwatch | STV","players":null},{"server_id":59,"name":"Uncletopia | Sydney | 6 | Community","name_short":"syd-6","host":"syd-1.au.uncletopia.com","port":27065,"enabled":true,"region":"au","cc":"au","latitude":-33.865143,"longitude":151.2099,"reserved":0,"last_update":"0001-01-01T00:00:00Z","name_a2s":"Uncletopia | Sydney | 6 | Community","protocol":17,"map":"cp_sunshine","folder":"tf","game":"Team Fortress","app_id":440,"player_count":0,"max_players":24,"Bots":0,"server_type":"Dedicated","server_os":"Linux","password":true,"vac":true,"version":"7961495","steam_id":85568392925397960,"keywords":["cp","nocrits","nodmgspread","uncletopia"],"game_id":440,"stv_port":27066,"stv_name":"Uncletopia | Sydney | 6 | Community | STV","players":null},{"server_id":49,"name":"Uncletopia | Warsaw | 1 | One Thousand Uncles","name_short":"waw-1","host":"waw-1.pl.uncletopia.com","port":27015,"enabled":true,"region":"eu","cc":"pl","latitude":52.2297,"longitude":21.017532,"reserved":0,"last_update":"0001-01-01T00:00:00Z","name_a2s":"Uncletopia | Warsaw | 1 | One Thousand Uncles","protocol":17,"map":"koth_highpass","folder":"tf","game":"Team Fortress","app_id":440,"player_count":0,"max_players":32,"Bots":0,"server_type":"Dedicated","server_os":"Linux","password":true,"vac":true,"version":"7961495","steam_id":85568392925397850,"keywords":["alltalk","cp","danepve","increased_maxplayers","nocrits","norespawntime","uncletopia"],"game_id":440,"stv_port":0,"stv_name":"","players":null},{"server_id":50,"name":"Uncletopia | Warsaw | 2 | One Thousand Uncles","name_short":"waw-2","host":"waw-1.pl.uncletopia.com","port":27025,"enabled":true,"region":"eu","cc":"pl","latitude":52.2297,"longitude":21.017532,"reserved":0,"last_update":"0001-01-01T00:00:00Z","name_a2s":"Uncletopia | Warsaw | 2 | One Thousand Uncles","protocol":17,"map":"pl_goldrush","folder":"tf","game":"Team Fortress","app_id":440,"player_count":0,"max_players":32,"Bots":0,"server_type":"Dedicated","server_os":"Linux","password":true,"vac":true,"version":"7961495","steam_id":85568392925397851,"keywords":["alltalk","danepve","increased_maxplayers","nocrits","norespawntime","payload","uncletopia"],"game_id":440,"stv_port":0,"stv_name":"","players":null},{"server_id":51,"name":"Uncletopia | Warsaw | 3 | All Maps","name_short":"waw-3","host":"waw-1.pl.uncletopia.com","port":27035,"enabled":true,"region":"eu","cc":"pl","latitude":52.2297,"longitude":21.017532,"reserved":0,"last_update":"0001-01-01T00:00:00Z","name_a2s":"Uncletopia | Warsaw | 3 | All Maps","protocol":17,"map":"plr_pipeline","folder":"tf","game":"Team Fortress","app_id":440,"player_count":0,"max_players":24,"Bots":0,"server_type":"Dedicated","server_os":"Linux","password":true,"vac":true,"version":"7961495","steam_id":85568392925397852,"keywords":["nocrits","nodmgspread","payload","uncletopia"],"game_id":440,"stv_port":27036,"stv_name":"Uncletopia | Warsaw | 3 | All Maps | STV","players":null},{"server_id":52,"name":"Uncletopia | Warsaw | 4 | All Maps","name_short":"waw-4","host":"waw-1.pl.uncletopia.com","port":27045,"enabled":true,"region":"eu","cc":"pl","latitude":52.2297,"longitude":21.017532,"reserved":0,"last_update":"0001-01-01T00:00:00Z","name_a2s":"Uncletopia | Warsaw | 4 | All Maps","protocol":17,"map":"cp_coldfront","folder":"tf","game":"Team Fortress","app_id":440,"player_count":0,"max_players":24,"Bots":0,"server_type":"Dedicated","server_os":"Linux","password":true,"vac":true,"version":"7961495","steam_id":85568392925397853,"keywords":["cp","nocrits","nodmgspread","uncletopia"],"game_id":440,"stv_port":27046,"stv_name":"Uncletopia | Warsaw | 4 | All Maps | STV","players":null},{"server_id":53,"name":"Uncletopia | Warsaw | 5 | Stopwatch","name_short":"waw-5","host":"waw-1.pl.uncletopia.com","port":27055,"enabled":true,"region":"eu","cc":"pl","latitude":52.2297,"longitude":21.017532,"reserved":0,"last_update":"0001-01-01T00:00:00Z","name_a2s":"Uncletopia | Warsaw | 5 | Stopwatch","protocol":17,"map":"workshop/koth_bagel_rc6.ugc2514036946","folder":"tf","game":"Team Fortress","app_id":440,"player_count":0,"max_players":24,"Bots":0,"server_type":"Dedicated","server_os":"Linux","password":true,"vac":true,"version":"7961495","steam_id":85568392925397854,"keywords":["cp","nocrits","nodmgspread","uncletopia"],"game_id":440,"stv_port":27056,"stv_name":"Uncletopia | Warsaw | 5 | Stopwatch | STV","players":null},{"server_id":54,"name":"Uncletopia | Warsaw | 6 | Community","name_short":"waw-6","host":"waw-1.pl.uncletopia.com","port":27065,"enabled":true,"region":"eu","cc":"pl","latitude":52.2297,"longitude":21.017532,"reserved":0,"last_update":"0001-01-01T00:00:00Z","name_a2s":"Uncletopia | Warsaw | 6 | Community","protocol":17,"map":"workshop/pl_badwater_pro_v12.ugc2142942074","folder":"tf","game":"Team Fortress","app_id":440,"player_count":0,"max_players":24,"Bots":0,"server_type":"Dedicated","server_os":"Linux","password":true,"vac":true,"version":"7961495","steam_id":85568392925397856,"keywords":["nocrits","nodmgspread","payload","uncletopia"],"game_id":440,"stv_port":27066,"stv_name":"Uncletopia | Warsaw | 6 | Community | STV","players":null}]}