{"status":true,"message":"","result":[{"server_id":9,"name":"Uncletopia | Atlanta | 1 | All Maps","name_short":"atl-1","host":"atl-1.us.uncletopia.com","port":27015,"enabled":true,"region":"us-east","cc":"us","latitude":33.753746,"longitude":-84.38633,"reserved":0,"last_update":"0001-01-01T00:00:00Z","name_a2s":"Uncletopia | Atlanta | 1 | All Maps","protocol":17,"map":"pl_upward","folder":"tf","game":"Team Fortress","app_id":440,"player_count":24,"max_players":24,"Bots":0,"server_type":"Dedicated","server_os":"Linux","password":true,"vac":true,"version":"7757534","steam_id":85568392924469982,"keywords":["nocrits","nodmgspread","payload","uncletopia"],"game_id":440,"stv_port":27016,"stv_name":"Uncletopia | Atlanta | 1 | All Maps | STV","players":[{"user_id":158,"name":"Genetic Komodo","steam_id":76561198174806758,"connected_time":1552000000000,"state":"active","ping":79},{"user_id":128,"name":"cheeks","steam_id":76561197993371179,"connected_time":3343000000000,"state":"active","ping":58},{"user_id":165,"name":"BotchyAlarm8","steam_id":76561198092682129,"connected_time":759000000000,"state":"active","ping":77},{"user_id":159,"name":"Franz","steam_id":76561198041929745,"connected_time":1526000000000,"state":"active","ping":104},{"user_id":127,"name":"shinon","steam_id":76561198373626848,"connected_time":3601000000000,"state":"active","ping":60},{"user_id":166,"name":"Deku Scrublord","steam_id":76561198036602402,"connected_time":749000000000,"state":"active","ping":64},{"user_id":137,"name":"Chaotic Rushu","steam_id":76561198170054407,"connected_time":2544000000000,"state":"active","ping":80},{"user_id":160,"name":"Mr. Klauk","steam_id":76561199085666301,"connected_time":1501000000000,"state":"active","ping":52},{"user_id":157,"name":"lker","steam_id":76561197976975075,"connected_time":1574000000000,"state":"active","ping":38},{"user_id":169,"name":"Pennis the Menace","steam_id":76561198254878037,"connected_time":591000000000,"state":"active","ping":78},{"user_id":151,"name":"jorjor wells","steam_id":76561199073429082,"connected_time":2055000000000,"state":"active","ping":70},{"user_id":150,"name":"Chris Pratt's pocket spaghetti","steam_id":76561198138347045,"connected_time":2090000000000,"state":"active","ping":62},{"user_id":140,"name":"urban legend","steam_id":76561198069188276,"connected_time":2460000000000,"state":"active","ping":84},{"user_id":131,"name":"angelina ajimu enjoyer","steam_id":76561198055407168,"connected_time":3251000000000,"state":"active","ping":51},{"user_id":132,"name":"Mango","steam_id":76561199209533440,"connected_time":3244000000000,"state":"active","ping":77},{"user_id":161,"name":"chexo4","steam_id":76561198150532531,"connected_time":1264000000000,"state":"active","ping":51},{"user_id":164,"name":"Mr.Friendly Reminders","steam_id":76561199067294491,"connected_time":760000000000,"state":"active","ping":66},{"user_id":152,"name":"Demoman With One Joke","steam_id":76561197993467034,"connected_time":2032000000000,"state":"active","ping":75},{"user_id":52,"name":"vitamin","steam_id":76561198277799227,"connected_time":9055000000000,"state":"active","ping":65},{"user_id":153,"name":"old birb man","steam_id":76561199410269097,"connected_time":2029000000000,"state":"active","ping":176},{"user_id":139,"name":"friend me and i will pocket you","steam_id":76561199383789041,"connected_time":2479000000000,"state":"active","ping":168},{"user_id":168,"name":"heimdall","steam_id":76561198069380992,"connected_time":657000000000,"state":"active","ping":81},{"user_id":144,"name":"playing around","steam_id":76561198192543689,"connected_time":2151000000000,"state":"active","ping":91},{"user_id":174,"name":"gasparmx","steam_id":76561197998611994,"connected_time":179000000000,"state":"active","ping":108}]},{"server_id":400,"name":"Uncletopia | Atlanta | 3 | Community","name_short":"atl-3","host":"atl-1.us.uncletopia.com","port":27035,"enabled":true,"region":"us-east","cc":"us","latitude":33.753746,"longitude":-84.38633,"reserved":0,"last_update":"0001-01-01T00:00:00Z","name_a2s":"Uncletopia | Atlanta | 3 | Community","protocol":17,"map":"pl_swiftwater_final1","folder":"tf","game":"Team Fortress","app_id":440,"player_count":1,"max_players":32,"Bots":0,"server_type":"Dedicated","server_os":"Linux","password":true,"vac":true,"version":"7757534","steam_id":85568392924515187,"keywords":["increased_maxplayers","nocrits","nodmgspread","payload","uncletopia"],"game_id":440,"stv_port":27036,"stv_name":"Uncletopia | Atlanta | 3 | Community | STV","players":[{"user_id":4,"name":"awood_08","steam_id":76561199232177074,"connected_time":138000000000,"state":"active","ping":102}]},{"server_id":401,"name":"Uncletopia | Atlanta | 4 | No Payload","name_short":"atl-4","host":"atl-1.us.uncletopia.com","port":27045,"enabled":true,"region":"us-east","cc":"us","latitude":33.753746,"longitude":-84.38633,"reserved":0,"last_update":"0001-01-01T00:00:00Z","name_a2s":"","protocol":0,"map":"","folder":"","game":"","app_id":0,"player_count":0,"max_players":0,"Bots":0,"server_type":"","server_os":"","password":false,"vac":false,"version":"","steam_id":0,"keywords":null,"game_id":0,"stv_port":0,"stv_name":"","players":null},{"server_id":2,"name":"Uncletopia | Chicago | 1 | All Maps","name_short":"chi-1","host":"chi-1.us.uncletopia.com","port":27015,"enabled":true,"region":"us-central","cc":"us","latitude":41.881832,"longitude":-87.62318,"reserved":0,"last_update":"0001-01-01T00:00:00Z","name_a2s":"Uncletopia | Chicago | 1 | All Maps","protocol":17,"map":"pl_barnblitz","folder":"tf","game":"Team Fortress","app_id":440,"player_count":24,"max_players":24,"Bots":0,"server_type":"Dedicated","server_os":"Linux","password":true,"vac":true,"version":"7757534","steam_id":85568392924469984,"keywords":["nocrits","nodmgspread","payload","uncletopia"],"game_id":440,"stv_port":27016,"stv_name":"Uncletopia | Chicago | 1 | All Maps | STV","players":[{"user_id":507,"name":"Yumyumyaz","steam_id":76561198142866179,"connected_time":429000000000,"state":"active","ping":96},{"user_id":500,"name":"‚òºBarracuda‚òº","steam_id":76561198013022083,"connected_time":1048000000000,"state":"active","ping":59},{"user_id":454,"name":"Valeee","steam_id":76561198169897086,"connected_time":3580000000000,"state":"active","ping":125},{"user_id":499,"name":"Superman123389","steam_id":76561198267472539,"connected_time":1054000000000,"state":"active","ping":88},{"user_id":508,"name":"SSBM Pelican","steam_id":76561198040697907,"connected_time":350000000000,"state":"active","ping":62},{"user_id":410,"name":"Gachalover","steam_id":76561199231552074,"connected_time":7266000000000,"state":"active","ping":69},{"user_id":502,"name":"Dark Lord","steam_id":76561198044199150,"connected_time":1013000000000,"state":"active","ping":304},{"user_id":492,"name":"Lightatex","steam_id":76561199068097196,"connected_time":1651000000000,"state":"active","ping":55},{"user_id":503,"name":"pat fusty","steam_id":76561198117181511,"connected_time":1001000000000,"state":"active","ping":56},{"user_id":481,"name":"Macko","steam_id":76561198452005461,"connected_time":2134000000000,"state":"active","ping":79},{"user_id":506,"name":"Eden","steam_id":76561198075587475,"connected_time":966000000000,"state":"active","ping":44},{"user_id":469,"name":"soccernano","steam_id":76561198116633137,"connected_time":2769000000000,"state":"active","ping":60},{"user_id":489,"name":"Rec","steam_id":76561198022813906,"connected_time":1718000000000,"state":"active","ping":52},{"user_id":509,"name":"B45Guy","steam_id":76561198117290531,"connected_time":194000000000,"state":"active","ping":57},{"user_id":493,"name":"I'LL KRUMP WITH YOU SWEETIE","steam_id":76561198146069114,"connected_time":1478000000000,"state":"active","ping":78},{"user_id":442,"name":"ameritech","steam_id":76561198064769089,"connected_time":5230000000000,"state":"active","ping":71},{"user_id":510,"name":"‚àÄ…ê","steam_id":76561198139718219,"connected_time":3000000000,"state":"spawning","ping":57},{"user_id":474,"name":"spring bonnie","steam_id":76561198988350454,"connected_time":2332000000000,"state":"active","ping":156},{"user_id":498,"name":"Candy Sparkles","steam_id":76561198126871264,"connected_time":1250000000000,"state":"active","ping":86},{"user_id":484,"name":"MayoMateo","steam_id":76561198360809933,"connected_time":1976000000000,"state":"active","ping":90},{"user_id":505,"name":"Dispenser (Twan)","steam_id":76561197991064908,"connected_time":989000000000,"state":"active","ping":60},{"user_id":491,"name":"Sarah","steam_id":76561199013702818,"connected_time":1684000000000,"state":"active","ping":104},{"user_id":466,"name":"Hugo","steam_id":76561198045581609,"connected_time":3043000000000,"state":"active","ping":66},{"user_id":391,"name":"yitz","steam_id":76561198375575841,"connected_time":7423000000000,"state":"active","ping":51}]},{"server_id":106,"name":"Uncletopia | Chicago | 2 | All Maps","name_short":"chi-2","host":"chi-1.us.uncletopia.com","port":27025,"enabled":true,"region":"us-central","cc":"us","latitude":41.881832,"longitude":-87.62318,"reserved":0,"last_update":"0001-01-01T00:00:00Z","name_a2s":"Uncletopia | Chicago | 2 | All Maps","protocol":17,"map":"koth_cascade","folder":"tf","game":"Team Fortress","app_id":440,"player_count":0,"max_players":24,"Bots":0,"server_type":"Dedicated","server_os":"Linux","password":true,"vac":true,"version":"7757534","steam_id":85568392924469985,"keywords":["cp","nocrits","nodmgspread","uncletopia"],"game_id":440,"stv_port":27026,"stv_name":"Uncletopia | Chicago | 2 | All Maps | STV","players":null},{"server_id":402,"name":"Uncletopia | Chicago | 3 | All Maps","name_short":"chi-3","host":"chi-1.us.uncletopia.com","port":27035,"enabled":true,"region":"us-central","cc":"us","latitude":41.881832,"longitude":-87.62318,"reserved":0,"last_update":"0001-01-01T00:00:00Z","name_a2s":"Uncletopia | Chicago | 3 | All Maps","protocol":17,"map":"koth_cascade","folder":"tf","game":"Team Fortress","app_id":440,"player_count":0,"max_players":24,"Bots":0,"server_type":"Dedicated","server_os":"Linux","password":true,"vac":true,"version":"7757534","steam_id":85568392924515191,"keywords":["cp","nocrits","nodmgspread","uncletopia"],"game_id":440,"stv_port":27036,"stv_name":"Uncletopia | Chicago | 3 | All Maps | STV","players":null},{"server_id":403,"name":"Uncletopia | Chicago | 4 | All Maps","name_short":"chi-4","host":"chi-1.us.uncletopia.com","port":27045,"enabled":true,"region":"us-central","cc":"us","latitude":41.881832,"longitude":-87.62318,"reserved":0,"last_update":"0001-01-01T00:00:00Z","name_a2s":"Uncletopia | Chicago | 4 | All Maps","protocol":17,"map":"koth_lakeside_final","folder":"tf","game":"Team Fortress","app_id":440,"player_count":0,"max_players":24,"Bots":0,"server_type":"Dedicated","server_os":"Linux","password":true,"vac":true,"version":"7757534","steam_id":85568392924515193,"keywords":["cp","nocrits","nodmgspread","uncletopia"],"game_id":440,"stv_port":27046,"stv_name":"Uncletopia | Chicago | 4 | All Maps | STV","players":null},{"server_id":36,"name":"Uncletopia | Chicago | 5 | All Maps","name_short":"chi-5","host":"chi-2.us.uncletopia.com","port":27015,"enabled":true,"region":"us-central","cc":"us","latitude":41.881832,"longitude":-87.62318,"reserved":0,"last_update":"0001-01-01T00:00:00Z","name_a2s":"Uncletopia | Chicago | 5 | All Maps","protocol":17,"map":"koth_cascade","folder":"tf","game":"Team Fortress","app_id":440,"player_count":8,"max_players":24,"Bots":0,"server_type":"Dedicated","server_os":"Linux","password":true,"vac":true,"version":"7757534","steam_id":85568392924866362,"keywords":["cp","nocrits","nodmgspread","uncletopia"],"game_id":440,"stv_port":27016,"stv_name":"Uncletopia | Chicago | 5 | All Maps | STV","players":[{"user_id":4,"name":"mintongryphon","steam_id":76561199427146067,"connected_time":2169000000000,"state":"active","ping":77},{"user_id":5,"name":"Kalarad","steam_id":76561198981545517,"connected_time":2126000000000,"state":"active","ping":170},{"user_id":17,"name":"CrackedSanity","steam_id":76561198279841251,"connected_time":125000000000,"state":"active","ping":89},{"user_id":15,"name":"Dzhoshua","steam_id":76561198071915251,"connected_time":310000000000,"state":"active","ping":56},{"user_id":16,"name":"Dark Saturday","steam_id":76561198152056777,"connected_time":223000000000,"state":"spawning","ping":118},{"user_id":18,"name":"Effie","steam_id":76561198261842068,"connected_time":89000000000,"state":"active","ping":89},{"user_id":19,"name":"Just A Cat","steam_id":76561199068636836,"connected_time":74000000000,"state":"spawning","ping":50},{"user_id":20,"name":"Scottish meatballs.","steam_id":76561199405759754,"connected_time":62000000000,"state":"active","ping":70}]},{"server_id":37,"name":"Uncletopia | Chicago | 6 | All Maps","name_short":"chi-6","host":"chi-2.us.uncletopia.com","port":27025,"enabled":true,"region":"us-central","cc":"us","latitude":41.881832,"longitude":-87.62318,"reserved":0,"last_update":"0001-01-01T00:00:00Z","name_a2s":"Uncletopia | Chicago | 6 | All Maps","protocol":17,"map":"koth_cascade","folder":"tf","game":"Team Fortress","app_id":440,"player_count":0,"max_players":24,"Bots":0,"server_type":"Dedicated","server_os":"Linux","password":true,"vac":true,"version":"7757534","steam_id":85568392924866363,"keywords":["cp","nocrits","nodmgspread","uncletopia"],"game_id":440,"stv_port":27026,"stv_name":"Uncletopia | Chicago | 6 | All Maps | STV","players":null},{"server_id":38,"name":"Uncletopia | Chicago | 7 | Stopwatch Beta","name_short":"chi-7","host":"chi-2.us.uncletopia.com","port":27035,"enabled":true,"region":"us-central","cc":"us","latitude":41.881832,"longitude":-87.62318,"reserved":0,"last_update":"0001-01-01T00:00:00Z","name_a2s":"Uncletopia | Chicago | 7 | Stopwatch Beta","protocol":17,"map":"pl_upward","folder":"tf","game":"Team Fortress","app_id":440,"player_count":0,"max_players":24,"Bots":0,"server_type":"Dedicated","server_os":"Linux","password":true,"vac":true,"version":"7757534","steam_id":85568392924866364,"keywords":["nocrits","nodmgspread","payload","uncletopia"],"game_id":440,"stv_port":27036,"stv_name":"Uncletopia | Chicago | 7 | Stopwatch Beta | STV","players":null},{"server_id":39,"name":"Uncletopia | Chicago | 8 | Community","name_short":"chi-8","host":"chi-2.us.uncletopia.com","port":27045,"enabled":true,"region":"us-central","cc":"us","latitude":41.881832,"longitude":-87.62318,"reserved":0,"last_update":"0001-01-01T00:00:00Z","name_a2s":"Uncletopia | Chicago | 8 | Community","protocol":17,"map":"pl_barnblitz","folder":"tf","game":"Team Fortress","app_id":440,"player_count":0,"max_players":24,"Bots":0,"server_type":"Dedicated","server_os":"Linux","password":true,"vac":true,"version":"7757534","steam_id":85568392924866365,"keywords":["nocrits","nodmgspread","payload","uncletopia"],"game_id":440,"stv_port":27046,"stv_name":"Uncletopia | Chicago | 8 | Community | STV","players":null},{"server_id":8,"name":"Uncletopia | Dallas | 1 | All Maps","name_short":"dal-1","host":"dal-1.us.uncletopia.com","port":27015,"enabled":true,"region":"us-central","cc":"us","latitude":32.779167,"longitude":-96.80889,"reserved":0,"last_update":"0001-01-01T00:00:00Z","name_a2s":"Uncletopia | Dallas | 1 | All Maps","protocol":17,"map":"pl_pier","folder":"tf","game":"Team Fortress","app_id":440,"player_count":23,"max_players":24,"Bots":0,"server_type":"Dedicated","server_os":"Linux","password":true,"vac":true,"version":"7757534","steam_id":85568392924469986,"keywords":["nocrits","nodmgspread","payload","uncletopia"],"game_id":440,"stv_port":27016,"stv_name":"Uncletopia | Dallas | 1 | All Maps | STV","players":[{"user_id":51,"name":"Mr. Morrow","steam_id":76561198011333701,"connected_time":967000000000,"state":"active","ping":69},{"user_id":63,"name":"The Bull Shark","steam_id":76561198110935781,"connected_time":322000000000,"state":"active","ping":128},{"user_id":60,"name":"Frisk Weatherfield","steam_id":76561198146435800,"connected_time":480000000000,"state":"active","ping":97},{"user_id":10,"name":"Honest Tunnel Salesman","steam_id":76561198059071100,"connected_time":3142000000000,"state":"active","ping":89},{"user_id":43,"name":"ApertureCity","steam_id":76561198004153607,"connected_time":1963000000000,"state":"active","ping":97},{"user_id":46,"name":"Coolshroomish","steam_id":76561199109440924,"connected_time":1744000000000,"state":"active","ping":100},{"user_id":61,"name":"NBA Youngboy","steam_id":76561199118797200,"connected_time":355000000000,"state":"active","ping":47},{"user_id":34,"name":"PingableUsername","steam_id":76561198138760165,"connected_time":2678000000000,"state":"active","ping":67},{"user_id":16,"name":"Omori","steam_id":76561198117991560,"connected_time":3043000000000,"state":"active","ping":60},{"user_id":59,"name":"The 80's","steam_id":76561198997807831,"connected_time":543000000000,"state":"active","ping":96},{"user_id":18,"name":"Axio","steam_id":76561198062072555,"connected_time":3035000000000,"state":"active","ping":84},{"user_id":45,"name":"superx","steam_id":76561198044976613,"connected_time":1761000000000,"state":"active","ping":87},{"user_id":47,"name":"deskmedic","steam_id":76561198295640486,"connected_time":1714000000000,"state":"active","ping":75},{"user_id":21,"name":"Saodde","steam_id":76561198119653709,"connected_time":2977000000000,"state":"active","ping":74},{"user_id":39,"name":"sevanial","steam_id":76561198071532126,"connected_time":2494000000000,"state":"active","ping":58},{"user_id":26,"name":"Sup m8","steam_id":76561198081659121,"connected_time":2844000000000,"state":"active","ping":37},{"user_id":27,"name":"Emma","steam_id":76561198318093783,"connected_time":2834000000000,"state":"active","ping":64},{"user_id":28,"name":"SirArza","steam_id":76561198196214655,"connected_time":2831000000000,"state":"active","ping":76},{"user_id":29,"name":"TheCrimsonAssassin","steam_id":76561198281332259,"connected_time":2821000000000,"state":"active","ping":92},{"user_id":49,"name":"Shamrock Shake Oct.10.2020 @8pm","steam_id":76561198833313201,"connected_time":1544000000000,"state":"active","ping":86},{"user_id":31,"name":"Chimpish","steam_id":76561199263493270,"connected_time":2770000000000,"state":"active","ping":93},{"user_id":38,"name":"sleepy","steam_id":76561198193621693,"connected_time":2651000000000,"state":"active","ping":75},{"user_id":57,"name":"diddy boppin","steam_id":76561198327633561,"connected_time":756000000000,"state":"active","ping":87}]},{"server_id":108,"name":"Uncletopia | Dallas | 2 | All Maps","name_short":"dal-2","host":"dal-1.us.uncletopia.com","port":27025,"enabled":true,"region":"us-central","cc":"us","latitude":32.779167,"longitude":-96.80889,"reserved":0,"last_update":"0001-01-01T00:00:00Z","name_a2s":"Uncletopia | Dallas | 2 | All Maps","protocol":17,"map":"koth_lakeside_final","folder":"tf","game":"Team Fortress","app_id":440,"player_count":0,"max_players":24,"Bots":0,"server_type":"Dedicated","server_os":"Linux","password":true,"vac":true,"version":"7757534","steam_id":85568392924469988,"keywords":["cp","nocrits","nodmgspread","uncletopia"],"game_id":440,"stv_port":27026,"stv_name":"Uncletopia | Dallas | 2 | All Maps | STV","players":null},{"server_id":5,"name":"Uncletopia | Frankfurt | 1 | All Maps","name_short":"frk-1","host":"frk-1.de.uncletopia.com","port":27015,"enabled":true,"region":"eu","cc":"de","latitude":50.110924,"longitude":8.682127,"reserved":0,"last_update":"0001-01-01T00:00:00Z","name_a2s":"Uncletopia | Frankfurt | 1 | All Maps","protocol":17,"map":"cp_steel","folder":"tf","game":"Team Fortress","app_id":440,"player_count":22,"max_players":24,"Bots":0,"server_type":"Dedicated","server_os":"Linux","password":true,"vac":true,"version":"7757534","steam_id":85568392924469989,"keywords":["cp","nocrits","nodmgspread","uncletopia"],"game_id":440,"stv_port":27016,"stv_name":"Uncletopia | Frankfurt | 1 | All Maps | STV","players":[{"user_id":171,"name":"citronous","steam_id":76561198093290934,"connected_time":16055000000000,"state":"spawning","ping":67},{"user_id":312,"name":"\"Sniper_Airlines\"","steam_id":76561198169443647,"connected_time":6221000000000,"state":"active","ping":132},{"user_id":364,"name":"Mingo","steam_id":76561199191245650,"connected_time":2121000000000,"state":"spawning","ping":98},{"user_id":338,"name":"i always miss","steam_id":76561199379233899,"connected_time":3926000000000,"state":"spawning","ping":93},{"user_id":368,"name":"Goshujinsama üåí","steam_id":76561198111706076,"connected_time":2025000000000,"state":"spawning","ping":49},{"user_id":392,"name":"justpixels","steam_id":76561198143717568,"connected_time":12000000000,"state":"spawning","ping":102},{"user_id":353,"name":"Gabriel","steam_id":76561198283934869,"connected_time":2774000000000,"state":"spawning","ping":87},{"user_id":379,"name":"DanteFromDmc5","steam_id":76561198390314734,"connected_time":817000000000,"state":"spawning","ping":44},{"user_id":377,"name":"JohkupohkuXD","steam_id":76561198391108762,"connected_time":1350000000000,"state":"spawning","ping":77},{"user_id":334,"name":"doctor amongus","steam_id":76561199096919345,"connected_time":4314000000000,"state":"spawning","ping":94},{"user_id":387,"name":"VolcanicArts","steam_id":76561198063453246,"connected_time":535000000000,"state":"spawning","ping":339},{"user_id":391,"name":"tanyathsus","steam_id":76561198089522447,"connected_time":198000000000,"state":"spawning","ping":343},{"user_id":393,"name":"Mottinen","steam_id":76561198223868928,"connected_time":5000000000,"state":"spawning","ping":72},{"user_id":381,"name":"BuB@","steam_id":76561198011815735,"connected_time":755000000000,"state":"spawning","ping":72},{"user_id":374,"name":"Burpman","steam_id":76561198022897937,"connected_time":1622000000000,"state":"spawning","ping":45},{"user_id":321,"name":"Master Rizzjitsu","steam_id":76561198263779934,"connected_time":5182000000000,"state":"spawning","ping":89},{"user_id":365,"name":"Jeans Plus","steam_id":76561198052125103,"connected_time":2062000000000,"state":"spawning","ping":49},{"user_id":380,"name":"h1tlex","steam_id":76561198129781465,"connected_time":762000000000,"state":"spawning","ping":65},{"user_id":383,"name":"joebot","steam_id":76561197975606100,"connected_time":690000000000,"state":"spawning","ping":767},{"user_id":389,"name":"Tea","steam_id":76561198799243030,"connected_time":422000000000,"state":"spawning","ping":63},{"user_id":366,"name":"joelttyjoel","steam_id":76561198035036816,"connected_time":2057000000000,"state":"spawning","ping":68},{"user_id":378,"name":"„ÉÜ„Ç§„É´„Çπ","steam_id":76561198022403271,"connected_time":934000000000,"state":"spawning","ping":46}]},{"server_id":110,"name":"Uncletopia | Frankfurt | 2 | All Maps","name_short":"frk-2","host":"frk-1.de.uncletopia.com","port":27025,"enabled":true,"region":"eu","cc":"de","latitude":50.110924,"longitude":8.682127,"reserved":0,"last_update":"0001-01-01T00:00:00Z","name_a2s":"Uncletopia | Frankfurt | 2 | All Maps","protocol":17,"map":"pl_barnblitz","folder":"tf","game":"Team Fortress","app_id":440,"player_count":24,"max_players":24,"Bots":0,"server_type":"Dedicated","server_os":"Linux","password":true,"vac":true,"version":"7757534","steam_id":85568392924469990,"keywords":["nocrits","nodmgspread","payload","uncletopia"],"game_id":440,"stv_port":27026,"stv_name":"Uncletopia | Frankfurt | 2 | All Maps | STV","players":[{"user_id":451,"name":"darktheif54","steam_id":76561198043650119,"connected_time":2283000000000,"state":"active","ping":51},{"user_id":478,"name":"MatesThePlayer","steam_id":76561198066156449,"connected_time":181000000000,"state":"active","ping":60},{"user_id":414,"name":"Fat Pigeon","steam_id":76561198817940142,"connected_time":5484000000000,"state":"active","ping":48},{"user_id":475,"name":"CosminSL","steam_id":76561198055827684,"connected_time":217000000000,"state":"active","ping":76},{"user_id":424,"name":"YuraGreek","steam_id":76561198050182252,"connected_time":4863000000000,"state":"active","ping":72},{"user_id":426,"name":"Udinese Dion","steam_id":76561198067931573,"connected_time":4411000000000,"state":"active","ping":46},{"user_id":469,"name":"Aleeh","steam_id":76561198803034785,"connected_time":852000000000,"state":"active","ping":58},{"user_id":455,"name":"TheBeardedM1G","steam_id":76561198040208946,"connected_time":2017000000000,"state":"active","ping":60},{"user_id":441,"name":"eron","steam_id":76561198063634841,"connected_time":2679000000000,"state":"active","ping":59},{"user_id":476,"name":"Egor Pomidor","steam_id":76561199175688390,"connected_time":212000000000,"state":"active","ping":75},{"user_id":479,"name":"I'm past the point of insanity","steam_id":76561198800954471,"connected_time":153000000000,"state":"active","ping":80},{"user_id":442,"name":"Optimist 50","steam_id":76561198039631442,"connected_time":2539000000000,"state":"active","ping":82},{"user_id":468,"name":"Goliath","steam_id":76561198088583638,"connected_time":891000000000,"state":"active","ping":46},{"user_id":464,"name":"tallen","steam_id":76561198061708595,"connected_time":1449000000000,"state":"active","ping":76},{"user_id":477,"name":"Goga11","steam_id":76561198451145010,"connected_time":199000000000,"state":"active","ping":119},{"user_id":480,"name":"SantiThePug #ReviveTheCaber","steam_id":76561199049615996,"connected_time":126000000000,"state":"active","ping":76},{"user_id":470,"name":"MrPOW","steam_id":76561197978597654,"connected_time":814000000000,"state":"active","ping":62},{"user_id":481,"name":"M4R1O","steam_id":76561198050528464,"connected_time":101000000000,"state":"active","ping":60},{"user_id":482,"name":"Gr√∏nkj√¶r","steam_id":76561198041075280,"connected_time":30000000000,"state":"active","ping":71},{"user_id":483,"name":"C0d3s","steam_id":76561198093907544,"connected_time":25000000000,"state":"active","ping":101},{"user_id":484,"name":"cl","steam_id":76561199436640904,"connected_time":19000000000,"state":"spawning","ping":74},{"user_id":471,"name":"HOTEL LOBBY","steam_id":76561198048250715,"connected_time":803000000000,"state":"active","ping":49},{"user_id":425,"name":"wouris","steam_id":76561198876188003,"connected_time":4592000000000,"state":"active","ping":59},{"user_id":472,"name":"ohm","steam_id":76561198817414001,"connected_time":799000000000,"state":"active","ping":90}]},{"server_id":308,"name":"Uncletopia | Frankfurt | 3 | All Maps","name_short":"frk-3","host":"frk-1.de.uncletopia.com","port":27035,"enabled":true,"region":"eu","cc":"de","latitude":50.110924,"longitude":8.682127,"reserved":0,"last_update":"0001-01-01T00:00:00Z","name_a2s":"Uncletopia | Frankfurt | 3 | All Maps","protocol":17,"map":"pl_frontier_final","folder":"tf","game":"Team Fortress","app_id":440,"player_count":24,"max_players":24,"Bots":0,"server_type":"Dedicated","server_os":"Linux","password":true,"vac":true,"version":"7757534","steam_id":85568392924504274,"keywords":["nocrits","nodmgspread","payload","uncletopia"],"game_id":440,"stv_port":27036,"stv_name":"Uncletopia | Frankfurt | 3 | All Maps | STV","players":[{"user_id":510,"name":"fearlessbot","steam_id":76561199002587064,"connected_time":3597000000000,"state":"active","ping":414},{"user_id":511,"name":"M0rph","steam_id":76561198127339176,"connected_time":3577000000000,"state":"active","ping":57},{"user_id":498,"name":"Gossamer","steam_id":76561198110914300,"connected_time":4590000000000,"state":"active","ping":84},{"user_id":479,"name":"TylowStar","steam_id":76561198357107806,"connected_time":6566000000000,"state":"active","ping":62},{"user_id":525,"name":"wickEd_","steam_id":76561198048068999,"connected_time":2190000000000,"state":"active","ping":135},{"user_id":429,"name":"Hot Bean","steam_id":76561198803639155,"connected_time":9824000000000,"state":"active","ping":88},{"user_id":552,"name":"X45Y","steam_id":76561198112534025,"connected_time":59000000000,"state":"active","ping":44},{"user_id":504,"name":"GuyWithoutAPie","steam_id":76561198054512149,"connected_time":4450000000000,"state":"active","ping":59},{"user_id":488,"name":"N√∂tig","steam_id":76561198150158285,"connected_time":5792000000000,"state":"active","ping":76},{"user_id":512,"name":"Qwerty","steam_id":76561198023525894,"connected_time":3544000000000,"state":"active","ping":72},{"user_id":500,"name":"dirty","steam_id":76561197995572935,"connected_time":4579000000000,"state":"active","ping":71},{"user_id":546,"name":"heyy (with rizz)","steam_id":76561198191291749,"connected_time":561000000000,"state":"active","ping":72},{"user_id":462,"name":"night.s","steam_id":76561198326287823,"connected_time":7644000000000,"state":"active","ping":77},{"user_id":544,"name":"Whore","steam_id":76561198382749493,"connected_time":589000000000,"state":"active","ping":88},{"user_id":513,"name":"dotdotdot","steam_id":76561198057628751,"connected_time":3530000000000,"state":"active","ping":61},{"user_id":543,"name":"101 000 tuns of democracy","steam_id":76561198218257120,"connected_time":637000000000,"state":"active","ping":63},{"user_id":493,"name":"Dasmonson","steam_id":76561199029771850,"connected_time":5385000000000,"state":"active","ping":121},{"user_id":515,"name":"poshto :-)","steam_id":76561198106182078,"connected_time":3493000000000,"state":"active","ping":101},{"user_id":528,"name":"Lyra","steam_id":76561198043601838,"connected_time":2164000000000,"state":"active","ping":61},{"user_id":516,"name":"Daniel Day-Lewis","steam_id":76561198147249160,"connected_time":3492000000000,"state":"active","ping":101},{"user_id":551,"name":"Miss Bari","steam_id":76561198365286092,"connected_time":79000000000,"state":"active","ping":51},{"user_id":532,"name":"Peter Pats","steam_id":76561198418538887,"connected_time":1321000000000,"state":"active","ping":104},{"user_id":545,"name":"Nostradamus","steam_id":76561198349792686,"connected_time":574000000000,"state":"active","ping":67},{"user_id":550,"name":"muehlbacher","steam_id":76561199046112419,"connected_time":124000000000,"state":"active","ping":59}]},{"server_id":309,"name":"Uncletopia | Frankfurt | 4 | All Maps","name_short":"frk-4","host":"frk-1.de.uncletopia.com","port":27045,"enabled":true,"region":"eu","cc":"de","latitude":50.110924,"longitude":8.682127,"reserved":0,"last_update":"0001-01-01T00:00:00Z","name_a2s":"Uncletopia | Frankfurt | 4 | All Maps","protocol":17,"map":"pl_badwater","folder":"tf","game":"Team Fortress","app_id":440,"player_count":24,"max_players":24,"Bots":0,"server_type":"Dedicated","server_os":"Linux","password":true,"vac":true,"version":"7757534","steam_id":85568392924504275,"keywords":["nocrits","nodmgspread","payload","uncletopia"],"game_id":440,"stv_port":27046,"stv_name":"Uncletopia | Frankfurt | 4 | All Maps | STV","players":[{"user_id":158,"name":"my head + the wall = \u003c3","steam_id":76561198058012525,"connected_time":13126000000000,"state":"active","ping":77},{"user_id":306,"name":"NitPig","steam_id":76561198212991935,"connected_time":3015000000000,"state":"active","ping":139},{"user_id":286,"name":"Flight of the Blonde Giraffes","steam_id":76561198451585571,"connected_time":4908000000000,"state":"active","ping":69},{"user_id":335,"name":"Bottom of the barrel terrorist","steam_id":76561198929386604,"connected_time":768000000000,"state":"active","ping":90},{"user_id":323,"name":"Snortman","steam_id":76561199012566222,"connected_time":1804000000000,"state":"active","ping":57},{"user_id":296,"name":"Èõ≤","steam_id":76561198111134021,"connected_time":3923000000000,"state":"active","ping":66},{"user_id":334,"name":"gxoul","steam_id":76561199091006994,"connected_time":840000000000,"state":"active","ping":75},{"user_id":347,"name":"MR DADDY","steam_id":76561198350794663,"connected_time":190000000000,"state":"active","ping":133},{"user_id":270,"name":"Vershal Smershal","steam_id":76561198116223995,"connected_time":6694000000000,"state":"active","ping":58},{"user_id":341,"name":"kreeekz","steam_id":76561198014431602,"connected_time":288000000000,"state":"active","ping":70},{"user_id":328,"name":"gta_sa","steam_id":76561199433578516,"connected_time":1419000000000,"state":"active","ping":76},{"user_id":339,"name":"Yessirskiii","steam_id":76561198179324075,"connected_time":342000000000,"state":"active","ping":73},{"user_id":316,"name":"SIR MEPHEDRONE","steam_id":76561198302623594,"connected_time":2736000000000,"state":"active","ping":91},{"user_id":329,"name":"iki","steam_id":76561198119607160,"connected_time":1405000000000,"state":"active","ping":68},{"user_id":348,"name":"Frylock","steam_id":76561198050292560,"connected_time":69000000000,"state":"active","ping":46},{"user_id":318,"name":"sareena","steam_id":76561198810194062,"connected_time":2539000000000,"state":"active","ping":75},{"user_id":312,"name":"Leszy","steam_id":76561198372172135,"connected_time":2919000000000,"state":"active","ping":60},{"user_id":277,"name":"Mi Manchi","steam_id":76561198171573129,"connected_time":5842000000000,"state":"active","ping":49},{"user_id":313,"name":"caucasian male","steam_id":76561198062107879,"connected_time":2849000000000,"state":"active","ping":76},{"user_id":314,"name":"T K","steam_id":76561198134256917,"connected_time":2821000000000,"state":"active","ping":61},{"user_id":342,"name":"Pablo Gonzales 2009","steam_id":76561199248572372,"connected_time":283000000000,"state":"active","ping":78},{"user_id":331,"name":".Fourbee (4b)","steam_id":76561198249832770,"connected_time":1380000000000,"state":"active","ping":58},{"user_id":350,"name":"GEP Gun","steam_id":76561197981821003,"connected_time":8000000000,"state":"spawning","ping":73},{"user_id":215,"name":"Kvicha Kvaratskhelia","steam_id":76561198179339326,"connected_time":9336000000000,"state":"active","ping":76}]},{"server_id":310,"name":"Uncletopia | Frankfurt | 5 | All Maps","name_short":"frk-5","host":"frk-1.de.uncletopia.com","port":27055,"enabled":true,"region":"eu","cc":"de","latitude":50.110924,"longitude":8.682127,"reserved":0,"last_update":"0001-01-01T00:00:00Z","name_a2s":"Uncletopia | Frankfurt | 5 | All Maps","protocol":17,"map":"koth_viaduct","folder":"tf","game":"Team Fortress","app_id":440,"player_count":0,"max_players":24,"Bots":0,"server_type":"Dedicated","server_os":"Linux","password":true,"vac":true,"version":"7757534","steam_id":85568392924504277,"keywords":["cp","nocrits","nodmgspread","uncletopia"],"game_id":440,"stv_port":27056,"stv_name":"Uncletopia | Frankfurt | 5 | All Maps | STV","players":null},{"server_id":311,"name":"Uncletopia | Frankfurt | 6 | All Maps","name_short":"frk-6","host":"frk-1.de.uncletopia.com","port":27065,"enabled":true,"region":"eu","cc":"de","latitude":50.110924,"longitude":8.682127,"reserved":0,"last_update":"0001-01-01T00:00:00Z","name_a2s":"Uncletopia | Frankfurt | 6 | All Maps","protocol":17,"map":"pl_pier","folder":"tf","game":"Team Fortress","app_id":440,"player_count":24,"max_players":24,"Bots":0,"server_type":"Dedicated","server_os":"Linux","password":true,"vac":true,"version":"7757534","steam_id":85568392924504278,"keywords":["nocrits","nodmgspread","payload","uncletopia"],"game_id":440,"stv_port":27066,"stv_name":"Uncletopia | Frankfurt | 6 | All Maps | STV","players":[{"user_id":163,"name":"kbbq","steam_id":76561198346638308,"connected_time":833000000000,"state":"active","ping":57},{"user_id":130,"name":"big hoops","steam_id":76561198004703799,"connected_time":2243000000000,"state":"active","ping":50},{"user_id":102,"name":"Hussain_144","steam_id":76561198346029208,"connected_time":3804000000000,"state":"active","ping":182},{"user_id":142,"name":"tc_hydro enthusiast","steam_id":76561199200565269,"connected_time":1724000000000,"state":"active","ping":87},{"user_id":156,"name":"Kotlet schabowy","steam_id":76561198048983509,"connected_time":1234000000000,"state":"active","ping":80},{"user_id":161,"name":"H2Orange","steam_id":76561198082128552,"connected_time":853000000000,"state":"active","ping":78},{"user_id":79,"name":"hellrunner","steam_id":76561198205309695,"connected_time":5738000000000,"state":"active","ping":80},{"user_id":120,"name":"Toasty5050","steam_id":76561198073540881,"connected_time":2650000000000,"state":"active","ping":45},{"user_id":170,"name":"MustyXxXNippy","steam_id":76561198124318331,"connected_time":12000000000,"state":"spawning","ping":50},{"user_id":158,"name":"Int3rnet","steam_id":76561198049289285,"connected_time":1203000000000,"state":"active","ping":67},{"user_id":114,"name":"Bob Sacamano","steam_id":76561198085610701,"connected_time":3316000000000,"state":"active","ping":88},{"user_id":128,"name":"dddd","steam_id":76561198120894372,"connected_time":2309000000000,"state":"active","ping":96},{"user_id":97,"name":"Hazzah","steam_id":76561198197242377,"connected_time":4129000000000,"state":"active","ping":64},{"user_id":166,"name":"tralalaOuiOui","steam_id":76561197963471507,"connected_time":745000000000,"state":"active","ping":54},{"user_id":131,"name":"pitbull gaming","steam_id":76561198052412362,"connected_time":2237000000000,"state":"active","ping":68},{"user_id":167,"name":"Gabys","steam_id":76561198282892553,"connected_time":215000000000,"state":"active","ping":74},{"user_id":153,"name":"Creative","steam_id":76561198835034247,"connected_time":1335000000000,"state":"active","ping":80},{"user_id":146,"name":"cockwater","steam_id":76561198209101861,"connected_time":1571000000000,"state":"active","ping":69},{"user_id":92,"name":"Rimx","steam_id":76561198053034840,"connected_time":4673000000000,"state":"active","ping":90},{"user_id":169,"name":"poopcorn","steam_id":76561198435246575,"connected_time":193000000000,"state":"active","ping":60},{"user_id":154,"name":"Luna","steam_id":76561199140738350,"connected_time":1287000000000,"state":"active","ping":59},{"user_id":157,"name":"Sabaman55","steam_id":76561198212267979,"connected_time":1218000000000,"state":"active","ping":153},{"user_id":109,"name":"glyph","steam_id":76561197980736364,"connected_time":3567000000000,"state":"active","ping":77},{"user_id":165,"name":"Ane≈•√°k","steam_id":76561198159294906,"connected_time":783000000000,"state":"active","ping":59}]},{"server_id":23,"name":"Uncletopia | Frankfurt | 7 | Stopwatch Beta","name_short":"frk-7","host":"frk-1.de.uncletopia.com","port":27075,"enabled":true,"region":"eu","cc":"de","latitude":50.110924,"longitude":8.682127,"reserved":0,"last_update":"0001-01-01T00:00:00Z","name_a2s":"Uncletopia | Frankfurt | 7 | Stopwatch Beta","protocol":17,"map":"pl_frontier_final","folder":"tf","game":"Team Fortress","app_id":440,"player_count":0,"max_players":24,"Bots":0,"server_type":"Dedicated","server_os":"Linux","password":true,"vac":true,"version":"7757534","steam_id":85568392924742827,"keywords":["nocrits","nodmgspread","payload","uncletopia"],"game_id":440,"stv_port":27076,"stv_name":"Uncletopia | Frankfurt | 7 | Stopwatch Beta | STV","players":null},{"server_id":24,"name":"Uncletopia | Frankfurt | 8 | Community","name_short":"frk-8","host":"frk-1.de.uncletopia.com","port":27085,"enabled":true,"region":"eu","cc":"de","latitude":50.110924,"longitude":8.682127,"reserved":0,"last_update":"0001-01-01T00:00:00Z","name_a2s":"Uncletopia | Frankfurt | 8 | Community","protocol":17,"map":"workshop/cp_croissant_final.ugc458840209","folder":"tf","game":"Team Fortress","app_id":440,"player_count":4,"max_players":24,"Bots":0,"server_type":"Dedicated","server_os":"Linux","password":true,"vac":true,"version":"7757534","steam_id":85568392924742828,"keywords":["cp","nocrits","nodmgspread","uncletopia"],"game_id":440,"stv_port":27086,"stv_name":"Uncletopia | Frankfurt | 8 | Community | STV","players":[{"user_id":49,"name":"Digio","steam_id":76561199065101964,"connected_time":305000000000,"state":"active","ping":83},{"user_id":18,"name":"Baguette","steam_id":76561199069435825,"connected_time":2357000000000,"state":"active","ping":47},{"user_id":25,"name":"der er myrer under min hud","steam_id":76561198204171871,"connected_time":1407000000000,"state":"active","ping":84},{"user_id":32,"name":"BŒ£NZOIC","steam_id":76561198875665995,"connected_time":1082000000000,"state":"active","ping":79}]},{"server_id":202,"name":"Uncletopia | Hong Kong | 1 | All Maps","name_short":"hgk-1","host":"hgk-1.hk.uncletopia.com","port":27015,"enabled":true,"region":"asia","cc":"hk","latitude":22.302711,"longitude":114.177216,"reserved":0,"last_update":"0001-01-01T00:00:00Z","name_a2s":"Uncletopia | Hong Kong | 1 | All Maps","protocol":17,"map":"pl_barnblitz","folder":"tf","game":"Team Fortress","app_id":440,"player_count":0,"max_players":24,"Bots":0,"server_type":"Dedicated","server_os":"Linux","password":true,"vac":true,"version":"7757534","steam_id":85568392924494504,"keywords":["nocrits","nodmgspread","payload","uncletopia"],"game_id":440,"stv_port":27016,"stv_name":"Uncletopia | Hong Kong | 1 | All Maps | STV","players":null},{"server_id":1,"name":"Uncletopia | Los Angeles | 1 | All Maps","name_short":"lax-1","host":"lax-1.us.uncletopia.com","port":27015,"enabled":true,"region":"us-west","cc":"us","latitude":33.94279,"longitude":-118.41004,"reserved":0,"last_update":"0001-01-01T00:00:00Z","name_a2s":"Uncletopia | Los Angeles | 1 | All Maps","protocol":17,"map":"cp_mountainlab","folder":"tf","game":"Team Fortress","app_id":440,"player_count":4,"max_players":24,"Bots":0,"server_type":"Dedicated","server_os":"Linux","password":true,"vac":true,"version":"7757534","steam_id":85568392924469991,"keywords":["cp","nocrits","nodmgspread","uncletopia"],"game_id":440,"stv_port":27016,"stv_name":"Uncletopia | Los Angeles | 1 | All Maps | STV","players":[{"user_id":4,"name":"Nibotshooter","steam_id":76561199284825579,"connected_time":1378000000000,"state":"active","ping":71},{"user_id":12,"name":"Senko","steam_id":76561198092102097,"connected_time":120000000000,"state":"active","ping":99},{"user_id":10,"name":"my apple pencil has spyware","steam_id":76561198992431850,"connected_time":880000000000,"state":"active","ping":73},{"user_id":9,"name":"Doctor Bear  ï ‚Ä¢·¥•‚Ä¢ î","steam_id":76561197968103161,"connected_time":905000000000,"state":"active","ping":105}]},{"server_id":112,"name":"Uncletopia | Los Angeles | 2 | All Maps","name_short":"lax-2","host":"lax-1.us.uncletopia.com","port":27025,"enabled":true,"region":"us-west","cc":"us","latitude":33.94279,"longitude":-118.41004,"reserved":0,"last_update":"0001-01-01T00:00:00Z","name_a2s":"Uncletopia | Los Angeles | 2 | All Maps","protocol":17,"map":"koth_cascade","folder":"tf","game":"Team Fortress","app_id":440,"player_count":0,"max_players":24,"Bots":0,"server_type":"Dedicated","server_os":"Linux","password":true,"vac":true,"version":"7757534","steam_id":85568392924469992,"keywords":["cp","nocrits","nodmgspread","uncletopia"],"game_id":440,"stv_port":27026,"stv_name":"Uncletopia | Los Angeles | 2 | All Maps | STV","players":null},{"server_id":324,"name":"Uncletopia | Los Angeles | 3 | All Maps","name_short":"lax-3","host":"lax-1.us.uncletopia.com","port":27035,"enabled":true,"region":"us-west","cc":"us","latitude":33.94279,"longitude":-118.41004,"reserved":0,"last_update":"0001-01-01T00:00:00Z","name_a2s":"Uncletopia | Los Angeles | 3 | All Maps","protocol":17,"map":"cp_process_final","folder":"tf","game":"Team Fortress","app_id":440,"player_count":0,"max_players":24,"Bots":0,"server_type":"Dedicated","server_os":"Linux","password":true,"vac":true,"version":"7757534","steam_id":85568392924510198,"keywords":["cp","nocrits","nodmgspread","uncletopia"],"game_id":440,"stv_port":27036,"stv_name":"Uncletopia | Los Angeles | 3 | All Maps | STV","players":null},{"server_id":25,"name":"Uncletopia | Los Angeles | 4 | Stopwatch Beta","name_short":"lax-4","host":"lax-1.us.uncletopia.com","port":27045,"enabled":true,"region":"us-west","cc":"us","latitude":33.94279,"longitude":-118.41004,"reserved":0,"last_update":"0001-01-01T00:00:00Z","name_a2s":"Uncletopia | Los Angeles | 4 | Stopwatch Beta","protocol":17,"map":"pl_frontier_final","folder":"tf","game":"Team Fortress","app_id":440,"player_count":0,"max_players":24,"Bots":0,"server_type":"Dedicated","server_os":"Linux","password":true,"vac":true,"version":"7757534","steam_id":85568392924510199,"keywords":["nocrits","nodmgspread","payload","uncletopia"],"game_id":440,"stv_port":27046,"stv_name":"Uncletopia | Los Angeles | 4 | Stopwatch Beta | STV","players":null},{"server_id":11,"name":"Uncletopia | London | 1 | All Maps","name_short":"lon-1","host":"lon-1.uk.uncletopia.com","port":27015,"enabled":true,"region":"eu","cc":"gb","latitude":51.509865,"longitude":-0.118092,"reserved":0,"last_update":"0001-01-01T00:00:00Z","name_a2s":"Uncletopia | London | 1 | All Maps","protocol":17,"map":"pl_badwater","folder":"tf","game":"Team Fortress","app_id":440,"player_count":24,"max_players":24,"Bots":0,"server_type":"Dedicated","server_os":"Linux","password":true,"vac":true,"version":"7757534","steam_id":85568392924367362,"keywords":["nocrits","nodmgspread","payload","uncletopia"],"game_id":440,"stv_port":27016,"stv_name":"Uncletopia | London | 1 | All Maps | STV","players":[{"user_id":263,"name":"Aaron","steam_id":76561197990046953,"connected_time":2141000000000,"state":"active","ping":63},{"user_id":264,"name":"BierBuikBarry","steam_id":76561198345790498,"connected_time":1851000000000,"state":"active","ping":65},{"user_id":166,"name":"Nexosert","steam_id":76561198941142018,"connected_time":9439000000000,"state":"active","ping":223},{"user_id":258,"name":"MEDiUM","steam_id":76561198112328561,"connected_time":2368000000000,"state":"active","ping":92},{"user_id":289,"name":"Fran","steam_id":76561199070516960,"connected_time":244000000000,"state":"active","ping":75},{"user_id":274,"name":"Shoot me","steam_id":76561198398959735,"connected_time":755000000000,"state":"active","ping":71},{"user_id":184,"name":"Femboy Destroyer","steam_id":76561198848650365,"connected_time":7686000000000,"state":"active","ping":86},{"user_id":204,"name":"Zombi3","steam_id":76561198326290621,"connected_time":6328000000000,"state":"active","ping":66},{"user_id":271,"name":"r06u3","steam_id":76561198254099253,"connected_time":1517000000000,"state":"active","ping":179},{"user_id":214,"name":"Space","steam_id":76561198021572167,"connected_time":6201000000000,"state":"active","ping":47},{"user_id":270,"name":"Stinky64","steam_id":76561198389725889,"connected_time":1552000000000,"state":"active","ping":72},{"user_id":275,"name":"Tony","steam_id":76561198846842029,"connected_time":741000000000,"state":"active","ping":61},{"user_id":286,"name":"AWildTamim","steam_id":76561198048060652,"connected_time":385000000000,"state":"active","ping":39},{"user_id":292,"name":"lizard","steam_id":76561198974014926,"connected_time":106000000000,"state":"active","ping":75},{"user_id":216,"name":"Gimli","steam_id":76561198004149706,"connected_time":6176000000000,"state":"active","ping":71},{"user_id":279,"name":"Scuttle Bucket","steam_id":76561198100910016,"connected_time":697000000000,"state":"active","ping":42},{"user_id":284,"name":"Lag","steam_id":76561198159360376,"connected_time":578000000000,"state":"active","ping":48},{"user_id":280,"name":"Cosmetic brain","steam_id":76561198055936410,"connected_time":681000000000,"state":"active","ping":76},{"user_id":269,"name":"Polo","steam_id":76561197963751673,"connected_time":1597000000000,"state":"active","ping":71},{"user_id":290,"name":"‚ô• Purple Scoot ‚ô• | P.U.R.","steam_id":76561198965998351,"connected_time":220000000000,"state":"active","ping":91},{"user_id":265,"name":"Tohseno","steam_id":76561197995813008,"connected_time":1848000000000,"state":"active","ping":51},{"user_id":272,"name":"qiulongtao","steam_id":76561198977558717,"connected_time":1097000000000,"state":"active","ping":145},{"user_id":250,"name":"wxyz kapƒ±cƒ± izzet","steam_id":76561198241873438,"connected_time":3358000000000,"state":"active","ping":83},{"user_id":211,"name":"Birdseye","steam_id":76561198025852216,"connected_time":6281000000000,"state":"active","ping":56}]},{"server_id":114,"name":"Uncletopia | London | 2 | All Maps","name_short":"lon-2","host":"lon-1.uk.uncletopia.com","port":27025,"enabled":true,"region":"eu","cc":"gb","latitude":51.509865,"longitude":-0.118092,"reserved":0,"last_update":"0001-01-01T00:00:00Z","name_a2s":"Uncletopia | London | 2 | All Maps","protocol":17,"map":"pl_swiftwater_final1","folder":"tf","game":"Team Fortress","app_id":440,"player_count":23,"max_players":24,"Bots":0,"server_type":"Dedicated","server_os":"Linux","password":true,"vac":true,"version":"7757534","steam_id":85568392924470941,"keywords":["nocrits","nodmgspread","payload","uncletopia"],"game_id":440,"stv_port":27026,"stv_name":"Uncletopia | London | 2 | All Maps | STV","players":[{"user_id":75,"name":"reino76","steam_id":76561198068943733,"connected_time":1277000000000,"state":"active","ping":85},{"user_id":104,"name":"Chicker","steam_id":76561198809697283,"connected_time":287000000000,"state":"active","ping":47},{"user_id":81,"name":"SpyCrab  Erik Twice","steam_id":76561198009710309,"connected_time":815000000000,"state":"active","ping":53},{"user_id":78,"name":"mr beast","steam_id":76561198118407436,"connected_time":1252000000000,"state":"active","ping":44},{"user_id":105,"name":"banaynay","steam_id":76561198333549678,"connected_time":4000000000,"state":"spawning","ping":79},{"user_id":70,"name":"edgar","steam_id":76561198212862423,"connected_time":2075000000000,"state":"active","ping":40},{"user_id":102,"name":"-makina","steam_id":76561198273042780,"connected_time":355000000000,"state":"active","ping":75},{"user_id":77,"name":"i...must..kill.all","steam_id":76561198089330547,"connected_time":1269000000000,"state":"active","ping":52},{"user_id":74,"name":"Kaky≈çin Noriaki","steam_id":76561198123809642,"connected_time":1424000000000,"state":"active","ping":126},{"user_id":98,"name":"TheEventGuy","steam_id":76561197972797744,"connected_time":501000000000,"state":"active","ping":67},{"user_id":28,"name":"DrExplosive","steam_id":76561198063678579,"connected_time":4356000000000,"state":"active","ping":56},{"user_id":24,"name":"Wardruna96","steam_id":76561199057083828,"connected_time":4401000000000,"state":"active","ping":81},{"user_id":96,"name":"Swedish Vegan","steam_id":76561198042775020,"connected_time":644000000000,"state":"active","ping":75},{"user_id":67,"name":"the joy of recycling","steam_id":76561198415564349,"connected_time":2567000000000,"state":"active","ping":64},{"user_id":29,"name":"silenk","steam_id":76561198367689055,"connected_time":4349000000000,"state":"active","ping":80},{"user_id":84,"name":"the heavineer tf2","steam_id":76561198990132243,"connected_time":776000000000,"state":"active","ping":58},{"user_id":85,"name":"Big Tings and Dat","steam_id":76561198056790920,"connected_time":774000000000,"state":"active","ping":51},{"user_id":33,"name":"d u k k i","steam_id":76561198071807437,"connected_time":4206000000000,"state":"active","ping":92},{"user_id":90,"name":"the kid named finger","steam_id":76561198449930192,"connected_time":717000000000,"state":"active","ping":112},{"user_id":71,"name":"FLORAL COMPUTING","steam_id":76561199056492130,"connected_time":2012000000000,"state":"active","ping":134},{"user_id":91,"name":"Java_Error","steam_id":76561199050344275,"connected_time":710000000000,"state":"active","ping":91},{"user_id":97,"name":"Equinox","steam_id":76561199055592635,"connected_time":569000000000,"state":"active","ping":49},{"user_id":101,"name":"Wdfrodo","steam_id":76561198985647263,"connected_time":387000000000,"state":"active","ping":56}]},{"server_id":320,"name":"Uncletopia | London | 3 | All Maps","name_short":"lon-3","host":"lon-1.uk.uncletopia.com","port":27035,"enabled":true,"region":"eu","cc":"gb","latitude":51.509865,"longitude":-0.118092,"reserved":0,"last_update":"0001-01-01T00:00:00Z","name_a2s":"Uncletopia | London | 3 | All Maps","protocol":17,"map":"cp_altitude","folder":"tf","game":"Team Fortress","app_id":440,"player_count":23,"max_players":24,"Bots":0,"server_type":"Dedicated","server_os":"Linux","password":true,"vac":true,"version":"7757534","steam_id":85568392924510192,"keywords":["cp","nocrits","nodmgspread","uncletopia"],"game_id":440,"stv_port":27036,"stv_name":"Uncletopia | London | 3 | All Maps | STV","players":[{"user_id":735,"name":"day","steam_id":76561198260265302,"connected_time":108000000000,"state":"active","ping":31},{"user_id":702,"name":"John Fortress","steam_id":76561198043743881,"connected_time":2163000000000,"state":"active","ping":44},{"user_id":716,"name":"trite","steam_id":76561197983765323,"connected_time":906000000000,"state":"active","ping":51},{"user_id":709,"name":"Mr. Mundy","steam_id":76561198132008918,"connected_time":1113000000000,"state":"active","ping":91},{"user_id":736,"name":"kotamine","steam_id":76561198068907991,"connected_time":99000000000,"state":"active","ping":75},{"user_id":737,"name":"Economic crisis","steam_id":76561198063562843,"connected_time":84000000000,"state":"active","ping":65},{"user_id":707,"name":"Hexagon","steam_id":76561198151205758,"connected_time":1512000000000,"state":"active","ping":55},{"user_id":713,"name":"Dr. Funkenstein","steam_id":76561197977816210,"connected_time":1044000000000,"state":"active","ping":61},{"user_id":734,"name":"Archie","steam_id":76561199073056124,"connected_time":137000000000,"state":"active","ping":57},{"user_id":738,"name":"slime ( ,'' w'' )","steam_id":76561198198984282,"connected_time":68000000000,"state":"active","ping":116},{"user_id":739,"name":"SebStuff (REAL)","steam_id":76561199131229161,"connected_time":67000000000,"state":"active","ping":370},{"user_id":724,"name":"Scrample","steam_id":76561198040422830,"connected_time":534000000000,"state":"active","ping":30},{"user_id":718,"name":"gGABEsz","steam_id":76561198117199068,"connected_time":865000000000,"state":"active","ping":75},{"user_id":741,"name":"Dill Killem","steam_id":76561199071571354,"connected_time":21000000000,"state":"active","ping":91},{"user_id":732,"name":"moser23","steam_id":76561197960543171,"connected_time":315000000000,"state":"active","ping":53},{"user_id":740,"name":"Utter Shit","steam_id":76561198020254869,"connected_time":61000000000,"state":"active","ping":48},{"user_id":622,"name":"It's a me Malario","steam_id":76561198176546013,"connected_time":6939000000000,"state":"active","ping":48},{"user_id":727,"name":"Diet Cocaine","steam_id":76561198237767154,"connected_time":501000000000,"state":"active","ping":74},{"user_id":712,"name":"SlwoF√∏","steam_id":76561198049663931,"connected_time":1096000000000,"state":"active","ping":60},{"user_id":729,"name":"GuSkand","steam_id":76561198043775605,"connected_time":452000000000,"state":"active","ping":91},{"user_id":689,"name":"Vic maher","steam_id":76561198097523768,"connected_time":2798000000000,"state":"active","ping":69},{"user_id":730,"name":"SyborgCat","steam_id":76561198286846816,"connected_time":441000000000,"state":"active","ping":87},{"user_id":731,"name":"HAYTAM14","steam_id":76561198970139659,"connected_time":441000000000,"state":"active","ping":125}]},{"server_id":321,"name":"Uncletopia | London | 4 | All Maps","name_short":"lon-4","host":"lon-1.uk.uncletopia.com","port":27045,"enabled":true,"region":"eu","cc":"gb","latitude":51.509865,"longitude":-0.118092,"reserved":0,"last_update":"0001-01-01T00:00:00Z","name_a2s":"Uncletopia | London | 4 | All Maps","protocol":17,"map":"koth_highpass","folder":"tf","game":"Team Fortress","app_id":440,"player_count":0,"max_players":24,"Bots":0,"server_type":"Dedicated","server_os":"Linux","password":true,"vac":true,"version":"7757534","steam_id":85568392924510193,"keywords":["cp","nocrits","nodmgspread","uncletopia"],"game_id":440,"stv_port":27046,"stv_name":"Uncletopia | London | 4 | All Maps | STV","players":null},{"server_id":21,"name":"Uncletopia | London | 5 | All Maps","name_short":"lon-5","host":"lon-1.uk.uncletopia.com","port":27055,"enabled":true,"region":"eu","cc":"gb","latitude":51.509865,"longitude":-0.118092,"reserved":0,"last_update":"0001-01-01T00:00:00Z","name_a2s":"Uncletopia | London | 5 | All Maps","protocol":17,"map":"pl_pier","folder":"tf","game":"Team Fortress","app_id":440,"player_count":19,"max_players":24,"Bots":0,"server_type":"Dedicated","server_os":"Linux","password":true,"vac":true,"version":"7757534","steam_id":85568392924742829,"keywords":["nocrits","nodmgspread","payload","uncletopia"],"game_id":440,"stv_port":27056,"stv_name":"Uncletopia | London | 5 | All Maps | STV","players":[{"user_id":115,"name":"glow","steam_id":76561198086654069,"connected_time":2000000000,"state":"spawning","ping":63},{"user_id":109,"name":"Gideon","steam_id":76561198045132575,"connected_time":53000000000,"state":"spawning","ping":46},{"user_id":47,"name":"KAYDAN","steam_id":76561198817674900,"connected_time":4232000000000,"state":"spawning","ping":92},{"user_id":112,"name":"on1on (pickled)","steam_id":76561197995304137,"connected_time":38000000000,"state":"spawning","ping":62},{"user_id":113,"name":"subway vergil","steam_id":76561199110064166,"connected_time":32000000000,"state":"spawning","ping":92},{"user_id":111,"name":"Spotmonkey","steam_id":76561198003994092,"connected_time":42000000000,"state":"spawning","ping":49},{"user_id":114,"name":"arowin24","steam_id":76561198077342689,"connected_time":29000000000,"state":"spawning","ping":37},{"user_id":55,"name":"Mazata","steam_id":76561198104303163,"connected_time":3778000000000,"state":"spawning","ping":51},{"user_id":110,"name":"Pingutaro","steam_id":76561198112803718,"connected_time":48000000000,"state":"spawning","ping":39},{"user_id":29,"name":"Penis Contortionist","steam_id":76561198073663784,"connected_time":5061000000000,"state":"spawning","ping":47},{"user_id":103,"name":"Dragul","steam_id":76561198032885938,"connected_time":359000000000,"state":"spawning","ping":63},{"user_id":108,"name":"Dr. Sex","steam_id":76561198017693962,"connected_time":115000000000,"state":"spawning","ping":89},{"user_id":77,"name":"clems17","steam_id":76561199420685482,"connected_time":2236000000000,"state":"spawning","ping":68},{"user_id":105,"name":"FoOzTV","steam_id":76561197998636728,"connected_time":332000000000,"state":"spawning","ping":42},{"user_id":102,"name":"Big Benn","steam_id":76561199024168373,"connected_time":363000000000,"state":"spawning","ping":83},{"user_id":83,"name":"Grillem Dafoe","steam_id":76561198306874574,"connected_time":1498000000000,"state":"spawning","ping":57},{"user_id":101,"name":"AsuX","steam_id":76561197990333289,"connected_time":632000000000,"state":"spawning","ping":63},{"user_id":104,"name":"aura","steam_id":76561197991687793,"connected_time":358000000000,"state":"spawning","ping":79},{"user_id":96,"name":"Skyfoogle","steam_id":76561198027177883,"connected_time":824000000000,"state":"spawning","ping":54}]},{"server_id":22,"name":"Uncletopia | London | 6 | All Maps","name_short":"lon-6","host":"lon-1.uk.uncletopia.com","port":27065,"enabled":true,"region":"eu","cc":"gb","latitude":51.509865,"longitude":-0.118092,"reserved":0,"last_update":"0001-01-01T00:00:00Z","name_a2s":"Uncletopia | London | 6 | All Maps","protocol":17,"map":"cp_snakewater_final1","folder":"tf","game":"Team Fortress","app_id":440,"player_count":18,"max_players":24,"Bots":0,"server_type":"Dedicated","server_os":"Linux","password":true,"vac":true,"version":"7757534","steam_id":85568392924742830,"keywords":["cp","nocrits","nodmgspread","uncletopia"],"game_id":440,"stv_port":27066,"stv_name":"Uncletopia | London | 6 | All Maps | STV","players":[{"user_id":262,"name":"Jimberto","steam_id":76561198058379931,"connected_time":992000000000,"state":"active","ping":66},{"user_id":270,"name":"dominus.","steam_id":76561199065917088,"connected_time":651000000000,"state":"active","ping":63},{"user_id":274,"name":"ender45","steam_id":76561198840955715,"connected_time":550000000000,"state":"active","ping":42},{"user_id":258,"name":"tm","steam_id":76561198256619964,"connected_time":1338000000000,"state":"active","ping":76},{"user_id":254,"name":"near dt, mi","steam_id":76561198163244605,"connected_time":1543000000000,"state":"active","ping":76},{"user_id":273,"name":"chris p. bacon","steam_id":76561198023211417,"connected_time":615000000000,"state":"active","ping":51},{"user_id":288,"name":"Michael","steam_id":76561198003146906,"connected_time":1000000000,"state":"spawning","ping":35},{"user_id":281,"name":"Eosson","steam_id":76561198108642113,"connected_time":241000000000,"state":"active","ping":152},{"user_id":233,"name":"e36 1.8","steam_id":76561198134203031,"connected_time":3437000000000,"state":"active","ping":62},{"user_id":278,"name":"Dragco","steam_id":76561198133902802,"connected_time":322000000000,"state":"active","ping":69},{"user_id":279,"name":"SpaceCake","steam_id":76561198151394497,"connected_time":312000000000,"state":"active","ping":86},{"user_id":244,"name":"kill","steam_id":76561198147277460,"connected_time":2694000000000,"state":"active","ping":75},{"user_id":280,"name":"DeSepp","steam_id":76561198063149086,"connected_time":304000000000,"state":"active","ping":57},{"user_id":245,"name":"·óúÀ∞·óú","steam_id":76561198148074472,"connected_time":2686000000000,"state":"active","ping":59},{"user_id":282,"name":"Petight","steam_id":76561197999438798,"connected_time":228000000000,"state":"active","ping":31},{"user_id":285,"name":"Soldoux","steam_id":76561199093055113,"connected_time":160000000000,"state":"active","ping":55},{"user_id":225,"name":"New","steam_id":76561198402195911,"connected_time":3852000000000,"state":"active","ping":133},{"user_id":284,"name":"kaelan!","steam_id":76561198001425310,"connected_time":171000000000,"state":"active","ping":60}]},{"server_id":40,"name":"Uncletopia | London | 7 | No Payload","name_short":"lon-7","host":"lon-1.uk.uncletopia.com","port":27075,"enabled":true,"region":"eu","cc":"gb","latitude":51.509865,"longitude":-0.118092,"reserved":0,"last_update":"0001-01-01T00:00:00Z","name_a2s":"Uncletopia | London | 7 | No Payload","protocol":17,"map":"koth_harvest_final","folder":"tf","game":"Team Fortress","app_id":440,"player_count":0,"max_players":24,"Bots":0,"server_type":"Dedicated","server_os":"Linux","password":true,"vac":true,"version":"7757534","steam_id":85568392924964314,"keywords":["cp","nocrits","nodmgspread","uncletopia"],"game_id":440,"stv_port":27076,"stv_name":"Uncletopia | London | 7 | No Payload | STV","players":null},{"server_id":41,"name":"Uncletopia | London | 8 | Community","name_short":"lon-8","host":"lon-1.uk.uncletopia.com","port":27085,"enabled":true,"region":"eu","cc":"gb","latitude":51.509865,"longitude":-0.118092,"reserved":0,"last_update":"0001-01-01T00:00:00Z","name_a2s":"Uncletopia | London | 8 | Community","protocol":17,"map":"workshop/koth_kemptown_rc1.ugc767410655","folder":"tf","game":"Team Fortress","app_id":440,"player_count":0,"max_players":24,"Bots":0,"server_type":"Dedicated","server_os":"Linux","password":true,"vac":true,"version":"7757534","steam_id":85568392924964315,"keywords":["cp","nocrits","nodmgspread","uncletopia"],"game_id":440,"stv_port":27086,"stv_name":"Uncletopia | London | 8 | Community | STV","players":null},{"server_id":300,"name":"Uncletopia | Montr√©al | 1 | All Maps","name_short":"mtl-1","host":"mtl-1.ca.uncletopia.com","port":27015,"enabled":true,"region":"us-east","cc":"ca","latitude":45.50889,"longitude":-73.56167,"reserved":0,"last_update":"0001-01-01T00:00:00Z","name_a2s":"Uncletopia | Montr√©al | 1 | All Maps","protocol":17,"map":"pl_snowycoast","folder":"tf","game":"Team Fortress","app_id":440,"player_count":0,"max_players":24,"Bots":0,"server_type":"Dedicated","server_os":"Linux","password":true,"vac":true,"version":"7757534","steam_id":85568392924500087,"keywords":["nocrits","nodmgspread","payload","uncletopia"],"game_id":440,"stv_port":27016,"stv_name":"Uncletopia | Montr√©al | 1 | All Maps | STV","players":null},{"server_id":301,"name":"Uncletopia | Montr√©al | 2 | All Maps","name_short":"mtl-2","host":"mtl-1.ca.uncletopia.com","port":27025,"enabled":true,"region":"us-east","cc":"ca","latitude":45.50889,"longitude":-73.56167,"reserved":0,"last_update":"0001-01-01T00:00:00Z","name_a2s":"Uncletopia | Montr√©al | 2 | All Maps","protocol":17,"map":"pl_snowycoast","folder":"tf","game":"Team Fortress","app_id":440,"player_count":0,"max_players":24,"Bots":0,"server_type":"Dedicated","server_os":"Linux","password":true,"vac":true,"version":"7757534","steam_id":85568392924500088,"keywords":["nocrits","nodmgspread","payload","uncletopia"],"game_id":440,"stv_port":27026,"stv_name":"Uncletopia | Montr√©al | 2 | All Maps | STV","players":null},{"server_id":302,"name":"Uncletopia | Montr√©al | 3 | All Maps","name_short":"mtl-3","host":"mtl-1.ca.uncletopia.com","port":27035,"enabled":true,"region":"us-east","cc":"ca","latitude":45.50889,"longitude":-73.56167,"reserved":0,"last_update":"0001-01-01T00:00:00Z","name_a2s":"Uncletopia | Montr√©al | 3 | All Maps","protocol":17,"map":"cp_dustbowl","folder":"tf","game":"Team Fortress","app_id":440,"player_count":0,"max_players":24,"Bots":0,"server_type":"Dedicated","server_os":"Linux","password":true,"vac":true,"version":"7757534","steam_id":85568392924500089,"keywords":["cp","nocrits","nodmgspread","uncletopia"],"game_id":440,"stv_port":27036,"stv_name":"Uncletopia | Montr√©al | 3 | All Maps | STV","players":null},{"server_id":303,"name":"Uncletopia | Montr√©al | 4 | No Payload","name_short":"mtl-4","host":"mtl-1.ca.uncletopia.com","port":27045,"enabled":true,"region":"us-east","cc":"ca","latitude":45.50889,"longitude":-73.56167,"reserved":0,"last_update":"0001-01-01T00:00:00Z","name_a2s":"Uncletopia | Montr√©al | 4 | No Payload","protocol":17,"map":"pl_borneo","folder":"tf","game":"Team Fortress","app_id":440,"player_count":0,"max_players":24,"Bots":0,"server_type":"Dedicated","server_os":"Linux","password":true,"vac":true,"version":"7757534","steam_id":85568392924500090,"keywords":["nocrits","nodmgspread","payload","uncletopia"],"game_id":440,"stv_port":27046,"stv_name":"Uncletopia | Montr√©al | 4 | No Payload | STV","players":null},{"server_id":13,"name":"Uncletopia | New York City | 1 | All Maps","name_short":"nyc-1","host":"nyc-1.us.uncletopia.com","port":27015,"enabled":true,"region":"us-east","cc":"us","latitude":40.73061,"longitude":-73.93524,"reserved":0,"last_update":"0001-01-01T00:00:00Z","name_a2s":"Uncletopia | New York City | 1 | All Maps","protocol":17,"map":"koth_viaduct","folder":"tf","game":"Team Fortress","app_id":440,"player_count":12,"max_players":24,"Bots":0,"server_type":"Dedicated","server_os":"Linux","password":true,"vac":true,"version":"7757534","steam_id":85568392924469993,"keywords":["cp","nocrits","nodmgspread","uncletopia"],"game_id":440,"stv_port":27016,"stv_name":"Uncletopia | New York City | 1 | All Maps | STV","players":[{"user_id":23,"name":"Nice21","steam_id":76561199427548141,"connected_time":2500000000000,"state":"active","ping":70},{"user_id":24,"name":"yer_nerd","steam_id":76561199435454093,"connected_time":2334000000000,"state":"active","ping":59},{"user_id":29,"name":"ShadBad","steam_id":76561198248287390,"connected_time":1587000000000,"state":"active","ping":130},{"user_id":32,"name":"heavy who says pootis in spawn","steam_id":76561198115874625,"connected_time":813000000000,"state":"active","ping":47},{"user_id":33,"name":"Chechens Spotted","steam_id":76561199028910893,"connected_time":726000000000,"state":"active","ping":72},{"user_id":34,"name":"CakeBlock","steam_id":76561198067238228,"connected_time":678000000000,"state":"active","ping":49},{"user_id":40,"name":"you should sleep naked","steam_id":76561198103496593,"connected_time":158000000000,"state":"active","ping":60},{"user_id":41,"name":"DerpFamous","steam_id":76561198046167888,"connected_time":99000000000,"state":"active","ping":58},{"user_id":37,"name":"The Muffin Man","steam_id":76561199088286427,"connected_time":561000000000,"state":"active","ping":114},{"user_id":42,"name":"iru","steam_id":76561198355068405,"connected_time":97000000000,"state":"active","ping":60},{"user_id":45,"name":"rlty","steam_id":76561198009395055,"connected_time":7000000000,"state":"active","ping":134},{"user_id":44,"name":"DankMemer","steam_id":76561199057017123,"connected_time":70000000000,"state":"active","ping":91}]},{"server_id":14,"name":"Uncletopia | New York City | 2 | All Maps","name_short":"nyc-2","host":"nyc-1.us.uncletopia.com","port":27025,"enabled":true,"region":"us-east","cc":"us","latitude":40.73061,"longitude":-73.93524,"reserved":0,"last_update":"0001-01-01T00:00:00Z","name_a2s":"Uncletopia | New York City | 2 | All Maps","protocol":17,"map":"pl_pier","folder":"tf","game":"Team Fortress","app_id":440,"player_count":24,"max_players":24,"Bots":0,"server_type":"Dedicated","server_os":"Linux","password":true,"vac":true,"version":"7757534","steam_id":85568392924469994,"keywords":["nocrits","nodmgspread","payload","uncletopia"],"game_id":440,"stv_port":27026,"stv_name":"Uncletopia | New York City | 2 | All Maps | STV","players":[{"user_id":178,"name":"hydrationing","steam_id":76561199429069267,"connected_time":284000000000,"state":"active","ping":66},{"user_id":87,"name":"puppyonline_","steam_id":76561198253574099,"connected_time":6407000000000,"state":"active","ping":69},{"user_id":79,"name":"breesey","steam_id":76561198341658826,"connected_time":6698000000000,"state":"active","ping":43},{"user_id":151,"name":"Rex","steam_id":76561198138365053,"connected_time":1801000000000,"state":"active","ping":122},{"user_id":130,"name":"Neoplix","steam_id":76561199012756422,"connected_time":2961000000000,"state":"active","ping":61},{"user_id":160,"name":"ALL HAIL SADDAM","steam_id":76561198828522501,"connected_time":1099000000000,"state":"active","ping":67},{"user_id":170,"name":"Sir Quacksalot","steam_id":76561198048942777,"connected_time":404000000000,"state":"active","ping":92},{"user_id":163,"name":"OrphanObliterator","steam_id":76561199185087795,"connected_time":1040000000000,"state":"active","ping":127},{"user_id":121,"name":"CeigeBirb","steam_id":76561198068538473,"connected_time":3687000000000,"state":"active","ping":92},{"user_id":142,"name":"Rockguy21","steam_id":76561198121303359,"connected_time":2217000000000,"state":"active","ping":62},{"user_id":172,"name":"gromit","steam_id":76561198037746805,"connected_time":379000000000,"state":"active","ping":56},{"user_id":162,"name":"ENA","steam_id":76561198057457396,"connected_time":1041000000000,"state":"active","ping":84},{"user_id":57,"name":"bingle","steam_id":76561197997139225,"connected_time":8787000000000,"state":"active","ping":50},{"user_id":95,"name":"Viokik","steam_id":76561198408846602,"connected_time":5893000000000,"state":"active","ping":60},{"user_id":173,"name":"Cookie","steam_id":76561198047736899,"connected_time":370000000000,"state":"active","ping":34},{"user_id":176,"name":"Sink","steam_id":76561198192420249,"connected_time":321000000000,"state":"active","ping":87},{"user_id":136,"name":"Shock Trooper","steam_id":76561199086731683,"connected_time":2748000000000,"state":"active","ping":52},{"user_id":140,"name":"wolf_71","steam_id":76561198963570945,"connected_time":2360000000000,"state":"active","ping":103},{"user_id":169,"name":"Braamklauw","steam_id":76561198283287697,"connected_time":530000000000,"state":"active","ping":149},{"user_id":168,"name":"TheGrassMan (He/Him)","steam_id":76561198118984048,"connected_time":860000000000,"state":"active","ping":70},{"user_id":126,"name":"Fluffeline","steam_id":76561198352909489,"connected_time":3480000000000,"state":"active","ping":150},{"user_id":154,"name":"OpenDown","steam_id":76561198064132688,"connected_time":1415000000000,"state":"active","ping":72},{"user_id":180,"name":"Bother","steam_id":76561198336750909,"connected_time":73000000000,"state":"spawning","ping":37},{"user_id":177,"name":"4d4","steam_id":76561198402360789,"connected_time":320000000000,"state":"active","ping":68}]},{"server_id":15,"name":"Uncletopia | New York City | 3 | Stopwatch Beta","name_short":"nyc-3","host":"nyc-1.us.uncletopia.com","port":27035,"enabled":true,"region":"us-east","cc":"us","latitude":40.73061,"longitude":-73.93524,"reserved":0,"last_update":"0001-01-01T00:00:00Z","name_a2s":"Uncletopia | New York City | 3 | Stopwatch Beta","protocol":17,"map":"cp_snakewater_final1","folder":"tf","game":"Team Fortress","app_id":440,"player_count":0,"max_players":24,"Bots":0,"server_type":"Dedicated","server_os":"Linux","password":true,"vac":true,"version":"7757534","steam_id":85568392924742820,"keywords":["cp","nocrits","nodmgspread","uncletopia"],"game_id":440,"stv_port":27036,"stv_name":"Uncletopia | New York City | 3 | Stopwatch Beta | STV","players":null},{"server_id":16,"name":"Uncletopia | New York City | 4 | Community","name_short":"nyc-4","host":"nyc-1.us.uncletopia.com","port":27045,"enabled":true,"region":"us-east","cc":"us","latitude":40.73061,"longitude":-73.93524,"reserved":0,"last_update":"0001-01-01T00:00:00Z","name_a2s":"Uncletopia | New York City | 4 | Community","protocol":17,"map":"workshop/cp_logjam_rc12.ugc454812035","folder":"tf","game":"Team Fortress","app_id":440,"player_count":0,"max_players":24,"Bots":0,"server_type":"Dedicated","server_os":"Linux","password":true,"vac":true,"version":"7757534","steam_id":85568392924742821,"keywords":["cp","nocrits","nodmgspread","uncletopia"],"game_id":440,"stv_port":27046,"stv_name":"Uncletopia | New York City | 4 | Community | STV","players":null},{"server_id":142,"name":"Uncletopia | S√£o Paulo | 1 | All Maps","name_short":"sao-1","host":"sao-1.br.uncletopia.com","port":27015,"enabled":true,"region":"sa","cc":"br","latitude":-23.533773,"longitude":-46.62529,"reserved":0,"last_update":"0001-01-01T00:00:00Z","name_a2s":"Uncletopia | S√£o Paulo | 1 | All Maps","protocol":17,"map":"koth_cascade","folder":"tf","game":"Team Fortress","app_id":440,"player_count":0,"max_players":24,"Bots":0,"server_type":"Dedicated","server_os":"Linux","password":true,"vac":true,"version":"7757534","steam_id":85568392924469996,"keywords":["cp","nocrits","nodmgspread","uncletopia"],"game_id":440,"stv_port":27016,"stv_name":"Uncletopia | S√£o Paulo | 1 | All Maps | STV","players":null},{"server_id":143,"name":"Uncletopia | S√£o Paulo | 2 | All Maps","name_short":"sao-2","host":"sao-2.br.uncletopia.com","port":27015,"enabled":true,"region":"sa","cc":"br","latitude":-23.533773,"longitude":-46.62529,"reserved":0,"last_update":"0001-01-01T00:00:00Z","name_a2s":"Uncletopia | S√£o Paulo | 2 | All Maps","protocol":17,"map":"koth_viaduct","folder":"tf","game":"Team Fortress","app_id":440,"player_count":1,"max_players":24,"Bots":0,"server_type":"Dedicated","server_os":"Linux","password":true,"vac":true,"version":"7757534","steam_id":85568392924485349,"keywords":["cp","nocrits","nodmgspread","uncletopia"],"game_id":440,"stv_port":27016,"stv_name":"Uncletopia | S√£o Paulo | 2 | All Maps | STV","players":[{"user_id":18,"name":"ARK","steam_id":76561198253139686,"connected_time":85000000000,"state":"active","ping":84}]},{"server_id":7,"name":"Uncletopia | Seattle | 1 | All Maps","name_short":"sea-1","host":"sea-1.us.uncletopia.com","port":27015,"enabled":true,"region":"us-west","cc":"us","latitude":47.608013,"longitude":-122.33517,"reserved":0,"last_update":"0001-01-01T00:00:00Z","name_a2s":"Uncletopia | Seattle | 1 | All Maps","protocol":17,"map":"pl_upward","folder":"tf","game":"Team Fortress","app_id":440,"player_count":24,"max_players":24,"Bots":0,"server_type":"Dedicated","server_os":"Linux","password":true,"vac":true,"version":"7757534","steam_id":85568392924469997,"keywords":["nocrits","nodmgspread","payload","uncletopia"],"game_id":440,"stv_port":27016,"stv_name":"Uncletopia | Seattle | 1 | All Maps | STV","players":[{"user_id":199,"name":"white obama","steam_id":76561199465040669,"connected_time":2126000000000,"state":"active","ping":47},{"user_id":215,"name":"Jorge_dude_2008","steam_id":76561198870649125,"connected_time":600000000000,"state":"active","ping":241},{"user_id":209,"name":"pat back","steam_id":76561198347225801,"connected_time":1054000000000,"state":"active","ping":55},{"user_id":120,"name":"Batso","steam_id":76561198106589452,"connected_time":6962000000000,"state":"active","ping":84},{"user_id":179,"name":"cactus eater","steam_id":76561199107499844,"connected_time":3135000000000,"state":"active","ping":90},{"user_id":220,"name":"Cobalt-60","steam_id":76561199121908507,"connected_time":63000000000,"state":"active","ping":127},{"user_id":203,"name":"UndeadZomboy","steam_id":76561198048425072,"connected_time":1534000000000,"state":"active","ping":73},{"user_id":222,"name":"PyroTechno","steam_id":76561198060929872,"connected_time":31000000000,"state":"spawning","ping":93},{"user_id":111,"name":"TheMagicMrWaffle","steam_id":76561198104357256,"connected_time":7649000000000,"state":"active","ping":65},{"user_id":204,"name":"GlizzLord","steam_id":76561198321010427,"connected_time":1283000000000,"state":"active","ping":97},{"user_id":217,"name":"Bailster","steam_id":76561198091530428,"connected_time":195000000000,"state":"active","ping":80},{"user_id":172,"name":"Mom","steam_id":76561198207936000,"connected_time":3667000000000,"state":"active","ping":60},{"user_id":221,"name":"ShredMaan","steam_id":76561198429982138,"connected_time":56000000000,"state":"active","ping":85},{"user_id":188,"name":"Malevo","steam_id":76561198148606522,"connected_time":2771000000000,"state":"active","ping":117},{"user_id":208,"name":"Moon Sugar Dealer","steam_id":76561198095634877,"connected_time":1084000000000,"state":"active","ping":96},{"user_id":181,"name":"worker","steam_id":76561198039608940,"connected_time":3066000000000,"state":"active","ping":57},{"user_id":200,"name":"Spirit","steam_id":76561199069322627,"connected_time":1907000000000,"state":"active","ping":128},{"user_id":190,"name":"Decimus","steam_id":76561198341781527,"connected_time":2639000000000,"state":"active","ping":132},{"user_id":207,"name":"Mr8bittripper","steam_id":76561198133894229,"connected_time":1109000000000,"state":"active","ping":58},{"user_id":210,"name":"Delacroix","steam_id":76561198842964669,"connected_time":1046000000000,"state":"active","ping":112},{"user_id":211,"name":"FIRETROOP277","steam_id":76561198418201110,"connected_time":1042000000000,"state":"active","ping":102},{"user_id":219,"name":"Hassium","steam_id":76561198162541373,"connected_time":77000000000,"state":"active","ping":58},{"user_id":212,"name":"glowhan","steam_id":76561198412353895,"connected_time":955000000000,"state":"active","ping":43},{"user_id":214,"name":"Legendary Gunther","steam_id":76561198441804455,"connected_time":893000000000,"state":"active","ping":108}]},{"server_id":119,"name":"Uncletopia | Seattle | 2 | All Maps","name_short":"sea-2","host":"sea-1.us.uncletopia.com","port":27025,"enabled":true,"region":"us-west","cc":"us","latitude":47.608013,"longitude":-122.33517,"reserved":0,"last_update":"0001-01-01T00:00:00Z","name_a2s":"Uncletopia | Seattle | 2 | All Maps","protocol":17,"map":"pl_badwater","folder":"tf","game":"Team Fortress","app_id":440,"player_count":24,"max_players":24,"Bots":0,"server_type":"Dedicated","server_os":"Linux","password":true,"vac":true,"version":"7757534","steam_id":85568392924469998,"keywords":["nocrits","nodmgspread","payload","uncletopia"],"game_id":440,"stv_port":27026,"stv_name":"Uncletopia | Seattle | 2 | All Maps | STV","players":[{"user_id":307,"name":"Vortiger","steam_id":76561198275813176,"connected_time":568000000000,"state":"active","ping":73},{"user_id":296,"name":"Prime","steam_id":76561198218218705,"connected_time":1149000000000,"state":"active","ping":80},{"user_id":252,"name":"sara, boylady","steam_id":76561198283462369,"connected_time":4407000000000,"state":"active","ping":84},{"user_id":285,"name":"jimme mr breast","steam_id":76561198881144114,"connected_time":1750000000000,"state":"active","ping":47},{"user_id":292,"name":"tobrehto","steam_id":76561198097544038,"connected_time":1287000000000,"state":"active","ping":90},{"user_id":293,"name":"Sugary","steam_id":76561198088267265,"connected_time":1282000000000,"state":"active","ping":90},{"user_id":284,"name":"yomommasabitch","steam_id":76561198323217150,"connected_time":1952000000000,"state":"active","ping":90},{"user_id":256,"name":"Alex Narex","steam_id":76561198814364412,"connected_time":4186000000000,"state":"active","ping":78},{"user_id":295,"name":"picea","steam_id":76561198134664196,"connected_time":1239000000000,"state":"active","ping":63},{"user_id":257,"name":"DarkForce8","steam_id":76561198853892261,"connected_time":4176000000000,"state":"active","ping":90},{"user_id":298,"name":"Screwwie","steam_id":76561198006892781,"connected_time":919000000000,"state":"active","ping":59},{"user_id":289,"name":"Eko Eko Azarak","steam_id":76561198002073869,"connected_time":1539000000000,"state":"active","ping":81},{"user_id":299,"name":"Gr8butnotreally","steam_id":76561198133924450,"connected_time":868000000000,"state":"active","ping":93},{"user_id":308,"name":"trackpad gaming | f2p","steam_id":76561198840414371,"connected_time":258000000000,"state":"active","ping":50},{"user_id":301,"name":"‚úø PoutyBun ‚úø","steam_id":76561197965762847,"connected_time":852000000000,"state":"active","ping":43},{"user_id":258,"name":"Ed Sheeran rapping","steam_id":76561198200485827,"connected_time":4130000000000,"state":"active","ping":36},{"user_id":294,"name":"gravy","steam_id":76561198089644778,"connected_time":1282000000000,"state":"active","ping":85},{"user_id":278,"name":"yeeye","steam_id":76561198094306054,"connected_time":2435000000000,"state":"active","ping":113},{"user_id":303,"name":"The Lelda of Zelda","steam_id":76561199120483390,"connected_time":835000000000,"state":"active","ping":126},{"user_id":309,"name":"-Citizen-","steam_id":76561198353802609,"connected_time":196000000000,"state":"active","ping":81},{"user_id":265,"name":"oil","steam_id":76561198099980149,"connected_time":3528000000000,"state":"active","ping":75},{"user_id":272,"name":"gamer_hater","steam_id":76561198973306314,"connected_time":3073000000000,"state":"active","ping":76},{"user_id":270,"name":"Samus","steam_id":76561198121933439,"connected_time":3188000000000,"state":"active","ping":135},{"user_id":282,"name":"Kugen","steam_id":76561198067686692,"connected_time":2129000000000,"state":"active","ping":238}]},{"server_id":406,"name":"Uncletopia | Seattle | 3 | Stopwatch Beta","name_short":"sea-3","host":"sea-1.us.uncletopia.com","port":27035,"enabled":true,"region":"us-west","cc":"us","latitude":47.608013,"longitude":-122.33517,"reserved":0,"last_update":"0001-01-01T00:00:00Z","name_a2s":"Uncletopia | Seattle | 3 | Stopwatch Beta","protocol":17,"map":"cp_metalworks","folder":"tf","game":"Team Fortress","app_id":440,"player_count":0,"max_players":24,"Bots":0,"server_type":"Dedicated","server_os":"Linux","password":true,"vac":true,"version":"7757534","steam_id":85568392924515217,"keywords":["cp","nocrits","nodmgspread","uncletopia"],"game_id":440,"stv_port":27036,"stv_name":"Uncletopia | Seattle | 3 | Stopwatch Beta | STV","players":null},{"server_id":17,"name":"Uncletopia | San Francisco | 1 | All Maps","name_short":"sfo-1","host":"sfo-1.us.uncletopia.com","port":27015,"enabled":true,"region":"us-west","cc":"us","latitude":37.77397,"longitude":-122.4313,"reserved":0,"last_update":"0001-01-01T00:00:00Z","name_a2s":"Uncletopia | San Francisco | 1 | All Maps","protocol":17,"map":"cp_process_final","folder":"tf","game":"Team Fortress","app_id":440,"player_count":0,"max_players":24,"Bots":0,"server_type":"Dedicated","server_os":"Linux","password":true,"vac":true,"version":"7757534","steam_id":85568392924469999,"keywords":["cp","nocrits","nodmgspread","uncletopia"],"game_id":440,"stv_port":27016,"stv_name":"Uncletopia | San Francisco | 1 | All Maps | STV","players":null},{"server_id":18,"name":"Uncletopia | San Francisco | 2 | All Maps","name_short":"sfo-2","host":"sfo-1.us.uncletopia.com","port":27025,"enabled":true,"region":"us-west","cc":"us","latitude":37.77397,"longitude":-122.4313,"reserved":0,"last_update":"0001-01-01T00:00:00Z","name_a2s":"Uncletopia | San Francisco | 2 | All Maps","protocol":17,"map":"pl_swiftwater_final1","folder":"tf","game":"Team Fortress","app_id":440,"player_count":0,"max_players":24,"Bots":0,"server_type":"Dedicated","server_os":"Linux","password":true,"vac":true,"version":"7757534","steam_id":85568392924470000,"keywords":["nocrits","nodmgspread","payload","uncletopia"],"game_id":440,"stv_port":27026,"stv_name":"Uncletopia | San Francisco | 2 | All Maps | STV","players":null},{"server_id":19,"name":"Uncletopia | San Francisco | 3 | Stopwatch Beta","name_short":"sfo-3","host":"sfo-1.us.uncletopia.com","port":27035,"enabled":true,"region":"us-west","cc":"us","latitude":37.77397,"longitude":-122.4313,"reserved":0,"last_update":"0001-01-01T00:00:00Z","name_a2s":"Uncletopia | San Francisco | 3 | Stopwatch Beta","protocol":17,"map":"pl_borneo","folder":"tf","game":"Team Fortress","app_id":440,"player_count":0,"max_players":24,"Bots":0,"server_type":"Dedicated","server_os":"Linux","password":true,"vac":true,"version":"7757534","steam_id":85568392924742824,"keywords":["nocrits","nodmgspread","payload","uncletopia"],"game_id":440,"stv_port":27036,"stv_name":"Uncletopia | San Francisco | 3 | Stopwatch Beta | STV","players":null},{"server_id":20,"name":"Uncletopia | San Francisco | 4 | Community","name_short":"sfo-4","host":"sfo-1.us.uncletopia.com","port":27045,"enabled":true,"region":"us-west","cc":"us","latitude":37.77397,"longitude":-122.4313,"reserved":0,"last_update":"0001-01-01T00:00:00Z","name_a2s":"Uncletopia | San Francisco | 4 | Community","protocol":17,"map":"koth_highpass","folder":"tf","game":"Team Fortress","app_id":440,"player_count":0,"max_players":24,"Bots":0,"server_type":"Dedicated","server_os":"Linux","password":true,"vac":true,"version":"7757534","steam_id":85568392924742826,"keywords":["cp","nocrits","nodmgspread","uncletopia"],"game_id":440,"stv_port":27046,"stv_name":"Uncletopia | San Francisco | 4 | Community | STV","players":null},{"server_id":141,"name":"Uncletopia | Sydney | 1 | All Maps","name_short":"syd-1","host":"syd-1.au.uncletopia.com","port":27015,"enabled":true,"region":"au","cc":"au","latitude":-33.865143,"longitude":151.2099,"reserved":0,"last_update":"0001-01-01T00:00:00Z","name_a2s":"Uncletopia | Sydney | 1 | All Maps","protocol":17,"map":"cp_process_final","folder":"tf","game":"Team Fortress","app_id":440,"player_count":0,"max_players":24,"Bots":0,"server_type":"Dedicated","server_os":"Linux","password":true,"vac":true,"version":"7757534","steam_id":85568392924470001,"keywords":["cp","nocrits","nodmgspread","uncletopia"],"game_id":440,"stv_port":27016,"stv_name":"Uncletopia | Sydney | 1 | All Maps | STV","players":null},{"server_id":123,"name":"Uncletopia | Sydney | 2 | All Maps","name_short":"syd-2","host":"syd-1.au.uncletopia.com","port":27025,"enabled":true,"region":"au","cc":"au","latitude":-33.865143,"longitude":151.2099,"reserved":0,"last_update":"0001-01-01T00:00:00Z","name_a2s":"Uncletopia | Sydney | 2 | All Maps","protocol":17,"map":"koth_viaduct","folder":"tf","game":"Team Fortress","app_id":440,"player_count":0,"max_players":24,"Bots":0,"server_type":"Dedicated","server_os":"Linux","password":true,"vac":true,"version":"7757534","steam_id":85568392924470002,"keywords":["cp","nocrits","nodmgspread","uncletopia"],"game_id":440,"stv_port":27026,"stv_name":"Uncletopia | Sydney | 2 | All Maps | STV","players":null},{"server_id":395,"name":"Uncletopia | Sydney | 3 | All Maps","name_short":"syd-3","host":"syd-1.au.uncletopia.com","port":27035,"enabled":true,"region":"au","cc":"au","latitude":-33.865143,"longitude":151.2099,"reserved":0,"last_update":"0001-01-01T00:00:00Z","name_a2s":"Uncletopia | Sydney | 3 | All Maps","protocol":17,"map":"pl_upward","folder":"tf","game":"Team Fortress","app_id":440,"player_count":0,"max_players":24,"Bots":0,"server_type":"Dedicated","server_os":"Linux","password":true,"vac":true,"version":"7757534","steam_id":85568392925194467,"keywords":["nocrits","nodmgspread","payload","uncletopia"],"game_id":440,"stv_port":27036,"stv_name":"Uncletopia | Sydney | 3 | All Maps | STV","players":null},{"server_id":396,"name":"Uncletopia | Sydney | 4 | All Maps","name_short":"syd-4","host":"syd-1.au.uncletopia.com","port":27045,"enabled":true,"region":"au","cc":"au","latitude":-33.865143,"longitude":151.2099,"reserved":0,"last_update":"0001-01-01T00:00:00Z","name_a2s":"Uncletopia | Sydney | 4 | All Maps","protocol":17,"map":"koth_lakeside_final","folder":"tf","game":"Team Fortress","app_id":440,"player_count":0,"max_players":24,"Bots":0,"server_type":"Dedicated","server_os":"Linux","password":true,"vac":true,"version":"7757534","steam_id":85568392925397958,"keywords":["cp","nocrits","nodmgspread","uncletopia"],"game_id":440,"stv_port":27046,"stv_name":"Uncletopia | Sydney | 4 | All Maps | STV","players":null},{"server_id":58,"name":"Uncletopia | Sydney | 5 | Stopwatch Beta","name_short":"syd-5","host":"syd-1.au.uncletopia.com","port":27055,"enabled":true,"region":"au","cc":"au","latitude":-33.865143,"longitude":151.2099,"reserved":0,"last_update":"0001-01-01T00:00:00Z","name_a2s":"Uncletopia | Sydney | 5 | Stopwatch Beta","protocol":17,"map":"koth_highpass","folder":"tf","game":"Team Fortress","app_id":440,"player_count":0,"max_players":24,"Bots":0,"server_type":"Dedicated","server_os":"Linux","password":true,"vac":true,"version":"7757534","steam_id":85568392925397959,"keywords":["cp","nocrits","nodmgspread","uncletopia"],"game_id":440,"stv_port":27056,"stv_name":"Uncletopia | Sydney | 5 | Stopwatch Beta | STV","players":null},{"server_id":59,"name":"Uncletopia | Sydney | 6 | Community","name_short":"syd-6","host":"syd-1.au.uncletopia.com","port":27065,"enabled":true,"region":"au","cc":"au","latitude":-33.865143,"longitude":151.2099,"reserved":0,"last_update":"0001-01-01T00:00:00Z","name_a2s":"Uncletopia | Sydney | 6 | Community","protocol":17,"map":"cp_sunshine","folder":"tf","game":"Team Fortress","app_id":440,"player_count":0,"max_players":24,"Bots":0,"server_type":"Dedicated","server_os":"Linux","password":true,"vac":true,"version":"7757534","steam_id":85568392925397960,"keywords":["cp","nocrits","nodmgspread","uncletopia"],"game_id":440,"stv_port":27066,"stv_name":"Uncletopia | Sydney | 6 | Community | STV","players":null},{"server_id":49,"name":"Uncletopia | Warsaw | 1 | All Maps","name_short":"waw-1","host":"waw-1.pl.uncletopia.com","port":27015,"enabled":true,"region":"eu","cc":"pl","latitude":52.2297,"longitude":21.017532,"reserved":0,"last_update":"0001-01-01T00:00:00Z","name_a2s":"","protocol":0,"map":"","folder":"","game":"","app_id":0,"player_count":0,"max_players":0,"Bots":0,"server_type":"","server_os":"","password":false,"vac":false,"version":"","steam_id":0,"keywords":null,"game_id":0,"stv_port":0,"stv_name":"","players":null},{"server_id":50,"name":"Uncletopia | Warsaw | 2 | All Maps","name_short":"waw-2","host":"waw-1.pl.uncletopia.com","port":27025,"enabled":true,"region":"eu","cc":"pl","latitude":52.2297,"longitude":21.017532,"reserved":0,"last_update":"0001-01-01T00:00:00Z","name_a2s":"Uncletopia | Warsaw | 2 | All Maps","protocol":17,"map":"cp_mountainlab","folder":"tf","game":"Team Fortress","app_id":440,"player_count":0,"max_players":24,"Bots":0,"server_type":"Dedicated","server_os":"Linux","password":true,"vac":true,"version":"7757534","steam_id":85568392925397851,"keywords":["cp","nocrits","nodmgspread","uncletopia"],"game_id":440,"stv_port":27026,"stv_name":"Uncletopia | Warsaw | 2 | All Maps | STV","players":null},{"server_id":51,"name":"Uncletopia | Warsaw | 3 | All Maps","name_short":"waw-3","host":"waw-1.pl.uncletopia.com","port":27035,"enabled":true,"region":"eu","cc":"pl","latitude":52.2297,"longitude":21.017532,"reserved":0,"last_update":"0001-01-01T00:00:00Z","name_a2s":"Uncletopia | Warsaw | 3 | All Maps","protocol":17,"map":"cp_snakewater_final1","folder":"tf","game":"Team Fortress","app_id":440,"player_count":0,"max_players":24,"Bots":0,"server_type":"Dedicated","server_os":"Linux","password":true,"vac":true,"version":"7757534","steam_id":85568392925397852,"keywords":["cp","nocrits","nodmgspread","uncletopia"],"game_id":440,"stv_port":27036,"stv_name":"Uncletopia | Warsaw | 3 | All Maps | STV","players":null},{"server_id":52,"name":"Uncletopia | Warsaw | 4 | All Maps","name_short":"waw-4","host":"waw-1.pl.uncletopia.com","port":27045,"enabled":true,"region":"eu","cc":"pl","latitude":52.2297,"longitude":21.017532,"reserved":0,"last_update":"0001-01-01T00:00:00Z","name_a2s":"Uncletopia | Warsaw | 4 | All Maps","protocol":17,"map":"pl_borneo","folder":"tf","game":"Team Fortress","app_id":440,"player_count":0,"max_players":24,"Bots":0,"server_type":"Dedicated","server_os":"Linux","password":true,"vac":true,"version":"7757534","steam_id":85568392925397853,"keywords":["nocrits","nodmgspread","payload","uncletopia"],"game_id":440,"stv_port":27046,"stv_name":"Uncletopia | Warsaw | 4 | All Maps | STV","players":null},{"server_id":53,"name":"Uncletopia | Warsaw | 5 | Stopwatch Beta","name_short":"waw-5","host":"waw-1.pl.uncletopia.com","port":27055,"enabled":true,"region":"eu","cc":"pl","latitude":52.2297,"longitude":21.017532,"reserved":0,"last_update":"0001-01-01T00:00:00Z","name_a2s":"Uncletopia | Warsaw | 5 | Stopwatch Beta","protocol":17,"map":"pl_barnblitz","folder":"tf","game":"Team Fortress","app_id":440,"player_count":0,"max_players":24,"Bots":0,"server_type":"Dedicated","server_os":"Linux","password":true,"vac":true,"version":"7757534","steam_id":85568392925397854,"keywords":["nocrits","nodmgspread","payload","uncletopia"],"game_id":440,"stv_port":27056,"stv_name":"Uncletopia | Warsaw | 5 | Stopwatch Beta | STV","players":null},{"server_id":54,"name":"Uncletopia | Warsaw | 6 | Community","name_short":"waw-6","host":"waw-1.pl.uncletopia.com","port":27065,"enabled":true,"region":"eu","cc":"pl","latitude":52.2297,"longitude":21.017532,"reserved":0,"last_update":"0001-01-01T00:00:00Z","name_a2s":"Uncletopia | Warsaw | 6 | Community","protocol":17,"map":"workshop/koth_trenchfoot_b1a.ugc731436616","folder":"tf","game":"Team Fortress","app_id":440,"player_count":0,"max_players":24,"Bots":0,"server_type":"Dedicated","server_os":"Linux","password":true,"vac":true,"version":"7757534","steam_id":85568392925397856,"keywords":["cp","nocrits","nodmgspread","uncletopia"],"game_id":440,"stv_port":27066,"stv_name":"Uncletopia | Warsaw | 6 | Community | STV","players":null}]}