{"status":true,"message":"","result":[{"server_id":9,"name":"Uncletopia | Atlanta | 1 | All Maps","name_short":"atl-1","host":"atl-1.us.uncletopia.com","port":27015,"enabled":true,"region":"us-east","cc":"us","latitude":33.753746,"longitude":-84.38633,"reserved":0,"last_update":"0001-01-01T00:00:00Z","name_a2s":"Uncletopia | Atlanta | 1 | All Maps","protocol":17,"map":"pl_upward","folder":"tf","game":"Team Fortress","app_id":440,"player_count":24,"max_players":24,"Bots":0,"server_type":"Dedicated","server_os":"Linux","password":true,"vac":true,"version":"7882260","steam_id":85568392924469982,"keywords":["nocrits","nodmgspread","payload","uncletopia"],"game_id":440,"stv_port":27016,"stv_name":"Uncletopia | Atlanta | 1 | All Maps | STV","players":[{"user_id":282,"name":"David De Bergerac","steam_id":76561198010306294,"connected_time":4269000000000,"state":"active","ping":84},{"user_id":320,"name":"pool shark","steam_id":76561198130191179,"connected_time":505000000000,"state":"active","ping":102},{"user_id":319,"name":"O'Keearns","steam_id":76561198042213797,"connected_time":510000000000,"state":"active","ping":43},{"user_id":287,"name":"‚òπ","steam_id":76561198804763186,"connected_time":3675000000000,"state":"active","ping":69},{"user_id":248,"name":"catfish from toontown","steam_id":76561198060070002,"connected_time":6951000000000,"state":"active","ping":88},{"user_id":318,"name":"AlcoholicDad454","steam_id":76561198157414556,"connected_time":544000000000,"state":"active","ping":66},{"user_id":321,"name":"Professor Pistachio","steam_id":76561198092494136,"connected_time":489000000000,"state":"active","ping":67},{"user_id":305,"name":"Voyager","steam_id":76561199128786637,"connected_time":1483000000000,"state":"active","ping":123},{"user_id":297,"name":"The Horselords and Animal Gods","steam_id":76561197975094050,"connected_time":2493000000000,"state":"active","ping":102},{"user_id":295,"name":"potatotomato","steam_id":76561199092769902,"connected_time":2532000000000,"state":"active","ping":70},{"user_id":325,"name":"Nabo","steam_id":76561198082800764,"connected_time":288000000000,"state":"active","ping":172},{"user_id":280,"name":"Grand Piano Tuna","steam_id":76561198135137213,"connected_time":4404000000000,"state":"active","ping":65},{"user_id":269,"name":"Paleo","steam_id":76561198053493855,"connected_time":5263000000000,"state":"active","ping":73},{"user_id":323,"name":"Ezakt","steam_id":76561199099132304,"connected_time":467000000000,"state":"active","ping":57},{"user_id":289,"name":"kite","steam_id":76561198346516392,"connected_time":3525000000000,"state":"active","ping":86},{"user_id":304,"name":"Mailer","steam_id":76561198062690074,"connected_time":2198000000000,"state":"active","ping":155},{"user_id":291,"name":"NoExit","steam_id":76561198065725996,"connected_time":2674000000000,"state":"active","ping":83},{"user_id":324,"name":"Atl1 Lavender they/them","steam_id":76561198825997674,"connected_time":466000000000,"state":"active","ping":46},{"user_id":326,"name":"Evenaris","steam_id":76561198087544319,"connected_time":109000000000,"state":"active","ping":105},{"user_id":292,"name":"Lilith","steam_id":76561198125102885,"connected_time":2598000000000,"state":"active","ping":69},{"user_id":300,"name":"Pixler544","steam_id":76561198240575132,"connected_time":2418000000000,"state":"active","ping":69},{"user_id":299,"name":"Yosh","steam_id":76561198027078899,"connected_time":2473000000000,"state":"active","ping":94},{"user_id":301,"name":"Yam Jazzy Jim","steam_id":76561198000788950,"connected_time":2407000000000,"state":"active","ping":75},{"user_id":317,"name":"Onyx","steam_id":76561198275349640,"connected_time":600000000000,"state":"active","ping":79}]},{"server_id":104,"name":"Uncletopia | Atlanta | 2 | All Maps","name_short":"atl-2","host":"atl-1.us.uncletopia.com","port":27025,"enabled":true,"region":"us-east","cc":"us","latitude":33.753746,"longitude":-84.38633,"reserved":0,"last_update":"0001-01-01T00:00:00Z","name_a2s":"Uncletopia | Atlanta | 2 | All Maps","protocol":17,"map":"pl_pier","folder":"tf","game":"Team Fortress","app_id":440,"player_count":24,"max_players":24,"Bots":0,"server_type":"Dedicated","server_os":"Linux","password":true,"vac":true,"version":"7882260","steam_id":85568392924469983,"keywords":["nocrits","nodmgspread","payload","uncletopia"],"game_id":440,"stv_port":27026,"stv_name":"Uncletopia | Atlanta | 2 | All Maps | STV","players":[{"user_id":174,"name":"your local forecast","steam_id":76561198042243083,"connected_time":875000000000,"state":"active","ping":59},{"user_id":167,"name":"Shame","steam_id":76561198100490994,"connected_time":992000000000,"state":"active","ping":58},{"user_id":154,"name":"Zhenaj","steam_id":76561199209016136,"connected_time":2157000000000,"state":"active","ping":90},{"user_id":168,"name":"sock","steam_id":76561199117597830,"connected_time":988000000000,"state":"active","ping":42},{"user_id":169,"name":"The Poop Dealer","steam_id":76561198141198352,"connected_time":978000000000,"state":"active","ping":62},{"user_id":114,"name":"Muromasa","steam_id":76561198069883531,"connected_time":4511000000000,"state":"active","ping":89},{"user_id":171,"name":"cake-mix","steam_id":76561199475394535,"connected_time":943000000000,"state":"active","ping":113},{"user_id":161,"name":"sine","steam_id":76561198012038088,"connected_time":1686000000000,"state":"active","ping":70},{"user_id":188,"name":"nnobi","steam_id":76561198878729277,"connected_time":290000000000,"state":"active","ping":61},{"user_id":176,"name":"solar_dude","steam_id":76561198086429076,"connected_time":826000000000,"state":"active","ping":55},{"user_id":173,"name":"Snorps","steam_id":76561198964516229,"connected_time":929000000000,"state":"active","ping":69},{"user_id":175,"name":"RussianVesper","steam_id":76561198263326607,"connected_time":843000000000,"state":"active","ping":59},{"user_id":106,"name":"ThatOneGuy831","steam_id":76561198000422558,"connected_time":4596000000000,"state":"active","ping":83},{"user_id":177,"name":"Sea raider","steam_id":76561198123982355,"connected_time":811000000000,"state":"active","ping":79},{"user_id":178,"name":"Soju","steam_id":76561198044130442,"connected_time":805000000000,"state":"active","ping":84},{"user_id":179,"name":"Angelripper","steam_id":76561198858392741,"connected_time":799000000000,"state":"active","ping":83},{"user_id":180,"name":"TastyWheat","steam_id":76561198855061918,"connected_time":787000000000,"state":"active","ping":116},{"user_id":120,"name":"Notsocreative","steam_id":76561198236372202,"connected_time":4360000000000,"state":"active","ping":74},{"user_id":181,"name":"Timon's high on crack cocaine!","steam_id":76561198180396430,"connected_time":786000000000,"state":"active","ping":73},{"user_id":182,"name":"Princebutt01","steam_id":76561199244257925,"connected_time":752000000000,"state":"active","ping":77},{"user_id":183,"name":"mdharsy","steam_id":76561198065831053,"connected_time":700000000000,"state":"active","ping":93},{"user_id":184,"name":"bomb","steam_id":76561198359135819,"connected_time":669000000000,"state":"active","ping":88},{"user_id":187,"name":"adda","steam_id":76561198309013410,"connected_time":499000000000,"state":"active","ping":68},{"user_id":186,"name":"purple diesel","steam_id":76561197976548449,"connected_time":583000000000,"state":"active","ping":76}]},{"server_id":400,"name":"Uncletopia | Atlanta | 3 | Community","name_short":"atl-3","host":"atl-1.us.uncletopia.com","port":27035,"enabled":true,"region":"us-east","cc":"us","latitude":33.753746,"longitude":-84.38633,"reserved":0,"last_update":"0001-01-01T00:00:00Z","name_a2s":"Uncletopia | Atlanta | 3 | Community","protocol":17,"map":"workshop/pl_cactuscanyon_redux_final2.ugc2579644293","folder":"tf","game":"Team Fortress","app_id":440,"player_count":0,"max_players":24,"Bots":0,"server_type":"Dedicated","server_os":"Linux","password":true,"vac":true,"version":"7882260","steam_id":85568392924515187,"keywords":["nocrits","nodmgspread","payload","uncletopia"],"game_id":440,"stv_port":27036,"stv_name":"Uncletopia | Atlanta | 3 | Community | STV","players":null},{"server_id":401,"name":"Uncletopia | Atlanta | 4 | No Payload","name_short":"atl-4","host":"atl-1.us.uncletopia.com","port":27045,"enabled":true,"region":"us-east","cc":"us","latitude":33.753746,"longitude":-84.38633,"reserved":0,"last_update":"0001-01-01T00:00:00Z","name_a2s":"","protocol":0,"map":"","folder":"","game":"","app_id":0,"player_count":0,"max_players":0,"Bots":0,"server_type":"","server_os":"","password":false,"vac":false,"version":"","steam_id":0,"keywords":null,"game_id":0,"stv_port":0,"stv_name":"","players":null},{"server_id":2,"name":"Uncletopia | Chicago | 1 | All Maps","name_short":"chi-1","host":"chi-1.us.uncletopia.com","port":27015,"enabled":true,"region":"us-central","cc":"us","latitude":41.881832,"longitude":-87.62318,"reserved":0,"last_update":"0001-01-01T00:00:00Z","name_a2s":"Uncletopia | Chicago | 1 | All Maps","protocol":17,"map":"pl_upward","folder":"tf","game":"Team Fortress","app_id":440,"player_count":24,"max_players":24,"Bots":0,"server_type":"Dedicated","server_os":"Linux","password":true,"vac":true,"version":"7882260","steam_id":85568392924469984,"keywords":["nocrits","nodmgspread","payload","uncletopia"],"game_id":440,"stv_port":27016,"stv_name":"Uncletopia | Chicago | 1 | All Maps | STV","players":[{"user_id":518,"name":"CloudVic","steam_id":76561198118868716,"connected_time":323000000000,"state":"active","ping":77},{"user_id":487,"name":"incompetentmedic","steam_id":76561199466073856,"connected_time":2873000000000,"state":"active","ping":60},{"user_id":510,"name":"klippan","steam_id":76561198058447840,"connected_time":853000000000,"state":"active","ping":159},{"user_id":521,"name":"Murrdogg","steam_id":76561198210491188,"connected_time":92000000000,"state":"active","ping":58},{"user_id":514,"name":"Space Lizard","steam_id":76561198056798193,"connected_time":590000000000,"state":"active","ping":72},{"user_id":494,"name":"AMY ROSE kyaahh","steam_id":76561198097637080,"connected_time":2543000000000,"state":"active","ping":85},{"user_id":498,"name":"Diesel of Alrest","steam_id":76561198143450491,"connected_time":2021000000000,"state":"active","ping":59},{"user_id":509,"name":"jrdoran","steam_id":76561197984753094,"connected_time":920000000000,"state":"active","ping":57},{"user_id":470,"name":"Mug Moment Gaming","steam_id":76561198233098136,"connected_time":4314000000000,"state":"active","ping":69},{"user_id":442,"name":"Doubting Dave","steam_id":76561198066410749,"connected_time":7262000000000,"state":"active","ping":73},{"user_id":517,"name":"Gigabars","steam_id":76561198119267479,"connected_time":353000000000,"state":"active","ping":65},{"user_id":437,"name":"Blackbird","steam_id":76561198127818333,"connected_time":7649000000000,"state":"active","ping":56},{"user_id":488,"name":"SHADOW (he/him)","steam_id":76561198207768148,"connected_time":2870000000000,"state":"active","ping":101},{"user_id":472,"name":"Mburesh","steam_id":76561198137460717,"connected_time":4155000000000,"state":"active","ping":55},{"user_id":516,"name":"cheese on bread","steam_id":76561198224614084,"connected_time":355000000000,"state":"active","ping":59},{"user_id":512,"name":"hud_saytext_time 0","steam_id":76561198010327228,"connected_time":735000000000,"state":"active","ping":170},{"user_id":495,"name":"LeadHickory","steam_id":76561198219756521,"connected_time":2083000000000,"state":"active","ping":86},{"user_id":416,"name":"blob","steam_id":76561198122375328,"connected_time":8575000000000,"state":"active","ping":58},{"user_id":519,"name":"AkkiAdachi","steam_id":76561198071164077,"connected_time":313000000000,"state":"active","ping":77},{"user_id":515,"name":"florg","steam_id":76561197961277967,"connected_time":357000000000,"state":"active","ping":76},{"user_id":511,"name":"an inebriated newt fancier","steam_id":76561197985428155,"connected_time":818000000000,"state":"active","ping":58},{"user_id":520,"name":"Grand_Fantasia","steam_id":76561198369996299,"connected_time":301000000000,"state":"active","ping":99},{"user_id":502,"name":"ketchup","steam_id":76561197990543589,"connected_time":1992000000000,"state":"active","ping":61},{"user_id":469,"name":"falugger1","steam_id":76561198113363042,"connected_time":4392000000000,"state":"active","ping":69}]},{"server_id":106,"name":"Uncletopia | Chicago | 2 | All Maps","name_short":"chi-2","host":"chi-1.us.uncletopia.com","port":27025,"enabled":true,"region":"us-central","cc":"us","latitude":41.881832,"longitude":-87.62318,"reserved":0,"last_update":"0001-01-01T00:00:00Z","name_a2s":"Uncletopia | Chicago | 2 | All Maps","protocol":17,"map":"pl_barnblitz","folder":"tf","game":"Team Fortress","app_id":440,"player_count":24,"max_players":24,"Bots":0,"server_type":"Dedicated","server_os":"Linux","password":true,"vac":true,"version":"7882260","steam_id":85568392924469985,"keywords":["nocrits","nodmgspread","payload","uncletopia"],"game_id":440,"stv_port":27026,"stv_name":"Uncletopia | Chicago | 2 | All Maps | STV","players":[{"user_id":86,"name":"scrapheap","steam_id":76561198202407087,"connected_time":1304000000000,"state":"active","ping":76},{"user_id":40,"name":"HollyBlocky","steam_id":76561198030156100,"connected_time":3693000000000,"state":"active","ping":67},{"user_id":70,"name":"The World's Softest Sandwich","steam_id":76561198015577707,"connected_time":2656000000000,"state":"active","ping":73},{"user_id":64,"name":"Rukh","steam_id":76561197999361315,"connected_time":3000000000000,"state":"active","ping":99},{"user_id":92,"name":"PoogleTrashGez","steam_id":76561199038104202,"connected_time":493000000000,"state":"active","ping":59},{"user_id":88,"name":"that's showbiz, baybee","steam_id":76561197998258233,"connected_time":1167000000000,"state":"active","ping":85},{"user_id":30,"name":"Fresh Lychee","steam_id":76561198045399559,"connected_time":4372000000000,"state":"active","ping":55},{"user_id":83,"name":"God (horny)","steam_id":76561198131089513,"connected_time":1415000000000,"state":"active","ping":46},{"user_id":93,"name":"unfaulty wifi card","steam_id":76561198020270981,"connected_time":478000000000,"state":"active","ping":77},{"user_id":76,"name":"katryna","steam_id":76561198023440304,"connected_time":2081000000000,"state":"active","ping":58},{"user_id":78,"name":"Skeleton Hotel","steam_id":76561198041704727,"connected_time":1860000000000,"state":"active","ping":60},{"user_id":48,"name":"Mediocre Gaming","steam_id":76561199230467980,"connected_time":3350000000000,"state":"active","ping":62},{"user_id":94,"name":"Rein [‚áÑ]","steam_id":76561198300340427,"connected_time":129000000000,"state":"active","ping":61},{"user_id":44,"name":"tay k out of prison","steam_id":76561198253731826,"connected_time":3564000000000,"state":"active","ping":54},{"user_id":46,"name":"Infinity","steam_id":76561199134919099,"connected_time":3499000000000,"state":"active","ping":75},{"user_id":58,"name":"Tedward","steam_id":76561198948693551,"connected_time":3168000000000,"state":"active","ping":90},{"user_id":95,"name":"Induce Salt","steam_id":76561198116645978,"connected_time":117000000000,"state":"active","ping":54},{"user_id":82,"name":"[DEEP] Danmar33","steam_id":76561198056453091,"connected_time":1709000000000,"state":"active","ping":51},{"user_id":56,"name":"J.G. Klaus","steam_id":76561198001111196,"connected_time":3216000000000,"state":"active","ping":62},{"user_id":77,"name":"IMM0RTAL","steam_id":76561198013747901,"connected_time":1990000000000,"state":"active","ping":66},{"user_id":75,"name":"Macro","steam_id":76561199442846226,"connected_time":2289000000000,"state":"active","ping":77},{"user_id":74,"name":"Owl Pacino","steam_id":76561197979970666,"connected_time":2523000000000,"state":"active","ping":56},{"user_id":89,"name":"Auto_Correct","steam_id":76561198254988078,"connected_time":1164000000000,"state":"active","ping":81},{"user_id":81,"name":"‚éæ Ethereal ‚èå","steam_id":76561199385170644,"connected_time":1766000000000,"state":"active","ping":53}]},{"server_id":402,"name":"Uncletopia | Chicago | 3 | All Maps","name_short":"chi-3","host":"chi-1.us.uncletopia.com","port":27035,"enabled":true,"region":"us-central","cc":"us","latitude":41.881832,"longitude":-87.62318,"reserved":0,"last_update":"0001-01-01T00:00:00Z","name_a2s":"Uncletopia | Chicago | 3 | All Maps","protocol":17,"map":"cp_sunshine","folder":"tf","game":"Team Fortress","app_id":440,"player_count":24,"max_players":24,"Bots":0,"server_type":"Dedicated","server_os":"Linux","password":true,"vac":true,"version":"7882260","steam_id":85568392924515191,"keywords":["cp","nocrits","nodmgspread","uncletopia"],"game_id":440,"stv_port":27036,"stv_name":"Uncletopia | Chicago | 3 | All Maps | STV","players":[{"user_id":253,"name":"pepsibobby","steam_id":76561198853864511,"connected_time":876000000000,"state":"active","ping":74},{"user_id":242,"name":"PoisonIvy","steam_id":76561198072384574,"connected_time":1950000000000,"state":"active","ping":55},{"user_id":246,"name":"·πΩ‚ßâ cookie","steam_id":76561197998884823,"connected_time":1426000000000,"state":"active","ping":55},{"user_id":245,"name":"Snimca","steam_id":76561198453519709,"connected_time":1805000000000,"state":"active","ping":65},{"user_id":220,"name":"3xtr3m3rWbyFan2901025","steam_id":76561198042286766,"connected_time":3880000000000,"state":"active","ping":54},{"user_id":258,"name":"PyroEagle","steam_id":76561198296434231,"connected_time":121000000000,"state":"active","ping":70},{"user_id":256,"name":"terrapieseven","steam_id":76561198072062415,"connected_time":482000000000,"state":"active","ping":69},{"user_id":213,"name":"Sposeidon","steam_id":76561199044781490,"connected_time":4416000000000,"state":"active","ping":55},{"user_id":244,"name":"F0restFerret","steam_id":76561199112458876,"connected_time":1841000000000,"state":"active","ping":53},{"user_id":222,"name":"General incompetence","steam_id":76561198967694381,"connected_time":3806000000000,"state":"active","ping":65},{"user_id":223,"name":"MondoDong","steam_id":76561197991400109,"connected_time":3723000000000,"state":"active","ping":68},{"user_id":255,"name":"loser","steam_id":76561198171507451,"connected_time":528000000000,"state":"active","ping":91},{"user_id":247,"name":"Fluffeline","steam_id":76561198352909489,"connected_time":1231000000000,"state":"active","ping":136},{"user_id":225,"name":"ghastlierest gamer","steam_id":76561198057374871,"connected_time":3643000000000,"state":"active","ping":58},{"user_id":257,"name":"Baked_tomato","steam_id":76561199104132783,"connected_time":257000000000,"state":"active","ping":116},{"user_id":212,"name":"RLC_","steam_id":76561198381190305,"connected_time":4517000000000,"state":"active","ping":107},{"user_id":216,"name":"CeigeBirb","steam_id":76561198068538473,"connected_time":4034000000000,"state":"active","ping":76},{"user_id":259,"name":"smog","steam_id":76561198072179483,"connected_time":32000000000,"state":"spawning","ping":89},{"user_id":202,"name":"MidSobbes08","steam_id":76561199013101925,"connected_time":5165000000000,"state":"active","ping":100},{"user_id":251,"name":"Mehman","steam_id":76561199020244051,"connected_time":988000000000,"state":"active","ping":94},{"user_id":249,"name":"recycle","steam_id":76561198819562111,"connected_time":1029000000000,"state":"active","ping":70},{"user_id":252,"name":"Jarqueelius","steam_id":76561199076397545,"connected_time":980000000000,"state":"active","ping":57},{"user_id":254,"name":"alfred","steam_id":76561198328618417,"connected_time":785000000000,"state":"active","ping":108},{"user_id":250,"name":"Snoball","steam_id":76561198205838372,"connected_time":1029000000000,"state":"active","ping":56}]},{"server_id":403,"name":"Uncletopia | Chicago | 4 | All Maps","name_short":"chi-4","host":"chi-1.us.uncletopia.com","port":27045,"enabled":true,"region":"us-central","cc":"us","latitude":41.881832,"longitude":-87.62318,"reserved":0,"last_update":"0001-01-01T00:00:00Z","name_a2s":"Uncletopia | Chicago | 4 | All Maps","protocol":17,"map":"koth_lakeside_final","folder":"tf","game":"Team Fortress","app_id":440,"player_count":24,"max_players":24,"Bots":0,"server_type":"Dedicated","server_os":"Linux","password":true,"vac":true,"version":"7882260","steam_id":85568392924515193,"keywords":["cp","nocrits","nodmgspread","uncletopia"],"game_id":440,"stv_port":27046,"stv_name":"Uncletopia | Chicago | 4 | All Maps | STV","players":[{"user_id":436,"name":"martin cabello","steam_id":76561199075387079,"connected_time":375000000000,"state":"active","ping":75},{"user_id":412,"name":"Darth Vader Chillin","steam_id":76561199093156646,"connected_time":865000000000,"state":"active","ping":94},{"user_id":421,"name":"Mega","steam_id":76561198121258379,"connected_time":640000000000,"state":"active","ping":68},{"user_id":413,"name":"richarven","steam_id":76561198189429665,"connected_time":864000000000,"state":"active","ping":68},{"user_id":414,"name":"Beyond Trash","steam_id":76561198835198281,"connected_time":853000000000,"state":"active","ping":56},{"user_id":431,"name":"123","steam_id":76561198106308056,"connected_time":456000000000,"state":"active","ping":99},{"user_id":227,"name":"Hindmost","steam_id":76561199081837220,"connected_time":13483000000000,"state":"active","ping":79},{"user_id":424,"name":"¬øskitt1eS?","steam_id":76561198330093211,"connected_time":513000000000,"state":"active","ping":60},{"user_id":422,"name":"mister horse","steam_id":76561199004451589,"connected_time":590000000000,"state":"active","ping":74},{"user_id":442,"name":"good soup guy","steam_id":76561199210237835,"connected_time":177000000000,"state":"active","ping":71},{"user_id":433,"name":"Goober","steam_id":76561198988863807,"connected_time":428000000000,"state":"active","ping":75},{"user_id":441,"name":"EmmetsPage","steam_id":76561198850070336,"connected_time":196000000000,"state":"active","ping":91},{"user_id":406,"name":"My best friend Eddie","steam_id":76561198068654532,"connected_time":1524000000000,"state":"active","ping":81},{"user_id":340,"name":"King Of The Chill","steam_id":76561197971394640,"connected_time":5936000000000,"state":"active","ping":98},{"user_id":440,"name":"Mr. Tako","steam_id":76561199212603905,"connected_time":233000000000,"state":"active","ping":86},{"user_id":432,"name":"Elevator","steam_id":76561198974286387,"connected_time":443000000000,"state":"active","ping":224},{"user_id":444,"name":"josh","steam_id":76561198111565081,"connected_time":48000000000,"state":"spawning","ping":113},{"user_id":429,"name":"Karl","steam_id":76561198115714484,"connected_time":474000000000,"state":"active","ping":106},{"user_id":437,"name":"MLG Doge","steam_id":76561198060123004,"connected_time":309000000000,"state":"active","ping":102},{"user_id":443,"name":"StarLy","steam_id":76561198174428289,"connected_time":174000000000,"state":"active","ping":78},{"user_id":407,"name":"BoyOHBoy","steam_id":76561198364754109,"connected_time":1517000000000,"state":"active","ping":60},{"user_id":405,"name":"pogo","steam_id":76561198148913461,"connected_time":1535000000000,"state":"active","ping":64},{"user_id":411,"name":"lexi","steam_id":76561198176299759,"connected_time":1338000000000,"state":"active","ping":83},{"user_id":399,"name":"‚Ä∫‚Ä∫ SpyMaster","steam_id":76561198218719943,"connected_time":2204000000000,"state":"active","ping":104}]},{"server_id":36,"name":"Uncletopia | Chicago | 5 | All Maps","name_short":"chi-5","host":"chi-2.us.uncletopia.com","port":27015,"enabled":true,"region":"us-central","cc":"us","latitude":41.881832,"longitude":-87.62318,"reserved":0,"last_update":"0001-01-01T00:00:00Z","name_a2s":"Uncletopia | Chicago | 5 | All Maps","protocol":17,"map":"pl_upward","folder":"tf","game":"Team Fortress","app_id":440,"player_count":0,"max_players":24,"Bots":0,"server_type":"Dedicated","server_os":"Linux","password":true,"vac":true,"version":"7882260","steam_id":85568392924866362,"keywords":["nocrits","nodmgspread","payload","uncletopia"],"game_id":440,"stv_port":27016,"stv_name":"Uncletopia | Chicago | 5 | All Maps | STV","players":null},{"server_id":37,"name":"Uncletopia | Chicago | 6 | All Maps","name_short":"chi-6","host":"chi-2.us.uncletopia.com","port":27025,"enabled":true,"region":"us-central","cc":"us","latitude":41.881832,"longitude":-87.62318,"reserved":0,"last_update":"0001-01-01T00:00:00Z","name_a2s":"Uncletopia | Chicago | 6 | All Maps","protocol":17,"map":"koth_viaduct","folder":"tf","game":"Team Fortress","app_id":440,"player_count":0,"max_players":24,"Bots":0,"server_type":"Dedicated","server_os":"Linux","password":true,"vac":true,"version":"7882260","steam_id":85568392924866363,"keywords":["cp","nocrits","nodmgspread","uncletopia"],"game_id":440,"stv_port":27026,"stv_name":"Uncletopia | Chicago | 6 | All Maps | STV","players":null},{"server_id":38,"name":"Uncletopia | Chicago | 7 | Stopwatch Beta","name_short":"chi-7","host":"chi-2.us.uncletopia.com","port":27035,"enabled":true,"region":"us-central","cc":"us","latitude":41.881832,"longitude":-87.62318,"reserved":0,"last_update":"0001-01-01T00:00:00Z","name_a2s":"Uncletopia | Chicago | 7 | Stopwatch Beta","protocol":17,"map":"pl_upward","folder":"tf","game":"Team Fortress","app_id":440,"player_count":0,"max_players":24,"Bots":0,"server_type":"Dedicated","server_os":"Linux","password":true,"vac":true,"version":"7882260","steam_id":85568392924866364,"keywords":["nocrits","nodmgspread","payload","uncletopia"],"game_id":440,"stv_port":27036,"stv_name":"Uncletopia | Chicago | 7 | Stopwatch Beta | STV","players":null},{"server_id":39,"name":"Uncletopia | Chicago | 8 | Community","name_short":"chi-8","host":"chi-2.us.uncletopia.com","port":27045,"enabled":true,"region":"us-central","cc":"us","latitude":41.881832,"longitude":-87.62318,"reserved":0,"last_update":"0001-01-01T00:00:00Z","name_a2s":"Uncletopia | Chicago | 8 | Community","protocol":17,"map":"workshop/cp_alloy_rc3.ugc592805587","folder":"tf","game":"Team Fortress","app_id":440,"player_count":0,"max_players":24,"Bots":0,"server_type":"Dedicated","server_os":"Linux","password":true,"vac":true,"version":"7882260","steam_id":85568392924866365,"keywords":["cp","nocrits","nodmgspread","uncletopia"],"game_id":440,"stv_port":27046,"stv_name":"Uncletopia | Chicago | 8 | Community | STV","players":null},{"server_id":8,"name":"Uncletopia | Dallas | 1 | All Maps","name_short":"dal-1","host":"dal-1.us.uncletopia.com","port":27015,"enabled":true,"region":"us-central","cc":"us","latitude":32.779167,"longitude":-96.80889,"reserved":0,"last_update":"0001-01-01T00:00:00Z","name_a2s":"Uncletopia | Dallas | 1 | All Maps","protocol":17,"map":"plr_nightfall_final","folder":"tf","game":"Team Fortress","app_id":440,"player_count":24,"max_players":24,"Bots":0,"server_type":"Dedicated","server_os":"Linux","password":true,"vac":true,"version":"7882260","steam_id":85568392924469986,"keywords":["nocrits","nodmgspread","payload","uncletopia"],"game_id":440,"stv_port":27016,"stv_name":"Uncletopia | Dallas | 1 | All Maps | STV","players":[{"user_id":473,"name":"Chunk Stuffer","steam_id":76561198856508573,"connected_time":4260000000000,"state":"active","ping":45},{"user_id":530,"name":"Asura","steam_id":76561198197227615,"connected_time":540000000000,"state":"active","ping":87},{"user_id":426,"name":"Unlock The Shock (She/They)","steam_id":76561198823616667,"connected_time":6317000000000,"state":"active","ping":56},{"user_id":501,"name":"Porco Rosso","steam_id":76561198410024945,"connected_time":2628000000000,"state":"active","ping":77},{"user_id":531,"name":"The Duck","steam_id":76561199362841212,"connected_time":496000000000,"state":"active","ping":80},{"user_id":491,"name":"Critical","steam_id":76561198123744966,"connected_time":3517000000000,"state":"active","ping":92},{"user_id":532,"name":"|WS| Don't_Taze_Me_Bro","steam_id":76561198043289495,"connected_time":468000000000,"state":"active","ping":79},{"user_id":529,"name":"cope","steam_id":76561199086211518,"connected_time":741000000000,"state":"active","ping":63},{"user_id":472,"name":"Jesse Bear","steam_id":76561198217075305,"connected_time":4555000000000,"state":"active","ping":97},{"user_id":497,"name":"semillams cuenta","steam_id":76561199223089296,"connected_time":2837000000000,"state":"active","ping":129},{"user_id":523,"name":"Weiner Cleaner","steam_id":76561198147514577,"connected_time":967000000000,"state":"active","ping":85},{"user_id":494,"name":"InvaderAlex","steam_id":76561198039232451,"connected_time":2875000000000,"state":"active","ping":67},{"user_id":515,"name":"iTzEtHaN","steam_id":76561198041323669,"connected_time":1637000000000,"state":"active","ping":94},{"user_id":533,"name":"I regret nothing","steam_id":76561198399261089,"connected_time":459000000000,"state":"active","ping":72},{"user_id":512,"name":"who is gavin?","steam_id":76561198069415057,"connected_time":1847000000000,"state":"active","ping":79},{"user_id":526,"name":"Seshagrantch","steam_id":76561198112033660,"connected_time":823000000000,"state":"active","ping":62},{"user_id":517,"name":"sassy loli","steam_id":76561198402316065,"connected_time":1175000000000,"state":"active","ping":67},{"user_id":521,"name":"Snoopy","steam_id":76561198273735974,"connected_time":1002000000000,"state":"active","ping":72},{"user_id":527,"name":"OpossumStyle","steam_id":76561199230107171,"connected_time":815000000000,"state":"active","ping":62},{"user_id":490,"name":"Fightin Cow","steam_id":76561198080941486,"connected_time":3615000000000,"state":"active","ping":58},{"user_id":482,"name":"cypherzero","steam_id":76561199182960322,"connected_time":3914000000000,"state":"active","ping":50},{"user_id":489,"name":"BurningKev","steam_id":76561198057688837,"connected_time":3617000000000,"state":"active","ping":74},{"user_id":513,"name":"Borgir","steam_id":76561198325390265,"connected_time":1781000000000,"state":"active","ping":71},{"user_id":535,"name":"Specter the Unchained","steam_id":76561198348354629,"connected_time":262000000000,"state":"active","ping":65}]},{"server_id":108,"name":"Uncletopia | Dallas | 2 | All Maps","name_short":"dal-2","host":"dal-1.us.uncletopia.com","port":27025,"enabled":true,"region":"us-central","cc":"us","latitude":32.779167,"longitude":-96.80889,"reserved":0,"last_update":"0001-01-01T00:00:00Z","name_a2s":"Uncletopia | Dallas | 2 | All Maps","protocol":17,"map":"pl_badwater","folder":"tf","game":"Team Fortress","app_id":440,"player_count":24,"max_players":24,"Bots":0,"server_type":"Dedicated","server_os":"Linux","password":true,"vac":true,"version":"7882260","steam_id":85568392924469988,"keywords":["nocrits","nodmgspread","payload","uncletopia"],"game_id":440,"stv_port":27026,"stv_name":"Uncletopia | Dallas | 2 | All Maps | STV","players":[{"user_id":198,"name":"kingjeffry2012@hotmail.com","steam_id":76561198314104415,"connected_time":996000000000,"state":"active","ping":73},{"user_id":187,"name":"Spicy Within Reason","steam_id":76561198066700370,"connected_time":1620000000000,"state":"active","ping":105},{"user_id":207,"name":"swooce","steam_id":76561198156232484,"connected_time":671000000000,"state":"active","ping":75},{"user_id":168,"name":"MeMyBongusAndTheGreatOutdoors","steam_id":76561198097708978,"connected_time":2522000000000,"state":"active","ping":71},{"user_id":164,"name":"Special","steam_id":76561198070380404,"connected_time":2712000000000,"state":"active","ping":80},{"user_id":201,"name":"OmniMoto","steam_id":76561198091298557,"connected_time":916000000000,"state":"active","ping":65},{"user_id":210,"name":"ShawnLmao","steam_id":76561198350691501,"connected_time":169000000000,"state":"active","ping":127},{"user_id":206,"name":"coolplums","steam_id":76561198072154720,"connected_time":732000000000,"state":"active","ping":79},{"user_id":111,"name":"DMM","steam_id":76561198065426171,"connected_time":7376000000000,"state":"active","ping":55},{"user_id":185,"name":"Stressmelo","steam_id":76561199204445185,"connected_time":1665000000000,"state":"active","ping":105},{"user_id":208,"name":"Mikael_01","steam_id":76561199080253129,"connected_time":634000000000,"state":"active","ping":183},{"user_id":209,"name":"Rowdyshark101","steam_id":76561199019123695,"connected_time":401000000000,"state":"active","ping":52},{"user_id":158,"name":"El Bondin","steam_id":76561198820792434,"connected_time":3097000000000,"state":"active","ping":101},{"user_id":184,"name":"Mx. Mourning","steam_id":76561199010673891,"connected_time":1722000000000,"state":"active","ping":104},{"user_id":196,"name":"Vivzen","steam_id":76561198972619900,"connected_time":1129000000000,"state":"active","ping":49},{"user_id":195,"name":"old_gus","steam_id":76561197964214993,"connected_time":1354000000000,"state":"active","ping":78},{"user_id":189,"name":"ladderologist","steam_id":76561199181856975,"connected_time":1568000000000,"state":"active","ping":75},{"user_id":190,"name":"D(b) Hell","steam_id":76561198067869016,"connected_time":1566000000000,"state":"active","ping":74},{"user_id":173,"name":"QueenOTheSea","steam_id":76561199399273897,"connected_time":2333000000000,"state":"active","ping":88},{"user_id":202,"name":"HTML","steam_id":76561198099061153,"connected_time":909000000000,"state":"active","ping":64},{"user_id":191,"name":"Jango","steam_id":76561198121922413,"connected_time":1548000000000,"state":"active","ping":75},{"user_id":203,"name":"Stryder","steam_id":76561199387418697,"connected_time":906000000000,"state":"active","ping":108},{"user_id":176,"name":"DJ Sheeve","steam_id":76561198095910139,"connected_time":2301000000000,"state":"active","ping":82},{"user_id":204,"name":"Tri-Dot","steam_id":76561199075186597,"connected_time":890000000000,"state":"active","ping":91}]},{"server_id":5,"name":"Uncletopia | Frankfurt | 1 | All Maps","name_short":"frk-1","host":"frk-1.de.uncletopia.com","port":27015,"enabled":true,"region":"eu","cc":"de","latitude":50.110924,"longitude":8.682127,"reserved":0,"last_update":"0001-01-01T00:00:00Z","name_a2s":"Uncletopia | Frankfurt | 1 | All Maps","protocol":17,"map":"pl_goldrush","folder":"tf","game":"Team Fortress","app_id":440,"player_count":24,"max_players":24,"Bots":0,"server_type":"Dedicated","server_os":"Linux","password":true,"vac":true,"version":"7882260","steam_id":85568392924469989,"keywords":["nocrits","nodmgspread","payload","uncletopia"],"game_id":440,"stv_port":27016,"stv_name":"Uncletopia | Frankfurt | 1 | All Maps | STV","players":[{"user_id":644,"name":"   „Éá Ô∏ªÍßÅ‡ºíRigby","steam_id":76561198021552128,"connected_time":1955000000000,"state":"active","ping":125},{"user_id":588,"name":"Maru","steam_id":76561198030931030,"connected_time":5627000000000,"state":"active","ping":66},{"user_id":645,"name":"wgbubl","steam_id":76561199133004884,"connected_time":1902000000000,"state":"active","ping":90},{"user_id":617,"name":"üòà COCKDESTROYER üòà","steam_id":76561198042846999,"connected_time":3602000000000,"state":"active","ping":65},{"user_id":643,"name":"finbar","steam_id":76561198056812396,"connected_time":2353000000000,"state":"active","ping":74},{"user_id":649,"name":"Sugarwizard","steam_id":76561199040038105,"connected_time":1393000000000,"state":"active","ping":49},{"user_id":622,"name":"|Zomaxx|","steam_id":76561198138925802,"connected_time":3456000000000,"state":"active","ping":77},{"user_id":641,"name":"Reomk","steam_id":76561198309314129,"connected_time":2465000000000,"state":"active","ping":69},{"user_id":579,"name":"KeTlEr","steam_id":76561198100957443,"connected_time":5861000000000,"state":"active","ping":73},{"user_id":662,"name":"Zero (Orbital Gear Mastermind)","steam_id":76561198017416816,"connected_time":692000000000,"state":"active","ping":62},{"user_id":633,"name":"Jigsaw","steam_id":76561198148359093,"connected_time":2963000000000,"state":"active","ping":46},{"user_id":660,"name":"mangoface","steam_id":76561199028760996,"connected_time":903000000000,"state":"active","ping":72},{"user_id":655,"name":"Lewylow","steam_id":76561198005425686,"connected_time":1127000000000,"state":"active","ping":71},{"user_id":661,"name":"Salih","steam_id":76561198287934839,"connected_time":879000000000,"state":"active","ping":55},{"user_id":634,"name":"‚ôõperry the platypus‚ôõ","steam_id":76561199379159771,"connected_time":2876000000000,"state":"active","ping":156},{"user_id":663,"name":"Bread","steam_id":76561198145232617,"connected_time":508000000000,"state":"active","ping":60},{"user_id":639,"name":"tallen","steam_id":76561198061708595,"connected_time":2753000000000,"state":"active","ping":89},{"user_id":630,"name":"Mati [EST]","steam_id":76561197994743813,"connected_time":3106000000000,"state":"active","ping":108},{"user_id":580,"name":"sokige","steam_id":76561198167112371,"connected_time":5849000000000,"state":"active","ping":93},{"user_id":659,"name":"pfear","steam_id":76561197999207328,"connected_time":950000000000,"state":"active","ping":75},{"user_id":592,"name":"domek brexit geezerüá¨üáß","steam_id":76561198048447632,"connected_time":5336000000000,"state":"active","ping":76},{"user_id":657,"name":"cream gravy","steam_id":76561198973069177,"connected_time":1085000000000,"state":"active","ping":50},{"user_id":629,"name":"Tonne","steam_id":76561197970856766,"connected_time":3172000000000,"state":"active","ping":80},{"user_id":582,"name":"hlug2340","steam_id":76561198087970118,"connected_time":5847000000000,"state":"active","ping":103}]},{"server_id":110,"name":"Uncletopia | Frankfurt | 2 | All Maps","name_short":"frk-2","host":"frk-1.de.uncletopia.com","port":27025,"enabled":true,"region":"eu","cc":"de","latitude":50.110924,"longitude":8.682127,"reserved":0,"last_update":"0001-01-01T00:00:00Z","name_a2s":"Uncletopia | Frankfurt | 2 | All Maps","protocol":17,"map":"cp_dustbowl","folder":"tf","game":"Team Fortress","app_id":440,"player_count":23,"max_players":24,"Bots":0,"server_type":"Dedicated","server_os":"Linux","password":true,"vac":true,"version":"7882260","steam_id":85568392924469990,"keywords":["cp","nocrits","nodmgspread","uncletopia"],"game_id":440,"stv_port":27026,"stv_name":"Uncletopia | Frankfurt | 2 | All Maps | STV","players":[{"user_id":685,"name":"Astolfo Sevici","steam_id":76561198113753492,"connected_time":2457000000000,"state":"active","ping":76},{"user_id":643,"name":"Toasty5050","steam_id":76561198073540881,"connected_time":6013000000000,"state":"active","ping":29},{"user_id":687,"name":"_420_StopItDudeCmon","steam_id":76561197997146481,"connected_time":2110000000000,"state":"active","ping":61},{"user_id":697,"name":"Danio211","steam_id":76561199228698878,"connected_time":246000000000,"state":"active","ping":72},{"user_id":690,"name":"Woman (Real)","steam_id":76561199151823932,"connected_time":1604000000000,"state":"active","ping":74},{"user_id":667,"name":"Accident","steam_id":76561198115160396,"connected_time":3783000000000,"state":"active","ping":60},{"user_id":644,"name":"Rimx","steam_id":76561198053034840,"connected_time":5956000000000,"state":"active","ping":85},{"user_id":654,"name":"Paladin","steam_id":76561198042593027,"connected_time":5323000000000,"state":"active","ping":83},{"user_id":686,"name":"Badass Dipshit Cumfart 69","steam_id":76561198037755906,"connected_time":2319000000000,"state":"active","ping":52},{"user_id":691,"name":"Washed Up","steam_id":76561198347336086,"connected_time":1596000000000,"state":"active","ping":51},{"user_id":695,"name":"Mr.O #deletesniper","steam_id":76561198039567498,"connected_time":1029000000000,"state":"active","ping":61},{"user_id":689,"name":"PP_master69420","steam_id":76561199019913910,"connected_time":1842000000000,"state":"active","ping":75},{"user_id":655,"name":"Wade Wilson's Spoilt C4","steam_id":76561198013884709,"connected_time":5310000000000,"state":"active","ping":78},{"user_id":696,"name":"Rheto","steam_id":76561198113355122,"connected_time":604000000000,"state":"active","ping":43},{"user_id":673,"name":"Economic crisis","steam_id":76561198063562843,"connected_time":3570000000000,"state":"active","ping":62},{"user_id":663,"name":"Zoe","steam_id":76561198055380605,"connected_time":4311000000000,"state":"active","ping":70},{"user_id":660,"name":"tiny carrots with big ambitions","steam_id":76561198069649097,"connected_time":4712000000000,"state":"active","ping":75},{"user_id":680,"name":"Rizziologist","steam_id":76561198089003514,"connected_time":3361000000000,"state":"active","ping":45},{"user_id":676,"name":"‚àö(-Wolf)","steam_id":76561198024769704,"connected_time":3500000000000,"state":"active","ping":85},{"user_id":688,"name":"AsuX","steam_id":76561197990333289,"connected_time":1878000000000,"state":"active","ping":61},{"user_id":692,"name":"StealthCat","steam_id":76561198068937412,"connected_time":1582000000000,"state":"active","ping":41},{"user_id":665,"name":"iniT","steam_id":76561198019883794,"connected_time":4153000000000,"state":"active","ping":62},{"user_id":683,"name":"Gangwolf","steam_id":76561198043868575,"connected_time":2590000000000,"state":"active","ping":56}]},{"server_id":308,"name":"Uncletopia | Frankfurt | 3 | All Maps","name_short":"frk-3","host":"frk-1.de.uncletopia.com","port":27035,"enabled":true,"region":"eu","cc":"de","latitude":50.110924,"longitude":8.682127,"reserved":0,"last_update":"0001-01-01T00:00:00Z","name_a2s":"Uncletopia | Frankfurt | 3 | All Maps","protocol":17,"map":"koth_highpass","folder":"tf","game":"Team Fortress","app_id":440,"player_count":0,"max_players":24,"Bots":0,"server_type":"Dedicated","server_os":"Linux","password":true,"vac":true,"version":"7882260","steam_id":85568392924504274,"keywords":["cp","nocrits","nodmgspread","uncletopia"],"game_id":440,"stv_port":27036,"stv_name":"Uncletopia | Frankfurt | 3 | All Maps | STV","players":null},{"server_id":309,"name":"Uncletopia | Frankfurt | 4 | All Maps","name_short":"frk-4","host":"frk-1.de.uncletopia.com","port":27045,"enabled":true,"region":"eu","cc":"de","latitude":50.110924,"longitude":8.682127,"reserved":0,"last_update":"0001-01-01T00:00:00Z","name_a2s":"Uncletopia | Frankfurt | 4 | All Maps","protocol":17,"map":"cp_sunshine","folder":"tf","game":"Team Fortress","app_id":440,"player_count":8,"max_players":24,"Bots":0,"server_type":"Dedicated","server_os":"Linux","password":true,"vac":true,"version":"7882260","steam_id":85568392924504275,"keywords":["cp","nocrits","nodmgspread","uncletopia"],"game_id":440,"stv_port":27046,"stv_name":"Uncletopia | Frankfurt | 4 | All Maps | STV","players":[{"user_id":252,"name":"Veile","steam_id":76561199007201531,"connected_time":1740000000000,"state":"active","ping":86},{"user_id":271,"name":"Dr. Kaytastrophee, PhD","steam_id":76561198012418739,"connected_time":134000000000,"state":"active","ping":150},{"user_id":270,"name":"adriankurek","steam_id":76561199349026873,"connected_time":210000000000,"state":"active","ping":65},{"user_id":272,"name":"tiia","steam_id":76561198046196005,"connected_time":120000000000,"state":"active","ping":43},{"user_id":273,"name":"noahjwarner09","steam_id":76561199444479988,"connected_time":66000000000,"state":"active","ping":182},{"user_id":266,"name":"I Don't Know","steam_id":76561198841011430,"connected_time":374000000000,"state":"active","ping":62},{"user_id":267,"name":"Nithle","steam_id":76561198025372740,"connected_time":334000000000,"state":"active","ping":44},{"user_id":257,"name":"Organic Donut","steam_id":76561199119121016,"connected_time":818000000000,"state":"active","ping":73}]},{"server_id":310,"name":"Uncletopia | Frankfurt | 5 | All Maps","name_short":"frk-5","host":"frk-1.de.uncletopia.com","port":27055,"enabled":true,"region":"eu","cc":"de","latitude":50.110924,"longitude":8.682127,"reserved":0,"last_update":"0001-01-01T00:00:00Z","name_a2s":"Uncletopia | Frankfurt | 5 | All Maps","protocol":17,"map":"pl_pier","folder":"tf","game":"Team Fortress","app_id":440,"player_count":24,"max_players":24,"Bots":0,"server_type":"Dedicated","server_os":"Linux","password":true,"vac":true,"version":"7882260","steam_id":85568392924504277,"keywords":["nocrits","nodmgspread","payload","uncletopia"],"game_id":440,"stv_port":27056,"stv_name":"Uncletopia | Frankfurt | 5 | All Maps | STV","players":[{"user_id":34,"name":"The_Jaystone","steam_id":76561198126280691,"connected_time":1174000000000,"state":"active","ping":46},{"user_id":35,"name":"SkiTzIe","steam_id":76561198010381798,"connected_time":1086000000000,"state":"active","ping":78},{"user_id":36,"name":"c101vp","steam_id":76561199097222473,"connected_time":1026000000000,"state":"active","ping":39},{"user_id":37,"name":"„Ç∑YaKyZoMaTa„Ç∑","steam_id":76561199044452486,"connected_time":1020000000000,"state":"active","ping":77},{"user_id":38,"name":"The.Real.Genesis","steam_id":76561198999652040,"connected_time":909000000000,"state":"active","ping":49},{"user_id":40,"name":"ANGELFISH","steam_id":76561198027536466,"connected_time":887000000000,"state":"active","ping":95},{"user_id":41,"name":"TrollSechsMann1941","steam_id":76561198150569669,"connected_time":848000000000,"state":"active","ping":99},{"user_id":42,"name":"tralalaOuiOui","steam_id":76561197963471507,"connected_time":832000000000,"state":"active","ping":50},{"user_id":65,"name":"TonTon","steam_id":76561198145468895,"connected_time":136000000000,"state":"active","ping":50},{"user_id":44,"name":"Jek","steam_id":76561198083117835,"connected_time":797000000000,"state":"active","ping":63},{"user_id":45,"name":"Doctor Marijuana","steam_id":76561198288289879,"connected_time":675000000000,"state":"active","ping":63},{"user_id":46,"name":"Snaky","steam_id":76561199000954430,"connected_time":673000000000,"state":"active","ping":108},{"user_id":47,"name":"Portello","steam_id":76561198002959134,"connected_time":632000000000,"state":"active","ping":55},{"user_id":53,"name":"Carrotcracker","steam_id":76561198034862396,"connected_time":550000000000,"state":"active","ping":69},{"user_id":50,"name":"Szeregowy LowiRyb","steam_id":76561198855967762,"connected_time":598000000000,"state":"active","ping":118},{"user_id":51,"name":"omerco2005","steam_id":76561198301897719,"connected_time":587000000000,"state":"active","ping":116},{"user_id":52,"name":"◊û◊©◊î - ◊ë◊ì◊ï◊§◊ô◊ú ◊û◊ï◊°◊û\ufffd","steam_id":76561198071981704,"connected_time":564000000000,"state":"active","ping":118},{"user_id":55,"name":"earl","steam_id":76561198235739036,"connected_time":501000000000,"state":"active","ping":71},{"user_id":56,"name":"CarBombEnthusiast","steam_id":76561199448185434,"connected_time":451000000000,"state":"active","ping":60},{"user_id":61,"name":"borp","steam_id":76561198088199932,"connected_time":371000000000,"state":"active","ping":59},{"user_id":58,"name":"Donny","steam_id":76561198317950036,"connected_time":448000000000,"state":"active","ping":85},{"user_id":59,"name":"miiq130","steam_id":76561198188010666,"connected_time":435000000000,"state":"active","ping":76},{"user_id":63,"name":"HwK!","steam_id":76561198287835588,"connected_time":306000000000,"state":"active","ping":86},{"user_id":64,"name":"B@yka","steam_id":76561198986736592,"connected_time":292000000000,"state":"active","ping":86}]},{"server_id":311,"name":"Uncletopia | Frankfurt | 6 | All Maps","name_short":"frk-6","host":"frk-1.de.uncletopia.com","port":27065,"enabled":true,"region":"eu","cc":"de","latitude":50.110924,"longitude":8.682127,"reserved":0,"last_update":"0001-01-01T00:00:00Z","name_a2s":"Uncletopia | Frankfurt | 6 | All Maps","protocol":17,"map":"pl_badwater","folder":"tf","game":"Team Fortress","app_id":440,"player_count":23,"max_players":24,"Bots":0,"server_type":"Dedicated","server_os":"Linux","password":true,"vac":true,"version":"7882260","steam_id":85568392924504278,"keywords":["nocrits","nodmgspread","payload","uncletopia"],"game_id":440,"stv_port":27066,"stv_name":"Uncletopia | Frankfurt | 6 | All Maps | STV","players":[{"user_id":84,"name":"‚ô¨ ·¥õ·¥á·¥ã…™·¥õ ‚ô¨","steam_id":76561198111704722,"connected_time":1040000000000,"state":"active","ping":89},{"user_id":85,"name":"ArmedWithWings","steam_id":76561198154615474,"connected_time":888000000000,"state":"active","ping":86},{"user_id":13,"name":"roblan11","steam_id":76561198066839258,"connected_time":5953000000000,"state":"active","ping":45},{"user_id":27,"name":"ran is running","steam_id":76561199443185667,"connected_time":4928000000000,"state":"active","ping":139},{"user_id":28,"name":"Playad","steam_id":76561198977412147,"connected_time":4790000000000,"state":"active","ping":59},{"user_id":29,"name":"MiManTV","steam_id":76561198094459522,"connected_time":4527000000000,"state":"active","ping":66},{"user_id":30,"name":"Escanoar","steam_id":76561199078487016,"connected_time":4514000000000,"state":"active","ping":79},{"user_id":79,"name":"H-say","steam_id":76561198177400362,"connected_time":1144000000000,"state":"active","ping":97},{"user_id":83,"name":"etc","steam_id":76561197998394797,"connected_time":1087000000000,"state":"active","ping":53},{"user_id":67,"name":"Chromega","steam_id":76561199075307750,"connected_time":2429000000000,"state":"active","ping":61},{"user_id":33,"name":"n174","steam_id":76561199465285458,"connected_time":4102000000000,"state":"active","ping":59},{"user_id":90,"name":"THE CLUELESS CLOWN","steam_id":76561198246990590,"connected_time":446000000000,"state":"active","ping":50},{"user_id":62,"name":"Akkie.","steam_id":76561198017619091,"connected_time":2755000000000,"state":"active","ping":68},{"user_id":78,"name":"Starky","steam_id":76561198320629203,"connected_time":1148000000000,"state":"active","ping":83},{"user_id":66,"name":"cichy spy G4Skins","steam_id":76561199284936515,"connected_time":2486000000000,"state":"active","ping":75},{"user_id":70,"name":"Tiranus 58","steam_id":76561198417094245,"connected_time":2356000000000,"state":"active","ping":69},{"user_id":88,"name":"vug","steam_id":76561198042227249,"connected_time":670000000000,"state":"active","ping":45},{"user_id":89,"name":"SunZi","steam_id":76561198139243535,"connected_time":478000000000,"state":"active","ping":89},{"user_id":87,"name":"ackermann","steam_id":76561199129801006,"connected_time":811000000000,"state":"active","ping":54},{"user_id":75,"name":"Rops","steam_id":76561198031608011,"connected_time":1168000000000,"state":"active","ping":75},{"user_id":52,"name":"Margaret \"ninja\" Thatcher Gamin","steam_id":76561198376160820,"connected_time":3355000000000,"state":"active","ping":90},{"user_id":81,"name":"astigmatic","steam_id":76561199103959197,"connected_time":1118000000000,"state":"active","ping":88},{"user_id":92,"name":"Ari","steam_id":76561198112137064,"connected_time":138000000000,"state":"active","ping":69}]},{"server_id":23,"name":"Uncletopia | Frankfurt | 7 | Stopwatch Beta","name_short":"frk-7","host":"frk-1.de.uncletopia.com","port":27075,"enabled":true,"region":"eu","cc":"de","latitude":50.110924,"longitude":8.682127,"reserved":0,"last_update":"0001-01-01T00:00:00Z","name_a2s":"Uncletopia | Frankfurt | 7 | Stopwatch Beta","protocol":17,"map":"workshop/koth_clearcut_b15.ugc2107050255","folder":"tf","game":"Team Fortress","app_id":440,"player_count":0,"max_players":24,"Bots":0,"server_type":"Dedicated","server_os":"Linux","password":true,"vac":true,"version":"7882260","steam_id":85568392924742827,"keywords":["cp","nocrits","nodmgspread","uncletopia"],"game_id":440,"stv_port":27076,"stv_name":"Uncletopia | Frankfurt | 7 | Stopwatch Beta | STV","players":null},{"server_id":24,"name":"Uncletopia | Frankfurt | 8 | Community","name_short":"frk-8","host":"frk-1.de.uncletopia.com","port":27085,"enabled":true,"region":"eu","cc":"de","latitude":50.110924,"longitude":8.682127,"reserved":0,"last_update":"0001-01-01T00:00:00Z","name_a2s":"Uncletopia | Frankfurt | 8 | Community","protocol":17,"map":"workshop/koth_bagel_rc6.ugc2514036946","folder":"tf","game":"Team Fortress","app_id":440,"player_count":21,"max_players":24,"Bots":0,"server_type":"Dedicated","server_os":"Linux","password":true,"vac":true,"version":"7882260","steam_id":85568392924742828,"keywords":["cp","nocrits","nodmgspread","uncletopia"],"game_id":440,"stv_port":27086,"stv_name":"Uncletopia | Frankfurt | 8 | Community | STV","players":[{"user_id":506,"name":"AeonDota","steam_id":76561198089361405,"connected_time":786000000000,"state":"active","ping":58},{"user_id":504,"name":"Lucak","steam_id":76561198078117239,"connected_time":889000000000,"state":"active","ping":79},{"user_id":525,"name":"TidB","steam_id":76561198055342304,"connected_time":23000000000,"state":"spawning","ping":130},{"user_id":474,"name":"jge","steam_id":76561198123186387,"connected_time":3639000000000,"state":"active","ping":60},{"user_id":524,"name":"tone","steam_id":76561197975301462,"connected_time":72000000000,"state":"active","ping":176},{"user_id":507,"name":"HOI","steam_id":76561198061182117,"connected_time":768000000000,"state":"active","ping":63},{"user_id":493,"name":"Gobhar","steam_id":76561198112689672,"connected_time":2064000000000,"state":"active","ping":40},{"user_id":499,"name":"shadow","steam_id":76561198194231953,"connected_time":1644000000000,"state":"active","ping":83},{"user_id":508,"name":"nicco","steam_id":76561198046217866,"connected_time":748000000000,"state":"active","ping":45},{"user_id":509,"name":"God's Goofiest Goober","steam_id":76561198103175187,"connected_time":747000000000,"state":"active","ping":59},{"user_id":494,"name":"medic slut :3","steam_id":76561198988363799,"connected_time":2044000000000,"state":"active","ping":72},{"user_id":513,"name":"Tuscanae","steam_id":76561198062971907,"connected_time":644000000000,"state":"active","ping":58},{"user_id":514,"name":"M2rtRa","steam_id":76561198111036466,"connected_time":640000000000,"state":"active","ping":75},{"user_id":515,"name":"Flonne","steam_id":76561198080168182,"connected_time":606000000000,"state":"spawning","ping":218},{"user_id":522,"name":"Li√∏nHeart","steam_id":76561198081370704,"connected_time":340000000000,"state":"active","ping":49},{"user_id":523,"name":"goop","steam_id":76561198159928154,"connected_time":213000000000,"state":"active","ping":52},{"user_id":520,"name":"i_Like_Sandwich","steam_id":76561199215996779,"connected_time":447000000000,"state":"active","ping":64},{"user_id":526,"name":"Pietro Badoglio","steam_id":76561198302435743,"connected_time":12000000000,"state":"active","ping":79},{"user_id":484,"name":"jawA","steam_id":76561198070341774,"connected_time":2781000000000,"state":"active","ping":75},{"user_id":521,"name":"DobreStarachowickie","steam_id":76561198027126737,"connected_time":437000000000,"state":"active","ping":73},{"user_id":496,"name":"Roza The Catgirl","steam_id":76561198303232001,"connected_time":1905000000000,"state":"active","ping":67}]},{"server_id":202,"name":"Uncletopia | Hong Kong | 1 | All Maps","name_short":"hgk-1","host":"hgk-1.hk.uncletopia.com","port":27015,"enabled":true,"region":"asia","cc":"hk","latitude":22.302711,"longitude":114.177216,"reserved":0,"last_update":"0001-01-01T00:00:00Z","name_a2s":"Uncletopia | Hong Kong | 1 | All Maps","protocol":17,"map":"cp_altitude","folder":"tf","game":"Team Fortress","app_id":440,"player_count":0,"max_players":24,"Bots":0,"server_type":"Dedicated","server_os":"Linux","password":true,"vac":true,"version":"7882260","steam_id":85568392924494504,"keywords":["cp","nocrits","nodmgspread","uncletopia"],"game_id":440,"stv_port":27016,"stv_name":"Uncletopia | Hong Kong | 1 | All Maps | STV","players":null},{"server_id":1,"name":"Uncletopia | Los Angeles | 1 | All Maps","name_short":"lax-1","host":"lax-1.us.uncletopia.com","port":27015,"enabled":true,"region":"us-west","cc":"us","latitude":33.94279,"longitude":-118.41004,"reserved":0,"last_update":"0001-01-01T00:00:00Z","name_a2s":"Uncletopia | Los Angeles | 1 | All Maps","protocol":17,"map":"cp_sunshine","folder":"tf","game":"Team Fortress","app_id":440,"player_count":0,"max_players":24,"Bots":0,"server_type":"Dedicated","server_os":"Linux","password":true,"vac":true,"version":"7882260","steam_id":85568392924469991,"keywords":["cp","nocrits","nodmgspread","uncletopia"],"game_id":440,"stv_port":27016,"stv_name":"Uncletopia | Los Angeles | 1 | All Maps | STV","players":null},{"server_id":112,"name":"Uncletopia | Los Angeles | 2 | All Maps","name_short":"lax-2","host":"lax-1.us.uncletopia.com","port":27025,"enabled":true,"region":"us-west","cc":"us","latitude":33.94279,"longitude":-118.41004,"reserved":0,"last_update":"0001-01-01T00:00:00Z","name_a2s":"Uncletopia | Los Angeles | 2 | All Maps","protocol":17,"map":"koth_cascade","folder":"tf","game":"Team Fortress","app_id":440,"player_count":0,"max_players":24,"Bots":0,"server_type":"Dedicated","server_os":"Linux","password":true,"vac":true,"version":"7882260","steam_id":85568392924469992,"keywords":["cp","nocrits","nodmgspread","uncletopia"],"game_id":440,"stv_port":27026,"stv_name":"Uncletopia | Los Angeles | 2 | All Maps | STV","players":null},{"server_id":324,"name":"Uncletopia | Los Angeles | 3 | All Maps","name_short":"lax-3","host":"lax-1.us.uncletopia.com","port":27035,"enabled":true,"region":"us-west","cc":"us","latitude":33.94279,"longitude":-118.41004,"reserved":0,"last_update":"0001-01-01T00:00:00Z","name_a2s":"Uncletopia | Los Angeles | 3 | All Maps","protocol":17,"map":"koth_cascade","folder":"tf","game":"Team Fortress","app_id":440,"player_count":0,"max_players":24,"Bots":0,"server_type":"Dedicated","server_os":"Linux","password":true,"vac":true,"version":"7882260","steam_id":85568392924510198,"keywords":["cp","nocrits","nodmgspread","uncletopia"],"game_id":440,"stv_port":27036,"stv_name":"Uncletopia | Los Angeles | 3 | All Maps | STV","players":null},{"server_id":25,"name":"Uncletopia | Los Angeles | 4 | Stopwatch Beta","name_short":"lax-4","host":"lax-1.us.uncletopia.com","port":27045,"enabled":true,"region":"us-west","cc":"us","latitude":33.94279,"longitude":-118.41004,"reserved":0,"last_update":"0001-01-01T00:00:00Z","name_a2s":"Uncletopia | Los Angeles | 4 | Stopwatch Beta","protocol":17,"map":"koth_viaduct","folder":"tf","game":"Team Fortress","app_id":440,"player_count":0,"max_players":24,"Bots":0,"server_type":"Dedicated","server_os":"Linux","password":true,"vac":true,"version":"7882260","steam_id":85568392924510199,"keywords":["cp","nocrits","nodmgspread","uncletopia"],"game_id":440,"stv_port":27046,"stv_name":"Uncletopia | Los Angeles | 4 | Stopwatch Beta | STV","players":null},{"server_id":11,"name":"Uncletopia | London | 1 | All Maps","name_short":"lon-1","host":"lon-1.uk.uncletopia.com","port":27015,"enabled":true,"region":"eu","cc":"gb","latitude":51.509865,"longitude":-0.118092,"reserved":0,"last_update":"0001-01-01T00:00:00Z","name_a2s":"Uncletopia | London | 1 | All Maps","protocol":17,"map":"pl_snowycoast","folder":"tf","game":"Team Fortress","app_id":440,"player_count":24,"max_players":24,"Bots":0,"server_type":"Dedicated","server_os":"Linux","password":true,"vac":true,"version":"7882260","steam_id":85568392924367362,"keywords":["nocrits","nodmgspread","payload","uncletopia"],"game_id":440,"stv_port":27016,"stv_name":"Uncletopia | London | 1 | All Maps | STV","players":[{"user_id":734,"name":"cookie_bucket","steam_id":76561199155374388,"connected_time":952000000000,"state":"active","ping":87},{"user_id":692,"name":"jitt cant hang ong","steam_id":76561198190583242,"connected_time":4826000000000,"state":"active","ping":116},{"user_id":743,"name":"Kahvi","steam_id":76561198723244199,"connected_time":603000000000,"state":"active","ping":75},{"user_id":728,"name":"hex3","steam_id":76561198054404646,"connected_time":1663000000000,"state":"active","ping":57},{"user_id":654,"name":"KnugenIV","steam_id":76561198127091993,"connected_time":8376000000000,"state":"active","ping":61},{"user_id":517,"name":"‚ô•aura‚ô•","steam_id":76561198066258544,"connected_time":18800000000000,"state":"active","ping":60},{"user_id":693,"name":"unconditional love","steam_id":76561199026097466,"connected_time":4825000000000,"state":"active","ping":77},{"user_id":735,"name":"Fred","steam_id":76561198107137362,"connected_time":948000000000,"state":"active","ping":51},{"user_id":730,"name":"dafydd","steam_id":76561198052200325,"connected_time":1609000000000,"state":"active","ping":90},{"user_id":715,"name":"Lyra","steam_id":76561198043601838,"connected_time":3340000000000,"state":"active","ping":75},{"user_id":732,"name":"Caerot","steam_id":76561198839000676,"connected_time":1007000000000,"state":"active","ping":74},{"user_id":698,"name":"Codex","steam_id":76561198068748584,"connected_time":4432000000000,"state":"active","ping":50},{"user_id":737,"name":"Sky‚ô°","steam_id":76561199209906710,"connected_time":925000000000,"state":"active","ping":49},{"user_id":718,"name":"e9","steam_id":76561198890193313,"connected_time":2448000000000,"state":"active","ping":59},{"user_id":700,"name":"orbb","steam_id":76561199057953617,"connected_time":4392000000000,"state":"active","ping":74},{"user_id":731,"name":"Mygod561","steam_id":76561198798799068,"connected_time":1213000000000,"state":"active","ping":43},{"user_id":720,"name":"Secretly.We.Are.Gay.","steam_id":76561198034955422,"connected_time":2225000000000,"state":"active","ping":60},{"user_id":674,"name":"Star_","steam_id":76561198160975698,"connected_time":6363000000000,"state":"active","ping":76},{"user_id":744,"name":"owo","steam_id":76561198158209651,"connected_time":395000000000,"state":"active","ping":61},{"user_id":738,"name":"dec","steam_id":76561198009660168,"connected_time":917000000000,"state":"active","ping":58},{"user_id":685,"name":"shooer!","steam_id":76561198110531281,"connected_time":5515000000000,"state":"active","ping":67},{"user_id":702,"name":"gr3821","steam_id":76561198091531010,"connected_time":4353000000000,"state":"active","ping":44},{"user_id":739,"name":"SOPHIIEE","steam_id":76561198443798981,"connected_time":914000000000,"state":"active","ping":58},{"user_id":635,"name":"jimmy bob","steam_id":76561198319583692,"connected_time":10182000000000,"state":"active","ping":63}]},{"server_id":114,"name":"Uncletopia | London | 2 | All Maps","name_short":"lon-2","host":"lon-1.uk.uncletopia.com","port":27025,"enabled":true,"region":"eu","cc":"gb","latitude":51.509865,"longitude":-0.118092,"reserved":0,"last_update":"0001-01-01T00:00:00Z","name_a2s":"Uncletopia | London | 2 | All Maps","protocol":17,"map":"pl_snowycoast","folder":"tf","game":"Team Fortress","app_id":440,"player_count":23,"max_players":24,"Bots":0,"server_type":"Dedicated","server_os":"Linux","password":true,"vac":true,"version":"7882260","steam_id":85568392924470941,"keywords":["nocrits","nodmgspread","payload","uncletopia"],"game_id":440,"stv_port":27026,"stv_name":"Uncletopia | London | 2 | All Maps | STV","players":[{"user_id":550,"name":"FoOzTV","steam_id":76561197998636728,"connected_time":73000000000,"state":"active","ping":67},{"user_id":514,"name":"Voks_","steam_id":76561198159687785,"connected_time":3167000000000,"state":"active","ping":65},{"user_id":495,"name":"Spotmonkey","steam_id":76561198003994092,"connected_time":4976000000000,"state":"active","ping":63},{"user_id":528,"name":"Frok","steam_id":76561199213363196,"connected_time":1353000000000,"state":"active","ping":75},{"user_id":519,"name":"Zelascelar","steam_id":76561197974628666,"connected_time":2682000000000,"state":"active","ping":101},{"user_id":529,"name":"Insain Bolt!","steam_id":76561198025687726,"connected_time":1335000000000,"state":"active","ping":73},{"user_id":526,"name":"Eggy_The_Tyrone","steam_id":76561198036857277,"connected_time":1637000000000,"state":"active","ping":69},{"user_id":538,"name":"Snake-chan","steam_id":76561199044755854,"connected_time":1139000000000,"state":"active","ping":85},{"user_id":544,"name":"Skinnysheep","steam_id":76561199000206661,"connected_time":518000000000,"state":"active","ping":41},{"user_id":499,"name":"jona3838","steam_id":76561199097658195,"connected_time":4562000000000,"state":"active","ping":102},{"user_id":539,"name":"„Çπ„Éî„Éº„Ç≠„É™ [spkry]","steam_id":76561198370526969,"connected_time":881000000000,"state":"active","ping":81},{"user_id":546,"name":"Dr. Le Quack","steam_id":76561197995711176,"connected_time":319000000000,"state":"active","ping":89},{"user_id":527,"name":"Adam/Sentry Gun tf2","steam_id":76561199103777436,"connected_time":1380000000000,"state":"active","ping":79},{"user_id":488,"name":"Yelowchy","steam_id":76561198199416121,"connected_time":5736000000000,"state":"active","ping":73},{"user_id":548,"name":"Kermit the frog","steam_id":76561198073354238,"connected_time":193000000000,"state":"active","ping":59},{"user_id":520,"name":"Koli","steam_id":76561197992428783,"connected_time":2595000000000,"state":"active","ping":60},{"user_id":461,"name":"After8","steam_id":76561198090750865,"connected_time":6905000000000,"state":"active","ping":71},{"user_id":545,"name":"[UB]Destiny","steam_id":76561198023243402,"connected_time":488000000000,"state":"active","ping":84},{"user_id":532,"name":"GinoFastidio","steam_id":76561198075830259,"connected_time":1281000000000,"state":"active","ping":137},{"user_id":535,"name":"Mr.Schnittlauch","steam_id":76561198295868113,"connected_time":1246000000000,"state":"active","ping":63},{"user_id":470,"name":"‡πñ€£€úSir Robbiewolf","steam_id":76561198001357988,"connected_time":6542000000000,"state":"active","ping":71},{"user_id":547,"name":"-gunripp0r^be / Obelix^","steam_id":76561197999306879,"connected_time":289000000000,"state":"active","ping":71},{"user_id":537,"name":"Pipper","steam_id":76561197970326616,"connected_time":1236000000000,"state":"active","ping":77}]},{"server_id":320,"name":"Uncletopia | London | 3 | All Maps","name_short":"lon-3","host":"lon-1.uk.uncletopia.com","port":27035,"enabled":true,"region":"eu","cc":"gb","latitude":51.509865,"longitude":-0.118092,"reserved":0,"last_update":"0001-01-01T00:00:00Z","name_a2s":"Uncletopia | London | 3 | All Maps","protocol":17,"map":"ctf_doublecross","folder":"tf","game":"Team Fortress","app_id":440,"player_count":23,"max_players":24,"Bots":0,"server_type":"Dedicated","server_os":"Linux","password":true,"vac":true,"version":"7882260","steam_id":85568392924510192,"keywords":["ctf","nocrits","nodmgspread","uncletopia"],"game_id":440,"stv_port":27036,"stv_name":"Uncletopia | London | 3 | All Maps | STV","players":[{"user_id":138,"name":"Doomsday","steam_id":76561198210559757,"connected_time":2624000000000,"state":"active","ping":54},{"user_id":27,"name":"RLCrazyCat3","steam_id":76561197983757878,"connected_time":10932000000000,"state":"active","ping":55},{"user_id":163,"name":"Pawoss","steam_id":76561198050416391,"connected_time":386000000000,"state":"active","ping":101},{"user_id":156,"name":"Dog ?","steam_id":76561198347020945,"connected_time":944000000000,"state":"active","ping":90},{"user_id":157,"name":"Mirage","steam_id":76561199013190566,"connected_time":927000000000,"state":"active","ping":52},{"user_id":149,"name":"ethan","steam_id":76561198119495513,"connected_time":2040000000000,"state":"active","ping":41},{"user_id":112,"name":"cock","steam_id":76561198307522022,"connected_time":3988000000000,"state":"active","ping":47},{"user_id":170,"name":"rudi","steam_id":76561199121842872,"connected_time":33000000000,"state":"spawning","ping":48},{"user_id":162,"name":"Kneh","steam_id":76561198121744739,"connected_time":505000000000,"state":"active","ping":76},{"user_id":108,"name":"Michael","steam_id":76561198003146906,"connected_time":4224000000000,"state":"active","ping":43},{"user_id":171,"name":"antnt","steam_id":76561198112546748,"connected_time":22000000000,"state":"spawning","ping":41},{"user_id":154,"name":"kilo","steam_id":76561198015641339,"connected_time":1166000000000,"state":"active","ping":75},{"user_id":164,"name":"Meddler","steam_id":76561198033001402,"connected_time":377000000000,"state":"active","ping":45},{"user_id":43,"name":"GoblinGaming","steam_id":76561198360395476,"connected_time":8479000000000,"state":"active","ping":52},{"user_id":155,"name":"Seeeb420","steam_id":76561199062630322,"connected_time":1119000000000,"state":"active","ping":73},{"user_id":167,"name":"f√©nix","steam_id":76561198083199151,"connected_time":285000000000,"state":"active","ping":57},{"user_id":148,"name":"redcoat","steam_id":76561199017322894,"connected_time":2120000000000,"state":"active","ping":54},{"user_id":124,"name":"big poo","steam_id":76561198129157178,"connected_time":3637000000000,"state":"active","ping":89},{"user_id":166,"name":"the_Qcumber","steam_id":76561199152515819,"connected_time":335000000000,"state":"active","ping":72},{"user_id":141,"name":"Mowelic","steam_id":76561198873641222,"connected_time":2561000000000,"state":"active","ping":80},{"user_id":128,"name":"Memelord #69,420","steam_id":76561199013403918,"connected_time":3572000000000,"state":"active","ping":72},{"user_id":151,"name":"BONA FIDE PISS","steam_id":76561198130020929,"connected_time":1834000000000,"state":"active","ping":45},{"user_id":152,"name":"yeah","steam_id":76561198188642265,"connected_time":1833000000000,"state":"active","ping":65}]},{"server_id":321,"name":"Uncletopia | London | 4 | All Maps","name_short":"lon-4","host":"lon-1.uk.uncletopia.com","port":27045,"enabled":true,"region":"eu","cc":"gb","latitude":51.509865,"longitude":-0.118092,"reserved":0,"last_update":"0001-01-01T00:00:00Z","name_a2s":"Uncletopia | London | 4 | All Maps","protocol":17,"map":"pl_badwater","folder":"tf","game":"Team Fortress","app_id":440,"player_count":23,"max_players":24,"Bots":0,"server_type":"Dedicated","server_os":"Linux","password":true,"vac":true,"version":"7882260","steam_id":85568392924510193,"keywords":["nocrits","nodmgspread","payload","uncletopia"],"game_id":440,"stv_port":27046,"stv_name":"Uncletopia | London | 4 | All Maps | STV","players":[{"user_id":275,"name":"Gry","steam_id":76561198053961616,"connected_time":640000000000,"state":"active","ping":45},{"user_id":217,"name":"JeanCorben","steam_id":76561197965133561,"connected_time":4089000000000,"state":"active","ping":40},{"user_id":282,"name":"No | S | uS","steam_id":76561199195727551,"connected_time":221000000000,"state":"active","ping":53},{"user_id":273,"name":"Jan.","steam_id":76561197974066329,"connected_time":675000000000,"state":"active","ping":60},{"user_id":231,"name":"FatAssHaver55","steam_id":76561199142022395,"connected_time":2328000000000,"state":"active","ping":78},{"user_id":257,"name":"Sushii","steam_id":76561198160962635,"connected_time":1144000000000,"state":"active","ping":58},{"user_id":279,"name":"yoursbzt","steam_id":76561198201866574,"connected_time":256000000000,"state":"active","ping":95},{"user_id":281,"name":"Suetolog","steam_id":76561199053090212,"connected_time":224000000000,"state":"active","ping":70},{"user_id":247,"name":"Dex","steam_id":76561197981134247,"connected_time":1913000000000,"state":"active","ping":42},{"user_id":248,"name":"InjuryTime","steam_id":76561199051209821,"connected_time":1816000000000,"state":"active","ping":61},{"user_id":256,"name":"stozzy","steam_id":76561198085809880,"connected_time":1153000000000,"state":"active","ping":127},{"user_id":148,"name":"Zerfesh","steam_id":76561198117534358,"connected_time":9624000000000,"state":"active","ping":106},{"user_id":250,"name":"KRYPT1CC\u003c3","steam_id":76561198402896847,"connected_time":1618000000000,"state":"active","ping":45},{"user_id":181,"name":"G.R.E","steam_id":76561197979806514,"connected_time":7362000000000,"state":"active","ping":46},{"user_id":283,"name":"wolffy","steam_id":76561198083145076,"connected_time":197000000000,"state":"active","ping":60},{"user_id":239,"name":"Popop","steam_id":76561198004793795,"connected_time":2209000000000,"state":"active","ping":47},{"user_id":235,"name":"Mr. Knitler","steam_id":76561198377297901,"connected_time":2299000000000,"state":"active","ping":81},{"user_id":260,"name":"Darfsterman #rustclash","steam_id":76561199004139305,"connected_time":1105000000000,"state":"active","ping":65},{"user_id":284,"name":"Ecton","steam_id":76561198025103720,"connected_time":150000000000,"state":"active","ping":55},{"user_id":285,"name":"Rask","steam_id":76561198052934944,"connected_time":102000000000,"state":"active","ping":86},{"user_id":268,"name":"DaveRISK","steam_id":76561198143854076,"connected_time":745000000000,"state":"active","ping":96},{"user_id":274,"name":"Panda","steam_id":76561198176342325,"connected_time":660000000000,"state":"active","ping":100},{"user_id":286,"name":"Alaea WInters","steam_id":76561198116274337,"connected_time":61000000000,"state":"spawning","ping":148}]},{"server_id":21,"name":"Uncletopia | London | 5 | All Maps","name_short":"lon-5","host":"lon-1.uk.uncletopia.com","port":27055,"enabled":true,"region":"eu","cc":"gb","latitude":51.509865,"longitude":-0.118092,"reserved":0,"last_update":"0001-01-01T00:00:00Z","name_a2s":"Uncletopia | London | 5 | All Maps","protocol":17,"map":"pl_upward","folder":"tf","game":"Team Fortress","app_id":440,"player_count":24,"max_players":24,"Bots":0,"server_type":"Dedicated","server_os":"Linux","password":true,"vac":true,"version":"7882260","steam_id":85568392924742829,"keywords":["nocrits","nodmgspread","payload","uncletopia"],"game_id":440,"stv_port":27056,"stv_name":"Uncletopia | London | 5 | All Maps | STV","players":[{"user_id":147,"name":"s a i","steam_id":76561197970379754,"connected_time":4895000000000,"state":"active","ping":60},{"user_id":223,"name":"Wauni","steam_id":76561199439242172,"connected_time":204000000000,"state":"active","ping":158},{"user_id":191,"name":"Thors","steam_id":76561197968739075,"connected_time":2852000000000,"state":"active","ping":44},{"user_id":221,"name":"Max Power","steam_id":76561198019269089,"connected_time":281000000000,"state":"active","ping":57},{"user_id":164,"name":"U1F","steam_id":76561198053700703,"connected_time":3714000000000,"state":"active","ping":45},{"user_id":225,"name":"lupe","steam_id":76561198079813788,"connected_time":112000000000,"state":"active","ping":60},{"user_id":188,"name":"Tea","steam_id":76561198799243030,"connected_time":3052000000000,"state":"active","ping":69},{"user_id":206,"name":"Jetstream Samuel Beckett","steam_id":76561198072017971,"connected_time":1498000000000,"state":"active","ping":49},{"user_id":212,"name":"CJspellsfish","steam_id":76561198277342368,"connected_time":1252000000000,"state":"active","ping":173},{"user_id":217,"name":"r4s1","steam_id":76561198024034917,"connected_time":1113000000000,"state":"active","ping":50},{"user_id":220,"name":"MEGOS","steam_id":76561198172740637,"connected_time":340000000000,"state":"active","ping":60},{"user_id":190,"name":"Carrot (woman)","steam_id":76561198139404261,"connected_time":2938000000000,"state":"active","ping":45},{"user_id":226,"name":"Sarah Obama Michella","steam_id":76561198078996559,"connected_time":37000000000,"state":"active","ping":85},{"user_id":152,"name":"mi cara cuando","steam_id":76561199387584010,"connected_time":4549000000000,"state":"active","ping":84},{"user_id":207,"name":"zapescu","steam_id":76561198843329424,"connected_time":1486000000000,"state":"active","ping":90},{"user_id":222,"name":"gimmick","steam_id":76561198930670117,"connected_time":260000000000,"state":"active","ping":44},{"user_id":203,"name":"moser23","steam_id":76561197960543171,"connected_time":1599000000000,"state":"active","ping":63},{"user_id":210,"name":"joachym","steam_id":76561198428579761,"connected_time":1347000000000,"state":"active","ping":70},{"user_id":227,"name":"Tickleshits","steam_id":76561198159197241,"connected_time":34000000000,"state":"active","ping":68},{"user_id":184,"name":"Carrot","steam_id":76561198119340863,"connected_time":3148000000000,"state":"active","ping":39},{"user_id":195,"name":"Xx-J4ne_D0e-xX","steam_id":76561198292003338,"connected_time":2644000000000,"state":"active","ping":63},{"user_id":218,"name":"flr","steam_id":76561198249327786,"connected_time":1104000000000,"state":"active","ping":71},{"user_id":187,"name":"meatsoupcube","steam_id":76561198276802249,"connected_time":3056000000000,"state":"active","ping":106},{"user_id":198,"name":"Wafflesky","steam_id":76561198109973821,"connected_time":2545000000000,"state":"active","ping":63}]},{"server_id":22,"name":"Uncletopia | London | 6 | All Maps","name_short":"lon-6","host":"lon-1.uk.uncletopia.com","port":27065,"enabled":true,"region":"eu","cc":"gb","latitude":51.509865,"longitude":-0.118092,"reserved":0,"last_update":"0001-01-01T00:00:00Z","name_a2s":"Uncletopia | London | 6 | All Maps","protocol":17,"map":"pl_frontier_final","folder":"tf","game":"Team Fortress","app_id":440,"player_count":24,"max_players":24,"Bots":0,"server_type":"Dedicated","server_os":"Linux","password":true,"vac":true,"version":"7882260","steam_id":85568392924742830,"keywords":["nocrits","nodmgspread","payload","uncletopia"],"game_id":440,"stv_port":27066,"stv_name":"Uncletopia | London | 6 | All Maps | STV","players":[{"user_id":124,"name":"MrBigStu234","steam_id":76561198211599767,"connected_time":2137000000000,"state":"active","ping":54},{"user_id":100,"name":"Mc Cheezy","steam_id":76561198834780242,"connected_time":3108000000000,"state":"active","ping":106},{"user_id":76,"name":"Rengii76","steam_id":76561198869802076,"connected_time":4499000000000,"state":"active","ping":87},{"user_id":101,"name":"A Succulent Chinese Meal","steam_id":76561198069472440,"connected_time":3097000000000,"state":"active","ping":51},{"user_id":133,"name":"Tea guy","steam_id":76561198797847641,"connected_time":1500000000000,"state":"active","ping":61},{"user_id":155,"name":"Borat","steam_id":76561198122226417,"connected_time":112000000000,"state":"active","ping":43},{"user_id":126,"name":"theodorc68","steam_id":76561199250592158,"connected_time":1887000000000,"state":"active","ping":75},{"user_id":150,"name":"Oak","steam_id":76561198067315672,"connected_time":461000000000,"state":"active","ping":49},{"user_id":147,"name":"Dr.Disrespect","steam_id":76561198043820228,"connected_time":897000000000,"state":"active","ping":60},{"user_id":153,"name":"The one who knocks","steam_id":76561198089341471,"connected_time":323000000000,"state":"active","ping":70},{"user_id":148,"name":"Sprinkle my Pringle","steam_id":76561198112535604,"connected_time":710000000000,"state":"active","ping":60},{"user_id":146,"name":"Portugal","steam_id":76561198991911696,"connected_time":1059000000000,"state":"active","ping":69},{"user_id":128,"name":"Benzo Fury","steam_id":76561198025259336,"connected_time":1717000000000,"state":"active","ping":44},{"user_id":129,"name":"Milk","steam_id":76561198125876588,"connected_time":1716000000000,"state":"active","ping":41},{"user_id":108,"name":"TheQueenInChess","steam_id":76561199045410906,"connected_time":2937000000000,"state":"active","ping":59},{"user_id":154,"name":"mikey","steam_id":76561198151686784,"connected_time":306000000000,"state":"active","ping":57},{"user_id":138,"name":"Rock..","steam_id":76561198004641963,"connected_time":1253000000000,"state":"active","ping":83},{"user_id":156,"name":"randompixel","steam_id":76561198003941207,"connected_time":44000000000,"state":"active","ping":49},{"user_id":152,"name":"creator of yiff","steam_id":76561198305806575,"connected_time":437000000000,"state":"active","ping":86},{"user_id":55,"name":"Hexagon","steam_id":76561198151205758,"connected_time":6372000000000,"state":"active","ping":60},{"user_id":113,"name":"Kestrel","steam_id":76561198144033005,"connected_time":2736000000000,"state":"active","ping":49},{"user_id":143,"name":"conquistadorgt","steam_id":76561198848812449,"connected_time":1190000000000,"state":"active","ping":73},{"user_id":145,"name":"Mr. Mundy","steam_id":76561198132008918,"connected_time":1179000000000,"state":"active","ping":89},{"user_id":117,"name":"DoDonPachi","steam_id":76561199085984801,"connected_time":2658000000000,"state":"active","ping":55}]},{"server_id":40,"name":"Uncletopia | London | 7 | No Payload","name_short":"lon-7","host":"lon-1.uk.uncletopia.com","port":27075,"enabled":true,"region":"eu","cc":"gb","latitude":51.509865,"longitude":-0.118092,"reserved":0,"last_update":"0001-01-01T00:00:00Z","name_a2s":"Uncletopia | London | 7 | No Payload","protocol":17,"map":"cp_granary","folder":"tf","game":"Team Fortress","app_id":440,"player_count":13,"max_players":24,"Bots":0,"server_type":"Dedicated","server_os":"Linux","password":true,"vac":true,"version":"7882260","steam_id":85568392924964314,"keywords":["cp","nocrits","nodmgspread","uncletopia"],"game_id":440,"stv_port":27076,"stv_name":"Uncletopia | London | 7 | No Payload | STV","players":[{"user_id":361,"name":"Raymus","steam_id":76561198021330407,"connected_time":2239000000000,"state":"active","ping":45},{"user_id":396,"name":"Thing","steam_id":76561197997904403,"connected_time":274000000000,"state":"active","ping":102},{"user_id":360,"name":"Shark","steam_id":76561198205226501,"connected_time":2451000000000,"state":"active","ping":164},{"user_id":354,"name":"wouris","steam_id":76561198876188003,"connected_time":2927000000000,"state":"active","ping":60},{"user_id":392,"name":"‚òΩYatskevich‚òæ","steam_id":76561199052739261,"connected_time":334000000000,"state":"active","ping":104},{"user_id":375,"name":"Serhat","steam_id":76561198171613551,"connected_time":1919000000000,"state":"active","ping":88},{"user_id":385,"name":"DaKing","steam_id":76561197995935273,"connected_time":1143000000000,"state":"active","ping":115},{"user_id":394,"name":"dd","steam_id":76561198254771749,"connected_time":313000000000,"state":"active","ping":104},{"user_id":370,"name":"TJ1212","steam_id":76561199013575313,"connected_time":2006000000000,"state":"active","ping":73},{"user_id":359,"name":"hananamanna","steam_id":76561198006570285,"connected_time":2519000000000,"state":"active","ping":119},{"user_id":355,"name":"Udinese Dion","steam_id":76561198067931573,"connected_time":2794000000000,"state":"active","ping":61},{"user_id":331,"name":"Vershal Smershal","steam_id":76561198116223995,"connected_time":4303000000000,"state":"active","ping":55},{"user_id":384,"name":"Cosmetic brain","steam_id":76561198055936410,"connected_time":1205000000000,"state":"active","ping":74}]},{"server_id":41,"name":"Uncletopia | London | 8 | Community","name_short":"lon-8","host":"lon-1.uk.uncletopia.com","port":27085,"enabled":true,"region":"eu","cc":"gb","latitude":51.509865,"longitude":-0.118092,"reserved":0,"last_update":"0001-01-01T00:00:00Z","name_a2s":"Uncletopia | London | 8 | Community","protocol":17,"map":"workshop/koth_trenchfoot_b1a.ugc731436616","folder":"tf","game":"Team Fortress","app_id":440,"player_count":0,"max_players":24,"Bots":0,"server_type":"Dedicated","server_os":"Linux","password":true,"vac":true,"version":"7882260","steam_id":85568392924964315,"keywords":["cp","nocrits","nodmgspread","uncletopia"],"game_id":440,"stv_port":27086,"stv_name":"Uncletopia | London | 8 | Community | STV","players":null},{"server_id":300,"name":"Uncletopia | Montr√©al | 1 | All Maps","name_short":"mtl-1","host":"mtl-1.ca.uncletopia.com","port":27015,"enabled":true,"region":"us-east","cc":"ca","latitude":45.50889,"longitude":-73.56167,"reserved":0,"last_update":"0001-01-01T00:00:00Z","name_a2s":"Uncletopia | Montr√©al | 1 | All Maps","protocol":17,"map":"cp_dustbowl","folder":"tf","game":"Team Fortress","app_id":440,"player_count":0,"max_players":24,"Bots":0,"server_type":"Dedicated","server_os":"Linux","password":true,"vac":true,"version":"7882260","steam_id":85568392924500087,"keywords":["cp","nocrits","nodmgspread","uncletopia"],"game_id":440,"stv_port":27016,"stv_name":"Uncletopia | Montr√©al | 1 | All Maps | STV","players":null},{"server_id":301,"name":"Uncletopia | Montr√©al | 2 | All Maps","name_short":"mtl-2","host":"mtl-1.ca.uncletopia.com","port":27025,"enabled":true,"region":"us-east","cc":"ca","latitude":45.50889,"longitude":-73.56167,"reserved":0,"last_update":"0001-01-01T00:00:00Z","name_a2s":"Uncletopia | Montr√©al | 2 | All Maps","protocol":17,"map":"pl_swiftwater_final1","folder":"tf","game":"Team Fortress","app_id":440,"player_count":0,"max_players":24,"Bots":0,"server_type":"Dedicated","server_os":"Linux","password":true,"vac":true,"version":"7882260","steam_id":85568392924500088,"keywords":["nocrits","nodmgspread","payload","uncletopia"],"game_id":440,"stv_port":27026,"stv_name":"Uncletopia | Montr√©al | 2 | All Maps | STV","players":null},{"server_id":302,"name":"Uncletopia | Montr√©al | 3 | All Maps","name_short":"mtl-3","host":"mtl-1.ca.uncletopia.com","port":27035,"enabled":true,"region":"us-east","cc":"ca","latitude":45.50889,"longitude":-73.56167,"reserved":0,"last_update":"0001-01-01T00:00:00Z","name_a2s":"Uncletopia | Montr√©al | 3 | All Maps","protocol":17,"map":"pl_swiftwater_final1","folder":"tf","game":"Team Fortress","app_id":440,"player_count":0,"max_players":24,"Bots":0,"server_type":"Dedicated","server_os":"Linux","password":true,"vac":true,"version":"7882260","steam_id":85568392924500089,"keywords":["nocrits","nodmgspread","payload","uncletopia"],"game_id":440,"stv_port":27036,"stv_name":"Uncletopia | Montr√©al | 3 | All Maps | STV","players":null},{"server_id":303,"name":"Uncletopia | Montr√©al | 4 | No Payload","name_short":"mtl-4","host":"mtl-1.ca.uncletopia.com","port":27045,"enabled":true,"region":"us-east","cc":"ca","latitude":45.50889,"longitude":-73.56167,"reserved":0,"last_update":"0001-01-01T00:00:00Z","name_a2s":"Uncletopia | Montr√©al | 4 | No Payload","protocol":17,"map":"koth_highpass","folder":"tf","game":"Team Fortress","app_id":440,"player_count":0,"max_players":24,"Bots":0,"server_type":"Dedicated","server_os":"Linux","password":true,"vac":true,"version":"7882260","steam_id":85568392924500090,"keywords":["cp","nocrits","nodmgspread","uncletopia"],"game_id":440,"stv_port":27046,"stv_name":"Uncletopia | Montr√©al | 4 | No Payload | STV","players":null},{"server_id":13,"name":"Uncletopia | New York City | 1 | All Maps","name_short":"nyc-1","host":"nyc-1.us.uncletopia.com","port":27015,"enabled":true,"region":"us-east","cc":"us","latitude":40.73061,"longitude":-73.93524,"reserved":0,"last_update":"0001-01-01T00:00:00Z","name_a2s":"Uncletopia | New York City | 1 | All Maps","protocol":17,"map":"pl_barnblitz","folder":"tf","game":"Team Fortress","app_id":440,"player_count":24,"max_players":24,"Bots":0,"server_type":"Dedicated","server_os":"Linux","password":true,"vac":true,"version":"7882260","steam_id":85568392924469993,"keywords":["nocrits","nodmgspread","payload","uncletopia"],"game_id":440,"stv_port":27016,"stv_name":"Uncletopia | New York City | 1 | All Maps | STV","players":[{"user_id":94,"name":"MrVegasAguitar","steam_id":76561198084466946,"connected_time":2647000000000,"state":"active","ping":102},{"user_id":80,"name":"turd ferguson","steam_id":76561198071620782,"connected_time":4028000000000,"state":"active","ping":56},{"user_id":13,"name":"Fish","steam_id":76561199258053772,"connected_time":7925000000000,"state":"active","ping":72},{"user_id":93,"name":"CRAZY engineer","steam_id":76561198887937902,"connected_time":2768000000000,"state":"active","ping":48},{"user_id":122,"name":"Ampereii","steam_id":76561199047421020,"connected_time":111000000000,"state":"active","ping":57},{"user_id":105,"name":"dak","steam_id":76561198076596506,"connected_time":958000000000,"state":"active","ping":75},{"user_id":107,"name":"Comfy Monkey","steam_id":76561197998434936,"connected_time":864000000000,"state":"active","ping":42},{"user_id":96,"name":"ReTrying","steam_id":76561198976162684,"connected_time":2081000000000,"state":"active","ping":76},{"user_id":115,"name":"iamoctopii","steam_id":76561198876901076,"connected_time":563000000000,"state":"active","ping":127},{"user_id":79,"name":"A damien","steam_id":76561198174767478,"connected_time":4418000000000,"state":"active","ping":88},{"user_id":106,"name":"Admiral Cocklazer","steam_id":76561198030992243,"connected_time":957000000000,"state":"active","ping":46},{"user_id":119,"name":"meat glasses","steam_id":76561198046742645,"connected_time":201000000000,"state":"active","ping":60},{"user_id":116,"name":"STILLZ","steam_id":76561198131892406,"connected_time":537000000000,"state":"active","ping":87},{"user_id":108,"name":"Ddonut gamer","steam_id":76561198858852245,"connected_time":861000000000,"state":"active","ping":130},{"user_id":53,"name":"TRx AxIon2","steam_id":76561198980931557,"connected_time":5464000000000,"state":"active","ping":47},{"user_id":95,"name":"glue sniffer","steam_id":76561198044689778,"connected_time":2511000000000,"state":"active","ping":46},{"user_id":109,"name":"sasharudzik","steam_id":76561199126617781,"connected_time":840000000000,"state":"active","ping":75},{"user_id":104,"name":"Actually Brain Griffin (real)","steam_id":76561198179532535,"connected_time":1002000000000,"state":"active","ping":68},{"user_id":110,"name":"Agard (ated a lot dinner)","steam_id":76561198001688604,"connected_time":838000000000,"state":"active","ping":120},{"user_id":123,"name":"hackersan","steam_id":76561199130583553,"connected_time":51000000000,"state":"active","ping":63},{"user_id":121,"name":"chiswola","steam_id":76561198046920142,"connected_time":116000000000,"state":"active","ping":91},{"user_id":114,"name":"Room_237","steam_id":76561199135081315,"connected_time":646000000000,"state":"active","ping":70},{"user_id":112,"name":"Wahooka","steam_id":76561197962240925,"connected_time":809000000000,"state":"active","ping":47},{"user_id":118,"name":"scarecrow (malicious)","steam_id":76561198082979347,"connected_time":310000000000,"state":"active","ping":70}]},{"server_id":14,"name":"Uncletopia | New York City | 2 | All Maps","name_short":"nyc-2","host":"nyc-1.us.uncletopia.com","port":27025,"enabled":true,"region":"us-east","cc":"us","latitude":40.73061,"longitude":-73.93524,"reserved":0,"last_update":"0001-01-01T00:00:00Z","name_a2s":"Uncletopia | New York City | 2 | All Maps","protocol":17,"map":"ctf_2fort","folder":"tf","game":"Team Fortress","app_id":440,"player_count":24,"max_players":24,"Bots":0,"server_type":"Dedicated","server_os":"Linux","password":true,"vac":true,"version":"7882260","steam_id":85568392924469994,"keywords":["ctf","nocrits","nodmgspread","uncletopia"],"game_id":440,"stv_port":27026,"stv_name":"Uncletopia | New York City | 2 | All Maps | STV","players":[{"user_id":212,"name":"Swifgz","steam_id":76561198162875756,"connected_time":221000000000,"state":"active","ping":45},{"user_id":200,"name":"Don't Fuckle with Shuckle","steam_id":76561199020102367,"connected_time":388000000000,"state":"active","ping":81},{"user_id":183,"name":"erf","steam_id":76561198078203677,"connected_time":835000000000,"state":"active","ping":53},{"user_id":189,"name":"Homunculus Gambino","steam_id":76561198158433378,"connected_time":689000000000,"state":"active","ping":67},{"user_id":181,"name":"brroddyy","steam_id":76561198343540172,"connected_time":1010000000000,"state":"active","ping":96},{"user_id":9,"name":"Periculosum PhD in Funny","steam_id":76561198123370914,"connected_time":13191000000000,"state":"active","ping":86},{"user_id":195,"name":"sam","steam_id":76561198088504281,"connected_time":473000000000,"state":"active","ping":64},{"user_id":199,"name":"Randumb","steam_id":76561199083286636,"connected_time":423000000000,"state":"active","ping":70},{"user_id":193,"name":"lofile","steam_id":76561198083798918,"connected_time":525000000000,"state":"active","ping":51},{"user_id":210,"name":"Grilled Jizo","steam_id":76561199250875340,"connected_time":277000000000,"state":"active","ping":91},{"user_id":203,"name":"‚ô°a femboy‚ô°","steam_id":76561199212971864,"connected_time":379000000000,"state":"active","ping":66},{"user_id":192,"name":"Bigsumoslammer","steam_id":76561198044505076,"connected_time":637000000000,"state":"active","ping":50},{"user_id":194,"name":"breakcore enjoyer","steam_id":76561198031400151,"connected_time":483000000000,"state":"active","ping":45},{"user_id":187,"name":"judesro","steam_id":76561198352244888,"connected_time":738000000000,"state":"active","ping":71},{"user_id":190,"name":"deadmilkshake","steam_id":76561199364235892,"connected_time":684000000000,"state":"active","ping":66},{"user_id":196,"name":"carrot cake","steam_id":76561198055174915,"connected_time":448000000000,"state":"active","ping":68},{"user_id":204,"name":"Ethanol","steam_id":76561198298890887,"connected_time":379000000000,"state":"active","ping":105},{"user_id":205,"name":"mkhcroy","steam_id":76561198125448762,"connected_time":377000000000,"state":"active","ping":72},{"user_id":198,"name":"The Loveable CHI.I.BI.","steam_id":76561198039262228,"connected_time":445000000000,"state":"active","ping":84},{"user_id":75,"name":"Gentoo Linux Gaming","steam_id":76561197999657118,"connected_time":8979000000000,"state":"active","ping":82},{"user_id":211,"name":"Discourse","steam_id":76561198984286678,"connected_time":268000000000,"state":"active","ping":74},{"user_id":213,"name":"Justcallmedave","steam_id":76561198013700581,"connected_time":205000000000,"state":"active","ping":56},{"user_id":208,"name":"a lat pulldown machine","steam_id":76561199093541567,"connected_time":353000000000,"state":"active","ping":88},{"user_id":209,"name":"Alexthegreat","steam_id":76561197996796222,"connected_time":325000000000,"state":"active","ping":50}]},{"server_id":15,"name":"Uncletopia | New York City | 3 | Stopwatch Beta","name_short":"nyc-3","host":"nyc-1.us.uncletopia.com","port":27035,"enabled":true,"region":"us-east","cc":"us","latitude":40.73061,"longitude":-73.93524,"reserved":0,"last_update":"0001-01-01T00:00:00Z","name_a2s":"Uncletopia | New York City | 3 | Stopwatch Beta","protocol":17,"map":"pl_borneo","folder":"tf","game":"Team Fortress","app_id":440,"player_count":0,"max_players":24,"Bots":0,"server_type":"Dedicated","server_os":"Linux","password":true,"vac":true,"version":"7882260","steam_id":85568392924742820,"keywords":["nocrits","nodmgspread","payload","uncletopia"],"game_id":440,"stv_port":27036,"stv_name":"Uncletopia | New York City | 3 | Stopwatch Beta | STV","players":null},{"server_id":16,"name":"Uncletopia | New York City | 4 | Community","name_short":"nyc-4","host":"nyc-1.us.uncletopia.com","port":27045,"enabled":true,"region":"us-east","cc":"us","latitude":40.73061,"longitude":-73.93524,"reserved":0,"last_update":"0001-01-01T00:00:00Z","name_a2s":"Uncletopia | New York City | 4 | Community","protocol":17,"map":"cp_altitude","folder":"tf","game":"Team Fortress","app_id":440,"player_count":0,"max_players":24,"Bots":0,"server_type":"Dedicated","server_os":"Linux","password":true,"vac":true,"version":"7882260","steam_id":85568392924742821,"keywords":["cp","nocrits","nodmgspread","uncletopia"],"game_id":440,"stv_port":27046,"stv_name":"Uncletopia | New York City | 4 | Community | STV","players":null},{"server_id":142,"name":"Uncletopia | S√£o Paulo | 1 | All Maps","name_short":"sao-1","host":"sao-1.br.uncletopia.com","port":27015,"enabled":true,"region":"sa","cc":"br","latitude":-23.533773,"longitude":-46.62529,"reserved":0,"last_update":"0001-01-01T00:00:00Z","name_a2s":"Uncletopia | S√£o Paulo | 1 | All Maps","protocol":17,"map":"koth_lakeside_final","folder":"tf","game":"Team Fortress","app_id":440,"player_count":0,"max_players":24,"Bots":0,"server_type":"Dedicated","server_os":"Linux","password":true,"vac":true,"version":"7882260","steam_id":85568392924469996,"keywords":["cp","nocrits","nodmgspread","uncletopia"],"game_id":440,"stv_port":27016,"stv_name":"Uncletopia | S√£o Paulo | 1 | All Maps | STV","players":null},{"server_id":143,"name":"Uncletopia | S√£o Paulo | 2 | All Maps","name_short":"sao-2","host":"sao-2.br.uncletopia.com","port":27015,"enabled":true,"region":"sa","cc":"br","latitude":-23.533773,"longitude":-46.62529,"reserved":0,"last_update":"0001-01-01T00:00:00Z","name_a2s":"Uncletopia | S√£o Paulo | 2 | All Maps","protocol":17,"map":"koth_viaduct","folder":"tf","game":"Team Fortress","app_id":440,"player_count":0,"max_players":24,"Bots":0,"server_type":"Dedicated","server_os":"Linux","password":true,"vac":true,"version":"7882260","steam_id":85568392924485349,"keywords":["cp","nocrits","nodmgspread","uncletopia"],"game_id":440,"stv_port":27016,"stv_name":"Uncletopia | S√£o Paulo | 2 | All Maps | STV","players":null},{"server_id":7,"name":"Uncletopia | Seattle | 1 | All Maps","name_short":"sea-1","host":"sea-1.us.uncletopia.com","port":27015,"enabled":true,"region":"us-west","cc":"us","latitude":47.608013,"longitude":-122.33517,"reserved":0,"last_update":"0001-01-01T00:00:00Z","name_a2s":"Uncletopia | Seattle | 1 | All Maps","protocol":17,"map":"cp_gorge","folder":"tf","game":"Team Fortress","app_id":440,"player_count":24,"max_players":24,"Bots":0,"server_type":"Dedicated","server_os":"Linux","password":true,"vac":true,"version":"7882260","steam_id":85568392924469997,"keywords":["cp","nocrits","nodmgspread","uncletopia"],"game_id":440,"stv_port":27016,"stv_name":"Uncletopia | Seattle | 1 | All Maps | STV","players":[{"user_id":219,"name":"transbian disaster","steam_id":76561198407600762,"connected_time":1053000000000,"state":"active","ping":46},{"user_id":217,"name":"pishnauts","steam_id":76561198960850707,"connected_time":1314000000000,"state":"active","ping":56},{"user_id":223,"name":"RIP Old Man Chico :(","steam_id":76561198865172720,"connected_time":316000000000,"state":"active","ping":87},{"user_id":216,"name":"NEBULA","steam_id":76561198086878595,"connected_time":1485000000000,"state":"active","ping":64},{"user_id":212,"name":"Kedata","steam_id":76561198047750050,"connected_time":1728000000000,"state":"active","ping":80},{"user_id":142,"name":"lili","steam_id":76561199391478575,"connected_time":7109000000000,"state":"active","ping":70},{"user_id":209,"name":"Saint Laurent Don","steam_id":76561198116820706,"connected_time":2098000000000,"state":"active","ping":73},{"user_id":213,"name":"Likeia #Savetf2","steam_id":76561198005214207,"connected_time":1690000000000,"state":"active","ping":105},{"user_id":202,"name":"jayeskae","steam_id":76561198144220801,"connected_time":2874000000000,"state":"active","ping":48},{"user_id":224,"name":"s","steam_id":76561198149443710,"connected_time":46000000000,"state":"active","ping":80},{"user_id":221,"name":"lox","steam_id":76561198288531493,"connected_time":692000000000,"state":"active","ping":47},{"user_id":197,"name":"Samvich","steam_id":76561198263319227,"connected_time":3122000000000,"state":"active","ping":59},{"user_id":215,"name":"Moomin","steam_id":76561198072726213,"connected_time":1655000000000,"state":"active","ping":74},{"user_id":188,"name":"evilOlive","steam_id":76561198106222025,"connected_time":4268000000000,"state":"active","ping":81},{"user_id":177,"name":"super smash2josh","steam_id":76561198140864125,"connected_time":4493000000000,"state":"active","ping":57},{"user_id":192,"name":"Ruben","steam_id":76561198048508642,"connected_time":3815000000000,"state":"active","ping":57},{"user_id":222,"name":"blozet","steam_id":76561199120161035,"connected_time":692000000000,"state":"active","ping":82},{"user_id":203,"name":"Strikerbolt","steam_id":76561199095622897,"connected_time":2522000000000,"state":"active","ping":79},{"user_id":220,"name":"Vincent Van Bro","steam_id":76561197966919802,"connected_time":953000000000,"state":"active","ping":59},{"user_id":181,"name":"What are you doing?!","steam_id":76561198405248691,"connected_time":4411000000000,"state":"active","ping":80},{"user_id":151,"name":"lusty","steam_id":76561198138478947,"connected_time":5935000000000,"state":"active","ping":44},{"user_id":124,"name":"Keamy","steam_id":76561199471434875,"connected_time":9525000000000,"state":"active","ping":41},{"user_id":174,"name":"rat gets the cheese","steam_id":76561198031234032,"connected_time":4757000000000,"state":"active","ping":101},{"user_id":191,"name":"--)YawgMoss(-- \"The Salt\"","steam_id":76561198072971649,"connected_time":4137000000000,"state":"active","ping":65}]},{"server_id":119,"name":"Uncletopia | Seattle | 2 | All Maps","name_short":"sea-2","host":"sea-1.us.uncletopia.com","port":27025,"enabled":true,"region":"us-west","cc":"us","latitude":47.608013,"longitude":-122.33517,"reserved":0,"last_update":"0001-01-01T00:00:00Z","name_a2s":"Uncletopia | Seattle | 2 | All Maps","protocol":17,"map":"pl_frontier_final","folder":"tf","game":"Team Fortress","app_id":440,"player_count":24,"max_players":24,"Bots":0,"server_type":"Dedicated","server_os":"Linux","password":true,"vac":true,"version":"7882260","steam_id":85568392924469998,"keywords":["nocrits","nodmgspread","payload","uncletopia"],"game_id":440,"stv_port":27026,"stv_name":"Uncletopia | Seattle | 2 | All Maps | STV","players":[{"user_id":148,"name":"Alan","steam_id":76561198977083959,"connected_time":1204000000000,"state":"active","ping":59},{"user_id":99,"name":"CasemanTheBlondeBear","steam_id":76561198144862404,"connected_time":6266000000000,"state":"active","ping":56},{"user_id":155,"name":"ryghehn","steam_id":76561198195359229,"connected_time":951000000000,"state":"active","ping":35},{"user_id":156,"name":"NerdyEnforcement","steam_id":76561198437710820,"connected_time":950000000000,"state":"active","ping":104},{"user_id":124,"name":"Banzai","steam_id":76561198196503877,"connected_time":4349000000000,"state":"active","ping":45},{"user_id":157,"name":"(TPT) Ghost","steam_id":76561198123262873,"connected_time":829000000000,"state":"active","ping":89},{"user_id":153,"name":"Petrivus","steam_id":76561198202152453,"connected_time":973000000000,"state":"active","ping":57},{"user_id":154,"name":"Lord GabeN","steam_id":76561198140862723,"connected_time":972000000000,"state":"active","ping":116},{"user_id":139,"name":"stick","steam_id":76561198134334367,"connected_time":3019000000000,"state":"active","ping":102},{"user_id":140,"name":"exephur","steam_id":76561198135763234,"connected_time":2928000000000,"state":"active","ping":61},{"user_id":97,"name":"LWebb","steam_id":76561199162936929,"connected_time":6337000000000,"state":"active","ping":98},{"user_id":141,"name":"chat gpt hedgee","steam_id":76561198800365464,"connected_time":2209000000000,"state":"active","ping":80},{"user_id":164,"name":"nori_420","steam_id":76561199117134203,"connected_time":99000000000,"state":"active","ping":86},{"user_id":138,"name":"awesomebrololo","steam_id":76561198374283489,"connected_time":3107000000000,"state":"active","ping":78},{"user_id":163,"name":"TheSmokingMan","steam_id":76561198032652995,"connected_time":290000000000,"state":"active","ping":115},{"user_id":159,"name":"Gary P","steam_id":76561198149108488,"connected_time":801000000000,"state":"active","ping":64},{"user_id":107,"name":"Polly Geist","steam_id":76561198271964253,"connected_time":5689000000000,"state":"active","ping":69},{"user_id":137,"name":"Shark Sandwich","steam_id":76561198025007938,"connected_time":3134000000000,"state":"active","ping":60},{"user_id":160,"name":"Tomato","steam_id":76561197996472649,"connected_time":770000000000,"state":"active","ping":120},{"user_id":131,"name":"smaerdevahot","steam_id":76561198369075257,"connected_time":4030000000000,"state":"active","ping":56},{"user_id":161,"name":"Pizza the Hut","steam_id":76561197970450546,"connected_time":770000000000,"state":"active","ping":64},{"user_id":58,"name":"the","steam_id":76561198003226288,"connected_time":9398000000000,"state":"active","ping":119},{"user_id":78,"name":"b3afy","steam_id":76561198084208649,"connected_time":8343000000000,"state":"active","ping":48},{"user_id":165,"name":"jon pickle water","steam_id":76561199036212135,"connected_time":98000000000,"state":"active","ping":66}]},{"server_id":406,"name":"Uncletopia | Seattle | 3 | Stopwatch Beta","name_short":"sea-3","host":"sea-1.us.uncletopia.com","port":27035,"enabled":true,"region":"us-west","cc":"us","latitude":47.608013,"longitude":-122.33517,"reserved":0,"last_update":"0001-01-01T00:00:00Z","name_a2s":"Uncletopia | Seattle | 3 | Stopwatch Beta","protocol":17,"map":"koth_viaduct","folder":"tf","game":"Team Fortress","app_id":440,"player_count":0,"max_players":24,"Bots":0,"server_type":"Dedicated","server_os":"Linux","password":true,"vac":true,"version":"7882260","steam_id":85568392924515217,"keywords":["cp","nocrits","nodmgspread","uncletopia"],"game_id":440,"stv_port":27036,"stv_name":"Uncletopia | Seattle | 3 | Stopwatch Beta | STV","players":null},{"server_id":17,"name":"Uncletopia | San Francisco | 1 | All Maps","name_short":"sfo-1","host":"sfo-1.us.uncletopia.com","port":27015,"enabled":true,"region":"us-west","cc":"us","latitude":37.77397,"longitude":-122.4313,"reserved":0,"last_update":"0001-01-01T00:00:00Z","name_a2s":"Uncletopia | San Francisco | 1 | All Maps","protocol":17,"map":"koth_viaduct","folder":"tf","game":"Team Fortress","app_id":440,"player_count":14,"max_players":24,"Bots":0,"server_type":"Dedicated","server_os":"Linux","password":true,"vac":true,"version":"7882260","steam_id":85568392924469999,"keywords":["cp","nocrits","nodmgspread","uncletopia"],"game_id":440,"stv_port":27016,"stv_name":"Uncletopia | San Francisco | 1 | All Maps | STV","players":[{"user_id":163,"name":"squilith","steam_id":76561198134923092,"connected_time":1278000000000,"state":"active","ping":46},{"user_id":164,"name":"cat","steam_id":76561198022323054,"connected_time":1272000000000,"state":"active","ping":105},{"user_id":188,"name":"Slice of Meat [415fam,NERD]","steam_id":76561198004553723,"connected_time":227000000000,"state":"active","ping":110},{"user_id":173,"name":"Loki","steam_id":76561199004643155,"connected_time":759000000000,"state":"active","ping":112},{"user_id":165,"name":"Fifa Kratos","steam_id":76561198155344486,"connected_time":1270000000000,"state":"active","ping":105},{"user_id":192,"name":"crittr","steam_id":76561198014302068,"connected_time":78000000000,"state":"active","ping":106},{"user_id":162,"name":"StatingKnot","steam_id":76561199190634968,"connected_time":1403000000000,"state":"active","ping":111},{"user_id":193,"name":"SAD MOSCOVIA","steam_id":76561198101081520,"connected_time":65000000000,"state":"active","ping":74},{"user_id":194,"name":"Normal Ass Flamingo","steam_id":76561198052454922,"connected_time":55000000000,"state":"active","ping":135},{"user_id":195,"name":"money ass","steam_id":76561198174751517,"connected_time":22000000000,"state":"spawning","ping":53},{"user_id":190,"name":"Blue","steam_id":76561198044783898,"connected_time":182000000000,"state":"active","ping":89},{"user_id":191,"name":"BANGARANG","steam_id":76561198816597453,"connected_time":171000000000,"state":"active","ping":108},{"user_id":196,"name":"Dr. Tropen","steam_id":76561198405271669,"connected_time":13000000000,"state":"spawning","ping":94},{"user_id":148,"name":"Franz","steam_id":76561198041929745,"connected_time":2665000000000,"state":"active","ping":46}]},{"server_id":18,"name":"Uncletopia | San Francisco | 2 | All Maps","name_short":"sfo-2","host":"sfo-1.us.uncletopia.com","port":27025,"enabled":true,"region":"us-west","cc":"us","latitude":37.77397,"longitude":-122.4313,"reserved":0,"last_update":"0001-01-01T00:00:00Z","name_a2s":"Uncletopia | San Francisco | 2 | All Maps","protocol":17,"map":"koth_brazil","folder":"tf","game":"Team Fortress","app_id":440,"player_count":24,"max_players":24,"Bots":0,"server_type":"Dedicated","server_os":"Linux","password":true,"vac":true,"version":"7882260","steam_id":85568392924470000,"keywords":["cp","nocrits","nodmgspread","uncletopia"],"game_id":440,"stv_port":27026,"stv_name":"Uncletopia | San Francisco | 2 | All Maps | STV","players":[{"user_id":62,"name":"Wolfman","steam_id":76561198095264646,"connected_time":635000000000,"state":"active","ping":100},{"user_id":36,"name":"andyiscolorless","steam_id":76561199239870921,"connected_time":1681000000000,"state":"active","ping":170},{"user_id":53,"name":"QWERTY_KKL","steam_id":76561199156419203,"connected_time":1237000000000,"state":"active","ping":127},{"user_id":43,"name":"BABABOOEY","steam_id":76561198843892068,"connected_time":1451000000000,"state":"active","ping":59},{"user_id":20,"name":"Kung fu Mungus","steam_id":76561198069281556,"connected_time":2763000000000,"state":"active","ping":74},{"user_id":33,"name":"Jray","steam_id":76561198831619367,"connected_time":1755000000000,"state":"active","ping":78},{"user_id":58,"name":"Bio_Optical","steam_id":76561199128084374,"connected_time":1076000000000,"state":"active","ping":68},{"user_id":17,"name":"HUMBY","steam_id":76561198065045867,"connected_time":2905000000000,"state":"active","ping":87},{"user_id":18,"name":"WesyUWU (The mini crit pig)","steam_id":76561198069188177,"connected_time":2902000000000,"state":"active","ping":74},{"user_id":60,"name":"blibblie","steam_id":76561198102462148,"connected_time":708000000000,"state":"active","ping":103},{"user_id":63,"name":"FRAGMASTERX","steam_id":76561198138718011,"connected_time":634000000000,"state":"active","ping":92},{"user_id":68,"name":"twizzy type shit","steam_id":76561198841016072,"connected_time":279000000000,"state":"active","ping":80},{"user_id":69,"name":"Gentle Opp 3","steam_id":76561198150406851,"connected_time":89000000000,"state":"active","ping":45},{"user_id":64,"name":"noceof","steam_id":76561198043656816,"connected_time":626000000000,"state":"active","ping":158},{"user_id":56,"name":"FlameWolf","steam_id":76561198234517204,"connected_time":1194000000000,"state":"active","ping":77},{"user_id":30,"name":"Dankest Cat","steam_id":76561198152685045,"connected_time":1855000000000,"state":"active","ping":140},{"user_id":31,"name":"maase","steam_id":76561199215396532,"connected_time":1851000000000,"state":"active","ping":118},{"user_id":32,"name":"DoesZeMason","steam_id":76561198186303547,"connected_time":1836000000000,"state":"active","ping":115},{"user_id":65,"name":"XxDragon4321xX","steam_id":76561198046705735,"connected_time":599000000000,"state":"active","ping":73},{"user_id":57,"name":"stboncho","steam_id":76561198172275301,"connected_time":1187000000000,"state":"active","ping":60},{"user_id":45,"name":"Jim the Fish","steam_id":76561199135784419,"connected_time":1434000000000,"state":"active","ping":136},{"user_id":61,"name":"blazingbrody","steam_id":76561198067957501,"connected_time":645000000000,"state":"active","ping":77},{"user_id":66,"name":"Lord Brocktree","steam_id":76561198415527061,"connected_time":441000000000,"state":"active","ping":72},{"user_id":67,"name":"Raeyeh","steam_id":76561198165688673,"connected_time":358000000000,"state":"active","ping":103}]},{"server_id":19,"name":"Uncletopia | San Francisco | 3 | Stopwatch Beta","name_short":"sfo-3","host":"sfo-1.us.uncletopia.com","port":27035,"enabled":true,"region":"us-west","cc":"us","latitude":37.77397,"longitude":-122.4313,"reserved":0,"last_update":"0001-01-01T00:00:00Z","name_a2s":"Uncletopia | San Francisco | 3 | Stopwatch Beta","protocol":17,"map":"pl_snowycoast","folder":"tf","game":"Team Fortress","app_id":440,"player_count":0,"max_players":24,"Bots":0,"server_type":"Dedicated","server_os":"Linux","password":true,"vac":true,"version":"7882260","steam_id":85568392924742824,"keywords":["nocrits","nodmgspread","payload","uncletopia"],"game_id":440,"stv_port":27036,"stv_name":"Uncletopia | San Francisco | 3 | Stopwatch Beta | STV","players":null},{"server_id":20,"name":"Uncletopia | San Francisco | 4 | Community","name_short":"sfo-4","host":"sfo-1.us.uncletopia.com","port":27045,"enabled":true,"region":"us-west","cc":"us","latitude":37.77397,"longitude":-122.4313,"reserved":0,"last_update":"0001-01-01T00:00:00Z","name_a2s":"Uncletopia | San Francisco | 4 | Community","protocol":17,"map":"pl_swiftwater_final1","folder":"tf","game":"Team Fortress","app_id":440,"player_count":0,"max_players":24,"Bots":0,"server_type":"Dedicated","server_os":"Linux","password":true,"vac":true,"version":"7882260","steam_id":85568392924742826,"keywords":["nocrits","nodmgspread","payload","uncletopia"],"game_id":440,"stv_port":27046,"stv_name":"Uncletopia | San Francisco | 4 | Community | STV","players":null},{"server_id":141,"name":"Uncletopia | Sydney | 1 | All Maps","name_short":"syd-1","host":"syd-1.au.uncletopia.com","port":27015,"enabled":true,"region":"au","cc":"au","latitude":-33.865143,"longitude":151.2099,"reserved":0,"last_update":"0001-01-01T00:00:00Z","name_a2s":"Uncletopia | Sydney | 1 | All Maps","protocol":17,"map":"koth_viaduct","folder":"tf","game":"Team Fortress","app_id":440,"player_count":0,"max_players":24,"Bots":0,"server_type":"Dedicated","server_os":"Linux","password":true,"vac":true,"version":"7882260","steam_id":85568392924470001,"keywords":["cp","nocrits","nodmgspread","uncletopia"],"game_id":440,"stv_port":27016,"stv_name":"Uncletopia | Sydney | 1 | All Maps | STV","players":null},{"server_id":123,"name":"Uncletopia | Sydney | 2 | All Maps","name_short":"syd-2","host":"syd-1.au.uncletopia.com","port":27025,"enabled":true,"region":"au","cc":"au","latitude":-33.865143,"longitude":151.2099,"reserved":0,"last_update":"0001-01-01T00:00:00Z","name_a2s":"Uncletopia | Sydney | 2 | All Maps","protocol":17,"map":"cp_altitude","folder":"tf","game":"Team Fortress","app_id":440,"player_count":0,"max_players":24,"Bots":0,"server_type":"Dedicated","server_os":"Linux","password":true,"vac":true,"version":"7882260","steam_id":85568392924470002,"keywords":["cp","nocrits","nodmgspread","uncletopia"],"game_id":440,"stv_port":27026,"stv_name":"Uncletopia | Sydney | 2 | All Maps | STV","players":null},{"server_id":395,"name":"Uncletopia | Sydney | 3 | All Maps","name_short":"syd-3","host":"syd-1.au.uncletopia.com","port":27035,"enabled":true,"region":"au","cc":"au","latitude":-33.865143,"longitude":151.2099,"reserved":0,"last_update":"0001-01-01T00:00:00Z","name_a2s":"Uncletopia | Sydney | 3 | All Maps","protocol":17,"map":"pl_badwater","folder":"tf","game":"Team Fortress","app_id":440,"player_count":0,"max_players":24,"Bots":0,"server_type":"Dedicated","server_os":"Linux","password":true,"vac":true,"version":"7882260","steam_id":85568392925194467,"keywords":["nocrits","nodmgspread","payload","uncletopia"],"game_id":440,"stv_port":27036,"stv_name":"Uncletopia | Sydney | 3 | All Maps | STV","players":null},{"server_id":396,"name":"Uncletopia | Sydney | 4 | All Maps","name_short":"syd-4","host":"syd-1.au.uncletopia.com","port":27045,"enabled":true,"region":"au","cc":"au","latitude":-33.865143,"longitude":151.2099,"reserved":0,"last_update":"0001-01-01T00:00:00Z","name_a2s":"Uncletopia | Sydney | 4 | All Maps","protocol":17,"map":"cp_altitude","folder":"tf","game":"Team Fortress","app_id":440,"player_count":0,"max_players":24,"Bots":0,"server_type":"Dedicated","server_os":"Linux","password":true,"vac":true,"version":"7882260","steam_id":85568392925397958,"keywords":["cp","nocrits","nodmgspread","uncletopia"],"game_id":440,"stv_port":27046,"stv_name":"Uncletopia | Sydney | 4 | All Maps | STV","players":null},{"server_id":58,"name":"Uncletopia | Sydney | 5 | Stopwatch Beta","name_short":"syd-5","host":"syd-1.au.uncletopia.com","port":27055,"enabled":true,"region":"au","cc":"au","latitude":-33.865143,"longitude":151.2099,"reserved":0,"last_update":"0001-01-01T00:00:00Z","name_a2s":"Uncletopia | Sydney | 5 | Stopwatch Beta","protocol":17,"map":"koth_viaduct","folder":"tf","game":"Team Fortress","app_id":440,"player_count":0,"max_players":24,"Bots":0,"server_type":"Dedicated","server_os":"Linux","password":true,"vac":true,"version":"7882260","steam_id":85568392925397959,"keywords":["cp","nocrits","nodmgspread","uncletopia"],"game_id":440,"stv_port":27056,"stv_name":"Uncletopia | Sydney | 5 | Stopwatch Beta | STV","players":null},{"server_id":59,"name":"Uncletopia | Sydney | 6 | Community","name_short":"syd-6","host":"syd-1.au.uncletopia.com","port":27065,"enabled":true,"region":"au","cc":"au","latitude":-33.865143,"longitude":151.2099,"reserved":0,"last_update":"0001-01-01T00:00:00Z","name_a2s":"Uncletopia | Sydney | 6 | Community","protocol":17,"map":"pl_upward","folder":"tf","game":"Team Fortress","app_id":440,"player_count":0,"max_players":24,"Bots":0,"server_type":"Dedicated","server_os":"Linux","password":true,"vac":true,"version":"7882260","steam_id":85568392925397960,"keywords":["nocrits","nodmgspread","payload","uncletopia"],"game_id":440,"stv_port":27066,"stv_name":"Uncletopia | Sydney | 6 | Community | STV","players":null},{"server_id":49,"name":"Uncletopia | Warsaw | 1 | All Maps","name_short":"waw-1","host":"waw-1.pl.uncletopia.com","port":27015,"enabled":true,"region":"eu","cc":"pl","latitude":52.2297,"longitude":21.017532,"reserved":0,"last_update":"0001-01-01T00:00:00Z","name_a2s":"","protocol":0,"map":"","folder":"","game":"","app_id":0,"player_count":0,"max_players":0,"Bots":0,"server_type":"","server_os":"","password":false,"vac":false,"version":"","steam_id":0,"keywords":null,"game_id":0,"stv_port":0,"stv_name":"","players":null},{"server_id":50,"name":"Uncletopia | Warsaw | 2 | All Maps","name_short":"waw-2","host":"waw-1.pl.uncletopia.com","port":27025,"enabled":true,"region":"eu","cc":"pl","latitude":52.2297,"longitude":21.017532,"reserved":0,"last_update":"0001-01-01T00:00:00Z","name_a2s":"Uncletopia | Warsaw | 2 | All Maps","protocol":17,"map":"koth_viaduct","folder":"tf","game":"Team Fortress","app_id":440,"player_count":0,"max_players":24,"Bots":0,"server_type":"Dedicated","server_os":"Linux","password":true,"vac":true,"version":"7882260","steam_id":85568392925397851,"keywords":["cp","nocrits","nodmgspread","uncletopia"],"game_id":440,"stv_port":27026,"stv_name":"Uncletopia | Warsaw | 2 | All Maps | STV","players":null},{"server_id":51,"name":"Uncletopia | Warsaw | 3 | All Maps","name_short":"waw-3","host":"waw-1.pl.uncletopia.com","port":27035,"enabled":true,"region":"eu","cc":"pl","latitude":52.2297,"longitude":21.017532,"reserved":0,"last_update":"0001-01-01T00:00:00Z","name_a2s":"Uncletopia | Warsaw | 3 | All Maps","protocol":17,"map":"koth_lakeside_final","folder":"tf","game":"Team Fortress","app_id":440,"player_count":19,"max_players":24,"Bots":0,"server_type":"Dedicated","server_os":"Linux","password":true,"vac":true,"version":"7882260","steam_id":85568392925397852,"keywords":["cp","nocrits","nodmgspread","uncletopia"],"game_id":440,"stv_port":27036,"stv_name":"Uncletopia | Warsaw | 3 | All Maps | STV","players":[{"user_id":100,"name":"HatMann","steam_id":76561198821664938,"connected_time":124000000000,"state":"active","ping":63},{"user_id":101,"name":"niandits","steam_id":76561198419798900,"connected_time":105000000000,"state":"active","ping":159},{"user_id":88,"name":"Mido","steam_id":76561198014315688,"connected_time":1388000000000,"state":"active","ping":34},{"user_id":75,"name":"Laco","steam_id":76561199073073486,"connected_time":2237000000000,"state":"active","ping":99},{"user_id":9,"name":"Xestoch","steam_id":76561197999642906,"connected_time":6138000000000,"state":"active","ping":130},{"user_id":10,"name":"Morfiwen","steam_id":76561198930976764,"connected_time":6131000000000,"state":"active","ping":77},{"user_id":94,"name":"bad farter","steam_id":76561198261853441,"connected_time":1183000000000,"state":"active","ping":39},{"user_id":46,"name":"Big Water","steam_id":76561198009715361,"connected_time":4236000000000,"state":"active","ping":171},{"user_id":90,"name":"esports gamer","steam_id":76561198088426580,"connected_time":1361000000000,"state":"active","ping":75},{"user_id":73,"name":"Piter1234","steam_id":76561199085379134,"connected_time":2526000000000,"state":"active","ping":81},{"user_id":91,"name":"Hard-working immigrant","steam_id":76561198079446133,"connected_time":1306000000000,"state":"active","ping":115},{"user_id":93,"name":"Eggie","steam_id":76561199018655610,"connected_time":1233000000000,"state":"active","ping":151},{"user_id":30,"name":"Syd","steam_id":76561198020515027,"connected_time":5058000000000,"state":"active","ping":60},{"user_id":69,"name":"Men Fortress 2","steam_id":76561197999459536,"connected_time":2645000000000,"state":"active","ping":88},{"user_id":32,"name":"Hercules","steam_id":76561198041164170,"connected_time":5029000000000,"state":"active","ping":42},{"user_id":78,"name":"Latvian Edgelord","steam_id":76561198830058797,"connected_time":2175000000000,"state":"active","ping":58},{"user_id":97,"name":"Captain HandicappedCock","steam_id":76561198109850402,"connected_time":1051000000000,"state":"active","ping":86},{"user_id":99,"name":"LOBZIK","steam_id":76561198114830120,"connected_time":438000000000,"state":"active","ping":46},{"user_id":98,"name":"PerskuleBenener","steam_id":76561198156899375,"connected_time":952000000000,"state":"active","ping":85}]},{"server_id":52,"name":"Uncletopia | Warsaw | 4 | All Maps","name_short":"waw-4","host":"waw-1.pl.uncletopia.com","port":27045,"enabled":true,"region":"eu","cc":"pl","latitude":52.2297,"longitude":21.017532,"reserved":0,"last_update":"0001-01-01T00:00:00Z","name_a2s":"Uncletopia | Warsaw | 4 | All Maps","protocol":17,"map":"koth_cascade","folder":"tf","game":"Team Fortress","app_id":440,"player_count":0,"max_players":24,"Bots":0,"server_type":"Dedicated","server_os":"Linux","password":true,"vac":true,"version":"7882260","steam_id":85568392925397853,"keywords":["cp","nocrits","nodmgspread","uncletopia"],"game_id":440,"stv_port":27046,"stv_name":"Uncletopia | Warsaw | 4 | All Maps | STV","players":null},{"server_id":53,"name":"Uncletopia | Warsaw | 5 | Stopwatch Beta","name_short":"waw-5","host":"waw-1.pl.uncletopia.com","port":27055,"enabled":true,"region":"eu","cc":"pl","latitude":52.2297,"longitude":21.017532,"reserved":0,"last_update":"0001-01-01T00:00:00Z","name_a2s":"Uncletopia | Warsaw | 5 | Stopwatch Beta","protocol":17,"map":"cp_gullywash_final1","folder":"tf","game":"Team Fortress","app_id":440,"player_count":0,"max_players":24,"Bots":0,"server_type":"Dedicated","server_os":"Linux","password":true,"vac":true,"version":"7882260","steam_id":85568392925397854,"keywords":["cp","nocrits","nodmgspread","uncletopia"],"game_id":440,"stv_port":27056,"stv_name":"Uncletopia | Warsaw | 5 | Stopwatch Beta | STV","players":null},{"server_id":54,"name":"Uncletopia | Warsaw | 6 | Community","name_short":"waw-6","host":"waw-1.pl.uncletopia.com","port":27065,"enabled":true,"region":"eu","cc":"pl","latitude":52.2297,"longitude":21.017532,"reserved":0,"last_update":"0001-01-01T00:00:00Z","name_a2s":"Uncletopia | Warsaw | 6 | Community","protocol":17,"map":"workshop/cp_mannbase_rc2a.ugc1900737467","folder":"tf","game":"Team Fortress","app_id":440,"player_count":0,"max_players":24,"Bots":0,"server_type":"Dedicated","server_os":"Linux","password":true,"vac":true,"version":"7882260","steam_id":85568392925397856,"keywords":["cp","nocrits","nodmgspread","uncletopia"],"game_id":440,"stv_port":27066,"stv_name":"Uncletopia | Warsaw | 6 | Community | STV","players":null}]}