{"status":true,"message":"","result":[{"server_id":9,"name":"Uncletopia | Atlanta | 1 | All Maps","name_short":"atl-1","host":"atl-1.us.uncletopia.com","port":27015,"enabled":true,"region":"us-east","cc":"us","latitude":33.753746,"longitude":-84.38633,"reserved":0,"last_update":"0001-01-01T00:00:00Z","name_a2s":"Uncletopia | Atlanta | 1 | All Maps","protocol":17,"map":"cp_dustbowl","folder":"tf","game":"Team Fortress","app_id":440,"player_count":24,"max_players":24,"Bots":0,"server_type":"Dedicated","server_os":"Linux","password":true,"vac":true,"version":"7961495","steam_id":85568392924469982,"keywords":["cp","nocrits","nodmgspread","uncletopia"],"game_id":440,"stv_port":27016,"stv_name":"Uncletopia | Atlanta | 1 | All Maps | STV","players":null},{"server_id":104,"name":"Uncletopia | Atlanta | 2 | All Maps","name_short":"atl-2","host":"atl-1.us.uncletopia.com","port":27025,"enabled":true,"region":"us-east","cc":"us","latitude":33.753746,"longitude":-84.38633,"reserved":0,"last_update":"0001-01-01T00:00:00Z","name_a2s":"Uncletopia | Atlanta | 2 | All Maps","protocol":17,"map":"koth_cascade","folder":"tf","game":"Team Fortress","app_id":440,"player_count":2,"max_players":24,"Bots":0,"server_type":"Dedicated","server_os":"Linux","password":true,"vac":true,"version":"7961495","steam_id":85568392924469983,"keywords":["cp","nocrits","nodmgspread","uncletopia"],"game_id":440,"stv_port":27026,"stv_name":"Uncletopia | Atlanta | 2 | All Maps | STV","players":null},{"server_id":400,"name":"Uncletopia | Atlanta | 3 | Stopwatch","name_short":"atl-3","host":"atl-1.us.uncletopia.com","port":27035,"enabled":true,"region":"us-east","cc":"us","latitude":33.753746,"longitude":-84.38633,"reserved":0,"last_update":"0001-01-01T00:00:00Z","name_a2s":"Uncletopia | Atlanta | 3 | Stopwatch","protocol":17,"map":"cp_gullywash_final1","folder":"tf","game":"Team Fortress","app_id":440,"player_count":0,"max_players":24,"Bots":0,"server_type":"Dedicated","server_os":"Linux","password":true,"vac":true,"version":"7961495","steam_id":85568392924515187,"keywords":["cp","nocrits","nodmgspread","uncletopia"],"game_id":440,"stv_port":27036,"stv_name":"Uncletopia | Atlanta | 3 | Stopwatch | STV","players":null},{"server_id":401,"name":"Uncletopia | Atlanta | 4 | Community","name_short":"atl-4","host":"atl-1.us.uncletopia.com","port":27045,"enabled":true,"region":"us-east","cc":"us","latitude":33.753746,"longitude":-84.38633,"reserved":0,"last_update":"0001-01-01T00:00:00Z","name_a2s":"Uncletopia | Atlanta | 4 | Community","protocol":17,"map":"koth_trenchfoot_b1a","folder":"tf","game":"Team Fortress","app_id":440,"player_count":0,"max_players":24,"Bots":0,"server_type":"Dedicated","server_os":"Linux","password":true,"vac":true,"version":"7961495","steam_id":85568392924515188,"keywords":["cp","nocrits","nodmgspread","uncletopia"],"game_id":440,"stv_port":27046,"stv_name":"Uncletopia | Atlanta | 4 | Community | STV","players":null},{"server_id":2,"name":"Uncletopia | Chicago | 1 | All Maps","name_short":"chi-1","host":"chi-1.us.uncletopia.com","port":27015,"enabled":true,"region":"us-central","cc":"us","latitude":41.881832,"longitude":-87.62318,"reserved":0,"last_update":"0001-01-01T00:00:00Z","name_a2s":"Uncletopia | Chicago | 1 | All Maps","protocol":17,"map":"pl_badwater","folder":"tf","game":"Team Fortress","app_id":440,"player_count":1,"max_players":24,"Bots":0,"server_type":"Dedicated","server_os":"Linux","password":true,"vac":true,"version":"7961495","steam_id":85568392924469984,"keywords":["nocrits","nodmgspread","payload","uncletopia"],"game_id":440,"stv_port":27016,"stv_name":"Uncletopia | Chicago | 1 | All Maps | STV","players":[{"user_id":6,"name":"Abysa.","steam_id":76561198424398862,"connected_time":108000000000,"state":"active","ping":121}]},{"server_id":106,"name":"Uncletopia | Chicago | 2 | All Maps","name_short":"chi-2","host":"chi-1.us.uncletopia.com","port":27025,"enabled":true,"region":"us-central","cc":"us","latitude":41.881832,"longitude":-87.62318,"reserved":0,"last_update":"0001-01-01T00:00:00Z","name_a2s":"Uncletopia | Chicago | 2 | All Maps","protocol":17,"map":"cp_snakewater_final1","folder":"tf","game":"Team Fortress","app_id":440,"player_count":0,"max_players":24,"Bots":0,"server_type":"Dedicated","server_os":"Linux","password":true,"vac":true,"version":"7961495","steam_id":85568392924469985,"keywords":["cp","nocrits","nodmgspread","uncletopia"],"game_id":440,"stv_port":27026,"stv_name":"Uncletopia | Chicago | 2 | All Maps | STV","players":null},{"server_id":402,"name":"Uncletopia | Chicago | 3 | All Maps","name_short":"chi-3","host":"chi-1.us.uncletopia.com","port":27035,"enabled":true,"region":"us-central","cc":"us","latitude":41.881832,"longitude":-87.62318,"reserved":0,"last_update":"0001-01-01T00:00:00Z","name_a2s":"Uncletopia | Chicago | 3 | All Maps","protocol":17,"map":"koth_sawmill","folder":"tf","game":"Team Fortress","app_id":440,"player_count":24,"max_players":24,"Bots":0,"server_type":"Dedicated","server_os":"Linux","password":true,"vac":true,"version":"7961495","steam_id":85568392924515191,"keywords":["cp","nocrits","nodmgspread","uncletopia"],"game_id":440,"stv_port":27036,"stv_name":"Uncletopia | Chicago | 3 | All Maps | STV","players":[{"user_id":279,"name":"☂Bliffenstimmers☂","steam_id":76561198059984896,"connected_time":1444000000000,"state":"active","ping":84},{"user_id":223,"name":"Sunflower","steam_id":76561198081223793,"connected_time":3980000000000,"state":"active","ping":48},{"user_id":291,"name":"Todo Se Va","steam_id":76561198025668771,"connected_time":431000000000,"state":"active","ping":97},{"user_id":287,"name":"Kiphus","steam_id":76561198025289407,"connected_time":477000000000,"state":"active","ping":73},{"user_id":171,"name":"Rat Smoker","steam_id":76561198090419068,"connected_time":8246000000000,"state":"active","ping":116},{"user_id":292,"name":"Paul_Mc","steam_id":76561199031955413,"connected_time":407000000000,"state":"active","ping":70},{"user_id":293,"name":"ShukSama","steam_id":76561198322357608,"connected_time":392000000000,"state":"active","ping":95},{"user_id":276,"name":"Goofy Goober","steam_id":76561198941700660,"connected_time":1640000000000,"state":"active","ping":101},{"user_id":298,"name":"Mcmuffin124","steam_id":76561198077883022,"connected_time":106000000000,"state":"active","ping":77},{"user_id":281,"name":"Alabaster Eggshell","steam_id":76561198035609389,"connected_time":874000000000,"state":"active","ping":54},{"user_id":269,"name":"Chezburgures","steam_id":76561198173043730,"connected_time":1904000000000,"state":"active","ping":98},{"user_id":290,"name":"P.C. Baby","steam_id":76561198067011379,"connected_time":461000000000,"state":"active","ping":115},{"user_id":270,"name":"THE FLUMPSTER","steam_id":76561198060911025,"connected_time":1901000000000,"state":"active","ping":45},{"user_id":282,"name":"Goober Gaming","steam_id":76561198095550617,"connected_time":797000000000,"state":"active","ping":73},{"user_id":266,"name":"Furry Saul Goodman","steam_id":76561198069580305,"connected_time":1916000000000,"state":"active","ping":45},{"user_id":294,"name":"Garfield Expert","steam_id":76561198092452824,"connected_time":384000000000,"state":"active","ping":71},{"user_id":274,"name":"Saggy Haggis Balls","steam_id":76561198047845399,"connected_time":1761000000000,"state":"active","ping":87},{"user_id":278,"name":"Mister Frank","steam_id":76561198161473385,"connected_time":1464000000000,"state":"active","ping":66},{"user_id":295,"name":"Froyo Ding Dong","steam_id":76561198379421700,"connected_time":215000000000,"state":"active","ping":74},{"user_id":286,"name":"Shadow Fox","steam_id":76561197993585706,"connected_time":557000000000,"state":"active","ping":98},{"user_id":233,"name":"Fatal","steam_id":76561198061407587,"connected_time":3606000000000,"state":"active","ping":88},{"user_id":297,"name":"Jericho von Generico","steam_id":76561198206139559,"connected_time":121000000000,"state":"active","ping":81},{"user_id":151,"name":"Toxic Ron","steam_id":76561198089302972,"connected_time":10955000000000,"state":"active","ping":64},{"user_id":240,"name":"camp3r","steam_id":76561197992870439,"connected_time":3073000000000,"state":"active","ping":82}]},{"server_id":403,"name":"Uncletopia | Chicago | 4 | All Maps","name_short":"chi-4","host":"chi-1.us.uncletopia.com","port":27045,"enabled":true,"region":"us-central","cc":"us","latitude":41.881832,"longitude":-87.62318,"reserved":0,"last_update":"0001-01-01T00:00:00Z","name_a2s":"Uncletopia | Chicago | 4 | All Maps","protocol":17,"map":"cp_dustbowl","folder":"tf","game":"Team Fortress","app_id":440,"player_count":24,"max_players":24,"Bots":0,"server_type":"Dedicated","server_os":"Linux","password":true,"vac":true,"version":"7961495","steam_id":85568392924515193,"keywords":["cp","nocrits","nodmgspread","uncletopia"],"game_id":440,"stv_port":27046,"stv_name":"Uncletopia | Chicago | 4 | All Maps | STV","players":[{"user_id":39,"name":"William Wallace","steam_id":76561199343316814,"connected_time":741000000000,"state":"active","ping":73},{"user_id":9,"name":"freyja","steam_id":76561198249206656,"connected_time":1893000000000,"state":"active","ping":62},{"user_id":10,"name":"mio","steam_id":76561198239286750,"connected_time":1886000000000,"state":"active","ping":67},{"user_id":49,"name":"znunney","steam_id":76561199438501613,"connected_time":322000000000,"state":"active","ping":155},{"user_id":12,"name":"Chechens Spotted","steam_id":76561199028910893,"connected_time":1747000000000,"state":"active","ping":107},{"user_id":14,"name":"Mae","steam_id":76561198085815757,"connected_time":1581000000000,"state":"active","ping":69},{"user_id":15,"name":"Nathan","steam_id":76561199132214008,"connected_time":1552000000000,"state":"active","ping":93},{"user_id":45,"name":"Swedish Crowbar","steam_id":76561199105488936,"connected_time":575000000000,"state":"active","ping":151},{"user_id":54,"name":"why?","steam_id":76561198170390298,"connected_time":60000000000,"state":"active","ping":73},{"user_id":19,"name":"Shaby_Frost","steam_id":76561198401334563,"connected_time":1335000000000,"state":"active","ping":45},{"user_id":32,"name":"Rornir","steam_id":76561198081829615,"connected_time":879000000000,"state":"active","ping":38},{"user_id":21,"name":"Willem Dafoe","steam_id":76561198037453253,"connected_time":1278000000000,"state":"active","ping":61},{"user_id":23,"name":"creeber guy","steam_id":76561198392539722,"connected_time":1178000000000,"state":"active","ping":77},{"user_id":24,"name":"Nagasaki Sunrise","steam_id":76561198066221848,"connected_time":1124000000000,"state":"active","ping":104},{"user_id":25,"name":"ray","steam_id":76561198018181064,"connected_time":1083000000000,"state":"active","ping":75},{"user_id":28,"name":"Ten","steam_id":76561199056335837,"connected_time":989000000000,"state":"active","ping":51},{"user_id":52,"name":"haraldＨＡＲＡＬＤ","steam_id":76561198116998970,"connected_time":299000000000,"state":"active","ping":150},{"user_id":33,"name":"Rocky Balboa","steam_id":76561198922763623,"connected_time":871000000000,"state":"active","ping":105},{"user_id":34,"name":"Capybara Enjoyer","steam_id":76561199147114434,"connected_time":847000000000,"state":"active","ping":115},{"user_id":42,"name":"tsaide","steam_id":76561198384120999,"connected_time":647000000000,"state":"active","ping":71},{"user_id":53,"name":"Melaza Madera","steam_id":76561199031977210,"connected_time":287000000000,"state":"active","ping":66},{"user_id":51,"name":"newport menthol 100s CEO","steam_id":76561198050976060,"connected_time":314000000000,"state":"active","ping":45},{"user_id":41,"name":"canid is so lame","steam_id":76561198103496593,"connected_time":683000000000,"state":"active","ping":65}]},{"server_id":36,"name":"Uncletopia | Chicago | 5 | All Maps","name_short":"chi-5","host":"chi-2.us.uncletopia.com","port":27015,"enabled":true,"region":"us-central","cc":"us","latitude":41.881832,"longitude":-87.62318,"reserved":0,"last_update":"0001-01-01T00:00:00Z","name_a2s":"Uncletopia | Chicago | 5 | All Maps","protocol":17,"map":"koth_highpass","folder":"tf","game":"Team Fortress","app_id":440,"player_count":2,"max_players":24,"Bots":0,"server_type":"Dedicated","server_os":"Linux","password":true,"vac":true,"version":"7961495","steam_id":85568392924866362,"keywords":["cp","nocrits","nodmgspread","uncletopia"],"game_id":440,"stv_port":27016,"stv_name":"Uncletopia | Chicago | 5 | All Maps | STV","players":[{"user_id":25,"name":"charlie","steam_id":76561198279213338,"connected_time":353000000000,"state":"active","ping":103},{"user_id":26,"name":"Oliver","steam_id":76561198995786677,"connected_time":243000000000,"state":"active","ping":87}]},{"server_id":37,"name":"Uncletopia | Chicago | 6 | All Maps","name_short":"chi-6","host":"chi-2.us.uncletopia.com","port":27025,"enabled":true,"region":"us-central","cc":"us","latitude":41.881832,"longitude":-87.62318,"reserved":0,"last_update":"0001-01-01T00:00:00Z","name_a2s":"Uncletopia | Chicago | 6 | All Maps","protocol":17,"map":"pl_frontier_final","folder":"tf","game":"Team Fortress","app_id":440,"player_count":0,"max_players":24,"Bots":0,"server_type":"Dedicated","server_os":"Linux","password":true,"vac":true,"version":"7961495","steam_id":85568392924866363,"keywords":["nocrits","nodmgspread","payload","uncletopia"],"game_id":440,"stv_port":27026,"stv_name":"Uncletopia | Chicago | 6 | All Maps | STV","players":null},{"server_id":38,"name":"Uncletopia | Chicago | 7 | Stopwatch","name_short":"chi-7","host":"chi-2.us.uncletopia.com","port":27035,"enabled":true,"region":"us-central","cc":"us","latitude":41.881832,"longitude":-87.62318,"reserved":0,"last_update":"0001-01-01T00:00:00Z","name_a2s":"Uncletopia | Chicago | 7 | Stopwatch","protocol":17,"map":"pl_badwater","folder":"tf","game":"Team Fortress","app_id":440,"player_count":0,"max_players":24,"Bots":0,"server_type":"Dedicated","server_os":"Linux","password":true,"vac":true,"version":"7961495","steam_id":85568392924866364,"keywords":["nocrits","nodmgspread","payload","uncletopia"],"game_id":440,"stv_port":27036,"stv_name":"Uncletopia | Chicago | 7 | Stopwatch | STV","players":null},{"server_id":39,"name":"Uncletopia | Chicago | 8 | Community","name_short":"chi-8","host":"chi-2.us.uncletopia.com","port":27045,"enabled":true,"region":"us-central","cc":"us","latitude":41.881832,"longitude":-87.62318,"reserved":0,"last_update":"0001-01-01T00:00:00Z","name_a2s":"Uncletopia | Chicago | 8 | Community","protocol":17,"map":"pl_pier","folder":"tf","game":"Team Fortress","app_id":440,"player_count":0,"max_players":24,"Bots":0,"server_type":"Dedicated","server_os":"Linux","password":true,"vac":true,"version":"7961495","steam_id":85568392924866365,"keywords":["nocrits","nodmgspread","payload","uncletopia"],"game_id":440,"stv_port":27046,"stv_name":"Uncletopia | Chicago | 8 | Community | STV","players":null},{"server_id":8,"name":"Uncletopia | Dallas | 1 | All Maps","name_short":"dal-1","host":"dal-1.us.uncletopia.com","port":27015,"enabled":true,"region":"us-central","cc":"us","latitude":32.779167,"longitude":-96.80889,"reserved":0,"last_update":"0001-01-01T00:00:00Z","name_a2s":"Uncletopia | Dallas | 1 | All Maps","protocol":17,"map":"pl_borneo","folder":"tf","game":"Team Fortress","app_id":440,"player_count":24,"max_players":24,"Bots":0,"server_type":"Dedicated","server_os":"Linux","password":true,"vac":true,"version":"7961495","steam_id":85568392924469986,"keywords":["nocrits","nodmgspread","payload","uncletopia"],"game_id":440,"stv_port":27016,"stv_name":"Uncletopia | Dallas | 1 | All Maps | STV","players":[{"user_id":69,"name":"sleepy boy","steam_id":76561198049220780,"connected_time":1044000000000,"state":"active","ping":70},{"user_id":73,"name":"FI LO","steam_id":76561198976530881,"connected_time":720000000000,"state":"active","ping":74},{"user_id":8,"name":"Els","steam_id":76561198354718934,"connected_time":4883000000000,"state":"active","ping":120},{"user_id":70,"name":"Kernel","steam_id":76561197970904678,"connected_time":1033000000000,"state":"active","ping":119},{"user_id":56,"name":"CORGI.EXE","steam_id":76561198077093432,"connected_time":2012000000000,"state":"active","ping":86},{"user_id":64,"name":"Willham","steam_id":76561198065755781,"connected_time":1703000000000,"state":"active","ping":86},{"user_id":74,"name":"Coptimus10","steam_id":76561199074912882,"connected_time":663000000000,"state":"active","ping":85},{"user_id":46,"name":"allahsdroptop","steam_id":76561198133195238,"connected_time":2501000000000,"state":"active","ping":128},{"user_id":75,"name":"+ 1xyze +","steam_id":76561199014818099,"connected_time":637000000000,"state":"active","ping":84},{"user_id":57,"name":"Kaya","steam_id":76561198158557303,"connected_time":1994000000000,"state":"active","ping":101},{"user_id":54,"name":"catus","steam_id":76561198167075606,"connected_time":2035000000000,"state":"active","ping":77},{"user_id":65,"name":"BasedPoweredMan","steam_id":76561198183198382,"connected_time":1655000000000,"state":"active","ping":86},{"user_id":66,"name":"Jester","steam_id":76561198153102922,"connected_time":1181000000000,"state":"active","ping":60},{"user_id":78,"name":"eh squidward eh squidward","steam_id":76561198128849015,"connected_time":425000000000,"state":"active","ping":71},{"user_id":79,"name":"Mikael_01","steam_id":76561199080253129,"connected_time":222000000000,"state":"active","ping":187},{"user_id":27,"name":"hog cranker","steam_id":76561198073587145,"connected_time":3369000000000,"state":"active","ping":102},{"user_id":28,"name":"Jango","steam_id":76561198084589742,"connected_time":3364000000000,"state":"active","ping":76},{"user_id":77,"name":"✪ Y V E S","steam_id":76561198299479796,"connected_time":465000000000,"state":"active","ping":75},{"user_id":30,"name":"james may","steam_id":76561198043857339,"connected_time":3343000000000,"state":"active","ping":83},{"user_id":31,"name":"Rin \"Hindwing\" Redtail","steam_id":76561199074865638,"connected_time":3297000000000,"state":"active","ping":57},{"user_id":53,"name":"Yimberly","steam_id":76561199206923109,"connected_time":2047000000000,"state":"active","ping":84},{"user_id":67,"name":"Critical","steam_id":76561198123744966,"connected_time":1138000000000,"state":"active","ping":93},{"user_id":68,"name":"Uncle Kunkle","steam_id":76561199026706011,"connected_time":1125000000000,"state":"active","ping":68},{"user_id":72,"name":"small meth pouch","steam_id":76561198130412963,"connected_time":777000000000,"state":"active","ping":70}]},{"server_id":108,"name":"Uncletopia | Dallas | 2 | All Maps","name_short":"dal-2","host":"dal-1.us.uncletopia.com","port":27025,"enabled":true,"region":"us-central","cc":"us","latitude":32.779167,"longitude":-96.80889,"reserved":0,"last_update":"0001-01-01T00:00:00Z","name_a2s":"Uncletopia | Dallas | 2 | All Maps","protocol":17,"map":"cp_sunshine","folder":"tf","game":"Team Fortress","app_id":440,"player_count":24,"max_players":24,"Bots":0,"server_type":"Dedicated","server_os":"Linux","password":true,"vac":true,"version":"7961495","steam_id":85568392924469988,"keywords":["cp","nocrits","nodmgspread","uncletopia"],"game_id":440,"stv_port":27026,"stv_name":"Uncletopia | Dallas | 2 | All Maps | STV","players":[{"user_id":317,"name":"Cereal","steam_id":76561198128418112,"connected_time":541000000000,"state":"active","ping":82},{"user_id":288,"name":"Leonardo Da Pinchi","steam_id":76561198301936619,"connected_time":1976000000000,"state":"active","ping":129},{"user_id":314,"name":"DivineBanana","steam_id":76561198026529731,"connected_time":727000000000,"state":"active","ping":89},{"user_id":302,"name":"paypur -rng","steam_id":76561198214370515,"connected_time":1015000000000,"state":"active","ping":88},{"user_id":241,"name":"Jaminhawk","steam_id":76561198308512984,"connected_time":6223000000000,"state":"active","ping":94},{"user_id":277,"name":"Sergeant Snowflake","steam_id":76561198041474489,"connected_time":2982000000000,"state":"active","ping":80},{"user_id":318,"name":"mr poop","steam_id":76561199195196632,"connected_time":502000000000,"state":"active","ping":55},{"user_id":313,"name":"Taco+Taco=Burrito","steam_id":76561198063128663,"connected_time":754000000000,"state":"active","ping":77},{"user_id":320,"name":"De MonkE","steam_id":76561198140626221,"connected_time":349000000000,"state":"active","ping":32},{"user_id":305,"name":"Walmart Employee","steam_id":76561198840373909,"connected_time":937000000000,"state":"active","ping":95},{"user_id":287,"name":"anotherl2","steam_id":76561198354418895,"connected_time":2132000000000,"state":"active","ping":113},{"user_id":306,"name":"MrManlet","steam_id":76561198148597989,"connected_time":906000000000,"state":"active","ping":121},{"user_id":321,"name":"Squagol","steam_id":76561197987486159,"connected_time":204000000000,"state":"active","ping":64},{"user_id":307,"name":"☆Doggirl Genius☆","steam_id":76561198083243888,"connected_time":890000000000,"state":"active","ping":91},{"user_id":283,"name":"Rob","steam_id":76561199187786660,"connected_time":2724000000000,"state":"active","ping":56},{"user_id":308,"name":"celestia ludenberg","steam_id":76561199196437823,"connected_time":881000000000,"state":"active","ping":98},{"user_id":226,"name":"cheeseball","steam_id":76561198107078963,"connected_time":6884000000000,"state":"active","ping":82},{"user_id":282,"name":"SCraig64","steam_id":76561198171251965,"connected_time":2847000000000,"state":"active","ping":51},{"user_id":309,"name":"Idiotden","steam_id":76561199340950135,"connected_time":869000000000,"state":"active","ping":82},{"user_id":236,"name":"menonamed","steam_id":76561198199564382,"connected_time":6313000000000,"state":"active","ping":85},{"user_id":262,"name":"misterspud","steam_id":76561198195306218,"connected_time":5053000000000,"state":"active","ping":77},{"user_id":312,"name":"TeethMonger","steam_id":76561199403134121,"connected_time":776000000000,"state":"active","ping":83},{"user_id":316,"name":"bfaesmtbaoryd","steam_id":76561198849493219,"connected_time":639000000000,"state":"active","ping":79},{"user_id":296,"name":"FrostNova","steam_id":76561198348354629,"connected_time":1608000000000,"state":"active","ping":83}]},{"server_id":404,"name":"Uncletopia | Dallas | 3 | All Maps","name_short":"dal-3","host":"dal-1.us.uncletopia.com","port":27035,"enabled":true,"region":"us-central","cc":"us","latitude":32.779167,"longitude":-96.80889,"reserved":0,"last_update":"0001-01-01T00:00:00Z","name_a2s":"Uncletopia | Dallas | 3 | All Maps","protocol":17,"map":"pl_badwater","folder":"tf","game":"Team Fortress","app_id":440,"player_count":0,"max_players":24,"Bots":0,"server_type":"Dedicated","server_os":"Linux","password":true,"vac":true,"version":"7961495","steam_id":85568392924515219,"keywords":["nocrits","nodmgspread","payload","uncletopia"],"game_id":440,"stv_port":27036,"stv_name":"Uncletopia | Dallas | 3 | All Maps | STV","players":null},{"server_id":405,"name":"Uncletopia | Dallas | 4 | Community","name_short":"dal-4","host":"dal-1.us.uncletopia.com","port":27045,"enabled":true,"region":"us-central","cc":"us","latitude":32.779167,"longitude":-96.80889,"reserved":0,"last_update":"0001-01-01T00:00:00Z","name_a2s":"Uncletopia | Dallas | 4 | Community","protocol":17,"map":"pl_pier","folder":"tf","game":"Team Fortress","app_id":440,"player_count":0,"max_players":24,"Bots":0,"server_type":"Dedicated","server_os":"Linux","password":true,"vac":true,"version":"7961495","steam_id":85568392924515220,"keywords":["nocrits","nodmgspread","payload","uncletopia"],"game_id":440,"stv_port":27046,"stv_name":"Uncletopia | Dallas | 4 | Community | STV","players":null},{"server_id":5,"name":"Uncletopia | Frankfurt | 1 | All Maps","name_short":"frk-1","host":"frk-1.de.uncletopia.com","port":27015,"enabled":true,"region":"eu","cc":"de","latitude":50.110924,"longitude":8.682127,"reserved":0,"last_update":"0001-01-01T00:00:00Z","name_a2s":"Uncletopia | Frankfurt | 1 | All Maps","protocol":17,"map":"koth_harvest_final","folder":"tf","game":"Team Fortress","app_id":440,"player_count":23,"max_players":24,"Bots":0,"server_type":"Dedicated","server_os":"Linux","password":true,"vac":true,"version":"7961495","steam_id":85568392924469989,"keywords":["cp","nocrits","nodmgspread","uncletopia"],"game_id":440,"stv_port":27016,"stv_name":"Uncletopia | Frankfurt | 1 | All Maps | STV","players":[{"user_id":251,"name":"Me when fort no funny","steam_id":76561198082502910,"connected_time":2376000000000,"state":"active","ping":51},{"user_id":285,"name":"TopG","steam_id":76561199073458168,"connected_time":1233000000000,"state":"active","ping":62},{"user_id":287,"name":"Aleknat","steam_id":76561198055379857,"connected_time":1181000000000,"state":"active","ping":62},{"user_id":274,"name":"Virgineer","steam_id":76561199140814522,"connected_time":1643000000000,"state":"active","ping":92},{"user_id":297,"name":"Lalo","steam_id":76561198096997069,"connected_time":672000000000,"state":"active","ping":75},{"user_id":257,"name":"[SSRB] Kiri","steam_id":76561198193983787,"connected_time":2265000000000,"state":"active","ping":139},{"user_id":275,"name":"IShagMyCat","steam_id":76561199384639549,"connected_time":1630000000000,"state":"active","ping":66},{"user_id":277,"name":"ʲᶠᵍ ♛","steam_id":76561199062437546,"connected_time":1568000000000,"state":"active","ping":53},{"user_id":299,"name":"Osqq :s","steam_id":76561198075465106,"connected_time":546000000000,"state":"active","ping":75},{"user_id":247,"name":"Mega Man Legends 3","steam_id":76561198014110199,"connected_time":2783000000000,"state":"active","ping":53},{"user_id":270,"name":"F4.exe","steam_id":76561198278822807,"connected_time":1792000000000,"state":"active","ping":60},{"user_id":300,"name":"quarks and stuff","steam_id":76561198137869662,"connected_time":51000000000,"state":"active","ping":79},{"user_id":301,"name":"Finkaksu","steam_id":76561198201389163,"connected_time":47000000000,"state":"active","ping":63},{"user_id":235,"name":"elmstJP ₪ F4.exe","steam_id":76561197997909480,"connected_time":3976000000000,"state":"active","ping":71},{"user_id":279,"name":"LaserDisc_","steam_id":76561198048461220,"connected_time":1532000000000,"state":"active","ping":74},{"user_id":236,"name":"Carter","steam_id":76561198005243938,"connected_time":3975000000000,"state":"active","ping":63},{"user_id":282,"name":"Khrinde","steam_id":76561198036744526,"connected_time":1407000000000,"state":"active","ping":90},{"user_id":302,"name":"kilo","steam_id":76561198015641339,"connected_time":33000000000,"state":"active","ping":75},{"user_id":290,"name":"Mateumt","steam_id":76561198101669791,"connected_time":1098000000000,"state":"active","ping":62},{"user_id":296,"name":"Caliban","steam_id":76561197999696839,"connected_time":760000000000,"state":"active","ping":102},{"user_id":303,"name":"MaypulSoyrup","steam_id":76561199213966821,"connected_time":25000000000,"state":"active","ping":124},{"user_id":237,"name":"The Manager of Sex","steam_id":76561198385989487,"connected_time":3951000000000,"state":"active","ping":96},{"user_id":298,"name":"adie","steam_id":76561198255874943,"connected_time":610000000000,"state":"active","ping":75}]},{"server_id":110,"name":"Uncletopia | Frankfurt | 2 | All Maps","name_short":"frk-2","host":"frk-1.de.uncletopia.com","port":27025,"enabled":true,"region":"eu","cc":"de","latitude":50.110924,"longitude":8.682127,"reserved":0,"last_update":"0001-01-01T00:00:00Z","name_a2s":"Uncletopia | Frankfurt | 2 | All Maps","protocol":17,"map":"pl_goldrush","folder":"tf","game":"Team Fortress","app_id":440,"player_count":24,"max_players":24,"Bots":0,"server_type":"Dedicated","server_os":"Linux","password":true,"vac":true,"version":"7961495","steam_id":85568392924469990,"keywords":["nocrits","nodmgspread","payload","uncletopia"],"game_id":440,"stv_port":27026,"stv_name":"Uncletopia | Frankfurt | 2 | All Maps | STV","players":[{"user_id":208,"name":"Lordware","steam_id":76561198022011299,"connected_time":2293000000000,"state":"active","ping":109},{"user_id":245,"name":"bad_egg","steam_id":76561198870666753,"connected_time":1046000000000,"state":"active","ping":92},{"user_id":250,"name":"luigi gaming","steam_id":76561198044717076,"connected_time":503000000000,"state":"active","ping":60},{"user_id":252,"name":"Ander Escobar","steam_id":76561198335366902,"connected_time":484000000000,"state":"active","ping":96},{"user_id":254,"name":"Flying skyhigh","steam_id":76561198372971096,"connected_time":434000000000,"state":"active","ping":71},{"user_id":249,"name":"Corona Virus","steam_id":76561198063897745,"connected_time":609000000000,"state":"active","ping":72},{"user_id":243,"name":"Бархатная_тяга","steam_id":76561198139475294,"connected_time":1350000000000,"state":"active","ping":113},{"user_id":231,"name":"rets_","steam_id":76561198061551392,"connected_time":1745000000000,"state":"active","ping":48},{"user_id":251,"name":"buble with funny colors","steam_id":76561198314959808,"connected_time":501000000000,"state":"active","ping":92},{"user_id":256,"name":"Wizard","steam_id":76561198194684381,"connected_time":48000000000,"state":"spawning","ping":69},{"user_id":204,"name":"jjkun786","steam_id":76561199438517484,"connected_time":2572000000000,"state":"active","ping":41},{"user_id":244,"name":"4","steam_id":76561197964945192,"connected_time":1142000000000,"state":"active","ping":50},{"user_id":218,"name":"Tammrock","steam_id":76561198029322294,"connected_time":1956000000000,"state":"active","ping":75},{"user_id":219,"name":"RistleyPristley","steam_id":76561198129583229,"connected_time":1936000000000,"state":"active","ping":74},{"user_id":220,"name":"theally105","steam_id":76561199171663406,"connected_time":1898000000000,"state":"active","ping":186},{"user_id":234,"name":"ratot","steam_id":76561198063132645,"connected_time":1684000000000,"state":"active","ping":46},{"user_id":223,"name":"SPOOKY_","steam_id":76561198073395404,"connected_time":1854000000000,"state":"active","ping":80},{"user_id":246,"name":"janvaljen","steam_id":76561198017781450,"connected_time":1031000000000,"state":"active","ping":104},{"user_id":258,"name":"Dolphin","steam_id":76561198026312555,"connected_time":13000000000,"state":"active","ping":116},{"user_id":232,"name":"[P-roc] Cmm Bert","steam_id":76561198016658674,"connected_time":1738000000000,"state":"active","ping":75},{"user_id":255,"name":"TekuSP","steam_id":76561198072367754,"connected_time":426000000000,"state":"active","ping":50},{"user_id":230,"name":"norm_pokord","steam_id":76561198305771994,"connected_time":1785000000000,"state":"active","ping":86},{"user_id":235,"name":"very-cringy-boi1906","steam_id":76561199126787045,"connected_time":1665000000000,"state":"active","ping":96},{"user_id":237,"name":"Potato","steam_id":76561198184310425,"connected_time":1657000000000,"state":"active","ping":115}]},{"server_id":308,"name":"Uncletopia | Frankfurt | 3 | All Maps","name_short":"frk-3","host":"frk-1.de.uncletopia.com","port":27035,"enabled":true,"region":"eu","cc":"de","latitude":50.110924,"longitude":8.682127,"reserved":0,"last_update":"0001-01-01T00:00:00Z","name_a2s":"Uncletopia | Frankfurt | 3 | All Maps","protocol":17,"map":"pl_thundermountain","folder":"tf","game":"Team Fortress","app_id":440,"player_count":24,"max_players":24,"Bots":0,"server_type":"Dedicated","server_os":"Linux","password":true,"vac":true,"version":"7961495","steam_id":85568392924504274,"keywords":["nocrits","nodmgspread","payload","uncletopia"],"game_id":440,"stv_port":27036,"stv_name":"Uncletopia | Frankfurt | 3 | All Maps | STV","players":[{"user_id":385,"name":"Vel0city","steam_id":76561198049687798,"connected_time":754000000000,"state":"active","ping":46},{"user_id":373,"name":"GabGame","steam_id":76561198105631808,"connected_time":1637000000000,"state":"active","ping":54},{"user_id":377,"name":"umutvelet","steam_id":76561199158730174,"connected_time":1503000000000,"state":"active","ping":79},{"user_id":280,"name":"jones","steam_id":76561198044434971,"connected_time":8879000000000,"state":"active","ping":55},{"user_id":355,"name":"superx","steam_id":76561198044976613,"connected_time":3005000000000,"state":"active","ping":144},{"user_id":380,"name":"rwota","steam_id":76561198385769722,"connected_time":1133000000000,"state":"active","ping":109},{"user_id":386,"name":"GGabe","steam_id":76561198117199068,"connected_time":622000000000,"state":"active","ping":79},{"user_id":298,"name":"Weebot00","steam_id":76561199479204459,"connected_time":7000000000000,"state":"active","ping":78},{"user_id":378,"name":"Real (Real)","steam_id":76561198323425034,"connected_time":1489000000000,"state":"active","ping":83},{"user_id":384,"name":"The Builder","steam_id":76561198403959663,"connected_time":825000000000,"state":"active","ping":81},{"user_id":374,"name":"Jazzlike","steam_id":76561198839813662,"connected_time":1629000000000,"state":"active","ping":70},{"user_id":53,"name":"hyvakii705","steam_id":76561198086630552,"connected_time":23000000000000,"state":"active","ping":103},{"user_id":375,"name":"Archive","steam_id":76561198071255385,"connected_time":1594000000000,"state":"active","ping":93},{"user_id":335,"name":"TaiFaitter","steam_id":76561198844647170,"connected_time":3654000000000,"state":"active","ping":79},{"user_id":379,"name":"Apollo17","steam_id":76561198886930836,"connected_time":1200000000000,"state":"active","ping":86},{"user_id":371,"name":"She-peng","steam_id":76561199027065608,"connected_time":1793000000000,"state":"active","ping":68},{"user_id":265,"name":"Fart whisper","steam_id":76561198042593027,"connected_time":10349000000000,"state":"active","ping":88},{"user_id":365,"name":"r0la","steam_id":76561198128315340,"connected_time":2684000000000,"state":"active","ping":93},{"user_id":369,"name":"Pvt Talbot","steam_id":76561198261001389,"connected_time":1996000000000,"state":"active","ping":56},{"user_id":372,"name":"scott steiners strongest warrio","steam_id":76561198148888622,"connected_time":1793000000000,"state":"active","ping":71},{"user_id":336,"name":"thekoolest88","steam_id":76561199022415672,"connected_time":3604000000000,"state":"active","ping":143},{"user_id":366,"name":"kgf","steam_id":76561198181442259,"connected_time":2682000000000,"state":"active","ping":48},{"user_id":383,"name":"Stuid","steam_id":76561199427506542,"connected_time":876000000000,"state":"active","ping":82},{"user_id":351,"name":"Luxotrics","steam_id":76561198053455161,"connected_time":3170000000000,"state":"active","ping":85}]},{"server_id":309,"name":"Uncletopia | Frankfurt | 4 | All Maps","name_short":"frk-4","host":"frk-1.de.uncletopia.com","port":27045,"enabled":true,"region":"eu","cc":"de","latitude":50.110924,"longitude":8.682127,"reserved":0,"last_update":"0001-01-01T00:00:00Z","name_a2s":"Uncletopia | Frankfurt | 4 | All Maps","protocol":17,"map":"cp_snakewater_final1","folder":"tf","game":"Team Fortress","app_id":440,"player_count":24,"max_players":24,"Bots":0,"server_type":"Dedicated","server_os":"Linux","password":true,"vac":true,"version":"7961495","steam_id":85568392924504275,"keywords":["cp","nocrits","nodmgspread","uncletopia"],"game_id":440,"stv_port":27046,"stv_name":"Uncletopia | Frankfurt | 4 | All Maps | STV","players":[{"user_id":174,"name":"Bajas","steam_id":76561198179339326,"connected_time":2814000000000,"state":"active","ping":76},{"user_id":182,"name":"Zhyvje Bjelarus'!","steam_id":76561199293036742,"connected_time":2122000000000,"state":"active","ping":61},{"user_id":188,"name":"Masster","steam_id":76561198136111053,"connected_time":1407000000000,"state":"active","ping":78},{"user_id":187,"name":"Maximilian1359","steam_id":76561198152439608,"connected_time":1507000000000,"state":"active","ping":54},{"user_id":132,"name":"Valiant Mouse","steam_id":76561198119722453,"connected_time":5032000000000,"state":"active","ping":65},{"user_id":66,"name":"wasps","steam_id":76561198049485054,"connected_time":9364000000000,"state":"active","ping":75},{"user_id":200,"name":"Mr. Enjoy da money","steam_id":76561198152681460,"connected_time":420000000000,"state":"active","ping":68},{"user_id":169,"name":"MargoulGetron","steam_id":76561198020551698,"connected_time":2895000000000,"state":"active","ping":62},{"user_id":164,"name":"xavier","steam_id":76561198076494034,"connected_time":3168000000000,"state":"active","ping":55},{"user_id":176,"name":"Ziy???","steam_id":76561197995765491,"connected_time":2576000000000,"state":"active","ping":64},{"user_id":189,"name":"TнundeгCuпт","steam_id":76561198135091800,"connected_time":1402000000000,"state":"active","ping":51},{"user_id":198,"name":"Dark Wizart","steam_id":76561198377689439,"connected_time":691000000000,"state":"active","ping":71},{"user_id":185,"name":"Oblivion","steam_id":76561198352683491,"connected_time":1683000000000,"state":"active","ping":56},{"user_id":199,"name":"King Ferret","steam_id":76561198067805637,"connected_time":546000000000,"state":"active","ping":69},{"user_id":127,"name":"mixxxa_french","steam_id":76561198085098243,"connected_time":5428000000000,"state":"active","ping":99},{"user_id":172,"name":"Geoff the Oracle","steam_id":76561198053759965,"connected_time":2838000000000,"state":"active","ping":70},{"user_id":190,"name":"Vince","steam_id":76561199103000131,"connected_time":1391000000000,"state":"active","ping":59},{"user_id":195,"name":"PingouinPoilu","steam_id":76561198025089253,"connected_time":1010000000000,"state":"active","ping":69},{"user_id":196,"name":"SPONGE","steam_id":76561198040933472,"connected_time":999000000000,"state":"active","ping":59},{"user_id":157,"name":"Cosmetic brain","steam_id":76561198055936410,"connected_time":3545000000000,"state":"active","ping":88},{"user_id":183,"name":"MISTER SUIIII","steam_id":76561198018330092,"connected_time":2095000000000,"state":"active","ping":84},{"user_id":192,"name":"benifis163","steam_id":76561198420973492,"connected_time":1337000000000,"state":"active","ping":93},{"user_id":158,"name":"Pico","steam_id":76561198063552545,"connected_time":3478000000000,"state":"active","ping":101},{"user_id":173,"name":"Snokie Boi","steam_id":76561198081126247,"connected_time":2832000000000,"state":"active","ping":60}]},{"server_id":310,"name":"Uncletopia | Frankfurt | 5 | All Maps","name_short":"frk-5","host":"frk-1.de.uncletopia.com","port":27055,"enabled":true,"region":"eu","cc":"de","latitude":50.110924,"longitude":8.682127,"reserved":0,"last_update":"0001-01-01T00:00:00Z","name_a2s":"Uncletopia | Frankfurt | 5 | All Maps","protocol":17,"map":"pl_snowycoast","folder":"tf","game":"Team Fortress","app_id":440,"player_count":1,"max_players":24,"Bots":0,"server_type":"Dedicated","server_os":"Linux","password":true,"vac":true,"version":"7961495","steam_id":85568392924504277,"keywords":["nocrits","nodmgspread","payload","uncletopia"],"game_id":440,"stv_port":27056,"stv_name":"Uncletopia | Frankfurt | 5 | All Maps | STV","players":[{"user_id":21,"name":"kräk","steam_id":76561198040725235,"connected_time":108000000000,"state":"active","ping":65}]},{"server_id":311,"name":"Uncletopia | Frankfurt | 6 | All Maps","name_short":"frk-6","host":"frk-1.de.uncletopia.com","port":27065,"enabled":true,"region":"eu","cc":"de","latitude":50.110924,"longitude":8.682127,"reserved":0,"last_update":"0001-01-01T00:00:00Z","name_a2s":"Uncletopia | Frankfurt | 6 | All Maps","protocol":17,"map":"cp_process_final","folder":"tf","game":"Team Fortress","app_id":440,"player_count":24,"max_players":24,"Bots":0,"server_type":"Dedicated","server_os":"Linux","password":true,"vac":true,"version":"7961495","steam_id":85568392924504278,"keywords":["cp","nocrits","nodmgspread","uncletopia"],"game_id":440,"stv_port":27066,"stv_name":"Uncletopia | Frankfurt | 6 | All Maps | STV","players":[{"user_id":482,"name":"KINGSTON G","steam_id":76561198093073758,"connected_time":15000000000,"state":"active","ping":94},{"user_id":440,"name":"Šumnik","steam_id":76561198014888042,"connected_time":3019000000000,"state":"active","ping":48},{"user_id":474,"name":"Vinhal Keller","steam_id":76561198145589528,"connected_time":462000000000,"state":"active","ping":44},{"user_id":459,"name":"ashley","steam_id":76561198448551449,"connected_time":1531000000000,"state":"spawning","ping":143},{"user_id":415,"name":"sAmasam","steam_id":76561198114953928,"connected_time":4938000000000,"state":"active","ping":57},{"user_id":472,"name":"sui","steam_id":76561198185348855,"connected_time":576000000000,"state":"active","ping":60},{"user_id":456,"name":"just_adhenz1284 #SaveTF2","steam_id":76561198293654671,"connected_time":1644000000000,"state":"active","ping":176},{"user_id":466,"name":"glyph","steam_id":76561197980736364,"connected_time":1262000000000,"state":"active","ping":71},{"user_id":481,"name":"update TF2","steam_id":76561198219107775,"connected_time":39000000000,"state":"active","ping":62},{"user_id":457,"name":"KLAMA  ❤","steam_id":76561198351549661,"connected_time":1623000000000,"state":"active","ping":61},{"user_id":478,"name":"Amandus","steam_id":76561198036281079,"connected_time":73000000000,"state":"active","ping":50},{"user_id":483,"name":"Alegz","steam_id":76561198287810139,"connected_time":7000000000,"state":"spawning","ping":45},{"user_id":467,"name":"Medium sized Cunt","steam_id":76561199012566222,"connected_time":1257000000000,"state":"active","ping":57},{"user_id":458,"name":"sadistic catgirl","steam_id":76561198974207724,"connected_time":1603000000000,"state":"active","ping":105},{"user_id":470,"name":"_Alonso","steam_id":76561198041893314,"connected_time":984000000000,"state":"active","ping":45},{"user_id":460,"name":"Itai","steam_id":76561198804555329,"connected_time":1508000000000,"state":"active","ping":87},{"user_id":471,"name":"c4ctus","steam_id":76561198925655488,"connected_time":949000000000,"state":"active","ping":87},{"user_id":448,"name":"Vratis","steam_id":76561198062957725,"connected_time":2879000000000,"state":"active","ping":61},{"user_id":473,"name":"Frenderus","steam_id":76561199023861059,"connected_time":566000000000,"state":"active","ping":135},{"user_id":477,"name":"TriRИЌ","steam_id":76561198119622375,"connected_time":347000000000,"state":"active","ping":75},{"user_id":479,"name":"Dakeyras","steam_id":76561198057069564,"connected_time":73000000000,"state":"active","ping":101},{"user_id":464,"name":"Silver","steam_id":76561198175238807,"connected_time":1393000000000,"state":"active","ping":76},{"user_id":476,"name":"Norret Gantier","steam_id":76561198170062453,"connected_time":397000000000,"state":"active","ping":79},{"user_id":446,"name":"Vitun vittu","steam_id":76561198110679463,"connected_time":2968000000000,"state":"active","ping":75}]},{"server_id":23,"name":"Uncletopia | Frankfurt | 7 | Stopwatch","name_short":"frk-7","host":"frk-1.de.uncletopia.com","port":27075,"enabled":true,"region":"eu","cc":"de","latitude":50.110924,"longitude":8.682127,"reserved":0,"last_update":"0001-01-01T00:00:00Z","name_a2s":"Uncletopia | Frankfurt | 7 | Stopwatch","protocol":17,"map":"koth_lakeside_final","folder":"tf","game":"Team Fortress","app_id":440,"player_count":0,"max_players":24,"Bots":0,"server_type":"Dedicated","server_os":"Linux","password":true,"vac":true,"version":"7961495","steam_id":85568392924742827,"keywords":["cp","nocrits","nodmgspread","uncletopia"],"game_id":440,"stv_port":27076,"stv_name":"Uncletopia | Frankfurt | 7 | Stopwatch | STV","players":null},{"server_id":24,"name":"Uncletopia | Frankfurt | 8 | Community","name_short":"frk-8","host":"frk-1.de.uncletopia.com","port":27085,"enabled":true,"region":"eu","cc":"de","latitude":50.110924,"longitude":8.682127,"reserved":0,"last_update":"0001-01-01T00:00:00Z","name_a2s":"Uncletopia | Frankfurt | 8 | Community","protocol":17,"map":"workshop/koth_synthetic_rc6a.ugc1549817316","folder":"tf","game":"Team Fortress","app_id":440,"player_count":1,"max_players":24,"Bots":0,"server_type":"Dedicated","server_os":"Linux","password":true,"vac":true,"version":"7961495","steam_id":85568392924742828,"keywords":["cp","nocrits","nodmgspread","uncletopia"],"game_id":440,"stv_port":27086,"stv_name":"Uncletopia | Frankfurt | 8 | Community | STV","players":[{"user_id":14,"name":"Deemaské","steam_id":76561199225833593,"connected_time":157000000000,"state":"spawning","ping":231}]},{"server_id":202,"name":"Uncletopia | Hong Kong | 1 | All Maps","name_short":"hgk-1","host":"hgk-1.hk.uncletopia.com","port":27015,"enabled":true,"region":"asia","cc":"hk","latitude":22.302711,"longitude":114.177216,"reserved":0,"last_update":"0001-01-01T00:00:00Z","name_a2s":"Uncletopia | Hong Kong | 1 | All Maps","protocol":17,"map":"pl_barnblitz","folder":"tf","game":"Team Fortress","app_id":440,"player_count":4,"max_players":24,"Bots":0,"server_type":"Dedicated","server_os":"Linux","password":true,"vac":true,"version":"7961495","steam_id":85568392924494504,"keywords":["nocrits","nodmgspread","payload","uncletopia"],"game_id":440,"stv_port":27016,"stv_name":"Uncletopia | Hong Kong | 1 | All Maps | STV","players":[{"user_id":680,"name":"Water Buffalo","steam_id":76561198200672038,"connected_time":1275000000000,"state":"active","ping":88},{"user_id":681,"name":"Reggie","steam_id":76561199206904501,"connected_time":836000000000,"state":"active","ping":55},{"user_id":635,"name":"Rokuri","steam_id":76561198098501872,"connected_time":5729000000000,"state":"active","ping":91},{"user_id":618,"name":"Jun-char","steam_id":76561198126774704,"connected_time":7170000000000,"state":"active","ping":84}]},{"server_id":1,"name":"Uncletopia | Los Angeles | 1 | All Maps","name_short":"lax-1","host":"lax-1.us.uncletopia.com","port":27015,"enabled":true,"region":"us-west","cc":"us","latitude":33.94279,"longitude":-118.41004,"reserved":0,"last_update":"0001-01-01T00:00:00Z","name_a2s":"Uncletopia | Los Angeles | 1 | All Maps","protocol":17,"map":"pl_badwater","folder":"tf","game":"Team Fortress","app_id":440,"player_count":0,"max_players":24,"Bots":0,"server_type":"Dedicated","server_os":"Linux","password":true,"vac":true,"version":"7961495","steam_id":85568392924469991,"keywords":["nocrits","nodmgspread","payload","uncletopia"],"game_id":440,"stv_port":27016,"stv_name":"Uncletopia | Los Angeles | 1 | All Maps | STV","players":null},{"server_id":112,"name":"Uncletopia | Los Angeles | 2 | All Maps","name_short":"lax-2","host":"lax-1.us.uncletopia.com","port":27025,"enabled":true,"region":"us-west","cc":"us","latitude":33.94279,"longitude":-118.41004,"reserved":0,"last_update":"0001-01-01T00:00:00Z","name_a2s":"Uncletopia | Los Angeles | 2 | All Maps","protocol":17,"map":"pl_swiftwater_final1","folder":"tf","game":"Team Fortress","app_id":440,"player_count":0,"max_players":24,"Bots":0,"server_type":"Dedicated","server_os":"Linux","password":true,"vac":true,"version":"7961495","steam_id":85568392924469992,"keywords":["nocrits","nodmgspread","payload","uncletopia"],"game_id":440,"stv_port":27026,"stv_name":"Uncletopia | Los Angeles | 2 | All Maps | STV","players":null},{"server_id":324,"name":"Uncletopia | Los Angeles | 3 | All Maps","name_short":"lax-3","host":"lax-1.us.uncletopia.com","port":27035,"enabled":true,"region":"us-west","cc":"us","latitude":33.94279,"longitude":-118.41004,"reserved":0,"last_update":"0001-01-01T00:00:00Z","name_a2s":"Uncletopia | Los Angeles | 3 | All Maps","protocol":17,"map":"koth_highpass","folder":"tf","game":"Team Fortress","app_id":440,"player_count":0,"max_players":24,"Bots":0,"server_type":"Dedicated","server_os":"Linux","password":true,"vac":true,"version":"7961495","steam_id":85568392924510198,"keywords":["cp","nocrits","nodmgspread","uncletopia"],"game_id":440,"stv_port":27036,"stv_name":"Uncletopia | Los Angeles | 3 | All Maps | STV","players":null},{"server_id":25,"name":"Uncletopia | Los Angeles | 4 | Stopwatch","name_short":"lax-4","host":"lax-1.us.uncletopia.com","port":27045,"enabled":true,"region":"us-west","cc":"us","latitude":33.94279,"longitude":-118.41004,"reserved":0,"last_update":"0001-01-01T00:00:00Z","name_a2s":"Uncletopia | Los Angeles | 4 | Stopwatch","protocol":17,"map":"pl_barnblitz","folder":"tf","game":"Team Fortress","app_id":440,"player_count":0,"max_players":24,"Bots":0,"server_type":"Dedicated","server_os":"Linux","password":true,"vac":true,"version":"7961495","steam_id":85568392924510199,"keywords":["nocrits","nodmgspread","payload","uncletopia"],"game_id":440,"stv_port":27046,"stv_name":"Uncletopia | Los Angeles | 4 | Stopwatch | STV","players":null},{"server_id":11,"name":"Uncletopia | London | 1 | All Maps","name_short":"lon-1","host":"lon-1.uk.uncletopia.com","port":27015,"enabled":true,"region":"eu","cc":"gb","latitude":51.509865,"longitude":-0.118092,"reserved":0,"last_update":"0001-01-01T00:00:00Z","name_a2s":"Uncletopia | London | 1 | All Maps","protocol":17,"map":"pl_badwater","folder":"tf","game":"Team Fortress","app_id":440,"player_count":25,"max_players":24,"Bots":0,"server_type":"Dedicated","server_os":"Linux","password":true,"vac":true,"version":"7961495","steam_id":85568392924367362,"keywords":["nocrits","nodmgspread","payload","uncletopia"],"game_id":440,"stv_port":27016,"stv_name":"Uncletopia | London | 1 | All Maps | STV","players":[{"user_id":566,"name":"frosty","steam_id":76561198094560834,"connected_time":283000000000,"state":"active","ping":52},{"user_id":549,"name":"☭TheDevilsEye☭","steam_id":76561198017379398,"connected_time":1271000000000,"state":"active","ping":85},{"user_id":502,"name":"flop","steam_id":76561199225333422,"connected_time":4711000000000,"state":"active","ping":49},{"user_id":561,"name":"Mr Bruhmandi","steam_id":76561198400527312,"connected_time":783000000000,"state":"active","ping":97},{"user_id":470,"name":"ABC555ABC666ABC555","steam_id":76561197995676953,"connected_time":6624000000000,"state":"active","ping":58},{"user_id":493,"name":"jermany","steam_id":76561198126599355,"connected_time":5725000000000,"state":"active","ping":57},{"user_id":530,"name":"Lorenzo Lovers","steam_id":76561198073973581,"connected_time":2909000000000,"state":"active","ping":82},{"user_id":541,"name":"YunikkoN","steam_id":76561198211962412,"connected_time":2107000000000,"state":"active","ping":97},{"user_id":571,"name":"Makłowicz","steam_id":76561198281831506,"connected_time":146000000000,"state":"active","ping":89},{"user_id":506,"name":"Aku+","steam_id":76561198813782795,"connected_time":4530000000000,"state":"active","ping":90},{"user_id":540,"name":"fence_","steam_id":76561198150386379,"connected_time":2164000000000,"state":"active","ping":44},{"user_id":542,"name":"Alexandre","steam_id":76561198121784446,"connected_time":2018000000000,"state":"active","ping":40},{"user_id":554,"name":"Aregularhuman","steam_id":76561198343319848,"connected_time":1062000000000,"state":"active","ping":53},{"user_id":565,"name":"Jon","steam_id":76561199380849468,"connected_time":652000000000,"state":"active","ping":60},{"user_id":556,"name":"midlpsyzl47","steam_id":76561199475972637,"connected_time":991000000000,"state":"active","ping":69},{"user_id":519,"name":"shooer!","steam_id":76561198110531281,"connected_time":3456000000000,"state":"active","ping":66},{"user_id":557,"name":"wyro","steam_id":76561199176835169,"connected_time":988000000000,"state":"active","ping":52},{"user_id":552,"name":"powej","steam_id":76561198056381418,"connected_time":1208000000000,"state":"active","ping":32},{"user_id":560,"name":"Miss Bari","steam_id":76561198365286092,"connected_time":883000000000,"state":"active","ping":45},{"user_id":569,"name":"Spurt","steam_id":76561198078523852,"connected_time":229000000000,"state":"active","ping":50},{"user_id":563,"name":"flappi","steam_id":76561198072892783,"connected_time":776000000000,"state":"active","ping":66},{"user_id":564,"name":"splooncas","steam_id":76561199487485968,"connected_time":762000000000,"state":"active","ping":58},{"user_id":518,"name":"✪ Danny","steam_id":76561198104483241,"connected_time":3581000000000,"state":"active","ping":53},{"user_id":547,"name":"Mousetail","steam_id":76561198269524918,"connected_time":1434000000000,"state":"active","ping":57},{"user_id":572,"name":"this Earl guy","steam_id":76561198135625604,"connected_time":18000000000,"state":"spawning","ping":52}]},{"server_id":114,"name":"Uncletopia | London | 2 | All Maps","name_short":"lon-2","host":"lon-1.uk.uncletopia.com","port":27025,"enabled":true,"region":"eu","cc":"gb","latitude":51.509865,"longitude":-0.118092,"reserved":0,"last_update":"0001-01-01T00:00:00Z","name_a2s":"Uncletopia | London | 2 | All Maps","protocol":17,"map":"cp_dustbowl","folder":"tf","game":"Team Fortress","app_id":440,"player_count":0,"max_players":24,"Bots":0,"server_type":"Dedicated","server_os":"Linux","password":true,"vac":true,"version":"7961495","steam_id":85568392924470941,"keywords":["cp","nocrits","nodmgspread","uncletopia"],"game_id":440,"stv_port":27026,"stv_name":"Uncletopia | London | 2 | All Maps | STV","players":null},{"server_id":320,"name":"Uncletopia | London | 3 | All Maps","name_short":"lon-3","host":"lon-1.uk.uncletopia.com","port":27035,"enabled":true,"region":"eu","cc":"gb","latitude":51.509865,"longitude":-0.118092,"reserved":0,"last_update":"0001-01-01T00:00:00Z","name_a2s":"Uncletopia | London | 3 | All Maps","protocol":17,"map":"cp_dustbowl","folder":"tf","game":"Team Fortress","app_id":440,"player_count":24,"max_players":24,"Bots":0,"server_type":"Dedicated","server_os":"Linux","password":true,"vac":true,"version":"7961495","steam_id":85568392924510192,"keywords":["cp","nocrits","nodmgspread","uncletopia"],"game_id":440,"stv_port":27036,"stv_name":"Uncletopia | London | 3 | All Maps | STV","players":[{"user_id":531,"name":"hbivnm","steam_id":76561197996468677,"connected_time":98000000000,"state":"active","ping":60},{"user_id":473,"name":"Worms","steam_id":76561198040442214,"connected_time":2334000000000,"state":"active","ping":38},{"user_id":524,"name":"kallerannar","steam_id":76561199095701143,"connected_time":235000000000,"state":"active","ping":104},{"user_id":514,"name":"Mobster Tortoise","steam_id":76561199036837091,"connected_time":301000000000,"state":"active","ping":93},{"user_id":499,"name":"Solawep","steam_id":76561198026304692,"connected_time":1162000000000,"state":"active","ping":63},{"user_id":504,"name":"Redmailbox","steam_id":76561198042930322,"connected_time":1014000000000,"state":"active","ping":74},{"user_id":523,"name":"gothmoth","steam_id":76561198386910896,"connected_time":246000000000,"state":"active","ping":65},{"user_id":525,"name":"Amon Gus","steam_id":76561199094540960,"connected_time":224000000000,"state":"active","ping":77},{"user_id":495,"name":"AleXandriX","steam_id":76561198035203950,"connected_time":1346000000000,"state":"active","ping":64},{"user_id":508,"name":"i do hard drugs on the regular","steam_id":76561198263228457,"connected_time":758000000000,"state":"active","ping":98},{"user_id":487,"name":"Jopar","steam_id":76561198892206410,"connected_time":1533000000000,"state":"active","ping":130},{"user_id":522,"name":"xXx Rexxie Rose xXx","steam_id":76561198087993931,"connected_time":252000000000,"state":"active","ping":46},{"user_id":513,"name":"BRICK TOP","steam_id":76561198014366715,"connected_time":308000000000,"state":"active","ping":45},{"user_id":519,"name":"Hollow_Rat","steam_id":76561199383063492,"connected_time":265000000000,"state":"active","ping":59},{"user_id":520,"name":"Ixsus\u003c3","steam_id":76561198094756869,"connected_time":261000000000,"state":"active","ping":62},{"user_id":521,"name":"Kaziocalvice","steam_id":76561198146425583,"connected_time":254000000000,"state":"active","ping":60},{"user_id":526,"name":"puncake4you","steam_id":76561198366512937,"connected_time":223000000000,"state":"active","ping":64},{"user_id":478,"name":"Dokuro","steam_id":76561198005413903,"connected_time":2281000000000,"state":"active","ping":83},{"user_id":480,"name":"bob","steam_id":76561198309295580,"connected_time":1998000000000,"state":"active","ping":65},{"user_id":503,"name":"Doggo225","steam_id":76561198166707002,"connected_time":1044000000000,"state":"active","ping":35},{"user_id":532,"name":"Emerald","steam_id":76561199141384216,"connected_time":50000000000,"state":"active","ping":44},{"user_id":509,"name":"M1rkus","steam_id":76561198171215447,"connected_time":622000000000,"state":"active","ping":77},{"user_id":530,"name":"jovi_","steam_id":76561198449280552,"connected_time":171000000000,"state":"active","ping":46},{"user_id":436,"name":"Doctor Marijuana","steam_id":76561198288289879,"connected_time":3118000000000,"state":"active","ping":47}]},{"server_id":321,"name":"Uncletopia | London | 4 | All Maps","name_short":"lon-4","host":"lon-1.uk.uncletopia.com","port":27045,"enabled":true,"region":"eu","cc":"gb","latitude":51.509865,"longitude":-0.118092,"reserved":0,"last_update":"0001-01-01T00:00:00Z","name_a2s":"Uncletopia | London | 4 | All Maps","protocol":17,"map":"cp_mercenarypark","folder":"tf","game":"Team Fortress","app_id":440,"player_count":24,"max_players":24,"Bots":0,"server_type":"Dedicated","server_os":"Linux","password":true,"vac":true,"version":"7961495","steam_id":85568392924510193,"keywords":["cp","nocrits","nodmgspread","uncletopia"],"game_id":440,"stv_port":27046,"stv_name":"Uncletopia | London | 4 | All Maps | STV","players":[{"user_id":250,"name":"Chef","steam_id":76561198392489772,"connected_time":678000000000,"state":"active","ping":60},{"user_id":227,"name":"Sheen (Khang)","steam_id":76561198371062974,"connected_time":1584000000000,"state":"active","ping":94},{"user_id":163,"name":"Spetse","steam_id":76561197990649972,"connected_time":5326000000000,"state":"active","ping":87},{"user_id":244,"name":"Sybille Sirky","steam_id":76561198082407725,"connected_time":783000000000,"state":"active","ping":54},{"user_id":252,"name":"Lucky B.🏆","steam_id":76561198077571162,"connected_time":659000000000,"state":"active","ping":56},{"user_id":223,"name":"joachym","steam_id":76561198428579761,"connected_time":1611000000000,"state":"active","ping":70},{"user_id":256,"name":"sethlington14","steam_id":76561199438357690,"connected_time":122000000000,"state":"active","ping":54},{"user_id":206,"name":"DiracDeltaFunction","steam_id":76561199201624841,"connected_time":2182000000000,"state":"active","ping":116},{"user_id":243,"name":"gayest MF DOOM fan","steam_id":76561198065801979,"connected_time":819000000000,"state":"active","ping":126},{"user_id":143,"name":"Hexagon","steam_id":76561198151205758,"connected_time":7784000000000,"state":"active","ping":57},{"user_id":236,"name":"Nick","steam_id":76561198036109469,"connected_time":1243000000000,"state":"active","ping":80},{"user_id":251,"name":"Boyo","steam_id":76561198320234893,"connected_time":665000000000,"state":"active","ping":45},{"user_id":228,"name":"MiniMozza_09","steam_id":76561198823264601,"connected_time":1568000000000,"state":"active","ping":54},{"user_id":254,"name":"Tort","steam_id":76561198329646769,"connected_time":353000000000,"state":"active","ping":57},{"user_id":247,"name":"Laryssa","steam_id":76561198271084076,"connected_time":736000000000,"state":"active","ping":87},{"user_id":248,"name":"Level","steam_id":76561198330505781,"connected_time":735000000000,"state":"active","ping":71},{"user_id":237,"name":"LordTrap.exe","steam_id":76561198318089716,"connected_time":1225000000000,"state":"active","ping":58},{"user_id":121,"name":"Canpenbook64","steam_id":76561199195471984,"connected_time":9257000000000,"state":"active","ping":55},{"user_id":225,"name":"Baked Beans Gaming","steam_id":76561199177778966,"connected_time":1610000000000,"state":"active","ping":47},{"user_id":229,"name":"Mythical Lag","steam_id":76561198347031281,"connected_time":1559000000000,"state":"active","ping":151},{"user_id":253,"name":"🗻🎴Hadrian Malone🎴🗻","steam_id":76561198036151103,"connected_time":657000000000,"state":"active","ping":57},{"user_id":187,"name":"kreeekz","steam_id":76561198014431602,"connected_time":3652000000000,"state":"active","ping":74},{"user_id":162,"name":"Mr. Mundy","steam_id":76561198132008918,"connected_time":5458000000000,"state":"active","ping":90},{"user_id":238,"name":"Benzo Fury","steam_id":76561198025259336,"connected_time":1191000000000,"state":"active","ping":44}]},{"server_id":21,"name":"Uncletopia | London | 5 | All Maps","name_short":"lon-5","host":"lon-1.uk.uncletopia.com","port":27055,"enabled":true,"region":"eu","cc":"gb","latitude":51.509865,"longitude":-0.118092,"reserved":0,"last_update":"0001-01-01T00:00:00Z","name_a2s":"Uncletopia | London | 5 | All Maps","protocol":17,"map":"pl_borneo","folder":"tf","game":"Team Fortress","app_id":440,"player_count":24,"max_players":24,"Bots":0,"server_type":"Dedicated","server_os":"Linux","password":true,"vac":true,"version":"7961495","steam_id":85568392924742829,"keywords":["nocrits","nodmgspread","payload","uncletopia"],"game_id":440,"stv_port":27056,"stv_name":"Uncletopia | London | 5 | All Maps | STV","players":[{"user_id":106,"name":"CalzoneCarl456","steam_id":76561198846982793,"connected_time":1784000000000,"state":"active","ping":47},{"user_id":182,"name":"Grimbeard","steam_id":76561197961823531,"connected_time":216000000000,"state":"active","ping":69},{"user_id":73,"name":"Ch4bby","steam_id":76561198058792875,"connected_time":4631000000000,"state":"active","ping":54},{"user_id":192,"name":"Rask","steam_id":76561198052934944,"connected_time":125000000000,"state":"active","ping":94},{"user_id":168,"name":"axalotly-gaming","steam_id":76561199131971501,"connected_time":289000000000,"state":"active","ping":96},{"user_id":175,"name":"LOBZIK","steam_id":76561198114830120,"connected_time":252000000000,"state":"active","ping":80},{"user_id":109,"name":"cobblestone","steam_id":76561198079123043,"connected_time":1749000000000,"state":"active","ping":88},{"user_id":102,"name":"Acquire Beans","steam_id":76561198010452926,"connected_time":2578000000000,"state":"active","ping":54},{"user_id":110,"name":"john fortress","steam_id":76561198013237629,"connected_time":1708000000000,"state":"active","ping":93},{"user_id":133,"name":"Penis Contortionist","steam_id":76561198073663784,"connected_time":716000000000,"state":"active","ping":36},{"user_id":169,"name":"rabbit | trade.tf","steam_id":76561198378990855,"connected_time":283000000000,"state":"active","ping":77},{"user_id":79,"name":"sareena","steam_id":76561198810194062,"connected_time":3957000000000,"state":"active","ping":74},{"user_id":148,"name":"eve(nin guvna)","steam_id":76561197973182789,"connected_time":481000000000,"state":"active","ping":53},{"user_id":108,"name":"Without warning","steam_id":76561199383437138,"connected_time":1777000000000,"state":"active","ping":121},{"user_id":184,"name":"Flohr","steam_id":76561198191948841,"connected_time":212000000000,"state":"active","ping":47},{"user_id":111,"name":"Simon","steam_id":76561199122086348,"connected_time":1574000000000,"state":"active","ping":115},{"user_id":112,"name":"Bogavante","steam_id":76561198105352044,"connected_time":1570000000000,"state":"active","ping":55},{"user_id":115,"name":"wasto-/-™","steam_id":76561198102888038,"connected_time":1337000000000,"state":"active","ping":60},{"user_id":55,"name":"Boki","steam_id":76561198044553351,"connected_time":5360000000000,"state":"active","ping":75},{"user_id":56,"name":"Luuk","steam_id":76561198088266026,"connected_time":5317000000000,"state":"active","ping":47},{"user_id":127,"name":"Son Heung-Min","steam_id":76561198314364201,"connected_time":871000000000,"state":"active","ping":64},{"user_id":163,"name":"anghenfilod","steam_id":76561199488187336,"connected_time":308000000000,"state":"active","ping":47},{"user_id":167,"name":"germinator","steam_id":76561199387893648,"connected_time":292000000000,"state":"active","ping":100},{"user_id":166,"name":"†𝔥e ωoo","steam_id":76561198929808815,"connected_time":295000000000,"state":"active","ping":59}]},{"server_id":22,"name":"Uncletopia | London | 6 | All Maps","name_short":"lon-6","host":"lon-1.uk.uncletopia.com","port":27065,"enabled":true,"region":"eu","cc":"gb","latitude":51.509865,"longitude":-0.118092,"reserved":0,"last_update":"0001-01-01T00:00:00Z","name_a2s":"Uncletopia | London | 6 | All Maps","protocol":17,"map":"cp_dustbowl","folder":"tf","game":"Team Fortress","app_id":440,"player_count":0,"max_players":24,"Bots":0,"server_type":"Dedicated","server_os":"Linux","password":true,"vac":true,"version":"7961495","steam_id":85568392924742830,"keywords":["cp","nocrits","nodmgspread","uncletopia"],"game_id":440,"stv_port":27066,"stv_name":"Uncletopia | London | 6 | All Maps | STV","players":null},{"server_id":40,"name":"Uncletopia | London | 7 | Stopwatch","name_short":"lon-7","host":"lon-1.uk.uncletopia.com","port":27075,"enabled":true,"region":"eu","cc":"gb","latitude":51.509865,"longitude":-0.118092,"reserved":0,"last_update":"0001-01-01T00:00:00Z","name_a2s":"Uncletopia | London | 7 | Stopwatch","protocol":17,"map":"koth_highpass","folder":"tf","game":"Team Fortress","app_id":440,"player_count":1,"max_players":24,"Bots":0,"server_type":"Dedicated","server_os":"Linux","password":true,"vac":true,"version":"7961495","steam_id":85568392924964314,"keywords":["cp","nocrits","nodmgspread","uncletopia"],"game_id":440,"stv_port":27076,"stv_name":"Uncletopia | London | 7 | Stopwatch | STV","players":[{"user_id":21,"name":"WYVRN as featured on HYPERMYST","steam_id":76561198799153975,"connected_time":4000000000,"state":"spawning","ping":47}]},{"server_id":41,"name":"Uncletopia | London | 8 | Community","name_short":"lon-8","host":"lon-1.uk.uncletopia.com","port":27085,"enabled":true,"region":"eu","cc":"gb","latitude":51.509865,"longitude":-0.118092,"reserved":0,"last_update":"0001-01-01T00:00:00Z","name_a2s":"Uncletopia | London | 8 | Community","protocol":17,"map":"workshop/cp_glassworks_rc6a.ugc454118349","folder":"tf","game":"Team Fortress","app_id":440,"player_count":0,"max_players":24,"Bots":0,"server_type":"Dedicated","server_os":"Linux","password":true,"vac":true,"version":"7961495","steam_id":85568392924964315,"keywords":["cp","nocrits","nodmgspread","uncletopia"],"game_id":440,"stv_port":27086,"stv_name":"Uncletopia | London | 8 | Community | STV","players":null},{"server_id":300,"name":"Uncletopia | Montréal | 1 | All Maps","name_short":"mtl-1","host":"mtl-1.ca.uncletopia.com","port":27015,"enabled":true,"region":"us-east","cc":"ca","latitude":45.50889,"longitude":-73.56167,"reserved":0,"last_update":"0001-01-01T00:00:00Z","name_a2s":"","protocol":0,"map":"","folder":"","game":"","app_id":0,"player_count":0,"max_players":0,"Bots":0,"server_type":"","server_os":"","password":false,"vac":false,"version":"","steam_id":0,"keywords":null,"game_id":0,"stv_port":0,"stv_name":"","players":null},{"server_id":301,"name":"Uncletopia | Montréal | 2 | All Maps","name_short":"mtl-2","host":"mtl-1.ca.uncletopia.com","port":27025,"enabled":true,"region":"us-east","cc":"ca","latitude":45.50889,"longitude":-73.56167,"reserved":0,"last_update":"0001-01-01T00:00:00Z","name_a2s":"","protocol":0,"map":"","folder":"","game":"","app_id":0,"player_count":0,"max_players":0,"Bots":0,"server_type":"","server_os":"","password":false,"vac":false,"version":"","steam_id":0,"keywords":null,"game_id":0,"stv_port":0,"stv_name":"","players":null},{"server_id":302,"name":"Uncletopia | Montréal | 3 | All Maps","name_short":"mtl-3","host":"mtl-1.ca.uncletopia.com","port":27035,"enabled":true,"region":"us-east","cc":"ca","latitude":45.50889,"longitude":-73.56167,"reserved":0,"last_update":"0001-01-01T00:00:00Z","name_a2s":"","protocol":0,"map":"","folder":"","game":"","app_id":0,"player_count":0,"max_players":0,"Bots":0,"server_type":"","server_os":"","password":false,"vac":false,"version":"","steam_id":0,"keywords":null,"game_id":0,"stv_port":0,"stv_name":"","players":null},{"server_id":303,"name":"Uncletopia | Montréal | 4 | No Payload","name_short":"mtl-4","host":"mtl-1.ca.uncletopia.com","port":27045,"enabled":true,"region":"us-east","cc":"ca","latitude":45.50889,"longitude":-73.56167,"reserved":0,"last_update":"0001-01-01T00:00:00Z","name_a2s":"","protocol":0,"map":"","folder":"","game":"","app_id":0,"player_count":0,"max_players":0,"Bots":0,"server_type":"","server_os":"","password":false,"vac":false,"version":"","steam_id":0,"keywords":null,"game_id":0,"stv_port":0,"stv_name":"","players":null},{"server_id":13,"name":"Uncletopia | New York City | 1 | All Maps","name_short":"nyc-1","host":"nyc-1.us.uncletopia.com","port":27015,"enabled":true,"region":"us-east","cc":"us","latitude":40.73061,"longitude":-73.93524,"reserved":0,"last_update":"0001-01-01T00:00:00Z","name_a2s":"Uncletopia | New York City | 1 | All Maps","protocol":17,"map":"koth_highpass","folder":"tf","game":"Team Fortress","app_id":440,"player_count":0,"max_players":24,"Bots":0,"server_type":"Dedicated","server_os":"Linux","password":true,"vac":true,"version":"7961495","steam_id":85568392924469993,"keywords":["cp","nocrits","nodmgspread","uncletopia"],"game_id":440,"stv_port":27016,"stv_name":"Uncletopia | New York City | 1 | All Maps | STV","players":null},{"server_id":14,"name":"Uncletopia | New York City | 2 | All Maps","name_short":"nyc-2","host":"nyc-1.us.uncletopia.com","port":27025,"enabled":true,"region":"us-east","cc":"us","latitude":40.73061,"longitude":-73.93524,"reserved":0,"last_update":"0001-01-01T00:00:00Z","name_a2s":"Uncletopia | New York City | 2 | All Maps","protocol":17,"map":"pl_swiftwater_final1","folder":"tf","game":"Team Fortress","app_id":440,"player_count":19,"max_players":24,"Bots":0,"server_type":"Dedicated","server_os":"Linux","password":true,"vac":true,"version":"7961495","steam_id":85568392924469994,"keywords":["nocrits","nodmgspread","payload","uncletopia"],"game_id":440,"stv_port":27026,"stv_name":"Uncletopia | New York City | 2 | All Maps | STV","players":[{"user_id":139,"name":"orbisg","steam_id":76561198004133638,"connected_time":2870000000000,"state":"active","ping":102},{"user_id":178,"name":"capeeKo","steam_id":76561197970346623,"connected_time":304000000000,"state":"active","ping":62},{"user_id":166,"name":"ExtraSoap","steam_id":76561198008712409,"connected_time":1078000000000,"state":"active","ping":45},{"user_id":155,"name":"puppy :3","steam_id":76561198011196264,"connected_time":2365000000000,"state":"active","ping":65},{"user_id":177,"name":"The 14th Doctor","steam_id":76561198082233504,"connected_time":315000000000,"state":"active","ping":46},{"user_id":180,"name":"Fiendish Frog","steam_id":76561198029478821,"connected_time":8000000000,"state":"spawning","ping":84},{"user_id":170,"name":"Narh","steam_id":76561198025216294,"connected_time":1022000000000,"state":"active","ping":55},{"user_id":179,"name":"GotYourNose","steam_id":76561198803527852,"connected_time":170000000000,"state":"active","ping":42},{"user_id":129,"name":"b4rry","steam_id":76561198365887154,"connected_time":3543000000000,"state":"active","ping":48},{"user_id":171,"name":"sqerkbo","steam_id":76561198080012700,"connected_time":994000000000,"state":"active","ping":40},{"user_id":150,"name":"Cream Corn","steam_id":76561198043791586,"connected_time":2492000000000,"state":"active","ping":36},{"user_id":151,"name":"HeroMaster90","steam_id":76561198092279948,"connected_time":2485000000000,"state":"active","ping":91},{"user_id":163,"name":"oof aim small brain","steam_id":76561198079925551,"connected_time":1160000000000,"state":"active","ping":45},{"user_id":121,"name":"ＲＥＤ","steam_id":76561198030282308,"connected_time":3897000000000,"state":"active","ping":130},{"user_id":172,"name":"BackupYAHmax","steam_id":76561198309468681,"connected_time":959000000000,"state":"active","ping":59},{"user_id":176,"name":"Pistol Freeman","steam_id":76561198026818915,"connected_time":344000000000,"state":"active","ping":64},{"user_id":168,"name":"SeaBass","steam_id":76561198278914206,"connected_time":1025000000000,"state":"active","ping":84},{"user_id":156,"name":"High School Nudical","steam_id":76561198172120615,"connected_time":2085000000000,"state":"active","ping":32},{"user_id":175,"name":"ionstorm1965","steam_id":76561199065550786,"connected_time":786000000000,"state":"active","ping":132}]},{"server_id":15,"name":"Uncletopia | New York City | 3 | Stopwatch","name_short":"nyc-3","host":"nyc-1.us.uncletopia.com","port":27035,"enabled":true,"region":"us-east","cc":"us","latitude":40.73061,"longitude":-73.93524,"reserved":0,"last_update":"0001-01-01T00:00:00Z","name_a2s":"Uncletopia | New York City | 3 | Stopwatch","protocol":17,"map":"pl_snowycoast","folder":"tf","game":"Team Fortress","app_id":440,"player_count":0,"max_players":24,"Bots":0,"server_type":"Dedicated","server_os":"Linux","password":true,"vac":true,"version":"7961495","steam_id":85568392924742820,"keywords":["nocrits","nodmgspread","payload","uncletopia"],"game_id":440,"stv_port":27036,"stv_name":"Uncletopia | New York City | 3 | Stopwatch | STV","players":null},{"server_id":16,"name":"Uncletopia | New York City | 4 | Community","name_short":"nyc-4","host":"nyc-1.us.uncletopia.com","port":27045,"enabled":true,"region":"us-east","cc":"us","latitude":40.73061,"longitude":-73.93524,"reserved":0,"last_update":"0001-01-01T00:00:00Z","name_a2s":"Uncletopia | New York City | 4 | Community","protocol":17,"map":"cp_altitude","folder":"tf","game":"Team Fortress","app_id":440,"player_count":0,"max_players":24,"Bots":0,"server_type":"Dedicated","server_os":"Linux","password":true,"vac":true,"version":"7961495","steam_id":85568392924742821,"keywords":["cp","nocrits","nodmgspread","uncletopia"],"game_id":440,"stv_port":27046,"stv_name":"Uncletopia | New York City | 4 | Community | STV","players":null},{"server_id":142,"name":"Uncletopia | São Paulo | 1 | All Maps","name_short":"sao-1","host":"sao-1.br.uncletopia.com","port":27015,"enabled":true,"region":"sa","cc":"br","latitude":-23.533773,"longitude":-46.62529,"reserved":0,"last_update":"0001-01-01T00:00:00Z","name_a2s":"Uncletopia | São Paulo | 1 | All Maps","protocol":17,"map":"cp_mountainlab","folder":"tf","game":"Team Fortress","app_id":440,"player_count":0,"max_players":24,"Bots":0,"server_type":"Dedicated","server_os":"Linux","password":true,"vac":true,"version":"7961495","steam_id":85568392924469996,"keywords":["cp","nocrits","nodmgspread","uncletopia"],"game_id":440,"stv_port":27016,"stv_name":"Uncletopia | São Paulo | 1 | All Maps | STV","players":null},{"server_id":143,"name":"Uncletopia | São Paulo | 2 | Community","name_short":"sao-2","host":"sao-2.br.uncletopia.com","port":27015,"enabled":true,"region":"sa","cc":"br","latitude":-23.533773,"longitude":-46.62529,"reserved":0,"last_update":"0001-01-01T00:00:00Z","name_a2s":"Uncletopia | São Paulo | 2 | Community","protocol":17,"map":"pl_badwater","folder":"tf","game":"Team Fortress","app_id":440,"player_count":0,"max_players":24,"Bots":0,"server_type":"Dedicated","server_os":"Linux","password":true,"vac":true,"version":"7961495","steam_id":85568392924485349,"keywords":["nocrits","nodmgspread","payload","uncletopia"],"game_id":440,"stv_port":27016,"stv_name":"Uncletopia | São Paulo | 2 | Community | STV","players":null},{"server_id":7,"name":"Uncletopia | Seattle | 1 | All Maps","name_short":"sea-1","host":"sea-1.us.uncletopia.com","port":27015,"enabled":true,"region":"us-west","cc":"us","latitude":47.608013,"longitude":-122.33517,"reserved":0,"last_update":"0001-01-01T00:00:00Z","name_a2s":"Uncletopia | Seattle | 1 | All Maps","protocol":17,"map":"pl_barnblitz","folder":"tf","game":"Team Fortress","app_id":440,"player_count":23,"max_players":24,"Bots":0,"server_type":"Dedicated","server_os":"Linux","password":true,"vac":true,"version":"7961495","steam_id":85568392924469997,"keywords":["nocrits","nodmgspread","payload","uncletopia"],"game_id":440,"stv_port":27016,"stv_name":"Uncletopia | Seattle | 1 | All Maps | STV","players":[{"user_id":7,"name":"Grammaring","steam_id":76561198867366139,"connected_time":1386000000000,"state":"active","ping":72},{"user_id":8,"name":"Skabbety","steam_id":76561198168044257,"connected_time":1182000000000,"state":"active","ping":40},{"user_id":9,"name":"Sea-moon","steam_id":76561198294001185,"connected_time":645000000000,"state":"active","ping":102},{"user_id":10,"name":"SpükiiTV","steam_id":76561198098281824,"connected_time":619000000000,"state":"active","ping":116},{"user_id":11,"name":"Shark Sandwich","steam_id":76561198025007938,"connected_time":442000000000,"state":"active","ping":57},{"user_id":12,"name":"BlazedBunny","steam_id":76561198243610560,"connected_time":386000000000,"state":"active","ping":76},{"user_id":13,"name":"ThecoolestEmmy","steam_id":76561198999423393,"connected_time":361000000000,"state":"active","ping":90},{"user_id":14,"name":"aka el guapo aka el bandito","steam_id":76561198114603745,"connected_time":352000000000,"state":"active","ping":71},{"user_id":15,"name":"Petrivus","steam_id":76561198202152453,"connected_time":333000000000,"state":"active","ping":49},{"user_id":16,"name":"nivek","steam_id":76561198056288107,"connected_time":306000000000,"state":"active","ping":48},{"user_id":17,"name":"box","steam_id":76561198049531483,"connected_time":283000000000,"state":"active","ping":105},{"user_id":18,"name":"Sudsen","steam_id":76561198370603787,"connected_time":244000000000,"state":"active","ping":64},{"user_id":19,"name":"kn0n2999","steam_id":76561198249172818,"connected_time":231000000000,"state":"active","ping":113},{"user_id":20,"name":"IanTheAwsm","steam_id":76561198093031738,"connected_time":217000000000,"state":"active","ping":105},{"user_id":23,"name":"LEAN \u003c3","steam_id":76561198185286203,"connected_time":182000000000,"state":"active","ping":86},{"user_id":22,"name":"Chirp","steam_id":76561198240780230,"connected_time":196000000000,"state":"active","ping":72},{"user_id":24,"name":"Kaluka","steam_id":76561198036861445,"connected_time":171000000000,"state":"active","ping":116},{"user_id":25,"name":"Guwop","steam_id":76561197970425737,"connected_time":141000000000,"state":"active","ping":108},{"user_id":26,"name":"CommanderKohai","steam_id":76561198137934472,"connected_time":57000000000,"state":"active","ping":53},{"user_id":27,"name":"Lactose ๑ﭥ","steam_id":76561198208256987,"connected_time":55000000000,"state":"active","ping":67},{"user_id":28,"name":"Griffin","steam_id":76561198159339442,"connected_time":43000000000,"state":"active","ping":121},{"user_id":29,"name":"riSygneD","steam_id":76561198331618687,"connected_time":15000000000,"state":"active","ping":70},{"user_id":30,"name":"Laogh Marbh","steam_id":76561198115240256,"connected_time":5000000000,"state":"spawning","ping":103}]},{"server_id":119,"name":"Uncletopia | Seattle | 2 | All Maps","name_short":"sea-2","host":"sea-1.us.uncletopia.com","port":27025,"enabled":true,"region":"us-west","cc":"us","latitude":47.608013,"longitude":-122.33517,"reserved":0,"last_update":"0001-01-01T00:00:00Z","name_a2s":"Uncletopia | Seattle | 2 | All Maps","protocol":17,"map":"pl_frontier_final","folder":"tf","game":"Team Fortress","app_id":440,"player_count":0,"max_players":24,"Bots":0,"server_type":"Dedicated","server_os":"Linux","password":true,"vac":true,"version":"7961495","steam_id":85568392924469998,"keywords":["nocrits","nodmgspread","payload","uncletopia"],"game_id":440,"stv_port":27026,"stv_name":"Uncletopia | Seattle | 2 | All Maps | STV","players":null},{"server_id":406,"name":"Uncletopia | Seattle | 3 | Stopwatch","name_short":"sea-3","host":"sea-1.us.uncletopia.com","port":27035,"enabled":true,"region":"us-west","cc":"us","latitude":47.608013,"longitude":-122.33517,"reserved":0,"last_update":"0001-01-01T00:00:00Z","name_a2s":"Uncletopia | Seattle | 3 | Stopwatch","protocol":17,"map":"koth_lakeside_final","folder":"tf","game":"Team Fortress","app_id":440,"player_count":0,"max_players":24,"Bots":0,"server_type":"Dedicated","server_os":"Linux","password":true,"vac":true,"version":"7961495","steam_id":85568392924515217,"keywords":["cp","nocrits","nodmgspread","uncletopia"],"game_id":440,"stv_port":27036,"stv_name":"Uncletopia | Seattle | 3 | Stopwatch | STV","players":null},{"server_id":17,"name":"Uncletopia | San Francisco | 1 | All Maps","name_short":"sfo-1","host":"sfo-1.us.uncletopia.com","port":27015,"enabled":true,"region":"us-west","cc":"us","latitude":37.77397,"longitude":-122.4313,"reserved":0,"last_update":"0001-01-01T00:00:00Z","name_a2s":"Uncletopia | San Francisco | 1 | All Maps","protocol":17,"map":"koth_cascade","folder":"tf","game":"Team Fortress","app_id":440,"player_count":0,"max_players":24,"Bots":0,"server_type":"Dedicated","server_os":"Linux","password":true,"vac":true,"version":"7961495","steam_id":85568392924469999,"keywords":["cp","nocrits","nodmgspread","uncletopia"],"game_id":440,"stv_port":27016,"stv_name":"Uncletopia | San Francisco | 1 | All Maps | STV","players":null},{"server_id":18,"name":"Uncletopia | San Francisco | 2 | All Maps","name_short":"sfo-2","host":"sfo-1.us.uncletopia.com","port":27025,"enabled":true,"region":"us-west","cc":"us","latitude":37.77397,"longitude":-122.4313,"reserved":0,"last_update":"0001-01-01T00:00:00Z","name_a2s":"Uncletopia | San Francisco | 2 | All Maps","protocol":17,"map":"koth_viaduct","folder":"tf","game":"Team Fortress","app_id":440,"player_count":0,"max_players":24,"Bots":0,"server_type":"Dedicated","server_os":"Linux","password":true,"vac":true,"version":"7961495","steam_id":85568392924470000,"keywords":["cp","nocrits","nodmgspread","uncletopia"],"game_id":440,"stv_port":27026,"stv_name":"Uncletopia | San Francisco | 2 | All Maps | STV","players":null},{"server_id":19,"name":"Uncletopia | San Francisco | 3 | Stopwatch","name_short":"sfo-3","host":"sfo-1.us.uncletopia.com","port":27035,"enabled":true,"region":"us-west","cc":"us","latitude":37.77397,"longitude":-122.4313,"reserved":0,"last_update":"0001-01-01T00:00:00Z","name_a2s":"Uncletopia | San Francisco | 3 | Stopwatch","protocol":17,"map":"workshop/cp_reckoner_rc6.ugc674719999","folder":"tf","game":"Team Fortress","app_id":440,"player_count":0,"max_players":24,"Bots":0,"server_type":"Dedicated","server_os":"Linux","password":true,"vac":true,"version":"7961495","steam_id":85568392924742824,"keywords":["cp","nocrits","nodmgspread","uncletopia"],"game_id":440,"stv_port":27036,"stv_name":"Uncletopia | San Francisco | 3 | Stopwatch | STV","players":null},{"server_id":20,"name":"Uncletopia | San Francisco | 4 | Community","name_short":"sfo-4","host":"sfo-1.us.uncletopia.com","port":27045,"enabled":true,"region":"us-west","cc":"us","latitude":37.77397,"longitude":-122.4313,"reserved":0,"last_update":"0001-01-01T00:00:00Z","name_a2s":"Uncletopia | San Francisco | 4 | Community","protocol":17,"map":"pl_pier","folder":"tf","game":"Team Fortress","app_id":440,"player_count":0,"max_players":24,"Bots":0,"server_type":"Dedicated","server_os":"Linux","password":true,"vac":true,"version":"7961495","steam_id":85568392924742826,"keywords":["nocrits","nodmgspread","payload","uncletopia"],"game_id":440,"stv_port":27046,"stv_name":"Uncletopia | San Francisco | 4 | Community | STV","players":null},{"server_id":141,"name":"Uncletopia | Sydney | 1 | All Maps","name_short":"syd-1","host":"syd-1.au.uncletopia.com","port":27015,"enabled":true,"region":"au","cc":"au","latitude":-33.865143,"longitude":151.2099,"reserved":0,"last_update":"0001-01-01T00:00:00Z","name_a2s":"Uncletopia | Sydney | 1 | All Maps","protocol":17,"map":"pl_swiftwater_final1","folder":"tf","game":"Team Fortress","app_id":440,"player_count":0,"max_players":24,"Bots":0,"server_type":"Dedicated","server_os":"Linux","password":true,"vac":true,"version":"7961495","steam_id":85568392924470001,"keywords":["nocrits","nodmgspread","payload","uncletopia"],"game_id":440,"stv_port":27016,"stv_name":"Uncletopia | Sydney | 1 | All Maps | STV","players":null},{"server_id":123,"name":"Uncletopia | Sydney | 2 | All Maps","name_short":"syd-2","host":"syd-1.au.uncletopia.com","port":27025,"enabled":true,"region":"au","cc":"au","latitude":-33.865143,"longitude":151.2099,"reserved":0,"last_update":"0001-01-01T00:00:00Z","name_a2s":"Uncletopia | Sydney | 2 | All Maps","protocol":17,"map":"koth_viaduct","folder":"tf","game":"Team Fortress","app_id":440,"player_count":0,"max_players":24,"Bots":0,"server_type":"Dedicated","server_os":"Linux","password":true,"vac":true,"version":"7961495","steam_id":85568392924470002,"keywords":["cp","nocrits","nodmgspread","uncletopia"],"game_id":440,"stv_port":27026,"stv_name":"Uncletopia | Sydney | 2 | All Maps | STV","players":null},{"server_id":395,"name":"Uncletopia | Sydney | 3 | All Maps","name_short":"syd-3","host":"syd-1.au.uncletopia.com","port":27035,"enabled":true,"region":"au","cc":"au","latitude":-33.865143,"longitude":151.2099,"reserved":0,"last_update":"0001-01-01T00:00:00Z","name_a2s":"Uncletopia | Sydney | 3 | All Maps","protocol":17,"map":"koth_lakeside_final","folder":"tf","game":"Team Fortress","app_id":440,"player_count":0,"max_players":24,"Bots":0,"server_type":"Dedicated","server_os":"Linux","password":true,"vac":true,"version":"7961495","steam_id":85568392925194467,"keywords":["cp","nocrits","nodmgspread","uncletopia"],"game_id":440,"stv_port":27036,"stv_name":"Uncletopia | Sydney | 3 | All Maps | STV","players":null},{"server_id":396,"name":"Uncletopia | Sydney | 4 | All Maps","name_short":"syd-4","host":"syd-1.au.uncletopia.com","port":27045,"enabled":true,"region":"au","cc":"au","latitude":-33.865143,"longitude":151.2099,"reserved":0,"last_update":"0001-01-01T00:00:00Z","name_a2s":"Uncletopia | Sydney | 4 | All Maps","protocol":17,"map":"koth_lakeside_final","folder":"tf","game":"Team Fortress","app_id":440,"player_count":0,"max_players":24,"Bots":0,"server_type":"Dedicated","server_os":"Linux","password":true,"vac":true,"version":"7961495","steam_id":85568392925397958,"keywords":["cp","nocrits","nodmgspread","uncletopia"],"game_id":440,"stv_port":27046,"stv_name":"Uncletopia | Sydney | 4 | All Maps | STV","players":null},{"server_id":58,"name":"Uncletopia | Sydney | 5 | Stopwatch","name_short":"syd-5","host":"syd-1.au.uncletopia.com","port":27055,"enabled":true,"region":"au","cc":"au","latitude":-33.865143,"longitude":151.2099,"reserved":0,"last_update":"0001-01-01T00:00:00Z","name_a2s":"Uncletopia | Sydney | 5 | Stopwatch","protocol":17,"map":"workshop/koth_ashville_final.ugc2130459942","folder":"tf","game":"Team Fortress","app_id":440,"player_count":0,"max_players":24,"Bots":0,"server_type":"Dedicated","server_os":"Linux","password":true,"vac":true,"version":"7961495","steam_id":85568392925397959,"keywords":["cp","nocrits","nodmgspread","uncletopia"],"game_id":440,"stv_port":27056,"stv_name":"Uncletopia | Sydney | 5 | Stopwatch | STV","players":null},{"server_id":59,"name":"Uncletopia | Sydney | 6 | Community","name_short":"syd-6","host":"syd-1.au.uncletopia.com","port":27065,"enabled":true,"region":"au","cc":"au","latitude":-33.865143,"longitude":151.2099,"reserved":0,"last_update":"0001-01-01T00:00:00Z","name_a2s":"Uncletopia | Sydney | 6 | Community","protocol":17,"map":"workshop/rd_asteroid_redux_b1.ugc2154902912","folder":"tf","game":"Team Fortress","app_id":440,"player_count":0,"max_players":24,"Bots":0,"server_type":"Dedicated","server_os":"Linux","password":true,"vac":true,"version":"7961495","steam_id":85568392925397960,"keywords":["beta","nocrits","nodmgspread","rd","uncletopia"],"game_id":440,"stv_port":27066,"stv_name":"Uncletopia | Sydney | 6 | Community | STV","players":null},{"server_id":49,"name":"Uncletopia | Warsaw | 1 | All Maps","name_short":"waw-1","host":"waw-1.pl.uncletopia.com","port":27015,"enabled":true,"region":"eu","cc":"pl","latitude":52.2297,"longitude":21.017532,"reserved":0,"last_update":"0001-01-01T00:00:00Z","name_a2s":"Uncletopia | Warsaw | 1 | All Maps","protocol":17,"map":"koth_harvest_final","folder":"tf","game":"Team Fortress","app_id":440,"player_count":8,"max_players":24,"Bots":0,"server_type":"Dedicated","server_os":"Linux","password":true,"vac":true,"version":"7961495","steam_id":85568392925397850,"keywords":["cp","nocrits","nodmgspread","uncletopia"],"game_id":440,"stv_port":27016,"stv_name":"Uncletopia | Warsaw | 1 | All Maps | STV","players":[{"user_id":28,"name":"Mr Grzegorz","steam_id":76561198970162119,"connected_time":950000000000,"state":"active","ping":135},{"user_id":29,"name":"Advokat","steam_id":76561198307121174,"connected_time":648000000000,"state":"active","ping":48},{"user_id":8,"name":"guzol","steam_id":76561198323704633,"connected_time":5266000000000,"state":"active","ping":45},{"user_id":30,"name":"Fofenho","steam_id":76561198436817109,"connected_time":336000000000,"state":"active","ping":79},{"user_id":31,"name":"JohkupohkuXD","steam_id":76561198391108762,"connected_time":327000000000,"state":"active","ping":78},{"user_id":11,"name":"Джекет","steam_id":76561198327897125,"connected_time":5014000000000,"state":"active","ping":102},{"user_id":33,"name":"wheel bread","steam_id":76561199062586342,"connected_time":139000000000,"state":"active","ping":93},{"user_id":35,"name":"♂ Animan ♂ Studios ♂","steam_id":76561198308302932,"connected_time":49000000000,"state":"active","ping":94}]},{"server_id":50,"name":"Uncletopia | Warsaw | 2 | All Maps","name_short":"waw-2","host":"waw-1.pl.uncletopia.com","port":27025,"enabled":true,"region":"eu","cc":"pl","latitude":52.2297,"longitude":21.017532,"reserved":0,"last_update":"0001-01-01T00:00:00Z","name_a2s":"Uncletopia | Warsaw | 2 | All Maps","protocol":17,"map":"pl_barnblitz","folder":"tf","game":"Team Fortress","app_id":440,"player_count":0,"max_players":24,"Bots":0,"server_type":"Dedicated","server_os":"Linux","password":true,"vac":true,"version":"7961495","steam_id":85568392925397851,"keywords":["nocrits","nodmgspread","payload","uncletopia"],"game_id":440,"stv_port":27026,"stv_name":"Uncletopia | Warsaw | 2 | All Maps | STV","players":null},{"server_id":51,"name":"Uncletopia | Warsaw | 3 | All Maps","name_short":"waw-3","host":"waw-1.pl.uncletopia.com","port":27035,"enabled":true,"region":"eu","cc":"pl","latitude":52.2297,"longitude":21.017532,"reserved":0,"last_update":"0001-01-01T00:00:00Z","name_a2s":"Uncletopia | Warsaw | 3 | All Maps","protocol":17,"map":"pl_barnblitz","folder":"tf","game":"Team Fortress","app_id":440,"player_count":0,"max_players":24,"Bots":0,"server_type":"Dedicated","server_os":"Linux","password":true,"vac":true,"version":"7961495","steam_id":85568392925397852,"keywords":["nocrits","nodmgspread","payload","uncletopia"],"game_id":440,"stv_port":27036,"stv_name":"Uncletopia | Warsaw | 3 | All Maps | STV","players":null},{"server_id":52,"name":"Uncletopia | Warsaw | 4 | All Maps","name_short":"waw-4","host":"waw-1.pl.uncletopia.com","port":27045,"enabled":true,"region":"eu","cc":"pl","latitude":52.2297,"longitude":21.017532,"reserved":0,"last_update":"0001-01-01T00:00:00Z","name_a2s":"Uncletopia | Warsaw | 4 | All Maps","protocol":17,"map":"pl_borneo","folder":"tf","game":"Team Fortress","app_id":440,"player_count":0,"max_players":24,"Bots":0,"server_type":"Dedicated","server_os":"Linux","password":true,"vac":true,"version":"7961495","steam_id":85568392925397853,"keywords":["nocrits","nodmgspread","payload","uncletopia"],"game_id":440,"stv_port":27046,"stv_name":"Uncletopia | Warsaw | 4 | All Maps | STV","players":null},{"server_id":53,"name":"Uncletopia | Warsaw | 5 | Stopwatch","name_short":"waw-5","host":"waw-1.pl.uncletopia.com","port":27055,"enabled":true,"region":"eu","cc":"pl","latitude":52.2297,"longitude":21.017532,"reserved":0,"last_update":"0001-01-01T00:00:00Z","name_a2s":"Uncletopia | Warsaw | 5 | Stopwatch","protocol":17,"map":"workshop/koth_product_final.ugc454272353","folder":"tf","game":"Team Fortress","app_id":440,"player_count":0,"max_players":24,"Bots":0,"server_type":"Dedicated","server_os":"Linux","password":true,"vac":true,"version":"7961495","steam_id":85568392925397854,"keywords":["cp","nocrits","nodmgspread","uncletopia"],"game_id":440,"stv_port":27056,"stv_name":"Uncletopia | Warsaw | 5 | Stopwatch | STV","players":null},{"server_id":54,"name":"Uncletopia | Warsaw | 6 | Community","name_short":"waw-6","host":"waw-1.pl.uncletopia.com","port":27065,"enabled":true,"region":"eu","cc":"pl","latitude":52.2297,"longitude":21.017532,"reserved":0,"last_update":"0001-01-01T00:00:00Z","name_a2s":"Uncletopia | Warsaw | 6 | Community","protocol":17,"map":"workshop/koth_ashville_final.ugc2130459942","folder":"tf","game":"Team Fortress","app_id":440,"player_count":0,"max_players":24,"Bots":0,"server_type":"Dedicated","server_os":"Linux","password":true,"vac":true,"version":"7961495","steam_id":85568392925397856,"keywords":["cp","nocrits","nodmgspread","uncletopia"],"game_id":440,"stv_port":27066,"stv_name":"Uncletopia | Warsaw | 6 | Community | STV","players":null}]}