{"status":true,"message":"","result":[{"server_id":9,"name":"Uncletopia | Atlanta | 1 | All Maps","name_short":"atl-1","host":"atl-1.us.uncletopia.com","port":27015,"enabled":true,"region":"us-east","cc":"us","latitude":33.753746,"longitude":-84.38633,"reserved":0,"last_update":"0001-01-01T00:00:00Z","name_a2s":"Uncletopia | Atlanta | 1 | All Maps","protocol":17,"map":"pl_pier","folder":"tf","game":"Team Fortress","app_id":440,"player_count":23,"max_players":24,"Bots":0,"server_type":"Dedicated","server_os":"Linux","password":true,"vac":true,"version":"7882260","steam_id":85568392924469982,"keywords":["nocrits","nodmgspread","payload","uncletopia"],"game_id":440,"stv_port":27016,"stv_name":"Uncletopia | Atlanta | 1 | All Maps | STV","players":[{"user_id":627,"name":"kite","steam_id":76561198346516392,"connected_time":4854000000000,"state":"active","ping":85},{"user_id":644,"name":"ash","steam_id":76561198127890645,"connected_time":3228000000000,"state":"active","ping":69},{"user_id":675,"name":"Mr_Main22","steam_id":76561198002916363,"connected_time":950000000000,"state":"active","ping":46},{"user_id":655,"name":"Im High","steam_id":76561198049954886,"connected_time":2907000000000,"state":"active","ping":69},{"user_id":673,"name":"Flint","steam_id":76561198066547582,"connected_time":1399000000000,"state":"active","ping":113},{"user_id":685,"name":"Ninty","steam_id":76561199364725776,"connected_time":95000000000,"state":"active","ping":69},{"user_id":672,"name":"ATL1 | on my hunting trip","steam_id":76561198315341646,"connected_time":1407000000000,"state":"active","ping":71},{"user_id":663,"name":"crouton","steam_id":76561198828709358,"connected_time":2483000000000,"state":"active","ping":42},{"user_id":677,"name":"Ferguson","steam_id":76561198121349387,"connected_time":578000000000,"state":"active","ping":72},{"user_id":596,"name":"cola","steam_id":76561198374390458,"connected_time":7056000000000,"state":"active","ping":61},{"user_id":683,"name":"bobdabuil3er","steam_id":76561199203014888,"connected_time":173000000000,"state":"active","ping":89},{"user_id":686,"name":"Morgster","steam_id":76561198131697761,"connected_time":7000000000,"state":"spawning","ping":45},{"user_id":661,"name":"DuckMann","steam_id":76561198197058638,"connected_time":2497000000000,"state":"active","ping":47},{"user_id":619,"name":"hidden_games","steam_id":76561198149683392,"connected_time":5416000000000,"state":"active","ping":59},{"user_id":625,"name":"emily","steam_id":76561198148132163,"connected_time":5197000000000,"state":"active","ping":79},{"user_id":674,"name":"fwoGG exa*‚ú©‚Äß‚ÇäÀö","steam_id":76561198044511912,"connected_time":1390000000000,"state":"active","ping":105},{"user_id":676,"name":"Crystal Mongoose","steam_id":76561198001585325,"connected_time":863000000000,"state":"active","ping":51},{"user_id":665,"name":"Socialism Enjoyer","steam_id":76561197991817974,"connected_time":2270000000000,"state":"active","ping":114},{"user_id":684,"name":"junglefan_7066","steam_id":76561199437560148,"connected_time":147000000000,"state":"active","ping":117},{"user_id":657,"name":"tenshi","steam_id":76561198126358045,"connected_time":2901000000000,"state":"active","ping":72},{"user_id":643,"name":"Onyx","steam_id":76561198275349640,"connected_time":3391000000000,"state":"active","ping":75},{"user_id":662,"name":"meownt evewest :3","steam_id":76561198017686306,"connected_time":2496000000000,"state":"active","ping":155},{"user_id":671,"name":"Dr. Twa","steam_id":76561198295529541,"connected_time":1531000000000,"state":"active","ping":77}]},{"server_id":104,"name":"Uncletopia | Atlanta | 2 | All Maps","name_short":"atl-2","host":"atl-1.us.uncletopia.com","port":27025,"enabled":true,"region":"us-east","cc":"us","latitude":33.753746,"longitude":-84.38633,"reserved":0,"last_update":"0001-01-01T00:00:00Z","name_a2s":"Uncletopia | Atlanta | 2 | All Maps","protocol":17,"map":"pl_borneo","folder":"tf","game":"Team Fortress","app_id":440,"player_count":21,"max_players":24,"Bots":0,"server_type":"Dedicated","server_os":"Linux","password":true,"vac":true,"version":"7882260","steam_id":85568392924469983,"keywords":["nocrits","nodmgspread","payload","uncletopia"],"game_id":440,"stv_port":27026,"stv_name":"Uncletopia | Atlanta | 2 | All Maps | STV","players":[{"user_id":333,"name":"Kuwait Grips","steam_id":76561198292689973,"connected_time":1642000000000,"state":"active","ping":62},{"user_id":347,"name":"goose","steam_id":76561198367551668,"connected_time":873000000000,"state":"active","ping":59},{"user_id":327,"name":"gon","steam_id":76561198341171295,"connected_time":2121000000000,"state":"active","ping":95},{"user_id":356,"name":"Nash","steam_id":76561198044192734,"connected_time":24000000000,"state":"active","ping":39},{"user_id":331,"name":"sumerian death metal warrior","steam_id":76561198997380708,"connected_time":1681000000000,"state":"active","ping":111},{"user_id":355,"name":"SpaceLeezerd","steam_id":76561198171026678,"connected_time":225000000000,"state":"active","ping":55},{"user_id":346,"name":"Mr. Everett","steam_id":76561198401204033,"connected_time":1003000000000,"state":"active","ping":67},{"user_id":332,"name":"BANGARANG","steam_id":76561198816597453,"connected_time":1669000000000,"state":"active","ping":80},{"user_id":353,"name":"minty","steam_id":76561198096347625,"connected_time":327000000000,"state":"active","ping":58},{"user_id":357,"name":"DarkEmpireOne","steam_id":76561198106849547,"connected_time":21000000000,"state":"active","ping":67},{"user_id":309,"name":"Not Guztaf","steam_id":76561198334924763,"connected_time":3341000000000,"state":"active","ping":70},{"user_id":369,"name":"Buckshot","steam_id":76561198312838299,"connected_time":4000000000,"state":"spawning","ping":79},{"user_id":348,"name":"Drapph","steam_id":76561199384213314,"connected_time":757000000000,"state":"active","ping":85},{"user_id":358,"name":"Neophyte","steam_id":76561198027183394,"connected_time":16000000000,"state":"active","ping":96},{"user_id":329,"name":"I \u003c3 Vore","steam_id":76561198980062131,"connected_time":1888000000000,"state":"active","ping":75},{"user_id":225,"name":"Chhaam","steam_id":76561198058508132,"connected_time":8933000000000,"state":"active","ping":46},{"user_id":349,"name":"FancyBones","steam_id":76561198180198885,"connected_time":707000000000,"state":"active","ping":69},{"user_id":320,"name":"Sprinklze","steam_id":76561198163562681,"connected_time":2427000000000,"state":"active","ping":51},{"user_id":312,"name":"Caustic","steam_id":76561198004802198,"connected_time":3324000000000,"state":"active","ping":53},{"user_id":340,"name":"Mathatguy","steam_id":76561198225432188,"connected_time":1566000000000,"state":"active","ping":69},{"user_id":321,"name":"DJ-Whatchya #rEtiReD","steam_id":76561198060355298,"connected_time":2427000000000,"state":"active","ping":63}]},{"server_id":400,"name":"Uncletopia | Atlanta | 3 | Community","name_short":"atl-3","host":"atl-1.us.uncletopia.com","port":27035,"enabled":true,"region":"us-east","cc":"us","latitude":33.753746,"longitude":-84.38633,"reserved":0,"last_update":"0001-01-01T00:00:00Z","name_a2s":"Uncletopia | Atlanta | 3 | Community","protocol":17,"map":"workshop/cp_bruhstbowl_b5.ugc2878604990","folder":"tf","game":"Team Fortress","app_id":440,"player_count":24,"max_players":24,"Bots":0,"server_type":"Dedicated","server_os":"Linux","password":true,"vac":true,"version":"7882260","steam_id":85568392924515187,"keywords":["cp","nocrits","nodmgspread","uncletopia"],"game_id":440,"stv_port":27036,"stv_name":"Uncletopia | Atlanta | 3 | Community | STV","players":[{"user_id":43,"name":"legowizdude","steam_id":76561198086688058,"connected_time":3794000000000,"state":"active","ping":82},{"user_id":42,"name":"Esoteric Death","steam_id":76561198168686614,"connected_time":3826000000000,"state":"active","ping":90},{"user_id":50,"name":"Rottleknocket Whiz","steam_id":76561198811544339,"connected_time":2757000000000,"state":"active","ping":64},{"user_id":82,"name":"∆ê’å—¥∆≥","steam_id":76561198099470277,"connected_time":949000000000,"state":"active","ping":71},{"user_id":88,"name":"AlcoholicDad454","steam_id":76561198157414556,"connected_time":115000000000,"state":"active","ping":60},{"user_id":83,"name":"do you remember poptropica?","steam_id":76561199025227085,"connected_time":888000000000,"state":"active","ping":89},{"user_id":77,"name":"smittenkittenmittens","steam_id":76561198130900442,"connected_time":1462000000000,"state":"active","ping":113},{"user_id":53,"name":"Cheesemelt","steam_id":76561198008221847,"connected_time":2674000000000,"state":"active","ping":77},{"user_id":54,"name":"PootisPowHAHA","steam_id":76561199023536209,"connected_time":2654000000000,"state":"active","ping":69},{"user_id":56,"name":"Punished Shitster","steam_id":76561198150452857,"connected_time":2643000000000,"state":"active","ping":77},{"user_id":57,"name":"Rin \"Hindwing\" Redtail","steam_id":76561199074865638,"connected_time":2584000000000,"state":"active","ping":59},{"user_id":81,"name":"Lionel Messi","steam_id":76561198226207032,"connected_time":1122000000000,"state":"active","ping":74},{"user_id":80,"name":"God (real)","steam_id":76561198131089513,"connected_time":1195000000000,"state":"active","ping":63},{"user_id":86,"name":"Harold","steam_id":76561198057317770,"connected_time":418000000000,"state":"active","ping":90},{"user_id":87,"name":"Jesse","steam_id":76561198157305426,"connected_time":126000000000,"state":"active","ping":44},{"user_id":66,"name":"BluCoffee","steam_id":76561198214995967,"connected_time":2372000000000,"state":"active","ping":83},{"user_id":89,"name":"DAS SCHNITZELSTIEN","steam_id":76561198051137159,"connected_time":64000000000,"state":"active","ping":102},{"user_id":68,"name":"Comfy Monkey","steam_id":76561197998434936,"connected_time":2327000000000,"state":"active","ping":76},{"user_id":85,"name":"Jezebel","steam_id":76561198315484462,"connected_time":666000000000,"state":"active","ping":75},{"user_id":70,"name":"MaximumEffortX5","steam_id":76561199478262054,"connected_time":2179000000000,"state":"active","ping":70},{"user_id":71,"name":"Fermenting Kiwi","steam_id":76561198253303497,"connected_time":2167000000000,"state":"active","ping":86},{"user_id":72,"name":"beguilingfool","steam_id":76561199128745972,"connected_time":2146000000000,"state":"active","ping":119},{"user_id":73,"name":"Elflocky","steam_id":76561199096852639,"connected_time":2140000000000,"state":"active","ping":75},{"user_id":74,"name":"C O M F Y","steam_id":76561198072101210,"connected_time":2135000000000,"state":"active","ping":70}]},{"server_id":401,"name":"Uncletopia | Atlanta | 4 | No Payload","name_short":"atl-4","host":"atl-1.us.uncletopia.com","port":27045,"enabled":true,"region":"us-east","cc":"us","latitude":33.753746,"longitude":-84.38633,"reserved":0,"last_update":"0001-01-01T00:00:00Z","name_a2s":"","protocol":0,"map":"","folder":"","game":"","app_id":0,"player_count":0,"max_players":0,"Bots":0,"server_type":"","server_os":"","password":false,"vac":false,"version":"","steam_id":0,"keywords":null,"game_id":0,"stv_port":0,"stv_name":"","players":null},{"server_id":2,"name":"Uncletopia | Chicago | 1 | All Maps","name_short":"chi-1","host":"chi-1.us.uncletopia.com","port":27015,"enabled":true,"region":"us-central","cc":"us","latitude":41.881832,"longitude":-87.62318,"reserved":0,"last_update":"0001-01-01T00:00:00Z","name_a2s":"Uncletopia | Chicago | 1 | All Maps","protocol":17,"map":"pl_badwater","folder":"tf","game":"Team Fortress","app_id":440,"player_count":24,"max_players":24,"Bots":0,"server_type":"Dedicated","server_os":"Linux","password":true,"vac":true,"version":"7882260","steam_id":85568392924469984,"keywords":["nocrits","nodmgspread","payload","uncletopia"],"game_id":440,"stv_port":27016,"stv_name":"Uncletopia | Chicago | 1 | All Maps | STV","players":[{"user_id":766,"name":"The local hobo","steam_id":76561198289650060,"connected_time":1089000000000,"state":"active","ping":78},{"user_id":754,"name":"boombox","steam_id":76561198237013798,"connected_time":2666000000000,"state":"active","ping":78},{"user_id":765,"name":"|AG| Level","steam_id":76561198063633592,"connected_time":1116000000000,"state":"active","ping":102},{"user_id":748,"name":"ae","steam_id":76561198185490827,"connected_time":2868000000000,"state":"active","ping":81},{"user_id":747,"name":"Iceman10a","steam_id":76561198171922098,"connected_time":2875000000000,"state":"active","ping":116},{"user_id":678,"name":"x‚ù§x_1337_VVeed_VVizard_x‚ù§x","steam_id":76561198067436825,"connected_time":8636000000000,"state":"active","ping":84},{"user_id":767,"name":"HOTA","steam_id":76561199002778841,"connected_time":1087000000000,"state":"active","ping":73},{"user_id":768,"name":"The Gronkler","steam_id":76561198019915822,"connected_time":991000000000,"state":"active","ping":65},{"user_id":762,"name":"Strangelove","steam_id":76561198353773611,"connected_time":1159000000000,"state":"active","ping":84},{"user_id":728,"name":"Dr. Dick","steam_id":76561198138011922,"connected_time":4478000000000,"state":"active","ping":71},{"user_id":760,"name":"Owl Pacino","steam_id":76561197979970666,"connected_time":1548000000000,"state":"active","ping":53},{"user_id":724,"name":"artichoke","steam_id":76561198980994364,"connected_time":4706000000000,"state":"active","ping":97},{"user_id":759,"name":"feliser","steam_id":76561198084336096,"connected_time":1587000000000,"state":"active","ping":54},{"user_id":757,"name":"Your Local Queer Librarian","steam_id":76561198013077080,"connected_time":2195000000000,"state":"active","ping":57},{"user_id":758,"name":"eat Pant","steam_id":76561197974965536,"connected_time":1820000000000,"state":"active","ping":56},{"user_id":763,"name":"Loaf of rabbit","steam_id":76561198248715052,"connected_time":1141000000000,"state":"active","ping":105},{"user_id":764,"name":"Juanseparra564","steam_id":76561198176662903,"connected_time":1131000000000,"state":"active","ping":116},{"user_id":761,"name":"codswallopslurp","steam_id":76561197972601902,"connected_time":1369000000000,"state":"active","ping":88},{"user_id":736,"name":"Caterpillar Friend","steam_id":76561198044298346,"connected_time":3054000000000,"state":"active","ping":85},{"user_id":706,"name":"Takyon","steam_id":76561198172075186,"connected_time":5907000000000,"state":"active","ping":174},{"user_id":738,"name":"Captain S. Forrest","steam_id":76561198062463029,"connected_time":3049000000000,"state":"active","ping":82},{"user_id":739,"name":"Astoriae!","steam_id":76561199090168858,"connected_time":3049000000000,"state":"active","ping":68},{"user_id":721,"name":"Maverick","steam_id":76561198322829814,"connected_time":4734000000000,"state":"active","ping":77},{"user_id":734,"name":"Blackbird","steam_id":76561198127818333,"connected_time":3701000000000,"state":"active","ping":54}]},{"server_id":106,"name":"Uncletopia | Chicago | 2 | All Maps","name_short":"chi-2","host":"chi-1.us.uncletopia.com","port":27025,"enabled":true,"region":"us-central","cc":"us","latitude":41.881832,"longitude":-87.62318,"reserved":0,"last_update":"0001-01-01T00:00:00Z","name_a2s":"Uncletopia | Chicago | 2 | All Maps","protocol":17,"map":"ctf_doublecross","folder":"tf","game":"Team Fortress","app_id":440,"player_count":22,"max_players":24,"Bots":0,"server_type":"Dedicated","server_os":"Linux","password":true,"vac":true,"version":"7882260","steam_id":85568392924469985,"keywords":["ctf","nocrits","nodmgspread","uncletopia"],"game_id":440,"stv_port":27026,"stv_name":"Uncletopia | Chicago | 2 | All Maps | STV","players":[{"user_id":610,"name":"LerN","steam_id":76561198083463877,"connected_time":221000000000,"state":"active","ping":46},{"user_id":455,"name":"Lord TriM","steam_id":76561198048332533,"connected_time":3416000000000,"state":"active","ping":55},{"user_id":615,"name":"AveraGeo","steam_id":76561198216949631,"connected_time":169000000000,"state":"active","ping":67},{"user_id":497,"name":"Also Known As Assteeth","steam_id":76561198049837377,"connected_time":2214000000000,"state":"active","ping":46},{"user_id":529,"name":"manbearswineflu","steam_id":76561198083945137,"connected_time":1505000000000,"state":"active","ping":54},{"user_id":412,"name":"Famelegion","steam_id":76561198958341424,"connected_time":7358000000000,"state":"active","ping":85},{"user_id":617,"name":"selarom | trade.tf |","steam_id":76561199069219350,"connected_time":33000000000,"state":"active","ping":59},{"user_id":611,"name":"Cornelius","steam_id":76561198123447388,"connected_time":205000000000,"state":"active","ping":49},{"user_id":612,"name":"Mitchacho74","steam_id":76561198087986935,"connected_time":195000000000,"state":"active","ping":69},{"user_id":619,"name":"JimFrel","steam_id":76561199476029852,"connected_time":11000000000,"state":"spawning","ping":73},{"user_id":613,"name":"Spooby","steam_id":76561198168114366,"connected_time":186000000000,"state":"active","ping":58},{"user_id":544,"name":"Treeckogeek","steam_id":76561198453328078,"connected_time":1230000000000,"state":"active","ping":57},{"user_id":618,"name":"stoned jester","steam_id":76561198079609974,"connected_time":29000000000,"state":"active","ping":113},{"user_id":620,"name":"GavinGaming","steam_id":76561198251462934,"connected_time":10000000000,"state":"spawning","ping":78},{"user_id":463,"name":"Bananaramagrams","steam_id":76561198084429090,"connected_time":3137000000000,"state":"active","ping":83},{"user_id":614,"name":"Rocky","steam_id":76561198048158539,"connected_time":175000000000,"state":"active","ping":74},{"user_id":601,"name":"Xanadu","steam_id":76561198069642258,"connected_time":421000000000,"state":"active","ping":73},{"user_id":423,"name":"Walkiing","steam_id":76561198074473413,"connected_time":6045000000000,"state":"active","ping":39},{"user_id":616,"name":"cakgamin","steam_id":76561199088909749,"connected_time":154000000000,"state":"active","ping":56},{"user_id":520,"name":"Veridian","steam_id":76561198096334078,"connected_time":1747000000000,"state":"active","ping":75},{"user_id":561,"name":"||BassMan||","steam_id":76561198279865229,"connected_time":1059000000000,"state":"active","ping":120},{"user_id":609,"name":"Tuba","steam_id":76561198209166329,"connected_time":266000000000,"state":"active","ping":106}]},{"server_id":402,"name":"Uncletopia | Chicago | 3 | All Maps","name_short":"chi-3","host":"chi-1.us.uncletopia.com","port":27035,"enabled":true,"region":"us-central","cc":"us","latitude":41.881832,"longitude":-87.62318,"reserved":0,"last_update":"0001-01-01T00:00:00Z","name_a2s":"Uncletopia | Chicago | 3 | All Maps","protocol":17,"map":"cp_metalworks","folder":"tf","game":"Team Fortress","app_id":440,"player_count":24,"max_players":24,"Bots":0,"server_type":"Dedicated","server_os":"Linux","password":true,"vac":true,"version":"7882260","steam_id":85568392924515191,"keywords":["cp","nocrits","nodmgspread","uncletopia"],"game_id":440,"stv_port":27036,"stv_name":"Uncletopia | Chicago | 3 | All Maps | STV","players":[{"user_id":633,"name":"picklejuice dealer","steam_id":76561198031675881,"connected_time":1445000000000,"state":"active","ping":45},{"user_id":614,"name":"Noid","steam_id":76561198227804500,"connected_time":2067000000000,"state":"active","ping":79},{"user_id":573,"name":"Emder","steam_id":76561198260747931,"connected_time":4686000000000,"state":"active","ping":57},{"user_id":634,"name":"AltrA","steam_id":76561198117148323,"connected_time":1428000000000,"state":"active","ping":60},{"user_id":642,"name":"B·µ¢g B‚Çí‚Çõ‚Çõ","steam_id":76561198090271815,"connected_time":899000000000,"state":"active","ping":120},{"user_id":620,"name":"Ping","steam_id":76561198072947773,"connected_time":1885000000000,"state":"active","ping":59},{"user_id":650,"name":"NoSignal","steam_id":76561198094723903,"connected_time":34000000000,"state":"active","ping":61},{"user_id":619,"name":"Mix","steam_id":76561198835593895,"connected_time":1900000000000,"state":"active","ping":69},{"user_id":644,"name":"BOTBOT","steam_id":76561198271928618,"connected_time":247000000000,"state":"active","ping":80},{"user_id":645,"name":"Dr Oshawott","steam_id":76561198042021629,"connected_time":240000000000,"state":"active","ping":69},{"user_id":609,"name":"cold spaghetti","steam_id":76561198983037944,"connected_time":2560000000000,"state":"active","ping":57},{"user_id":635,"name":"OddBread","steam_id":76561198339301792,"connected_time":1407000000000,"state":"active","ping":47},{"user_id":595,"name":"_Lusty_","steam_id":76561198876948142,"connected_time":3823000000000,"state":"active","ping":69},{"user_id":622,"name":"AmBoxReally","steam_id":76561198200640118,"connected_time":1845000000000,"state":"active","ping":60},{"user_id":623,"name":"yaoi 2.0","steam_id":76561198123527383,"connected_time":1841000000000,"state":"active","ping":60},{"user_id":646,"name":"aussie","steam_id":76561198374523099,"connected_time":123000000000,"state":"active","ping":86},{"user_id":649,"name":"THE CANDYMAN","steam_id":76561198325613425,"connected_time":76000000000,"state":"active","ping":134},{"user_id":647,"name":"King Oshawott","steam_id":76561198837009928,"connected_time":104000000000,"state":"active","ping":59},{"user_id":648,"name":"mashallah","steam_id":76561198075111427,"connected_time":100000000000,"state":"active","ping":72},{"user_id":606,"name":"Rein","steam_id":76561198300340427,"connected_time":2976000000000,"state":"active","ping":61},{"user_id":643,"name":"2JZ_","steam_id":76561198064027289,"connected_time":273000000000,"state":"active","ping":83},{"user_id":627,"name":"guac","steam_id":76561198070305720,"connected_time":1791000000000,"state":"active","ping":83},{"user_id":630,"name":"dirty30","steam_id":76561198021226566,"connected_time":1612000000000,"state":"active","ping":100},{"user_id":629,"name":"Joker","steam_id":76561198251373190,"connected_time":1766000000000,"state":"active","ping":73}]},{"server_id":403,"name":"Uncletopia | Chicago | 4 | All Maps","name_short":"chi-4","host":"chi-1.us.uncletopia.com","port":27045,"enabled":true,"region":"us-central","cc":"us","latitude":41.881832,"longitude":-87.62318,"reserved":0,"last_update":"0001-01-01T00:00:00Z","name_a2s":"Uncletopia | Chicago | 4 | All Maps","protocol":17,"map":"pl_pier","folder":"tf","game":"Team Fortress","app_id":440,"player_count":24,"max_players":24,"Bots":0,"server_type":"Dedicated","server_os":"Linux","password":true,"vac":true,"version":"7882260","steam_id":85568392924515193,"keywords":["nocrits","nodmgspread","payload","uncletopia"],"game_id":440,"stv_port":27046,"stv_name":"Uncletopia | Chicago | 4 | All Maps | STV","players":[{"user_id":731,"name":"Rukks","steam_id":76561197993918954,"connected_time":1123000000000,"state":"active","ping":90},{"user_id":725,"name":"MankTKO","steam_id":76561198189421005,"connected_time":2042000000000,"state":"active","ping":47},{"user_id":699,"name":"graggle simpson","steam_id":76561198840210218,"connected_time":4805000000000,"state":"active","ping":112},{"user_id":718,"name":"M√£…æ û√≥≈¶ƒß","steam_id":76561198819418878,"connected_time":2503000000000,"state":"active","ping":74},{"user_id":728,"name":"Cheese","steam_id":76561199207081299,"connected_time":1361000000000,"state":"active","ping":111},{"user_id":732,"name":"The destroyer of foreskin","steam_id":76561198135275966,"connected_time":1087000000000,"state":"active","ping":70},{"user_id":407,"name":"WALL-E","steam_id":76561198154701370,"connected_time":28217000000000,"state":"active","ping":85},{"user_id":736,"name":"Tenna","steam_id":76561198052020077,"connected_time":950000000000,"state":"active","ping":90},{"user_id":710,"name":"BatJet","steam_id":76561198147738441,"connected_time":2563000000000,"state":"active","ping":112},{"user_id":748,"name":"gabaghoulio","steam_id":76561198013650292,"connected_time":771000000000,"state":"active","ping":114},{"user_id":744,"name":"LizardBoyTailFrotting","steam_id":76561199169859135,"connected_time":813000000000,"state":"active","ping":105},{"user_id":691,"name":"canakblasteran","steam_id":76561199472518822,"connected_time":5970000000000,"state":"active","ping":101},{"user_id":734,"name":"Butters495","steam_id":76561197998689042,"connected_time":1046000000000,"state":"active","ping":75},{"user_id":686,"name":"JayArr","steam_id":76561198124371253,"connected_time":6180000000000,"state":"active","ping":45},{"user_id":735,"name":"SDL","steam_id":76561198859719985,"connected_time":1020000000000,"state":"active","ping":90},{"user_id":729,"name":"Fate Gay/Sex","steam_id":76561198026827492,"connected_time":1302000000000,"state":"active","ping":77},{"user_id":737,"name":"SneakySneak","steam_id":76561198064847921,"connected_time":947000000000,"state":"active","ping":67},{"user_id":726,"name":"Castroy","steam_id":76561198108160099,"connected_time":1726000000000,"state":"active","ping":63},{"user_id":745,"name":"[ibb‚Ñ¢]Shadow20X6-ENGI","steam_id":76561198019292755,"connected_time":806000000000,"state":"active","ping":102},{"user_id":722,"name":"AreYouMyMummy?","steam_id":76561197995101745,"connected_time":2454000000000,"state":"active","ping":65},{"user_id":750,"name":"conner","steam_id":76561198052911241,"connected_time":535000000000,"state":"active","ping":73},{"user_id":751,"name":"gyozaking","steam_id":76561197972312696,"connected_time":277000000000,"state":"active","ping":38},{"user_id":742,"name":"Orga","steam_id":76561198062321195,"connected_time":922000000000,"state":"active","ping":76},{"user_id":747,"name":"Malmart_Employee","steam_id":76561198320388704,"connected_time":806000000000,"state":"active","ping":115}]},{"server_id":36,"name":"Uncletopia | Chicago | 5 | All Maps","name_short":"chi-5","host":"chi-2.us.uncletopia.com","port":27015,"enabled":true,"region":"us-central","cc":"us","latitude":41.881832,"longitude":-87.62318,"reserved":0,"last_update":"0001-01-01T00:00:00Z","name_a2s":"Uncletopia | Chicago | 5 | All Maps","protocol":17,"map":"pl_frontier_final","folder":"tf","game":"Team Fortress","app_id":440,"player_count":23,"max_players":24,"Bots":0,"server_type":"Dedicated","server_os":"Linux","password":true,"vac":true,"version":"7882260","steam_id":85568392924866362,"keywords":["nocrits","nodmgspread","payload","uncletopia"],"game_id":440,"stv_port":27016,"stv_name":"Uncletopia | Chicago | 5 | All Maps | STV","players":[{"user_id":471,"name":"leumas","steam_id":76561198240408540,"connected_time":20000000000,"state":"active","ping":54},{"user_id":465,"name":"Jester","steam_id":76561199203898660,"connected_time":179000000000,"state":"active","ping":72},{"user_id":463,"name":"PenutButterPirate","steam_id":76561198252962312,"connected_time":197000000000,"state":"active","ping":69},{"user_id":398,"name":"Dededoo","steam_id":76561198279033471,"connected_time":4333000000000,"state":"active","ping":93},{"user_id":443,"name":"carp","steam_id":76561198042865147,"connected_time":842000000000,"state":"active","ping":53},{"user_id":444,"name":"Pixieon","steam_id":76561199144348429,"connected_time":832000000000,"state":"active","ping":101},{"user_id":409,"name":"Fraglin","steam_id":76561198124964000,"connected_time":4029000000000,"state":"active","ping":74},{"user_id":468,"name":"Peachy","steam_id":76561198355191810,"connected_time":138000000000,"state":"active","ping":59},{"user_id":458,"name":"tubby","steam_id":76561198174982661,"connected_time":618000000000,"state":"active","ping":76},{"user_id":447,"name":"VerdantSunset","steam_id":76561198062313478,"connected_time":775000000000,"state":"active","ping":83},{"user_id":448,"name":"DinkleBerg","steam_id":76561198891626233,"connected_time":769000000000,"state":"active","ping":60},{"user_id":466,"name":"Grilled Jizo","steam_id":76561199250875340,"connected_time":168000000000,"state":"active","ping":81},{"user_id":467,"name":"Burrito","steam_id":76561198009622433,"connected_time":163000000000,"state":"active","ping":87},{"user_id":469,"name":"cool beans","steam_id":76561198321591685,"connected_time":138000000000,"state":"active","ping":78},{"user_id":451,"name":"pigfarmer.gov","steam_id":76561199071167548,"connected_time":737000000000,"state":"active","ping":62},{"user_id":470,"name":"veeseevici","steam_id":76561199205348710,"connected_time":95000000000,"state":"active","ping":221},{"user_id":459,"name":"Femboy Weeblet","steam_id":76561198329868052,"connected_time":569000000000,"state":"active","ping":61},{"user_id":462,"name":"Pro-State Orgasm","steam_id":76561198034712323,"connected_time":208000000000,"state":"active","ping":111},{"user_id":432,"name":"vv","steam_id":76561198134813102,"connected_time":2650000000000,"state":"active","ping":58},{"user_id":455,"name":"Capit√°n √Ñxis-Flores","steam_id":76561198353865006,"connected_time":720000000000,"state":"active","ping":101},{"user_id":456,"name":"jayhong","steam_id":76561198046772832,"connected_time":719000000000,"state":"active","ping":30},{"user_id":460,"name":"gameplayer9034","steam_id":76561198176719153,"connected_time":563000000000,"state":"active","ping":77},{"user_id":457,"name":"Michaelpc1","steam_id":76561198088365519,"connected_time":713000000000,"state":"active","ping":87}]},{"server_id":37,"name":"Uncletopia | Chicago | 6 | All Maps","name_short":"chi-6","host":"chi-2.us.uncletopia.com","port":27025,"enabled":true,"region":"us-central","cc":"us","latitude":41.881832,"longitude":-87.62318,"reserved":0,"last_update":"0001-01-01T00:00:00Z","name_a2s":"Uncletopia | Chicago | 6 | All Maps","protocol":17,"map":"pl_upward","folder":"tf","game":"Team Fortress","app_id":440,"player_count":17,"max_players":24,"Bots":0,"server_type":"Dedicated","server_os":"Linux","password":true,"vac":true,"version":"7882260","steam_id":85568392924866363,"keywords":["nocrits","nodmgspread","payload","uncletopia"],"game_id":440,"stv_port":27026,"stv_name":"Uncletopia | Chicago | 6 | All Maps | STV","players":[{"user_id":271,"name":"sky walker","steam_id":76561198937717599,"connected_time":2447000000000,"state":"active","ping":61},{"user_id":272,"name":"wm1","steam_id":76561198265522923,"connected_time":2438000000000,"state":"active","ping":74},{"user_id":286,"name":"Owixan","steam_id":76561198074990070,"connected_time":1944000000000,"state":"active","ping":32},{"user_id":250,"name":"jimmyfnaf172198yay","steam_id":76561198311446636,"connected_time":3488000000000,"state":"active","ping":63},{"user_id":218,"name":"Person","steam_id":76561198093244204,"connected_time":5180000000000,"state":"active","ping":74},{"user_id":273,"name":"Soju","steam_id":76561198044130442,"connected_time":2409000000000,"state":"active","ping":74},{"user_id":164,"name":"SpecialForce19","steam_id":76561198120974644,"connected_time":9064000000000,"state":"active","ping":66},{"user_id":292,"name":"Blargh","steam_id":76561198044095816,"connected_time":1675000000000,"state":"active","ping":44},{"user_id":246,"name":"Spicy Jumbo Big Daddy","steam_id":76561198076364318,"connected_time":3506000000000,"state":"active","ping":56},{"user_id":275,"name":"Mr.Silver","steam_id":76561198156382508,"connected_time":2400000000000,"state":"active","ping":50},{"user_id":265,"name":"gamer rat","steam_id":76561199278864569,"connected_time":2956000000000,"state":"active","ping":114},{"user_id":297,"name":"oat milf","steam_id":76561198805266653,"connected_time":1414000000000,"state":"active","ping":80},{"user_id":301,"name":"Blitzy","steam_id":76561198149472890,"connected_time":830000000000,"state":"active","ping":74},{"user_id":263,"name":"DeadErebus","steam_id":76561198286117045,"connected_time":3077000000000,"state":"active","ping":29},{"user_id":289,"name":"wildpiercy","steam_id":76561198067760414,"connected_time":1853000000000,"state":"active","ping":89},{"user_id":305,"name":"horsegirl supreme !","steam_id":76561198113661388,"connected_time":67000000000,"state":"active","ping":59},{"user_id":293,"name":"CheeseLikeSubstance","steam_id":76561197977170646,"connected_time":1655000000000,"state":"active","ping":43}]},{"server_id":38,"name":"Uncletopia | Chicago | 7 | Stopwatch Beta","name_short":"chi-7","host":"chi-2.us.uncletopia.com","port":27035,"enabled":true,"region":"us-central","cc":"us","latitude":41.881832,"longitude":-87.62318,"reserved":0,"last_update":"0001-01-01T00:00:00Z","name_a2s":"Uncletopia | Chicago | 7 | Stopwatch Beta","protocol":17,"map":"pl_borneo","folder":"tf","game":"Team Fortress","app_id":440,"player_count":0,"max_players":24,"Bots":0,"server_type":"Dedicated","server_os":"Linux","password":true,"vac":true,"version":"7882260","steam_id":85568392924866364,"keywords":["nocrits","nodmgspread","payload","uncletopia"],"game_id":440,"stv_port":27036,"stv_name":"Uncletopia | Chicago | 7 | Stopwatch Beta | STV","players":null},{"server_id":39,"name":"Uncletopia | Chicago | 8 | Community","name_short":"chi-8","host":"chi-2.us.uncletopia.com","port":27045,"enabled":true,"region":"us-central","cc":"us","latitude":41.881832,"longitude":-87.62318,"reserved":0,"last_update":"0001-01-01T00:00:00Z","name_a2s":"Uncletopia | Chicago | 8 | Community","protocol":17,"map":"workshop/koth_synthetic_rc6a.ugc1549817316","folder":"tf","game":"Team Fortress","app_id":440,"player_count":0,"max_players":24,"Bots":0,"server_type":"Dedicated","server_os":"Linux","password":true,"vac":true,"version":"7882260","steam_id":85568392924866365,"keywords":["cp","nocrits","nodmgspread","uncletopia"],"game_id":440,"stv_port":27046,"stv_name":"Uncletopia | Chicago | 8 | Community | STV","players":null},{"server_id":8,"name":"Uncletopia | Dallas | 1 | All Maps","name_short":"dal-1","host":"dal-1.us.uncletopia.com","port":27015,"enabled":true,"region":"us-central","cc":"us","latitude":32.779167,"longitude":-96.80889,"reserved":0,"last_update":"0001-01-01T00:00:00Z","name_a2s":"Uncletopia | Dallas | 1 | All Maps","protocol":17,"map":"cp_snakewater_final1","folder":"tf","game":"Team Fortress","app_id":440,"player_count":24,"max_players":24,"Bots":0,"server_type":"Dedicated","server_os":"Linux","password":true,"vac":true,"version":"7882260","steam_id":85568392924469986,"keywords":["cp","nocrits","nodmgspread","uncletopia"],"game_id":440,"stv_port":27016,"stv_name":"Uncletopia | Dallas | 1 | All Maps | STV","players":[{"user_id":666,"name":"I am a mooshroom","steam_id":76561198104198295,"connected_time":54000000000,"state":"active","ping":64},{"user_id":652,"name":"St. Michael","steam_id":76561198037611052,"connected_time":263000000000,"state":"active","ping":47},{"user_id":538,"name":"EvilPigglet","steam_id":76561197987243470,"connected_time":4344000000000,"state":"active","ping":73},{"user_id":654,"name":"A Drunken Fedora Salesman","steam_id":76561198056238723,"connected_time":215000000000,"state":"active","ping":88},{"user_id":667,"name":"heritage","steam_id":76561198108685037,"connected_time":0,"state":"spawning","ping":0},{"user_id":535,"name":"Xeno808","steam_id":76561198103758081,"connected_time":4509000000000,"state":"active","ping":37},{"user_id":572,"name":"PlugFromBehind","steam_id":76561198143283800,"connected_time":2646000000000,"state":"active","ping":58},{"user_id":581,"name":"Kazmirl | Youtuber","steam_id":76561198116008410,"connected_time":2088000000000,"state":"active","ping":106},{"user_id":619,"name":"Icarus the legend","steam_id":76561199013250091,"connected_time":639000000000,"state":"active","ping":39},{"user_id":591,"name":"Doggo_Overlord","steam_id":76561198265468015,"connected_time":1200000000000,"state":"active","ping":81},{"user_id":566,"name":"shoxidizer","steam_id":76561198981983698,"connected_time":3289000000000,"state":"active","ping":101},{"user_id":655,"name":"Darth Phrogg","steam_id":76561198150844229,"connected_time":209000000000,"state":"active","ping":36},{"user_id":531,"name":"Vit","steam_id":76561198044101991,"connected_time":4927000000000,"state":"active","ping":62},{"user_id":658,"name":"paperproducts2","steam_id":76561199038975614,"connected_time":195000000000,"state":"active","ping":79},{"user_id":651,"name":"Ironaka","steam_id":76561198029993183,"connected_time":304000000000,"state":"active","ping":90},{"user_id":576,"name":"barker bill","steam_id":76561198018451994,"connected_time":2452000000000,"state":"active","ping":64},{"user_id":659,"name":"Quietsharp","steam_id":76561198277968438,"connected_time":186000000000,"state":"active","ping":86},{"user_id":665,"name":"g0nk","steam_id":76561198838309024,"connected_time":69000000000,"state":"active","ping":77},{"user_id":585,"name":"Dinofire","steam_id":76561198147468271,"connected_time":2039000000000,"state":"active","ping":100},{"user_id":661,"name":"boefmaatjieYT","steam_id":76561199236384663,"connected_time":169000000000,"state":"active","ping":114},{"user_id":586,"name":"faka","steam_id":76561199093280815,"connected_time":1868000000000,"state":"active","ping":108},{"user_id":540,"name":"Cofi","steam_id":76561199026721822,"connected_time":4306000000000,"state":"active","ping":95},{"user_id":662,"name":"LiquidSillyGoose","steam_id":76561198888059548,"connected_time":156000000000,"state":"active","ping":80},{"user_id":588,"name":"FanaticSalt","steam_id":76561199380123059,"connected_time":1238000000000,"state":"active","ping":43}]},{"server_id":108,"name":"Uncletopia | Dallas | 2 | All Maps","name_short":"dal-2","host":"dal-1.us.uncletopia.com","port":27025,"enabled":true,"region":"us-central","cc":"us","latitude":32.779167,"longitude":-96.80889,"reserved":0,"last_update":"0001-01-01T00:00:00Z","name_a2s":"Uncletopia | Dallas | 2 | All Maps","protocol":17,"map":"pl_swiftwater_final1","folder":"tf","game":"Team Fortress","app_id":440,"player_count":20,"max_players":24,"Bots":0,"server_type":"Dedicated","server_os":"Linux","password":true,"vac":true,"version":"7882260","steam_id":85568392924469988,"keywords":["nocrits","nodmgspread","payload","uncletopia"],"game_id":440,"stv_port":27026,"stv_name":"Uncletopia | Dallas | 2 | All Maps | STV","players":[{"user_id":396,"name":"J.G. Klaus","steam_id":76561198001111196,"connected_time":4884000000000,"state":"active","ping":51},{"user_id":450,"name":"jacix3 [gay wolfgirl]{she/it}","steam_id":76561198205004165,"connected_time":157000000000,"state":"active","ping":115},{"user_id":451,"name":"skeletobro","steam_id":76561198311258358,"connected_time":147000000000,"state":"active","ping":114},{"user_id":409,"name":"xZackAttack27x","steam_id":76561198035446639,"connected_time":3235000000000,"state":"active","ping":37},{"user_id":454,"name":"WaywardFinn","steam_id":76561198040391296,"connected_time":75000000000,"state":"active","ping":100},{"user_id":453,"name":"tops","steam_id":76561199121780852,"connected_time":92000000000,"state":"active","ping":47},{"user_id":452,"name":"C0RV3L","steam_id":76561199205094837,"connected_time":126000000000,"state":"active","ping":97},{"user_id":441,"name":"0x01FE","steam_id":76561198838881917,"connected_time":677000000000,"state":"active","ping":62},{"user_id":445,"name":"DragonHunter994","steam_id":76561199076203907,"connected_time":426000000000,"state":"active","ping":57},{"user_id":455,"name":"acidicorn","steam_id":76561199484618071,"connected_time":63000000000,"state":"active","ping":99},{"user_id":425,"name":"ShapedSilver","steam_id":76561199073305310,"connected_time":1891000000000,"state":"active","ping":59},{"user_id":442,"name":"SecondCarpet","steam_id":76561199008323078,"connected_time":570000000000,"state":"active","ping":99},{"user_id":434,"name":"Lapisüíõ ","steam_id":76561198009198502,"connected_time":1500000000000,"state":"active","ping":91},{"user_id":419,"name":"meggie","steam_id":76561198038291026,"connected_time":2744000000000,"state":"active","ping":34},{"user_id":456,"name":"PerliousFalcon","steam_id":76561198124801907,"connected_time":30000000000,"state":"active","ping":131},{"user_id":457,"name":"wubber","steam_id":76561198286627157,"connected_time":18000000000,"state":"spawning","ping":98},{"user_id":447,"name":"—Å—á–∏–∑—è—≥","steam_id":76561199182960322,"connected_time":313000000000,"state":"active","ping":53},{"user_id":448,"name":"Mr. Baseball","steam_id":76561198112635823,"connected_time":258000000000,"state":"active","ping":154},{"user_id":444,"name":"Beantama","steam_id":76561198986811476,"connected_time":537000000000,"state":"active","ping":57},{"user_id":421,"name":"King Cotton","steam_id":76561198292444376,"connected_time":2309000000000,"state":"active","ping":64}]},{"server_id":5,"name":"Uncletopia | Frankfurt | 1 | All Maps","name_short":"frk-1","host":"frk-1.de.uncletopia.com","port":27015,"enabled":true,"region":"eu","cc":"de","latitude":50.110924,"longitude":8.682127,"reserved":0,"last_update":"0001-01-01T00:00:00Z","name_a2s":"Uncletopia | Frankfurt | 1 | All Maps","protocol":17,"map":"koth_cascade","folder":"tf","game":"Team Fortress","app_id":440,"player_count":0,"max_players":24,"Bots":0,"server_type":"Dedicated","server_os":"Linux","password":true,"vac":true,"version":"7882260","steam_id":85568392924469989,"keywords":["cp","nocrits","nodmgspread","uncletopia"],"game_id":440,"stv_port":27016,"stv_name":"Uncletopia | Frankfurt | 1 | All Maps | STV","players":null},{"server_id":110,"name":"Uncletopia | Frankfurt | 2 | All Maps","name_short":"frk-2","host":"frk-1.de.uncletopia.com","port":27025,"enabled":true,"region":"eu","cc":"de","latitude":50.110924,"longitude":8.682127,"reserved":0,"last_update":"0001-01-01T00:00:00Z","name_a2s":"Uncletopia | Frankfurt | 2 | All Maps","protocol":17,"map":"pl_barnblitz","folder":"tf","game":"Team Fortress","app_id":440,"player_count":0,"max_players":24,"Bots":0,"server_type":"Dedicated","server_os":"Linux","password":true,"vac":true,"version":"7882260","steam_id":85568392924469990,"keywords":["nocrits","nodmgspread","payload","uncletopia"],"game_id":440,"stv_port":27026,"stv_name":"Uncletopia | Frankfurt | 2 | All Maps | STV","players":null},{"server_id":308,"name":"Uncletopia | Frankfurt | 3 | All Maps","name_short":"frk-3","host":"frk-1.de.uncletopia.com","port":27035,"enabled":true,"region":"eu","cc":"de","latitude":50.110924,"longitude":8.682127,"reserved":0,"last_update":"0001-01-01T00:00:00Z","name_a2s":"Uncletopia | Frankfurt | 3 | All Maps","protocol":17,"map":"koth_viaduct","folder":"tf","game":"Team Fortress","app_id":440,"player_count":0,"max_players":24,"Bots":0,"server_type":"Dedicated","server_os":"Linux","password":true,"vac":true,"version":"7882260","steam_id":85568392924504274,"keywords":["cp","nocrits","nodmgspread","uncletopia"],"game_id":440,"stv_port":27036,"stv_name":"Uncletopia | Frankfurt | 3 | All Maps | STV","players":null},{"server_id":309,"name":"Uncletopia | Frankfurt | 4 | All Maps","name_short":"frk-4","host":"frk-1.de.uncletopia.com","port":27045,"enabled":true,"region":"eu","cc":"de","latitude":50.110924,"longitude":8.682127,"reserved":0,"last_update":"0001-01-01T00:00:00Z","name_a2s":"Uncletopia | Frankfurt | 4 | All Maps","protocol":17,"map":"pl_upward","folder":"tf","game":"Team Fortress","app_id":440,"player_count":0,"max_players":24,"Bots":0,"server_type":"Dedicated","server_os":"Linux","password":true,"vac":true,"version":"7882260","steam_id":85568392924504275,"keywords":["nocrits","nodmgspread","payload","uncletopia"],"game_id":440,"stv_port":27046,"stv_name":"Uncletopia | Frankfurt | 4 | All Maps | STV","players":null},{"server_id":310,"name":"Uncletopia | Frankfurt | 5 | All Maps","name_short":"frk-5","host":"frk-1.de.uncletopia.com","port":27055,"enabled":true,"region":"eu","cc":"de","latitude":50.110924,"longitude":8.682127,"reserved":0,"last_update":"0001-01-01T00:00:00Z","name_a2s":"Uncletopia | Frankfurt | 5 | All Maps","protocol":17,"map":"pl_frontier_final","folder":"tf","game":"Team Fortress","app_id":440,"player_count":0,"max_players":24,"Bots":0,"server_type":"Dedicated","server_os":"Linux","password":true,"vac":true,"version":"7882260","steam_id":85568392924504277,"keywords":["nocrits","nodmgspread","payload","uncletopia"],"game_id":440,"stv_port":27056,"stv_name":"Uncletopia | Frankfurt | 5 | All Maps | STV","players":null},{"server_id":311,"name":"Uncletopia | Frankfurt | 6 | All Maps","name_short":"frk-6","host":"frk-1.de.uncletopia.com","port":27065,"enabled":true,"region":"eu","cc":"de","latitude":50.110924,"longitude":8.682127,"reserved":0,"last_update":"0001-01-01T00:00:00Z","name_a2s":"Uncletopia | Frankfurt | 6 | All Maps","protocol":17,"map":"pl_barnblitz","folder":"tf","game":"Team Fortress","app_id":440,"player_count":0,"max_players":24,"Bots":0,"server_type":"Dedicated","server_os":"Linux","password":true,"vac":true,"version":"7882260","steam_id":85568392924504278,"keywords":["nocrits","nodmgspread","payload","uncletopia"],"game_id":440,"stv_port":27066,"stv_name":"Uncletopia | Frankfurt | 6 | All Maps | STV","players":null},{"server_id":23,"name":"Uncletopia | Frankfurt | 7 | Stopwatch Beta","name_short":"frk-7","host":"frk-1.de.uncletopia.com","port":27075,"enabled":true,"region":"eu","cc":"de","latitude":50.110924,"longitude":8.682127,"reserved":0,"last_update":"0001-01-01T00:00:00Z","name_a2s":"Uncletopia | Frankfurt | 7 | Stopwatch Beta","protocol":17,"map":"workshop/pl_badwater_pro_v12.ugc2142942074","folder":"tf","game":"Team Fortress","app_id":440,"player_count":0,"max_players":24,"Bots":0,"server_type":"Dedicated","server_os":"Linux","password":true,"vac":true,"version":"7882260","steam_id":85568392924742827,"keywords":["nocrits","nodmgspread","payload","uncletopia"],"game_id":440,"stv_port":27076,"stv_name":"Uncletopia | Frankfurt | 7 | Stopwatch Beta | STV","players":null},{"server_id":24,"name":"Uncletopia | Frankfurt | 8 | Community","name_short":"frk-8","host":"frk-1.de.uncletopia.com","port":27085,"enabled":true,"region":"eu","cc":"de","latitude":50.110924,"longitude":8.682127,"reserved":0,"last_update":"0001-01-01T00:00:00Z","name_a2s":"Uncletopia | Frankfurt | 8 | Community","protocol":17,"map":"workshop/koth_trenchfoot_b1a.ugc731436616","folder":"tf","game":"Team Fortress","app_id":440,"player_count":0,"max_players":24,"Bots":0,"server_type":"Dedicated","server_os":"Linux","password":true,"vac":true,"version":"7882260","steam_id":85568392924742828,"keywords":["cp","nocrits","nodmgspread","uncletopia"],"game_id":440,"stv_port":27086,"stv_name":"Uncletopia | Frankfurt | 8 | Community | STV","players":null},{"server_id":202,"name":"Uncletopia | Hong Kong | 1 | All Maps","name_short":"hgk-1","host":"hgk-1.hk.uncletopia.com","port":27015,"enabled":true,"region":"asia","cc":"hk","latitude":22.302711,"longitude":114.177216,"reserved":0,"last_update":"0001-01-01T00:00:00Z","name_a2s":"Uncletopia | Hong Kong | 1 | All Maps","protocol":17,"map":"pl_barnblitz","folder":"tf","game":"Team Fortress","app_id":440,"player_count":0,"max_players":24,"Bots":0,"server_type":"Dedicated","server_os":"Linux","password":true,"vac":true,"version":"7882260","steam_id":85568392924494504,"keywords":["nocrits","nodmgspread","payload","uncletopia"],"game_id":440,"stv_port":27016,"stv_name":"Uncletopia | Hong Kong | 1 | All Maps | STV","players":null},{"server_id":1,"name":"Uncletopia | Los Angeles | 1 | All Maps","name_short":"lax-1","host":"lax-1.us.uncletopia.com","port":27015,"enabled":true,"region":"us-west","cc":"us","latitude":33.94279,"longitude":-118.41004,"reserved":0,"last_update":"0001-01-01T00:00:00Z","name_a2s":"Uncletopia | Los Angeles | 1 | All Maps","protocol":17,"map":"pl_frontier_final","folder":"tf","game":"Team Fortress","app_id":440,"player_count":24,"max_players":24,"Bots":0,"server_type":"Dedicated","server_os":"Linux","password":true,"vac":true,"version":"7882260","steam_id":85568392924469991,"keywords":["nocrits","nodmgspread","payload","uncletopia"],"game_id":440,"stv_port":27016,"stv_name":"Uncletopia | Los Angeles | 1 | All Maps | STV","players":[{"user_id":560,"name":"Friend","steam_id":76561198300593303,"connected_time":986000000000,"state":"active","ping":57},{"user_id":520,"name":"Mom","steam_id":76561198207936000,"connected_time":3208000000000,"state":"active","ping":46},{"user_id":512,"name":"Avem","steam_id":76561198058763710,"connected_time":4396000000000,"state":"active","ping":45},{"user_id":544,"name":"Purple potato","steam_id":76561198932276149,"connected_time":1825000000000,"state":"active","ping":66},{"user_id":521,"name":"LeNoobe","steam_id":76561199092079229,"connected_time":3187000000000,"state":"active","ping":73},{"user_id":559,"name":"MoreRaptor360","steam_id":76561198318219638,"connected_time":1122000000000,"state":"active","ping":55},{"user_id":567,"name":"Wicket","steam_id":76561198044023036,"connected_time":331000000000,"state":"active","ping":105},{"user_id":568,"name":"Ashes Relandi","steam_id":76561198019640638,"connected_time":324000000000,"state":"active","ping":100},{"user_id":542,"name":"‚õß‚∏∏‚õß‚∏∏‚õß‚∏∏","steam_id":76561198007051179,"connected_time":2080000000000,"state":"active","ping":48},{"user_id":545,"name":"Moomin","steam_id":76561198072726213,"connected_time":1819000000000,"state":"active","ping":51},{"user_id":569,"name":"ryghehn","steam_id":76561198195359229,"connected_time":308000000000,"state":"active","ping":74},{"user_id":472,"name":"Sgt. Satire","steam_id":76561198104193483,"connected_time":6099000000000,"state":"active","ping":71},{"user_id":566,"name":"Laxoloni","steam_id":76561199197045700,"connected_time":352000000000,"state":"active","ping":76},{"user_id":570,"name":"Peter, what are you doing?","steam_id":76561198066452726,"connected_time":276000000000,"state":"active","ping":49},{"user_id":562,"name":"‚ù§ Ashley ‚ù§","steam_id":76561198056428303,"connected_time":899000000000,"state":"active","ping":49},{"user_id":563,"name":"Lumberjane37 (She/Her)","steam_id":76561198014841793,"connected_time":796000000000,"state":"active","ping":64},{"user_id":546,"name":"CR3EP","steam_id":76561198071554862,"connected_time":1805000000000,"state":"active","ping":59},{"user_id":549,"name":"nescoceo","steam_id":76561198040801160,"connected_time":1739000000000,"state":"active","ping":248},{"user_id":525,"name":"2 for $3.50 McChickens","steam_id":76561198089908660,"connected_time":3142000000000,"state":"active","ping":57},{"user_id":565,"name":"self sufficient kitten","steam_id":76561197960592612,"connected_time":594000000000,"state":"active","ping":77},{"user_id":550,"name":"soapboxracer360","steam_id":76561198316394688,"connected_time":1735000000000,"state":"active","ping":62},{"user_id":555,"name":"flo rida","steam_id":76561198226169704,"connected_time":1305000000000,"state":"active","ping":105},{"user_id":571,"name":"Sidekick","steam_id":76561198392740835,"connected_time":154000000000,"state":"active","ping":79},{"user_id":536,"name":"[ G R * T T Y ]","steam_id":76561198048986218,"connected_time":2395000000000,"state":"active","ping":63}]},{"server_id":112,"name":"Uncletopia | Los Angeles | 2 | All Maps","name_short":"lax-2","host":"lax-1.us.uncletopia.com","port":27025,"enabled":true,"region":"us-west","cc":"us","latitude":33.94279,"longitude":-118.41004,"reserved":0,"last_update":"0001-01-01T00:00:00Z","name_a2s":"Uncletopia | Los Angeles | 2 | All Maps","protocol":17,"map":"cp_sunshine","folder":"tf","game":"Team Fortress","app_id":440,"player_count":24,"max_players":24,"Bots":0,"server_type":"Dedicated","server_os":"Linux","password":true,"vac":true,"version":"7882260","steam_id":85568392924469992,"keywords":["cp","nocrits","nodmgspread","uncletopia"],"game_id":440,"stv_port":27026,"stv_name":"Uncletopia | Los Angeles | 2 | All Maps | STV","players":[{"user_id":227,"name":"Skarp129","steam_id":76561198108679057,"connected_time":2033000000000,"state":"active","ping":39},{"user_id":251,"name":"Sol","steam_id":76561198121500201,"connected_time":720000000000,"state":"active","ping":45},{"user_id":159,"name":"REALLINUSJEWTIP.","steam_id":76561198056647983,"connected_time":7325000000000,"state":"active","ping":119},{"user_id":233,"name":"shoebill bird","steam_id":76561198183266525,"connected_time":1619000000000,"state":"active","ping":69},{"user_id":247,"name":"Star","steam_id":76561198187728043,"connected_time":1151000000000,"state":"active","ping":52},{"user_id":252,"name":"John Wick's puppy","steam_id":76561198064662875,"connected_time":254000000000,"state":"active","ping":51},{"user_id":222,"name":"Starfruit66","steam_id":76561198069917277,"connected_time":2577000000000,"state":"active","ping":47},{"user_id":232,"name":"confused","steam_id":76561199391930993,"connected_time":1655000000000,"state":"active","ping":54},{"user_id":215,"name":"Sigmer","steam_id":76561198397023567,"connected_time":2732000000000,"state":"active","ping":66},{"user_id":246,"name":"2","steam_id":76561198037332418,"connected_time":1205000000000,"state":"active","ping":71},{"user_id":234,"name":"mr_angry_guy","steam_id":76561199365643094,"connected_time":1619000000000,"state":"active","ping":96},{"user_id":245,"name":"Manchurian Bandit","steam_id":76561198072410042,"connected_time":1286000000000,"state":"active","ping":53},{"user_id":193,"name":"Knight","steam_id":76561198154529952,"connected_time":3907000000000,"state":"active","ping":142},{"user_id":237,"name":"BuncusBeffer","steam_id":76561198285936616,"connected_time":1550000000000,"state":"active","ping":71},{"user_id":213,"name":"Fiestaknight","steam_id":76561198037847385,"connected_time":2767000000000,"state":"active","ping":91},{"user_id":238,"name":"Da Wizard","steam_id":76561198842482031,"connected_time":1544000000000,"state":"active","ping":76},{"user_id":207,"name":"KonJac","steam_id":76561198027812652,"connected_time":3123000000000,"state":"active","ping":50},{"user_id":160,"name":"pai-sano","steam_id":76561198065575472,"connected_time":7319000000000,"state":"active","ping":100},{"user_id":206,"name":"Ferris Argyle","steam_id":76561198221760000,"connected_time":3230000000000,"state":"active","ping":122},{"user_id":248,"name":"Big Oil","steam_id":76561199238964574,"connected_time":1019000000000,"state":"active","ping":61},{"user_id":239,"name":"kommando1911","steam_id":76561198121455141,"connected_time":1539000000000,"state":"active","ping":57},{"user_id":250,"name":"DaToasterKing","steam_id":76561199074553021,"connected_time":785000000000,"state":"active","ping":56},{"user_id":228,"name":"Cool Ghost","steam_id":76561198440103807,"connected_time":2020000000000,"state":"active","ping":80},{"user_id":225,"name":"stboncho","steam_id":76561198172275301,"connected_time":2319000000000,"state":"active","ping":63}]},{"server_id":324,"name":"Uncletopia | Los Angeles | 3 | All Maps","name_short":"lax-3","host":"lax-1.us.uncletopia.com","port":27035,"enabled":true,"region":"us-west","cc":"us","latitude":33.94279,"longitude":-118.41004,"reserved":0,"last_update":"0001-01-01T00:00:00Z","name_a2s":"Uncletopia | Los Angeles | 3 | All Maps","protocol":17,"map":"koth_highpass","folder":"tf","game":"Team Fortress","app_id":440,"player_count":24,"max_players":24,"Bots":0,"server_type":"Dedicated","server_os":"Linux","password":true,"vac":true,"version":"7882260","steam_id":85568392924510198,"keywords":["cp","nocrits","nodmgspread","uncletopia"],"game_id":440,"stv_port":27036,"stv_name":"Uncletopia | Los Angeles | 3 | All Maps | STV","players":[{"user_id":207,"name":"NoExit","steam_id":76561198065725996,"connected_time":1612000000000,"state":"active","ping":139},{"user_id":229,"name":"MegaBron James","steam_id":76561198066091050,"connected_time":277000000000,"state":"active","ping":67},{"user_id":206,"name":"Cortana's Package","steam_id":76561198011398519,"connected_time":1645000000000,"state":"active","ping":112},{"user_id":191,"name":"Jango","steam_id":76561198084589742,"connected_time":2298000000000,"state":"active","ping":103},{"user_id":226,"name":"azfox","steam_id":76561198408538213,"connected_time":283000000000,"state":"active","ping":87},{"user_id":222,"name":"Thunder","steam_id":76561198097721532,"connected_time":476000000000,"state":"active","ping":46},{"user_id":234,"name":"Gengarfield","steam_id":76561198052506289,"connected_time":53000000000,"state":"active","ping":58},{"user_id":231,"name":"Ilovermenderman","steam_id":76561199106098061,"connected_time":243000000000,"state":"active","ping":79},{"user_id":204,"name":"_D_I_S_P_E_N_S_E_R_","steam_id":76561199383097700,"connected_time":1675000000000,"state":"active","ping":84},{"user_id":220,"name":"OHGODBEES!","steam_id":76561198000653374,"connected_time":650000000000,"state":"active","ping":131},{"user_id":218,"name":"goldhed","steam_id":76561198051751133,"connected_time":717000000000,"state":"active","ping":83},{"user_id":129,"name":"blossomdemoman","steam_id":76561198042735130,"connected_time":6908000000000,"state":"active","ping":85},{"user_id":210,"name":"Power Jake","steam_id":76561198051510260,"connected_time":1444000000000,"state":"active","ping":60},{"user_id":194,"name":"Balerion the Black Dread","steam_id":76561198003728369,"connected_time":2181000000000,"state":"active","ping":56},{"user_id":224,"name":"Gr8butnotreally","steam_id":76561198133924450,"connected_time":292000000000,"state":"active","ping":65},{"user_id":157,"name":"Tech Deck","steam_id":76561199070437675,"connected_time":4719000000000,"state":"active","ping":57},{"user_id":230,"name":"lol","steam_id":76561198026491738,"connected_time":270000000000,"state":"active","ping":61},{"user_id":225,"name":"Dragoninventor (He/Him)","steam_id":76561198956224948,"connected_time":290000000000,"state":"active","ping":109},{"user_id":205,"name":"Big boned","steam_id":76561198046056717,"connected_time":1675000000000,"state":"active","ping":47},{"user_id":216,"name":"CheeseCake488","steam_id":76561199407617942,"connected_time":1243000000000,"state":"active","ping":154},{"user_id":223,"name":"Roof Rat","steam_id":76561198136475073,"connected_time":302000000000,"state":"active","ping":114},{"user_id":214,"name":"Soldier tf2","steam_id":76561199365845342,"connected_time":1406000000000,"state":"active","ping":50},{"user_id":232,"name":"poopfart messiah","steam_id":76561198082551861,"connected_time":212000000000,"state":"active","ping":78},{"user_id":233,"name":"Grungus","steam_id":76561198047700230,"connected_time":175000000000,"state":"active","ping":57}]},{"server_id":25,"name":"Uncletopia | Los Angeles | 4 | Stopwatch Beta","name_short":"lax-4","host":"lax-1.us.uncletopia.com","port":27045,"enabled":true,"region":"us-west","cc":"us","latitude":33.94279,"longitude":-118.41004,"reserved":0,"last_update":"0001-01-01T00:00:00Z","name_a2s":"Uncletopia | Los Angeles | 4 | Stopwatch Beta","protocol":17,"map":"cp_granary","folder":"tf","game":"Team Fortress","app_id":440,"player_count":20,"max_players":24,"Bots":0,"server_type":"Dedicated","server_os":"Linux","password":true,"vac":true,"version":"7882260","steam_id":85568392924510199,"keywords":["cp","nocrits","nodmgspread","uncletopia"],"game_id":440,"stv_port":27046,"stv_name":"Uncletopia | Los Angeles | 4 | Stopwatch Beta | STV","players":[{"user_id":190,"name":"BrightOrangeMango","steam_id":76561198023144607,"connected_time":100000000000,"state":"active","ping":62},{"user_id":168,"name":"Klip","steam_id":76561198316254429,"connected_time":1351000000000,"state":"active","ping":84},{"user_id":186,"name":"the comedian","steam_id":76561198984762462,"connected_time":454000000000,"state":"active","ping":58},{"user_id":145,"name":"Nekro Kitty","steam_id":76561198025054596,"connected_time":3105000000000,"state":"active","ping":94},{"user_id":182,"name":"Overmeme","steam_id":76561199455124144,"connected_time":516000000000,"state":"active","ping":89},{"user_id":187,"name":"johnman gooberguy","steam_id":76561199014859764,"connected_time":442000000000,"state":"active","ping":79},{"user_id":130,"name":"I LOVE MEN","steam_id":76561199055667840,"connected_time":3616000000000,"state":"active","ping":123},{"user_id":83,"name":"enderlaptop_minecrafter3","steam_id":76561199161322235,"connected_time":6828000000000,"state":"active","ping":46},{"user_id":110,"name":"TractorKid45","steam_id":76561198087472085,"connected_time":4959000000000,"state":"active","ping":45},{"user_id":191,"name":"Blankrq","steam_id":76561198261030763,"connected_time":87000000000,"state":"active","ping":61},{"user_id":180,"name":"womenobtainer39","steam_id":76561199236568388,"connected_time":562000000000,"state":"active","ping":69},{"user_id":178,"name":"ABELINCOLN1865","steam_id":76561198219248549,"connected_time":698000000000,"state":"active","ping":69},{"user_id":143,"name":"Billy McWilly","steam_id":76561198002882318,"connected_time":3193000000000,"state":"active","ping":76},{"user_id":192,"name":"Sir_Cheddar","steam_id":76561198132354554,"connected_time":72000000000,"state":"spawning","ping":51},{"user_id":185,"name":"Aequalis747","steam_id":76561199456589841,"connected_time":501000000000,"state":"active","ping":60},{"user_id":193,"name":"Samurai JackOff","steam_id":76561198165160011,"connected_time":37000000000,"state":"connecting","ping":0},{"user_id":131,"name":"FRED.JOHNSHON2007","steam_id":76561198138221795,"connected_time":3612000000000,"state":"active","ping":94},{"user_id":189,"name":"Mr. Garfield","steam_id":76561198357316376,"connected_time":371000000000,"state":"active","ping":134},{"user_id":167,"name":"Wizard","steam_id":76561199002653293,"connected_time":1601000000000,"state":"active","ping":138},{"user_id":181,"name":"old birb man","steam_id":76561199410269097,"connected_time":556000000000,"state":"active","ping":143}]},{"server_id":11,"name":"Uncletopia | London | 1 | All Maps","name_short":"lon-1","host":"lon-1.uk.uncletopia.com","port":27015,"enabled":true,"region":"eu","cc":"gb","latitude":51.509865,"longitude":-0.118092,"reserved":0,"last_update":"0001-01-01T00:00:00Z","name_a2s":"Uncletopia | London | 1 | All Maps","protocol":17,"map":"koth_nucleus","folder":"tf","game":"Team Fortress","app_id":440,"player_count":0,"max_players":24,"Bots":0,"server_type":"Dedicated","server_os":"Linux","password":true,"vac":true,"version":"7882260","steam_id":85568392924367362,"keywords":["cp","nocrits","nodmgspread","uncletopia"],"game_id":440,"stv_port":27016,"stv_name":"Uncletopia | London | 1 | All Maps | STV","players":null},{"server_id":114,"name":"Uncletopia | London | 2 | All Maps","name_short":"lon-2","host":"lon-1.uk.uncletopia.com","port":27025,"enabled":true,"region":"eu","cc":"gb","latitude":51.509865,"longitude":-0.118092,"reserved":0,"last_update":"0001-01-01T00:00:00Z","name_a2s":"Uncletopia | London | 2 | All Maps","protocol":17,"map":"koth_cascade","folder":"tf","game":"Team Fortress","app_id":440,"player_count":0,"max_players":24,"Bots":0,"server_type":"Dedicated","server_os":"Linux","password":true,"vac":true,"version":"7882260","steam_id":85568392924470941,"keywords":["cp","nocrits","nodmgspread","uncletopia"],"game_id":440,"stv_port":27026,"stv_name":"Uncletopia | London | 2 | All Maps | STV","players":null},{"server_id":320,"name":"Uncletopia | London | 3 | All Maps","name_short":"lon-3","host":"lon-1.uk.uncletopia.com","port":27035,"enabled":true,"region":"eu","cc":"gb","latitude":51.509865,"longitude":-0.118092,"reserved":0,"last_update":"0001-01-01T00:00:00Z","name_a2s":"Uncletopia | London | 3 | All Maps","protocol":17,"map":"cp_mountainlab","folder":"tf","game":"Team Fortress","app_id":440,"player_count":0,"max_players":24,"Bots":0,"server_type":"Dedicated","server_os":"Linux","password":true,"vac":true,"version":"7882260","steam_id":85568392924510192,"keywords":["cp","nocrits","nodmgspread","uncletopia"],"game_id":440,"stv_port":27036,"stv_name":"Uncletopia | London | 3 | All Maps | STV","players":null},{"server_id":321,"name":"Uncletopia | London | 4 | All Maps","name_short":"lon-4","host":"lon-1.uk.uncletopia.com","port":27045,"enabled":true,"region":"eu","cc":"gb","latitude":51.509865,"longitude":-0.118092,"reserved":0,"last_update":"0001-01-01T00:00:00Z","name_a2s":"Uncletopia | London | 4 | All Maps","protocol":17,"map":"pl_swiftwater_final1","folder":"tf","game":"Team Fortress","app_id":440,"player_count":24,"max_players":24,"Bots":0,"server_type":"Dedicated","server_os":"Linux","password":true,"vac":true,"version":"7882260","steam_id":85568392924510193,"keywords":["nocrits","nodmgspread","payload","uncletopia"],"game_id":440,"stv_port":27046,"stv_name":"Uncletopia | London | 4 | All Maps | STV","players":[{"user_id":499,"name":"Bambi","steam_id":76561198166972711,"connected_time":1452000000000,"state":"active","ping":55},{"user_id":511,"name":"Renota","steam_id":76561198058224488,"connected_time":501000000000,"state":"active","ping":169},{"user_id":494,"name":"Controller Gaming","steam_id":76561198134805479,"connected_time":2664000000000,"state":"active","ping":60},{"user_id":512,"name":"wide appreciator","steam_id":76561198083286511,"connected_time":446000000000,"state":"active","ping":36},{"user_id":484,"name":"Pootis.gov.uk","steam_id":76561197970114051,"connected_time":3311000000000,"state":"active","ping":43},{"user_id":515,"name":"Munshy","steam_id":76561198042537812,"connected_time":221000000000,"state":"active","ping":61},{"user_id":462,"name":"shits in urinals","steam_id":76561199480942903,"connected_time":4984000000000,"state":"active","ping":73},{"user_id":501,"name":"CumbustiblePunda","steam_id":76561197974274677,"connected_time":1262000000000,"state":"active","ping":58},{"user_id":502,"name":"Û†Ä°Û†Ä°","steam_id":76561198399390201,"connected_time":1222000000000,"state":"active","ping":89},{"user_id":513,"name":"DarkSoulBG24","steam_id":76561198273701478,"connected_time":434000000000,"state":"active","ping":86},{"user_id":442,"name":"I'm not gonna sugarcoat it","steam_id":76561198144597089,"connected_time":6892000000000,"state":"active","ping":46},{"user_id":477,"name":"‚ôõperry the platypus‚ôõ","steam_id":76561199379159771,"connected_time":4163000000000,"state":"active","ping":135},{"user_id":504,"name":"zoinks!","steam_id":76561198068645362,"connected_time":1124000000000,"state":"active","ping":43},{"user_id":514,"name":"stun","steam_id":76561198276681691,"connected_time":383000000000,"state":"active","ping":45},{"user_id":506,"name":"Fart Goblin","steam_id":76561198072147068,"connected_time":1054000000000,"state":"active","ping":72},{"user_id":469,"name":"Melford","steam_id":76561198319650677,"connected_time":4658000000000,"state":"active","ping":152},{"user_id":475,"name":"Hoxton","steam_id":76561198129209505,"connected_time":4432000000000,"state":"active","ping":71},{"user_id":507,"name":"zepal","steam_id":76561197980984607,"connected_time":997000000000,"state":"active","ping":45},{"user_id":508,"name":"originalakalil","steam_id":76561199481172481,"connected_time":900000000000,"state":"active","ping":156},{"user_id":491,"name":"Gozzer","steam_id":76561197984155185,"connected_time":2831000000000,"state":"active","ping":74},{"user_id":476,"name":"i n n o","steam_id":76561199230689289,"connected_time":4379000000000,"state":"active","ping":87},{"user_id":510,"name":"jonbob","steam_id":76561197963506620,"connected_time":827000000000,"state":"active","ping":50},{"user_id":495,"name":"–¢—Ä—É–ø –í–æ–ª–æ–¥—è","steam_id":76561198035718457,"connected_time":2280000000000,"state":"active","ping":83},{"user_id":516,"name":"idarmed","steam_id":76561198420064361,"connected_time":180000000000,"state":"active","ping":163}]},{"server_id":21,"name":"Uncletopia | London | 5 | All Maps","name_short":"lon-5","host":"lon-1.uk.uncletopia.com","port":27055,"enabled":true,"region":"eu","cc":"gb","latitude":51.509865,"longitude":-0.118092,"reserved":0,"last_update":"0001-01-01T00:00:00Z","name_a2s":"Uncletopia | London | 5 | All Maps","protocol":17,"map":"koth_lakeside_final","folder":"tf","game":"Team Fortress","app_id":440,"player_count":0,"max_players":24,"Bots":0,"server_type":"Dedicated","server_os":"Linux","password":true,"vac":true,"version":"7882260","steam_id":85568392924742829,"keywords":["cp","nocrits","nodmgspread","uncletopia"],"game_id":440,"stv_port":27056,"stv_name":"Uncletopia | London | 5 | All Maps | STV","players":null},{"server_id":22,"name":"Uncletopia | London | 6 | All Maps","name_short":"lon-6","host":"lon-1.uk.uncletopia.com","port":27065,"enabled":true,"region":"eu","cc":"gb","latitude":51.509865,"longitude":-0.118092,"reserved":0,"last_update":"0001-01-01T00:00:00Z","name_a2s":"Uncletopia | London | 6 | All Maps","protocol":17,"map":"koth_harvest_final","folder":"tf","game":"Team Fortress","app_id":440,"player_count":0,"max_players":24,"Bots":0,"server_type":"Dedicated","server_os":"Linux","password":true,"vac":true,"version":"7882260","steam_id":85568392924742830,"keywords":["cp","nocrits","nodmgspread","uncletopia"],"game_id":440,"stv_port":27066,"stv_name":"Uncletopia | London | 6 | All Maps | STV","players":null},{"server_id":40,"name":"Uncletopia | London | 7 | No Payload","name_short":"lon-7","host":"lon-1.uk.uncletopia.com","port":27075,"enabled":true,"region":"eu","cc":"gb","latitude":51.509865,"longitude":-0.118092,"reserved":0,"last_update":"0001-01-01T00:00:00Z","name_a2s":"Uncletopia | London | 7 | No Payload","protocol":17,"map":"koth_viaduct","folder":"tf","game":"Team Fortress","app_id":440,"player_count":0,"max_players":24,"Bots":0,"server_type":"Dedicated","server_os":"Linux","password":true,"vac":true,"version":"7882260","steam_id":85568392924964314,"keywords":["cp","nocrits","nodmgspread","uncletopia"],"game_id":440,"stv_port":27076,"stv_name":"Uncletopia | London | 7 | No Payload | STV","players":null},{"server_id":41,"name":"Uncletopia | London | 8 | Community","name_short":"lon-8","host":"lon-1.uk.uncletopia.com","port":27085,"enabled":true,"region":"eu","cc":"gb","latitude":51.509865,"longitude":-0.118092,"reserved":0,"last_update":"0001-01-01T00:00:00Z","name_a2s":"Uncletopia | London | 8 | Community","protocol":17,"map":"workshop/koth_kemptown_rc1.ugc767410655","folder":"tf","game":"Team Fortress","app_id":440,"player_count":0,"max_players":24,"Bots":0,"server_type":"Dedicated","server_os":"Linux","password":true,"vac":true,"version":"7882260","steam_id":85568392924964315,"keywords":["cp","nocrits","nodmgspread","uncletopia"],"game_id":440,"stv_port":27086,"stv_name":"Uncletopia | London | 8 | Community | STV","players":null},{"server_id":300,"name":"Uncletopia | Montr√©al | 1 | All Maps","name_short":"mtl-1","host":"mtl-1.ca.uncletopia.com","port":27015,"enabled":true,"region":"us-east","cc":"ca","latitude":45.50889,"longitude":-73.56167,"reserved":0,"last_update":"0001-01-01T00:00:00Z","name_a2s":"Uncletopia | Montr√©al | 1 | All Maps","protocol":17,"map":"pl_frontier_final","folder":"tf","game":"Team Fortress","app_id":440,"player_count":0,"max_players":24,"Bots":0,"server_type":"Dedicated","server_os":"Linux","password":true,"vac":true,"version":"7882260","steam_id":85568392924500087,"keywords":["nocrits","nodmgspread","payload","uncletopia"],"game_id":440,"stv_port":27016,"stv_name":"Uncletopia | Montr√©al | 1 | All Maps | STV","players":null},{"server_id":301,"name":"Uncletopia | Montr√©al | 2 | All Maps","name_short":"mtl-2","host":"mtl-1.ca.uncletopia.com","port":27025,"enabled":true,"region":"us-east","cc":"ca","latitude":45.50889,"longitude":-73.56167,"reserved":0,"last_update":"0001-01-01T00:00:00Z","name_a2s":"Uncletopia | Montr√©al | 2 | All Maps","protocol":17,"map":"pl_swiftwater_final1","folder":"tf","game":"Team Fortress","app_id":440,"player_count":2,"max_players":24,"Bots":0,"server_type":"Dedicated","server_os":"Linux","password":true,"vac":true,"version":"7882260","steam_id":85568392924500088,"keywords":["nocrits","nodmgspread","payload","uncletopia"],"game_id":440,"stv_port":27026,"stv_name":"Uncletopia | Montr√©al | 2 | All Maps | STV","players":[{"user_id":257,"name":"BallBreaker","steam_id":76561198237263498,"connected_time":385000000000,"state":"active","ping":118},{"user_id":256,"name":"The Cool Man","steam_id":76561198096420556,"connected_time":395000000000,"state":"active","ping":105}]},{"server_id":302,"name":"Uncletopia | Montr√©al | 3 | All Maps","name_short":"mtl-3","host":"mtl-1.ca.uncletopia.com","port":27035,"enabled":true,"region":"us-east","cc":"ca","latitude":45.50889,"longitude":-73.56167,"reserved":0,"last_update":"0001-01-01T00:00:00Z","name_a2s":"Uncletopia | Montr√©al | 3 | All Maps","protocol":17,"map":"cp_altitude","folder":"tf","game":"Team Fortress","app_id":440,"player_count":13,"max_players":24,"Bots":0,"server_type":"Dedicated","server_os":"Linux","password":true,"vac":true,"version":"7882260","steam_id":85568392924500089,"keywords":["cp","nocrits","nodmgspread","uncletopia"],"game_id":440,"stv_port":27036,"stv_name":"Uncletopia | Montr√©al | 3 | All Maps | STV","players":[{"user_id":14,"name":"LlamaIron","steam_id":76561198196071490,"connected_time":2537000000000,"state":"active","ping":83},{"user_id":15,"name":"Rukir","steam_id":76561198275743642,"connected_time":2531000000000,"state":"active","ping":84},{"user_id":16,"name":"Sam ‚∏∏","steam_id":76561198447716360,"connected_time":2502000000000,"state":"active","ping":314},{"user_id":17,"name":"REPL1C4TE","steam_id":76561198799184324,"connected_time":2493000000000,"state":"active","ping":116},{"user_id":31,"name":"Actually a Shoggoth","steam_id":76561198065857964,"connected_time":864000000000,"state":"active","ping":84},{"user_id":34,"name":"Cooki","steam_id":76561198051705314,"connected_time":696000000000,"state":"active","ping":70},{"user_id":35,"name":"c9","steam_id":76561198136642793,"connected_time":594000000000,"state":"active","ping":91},{"user_id":21,"name":"RokkitFrog","steam_id":76561198046465850,"connected_time":2142000000000,"state":"active","ping":93},{"user_id":38,"name":"vorboyvo zoo","steam_id":76561198152690088,"connected_time":203000000000,"state":"active","ping":51},{"user_id":39,"name":"Smooth - Santana ft. Rob Thomas","steam_id":76561198145283389,"connected_time":134000000000,"state":"active","ping":63},{"user_id":27,"name":"beefmachine","steam_id":76561198001196512,"connected_time":1347000000000,"state":"active","ping":91},{"user_id":37,"name":"Asanez3","steam_id":76561198037381436,"connected_time":548000000000,"state":"active","ping":60}]},{"server_id":303,"name":"Uncletopia | Montr√©al | 4 | No Payload","name_short":"mtl-4","host":"mtl-1.ca.uncletopia.com","port":27045,"enabled":true,"region":"us-east","cc":"ca","latitude":45.50889,"longitude":-73.56167,"reserved":0,"last_update":"0001-01-01T00:00:00Z","name_a2s":"Uncletopia | Montr√©al | 4 | No Payload","protocol":17,"map":"cp_altitude","folder":"tf","game":"Team Fortress","app_id":440,"player_count":0,"max_players":24,"Bots":0,"server_type":"Dedicated","server_os":"Linux","password":true,"vac":true,"version":"7882260","steam_id":85568392924500090,"keywords":["cp","nocrits","nodmgspread","uncletopia"],"game_id":440,"stv_port":27046,"stv_name":"Uncletopia | Montr√©al | 4 | No Payload | STV","players":null},{"server_id":13,"name":"Uncletopia | New York City | 1 | All Maps","name_short":"nyc-1","host":"nyc-1.us.uncletopia.com","port":27015,"enabled":true,"region":"us-east","cc":"us","latitude":40.73061,"longitude":-73.93524,"reserved":0,"last_update":"0001-01-01T00:00:00Z","name_a2s":"Uncletopia | New York City | 1 | All Maps","protocol":17,"map":"pl_pier","folder":"tf","game":"Team Fortress","app_id":440,"player_count":24,"max_players":24,"Bots":0,"server_type":"Dedicated","server_os":"Linux","password":true,"vac":true,"version":"7882260","steam_id":85568392924469993,"keywords":["nocrits","nodmgspread","payload","uncletopia"],"game_id":440,"stv_port":27016,"stv_name":"Uncletopia | New York City | 1 | All Maps | STV","players":[{"user_id":259,"name":"tesagi","steam_id":76561198026664629,"connected_time":9058000000000,"state":"active","ping":52},{"user_id":374,"name":"Samitch","steam_id":76561198038247982,"connected_time":1110000000000,"state":"active","ping":65},{"user_id":353,"name":"‚ô°Alyx‚ô°","steam_id":76561198024303978,"connected_time":3397000000000,"state":"active","ping":49},{"user_id":389,"name":"Glass Joe","steam_id":76561198317365741,"connected_time":548000000000,"state":"active","ping":64},{"user_id":308,"name":"Wique","steam_id":76561198071217597,"connected_time":5937000000000,"state":"active","ping":75},{"user_id":335,"name":"CorruptedWrath","steam_id":76561198021952400,"connected_time":4457000000000,"state":"active","ping":77},{"user_id":348,"name":"Fodder","steam_id":76561198000827769,"connected_time":4051000000000,"state":"active","ping":82},{"user_id":379,"name":"E4Estrogen.TTV","steam_id":76561198085813708,"connected_time":1067000000000,"state":"active","ping":74},{"user_id":380,"name":"Goat","steam_id":76561198068447650,"connected_time":1059000000000,"state":"active","ping":101},{"user_id":381,"name":"Weaponised Autism (With Rizz)","steam_id":76561198276385778,"connected_time":1056000000000,"state":"active","ping":111},{"user_id":382,"name":"Menacing Pile of Frogs","steam_id":76561198360134800,"connected_time":1052000000000,"state":"active","ping":60},{"user_id":383,"name":"dongwater","steam_id":76561198186629499,"connected_time":1048000000000,"state":"active","ping":99},{"user_id":364,"name":"Battery Acid Slurper","steam_id":76561198439793697,"connected_time":2093000000000,"state":"active","ping":84},{"user_id":351,"name":"stink","steam_id":76561198099318923,"connected_time":3607000000000,"state":"active","ping":71},{"user_id":370,"name":"AllPantsNoSkill","steam_id":76561198049655464,"connected_time":1617000000000,"state":"active","ping":94},{"user_id":365,"name":"Ground Control to Majortom","steam_id":76561198065589126,"connected_time":2054000000000,"state":"active","ping":82},{"user_id":366,"name":"Littlebit","steam_id":76561199485086969,"connected_time":2031000000000,"state":"active","ping":125},{"user_id":354,"name":"Brynjolf","steam_id":76561198051695772,"connected_time":3070000000000,"state":"active","ping":80},{"user_id":355,"name":"Crystron","steam_id":76561198880437428,"connected_time":3069000000000,"state":"active","ping":86},{"user_id":388,"name":"Mutzy‚Ñ¢","steam_id":76561198085858203,"connected_time":739000000000,"state":"active","ping":85},{"user_id":367,"name":"Wutzitmatter","steam_id":76561198067140513,"connected_time":2028000000000,"state":"active","ping":106},{"user_id":385,"name":"Flashtasm","steam_id":76561198026635660,"connected_time":978000000000,"state":"active","ping":77},{"user_id":375,"name":"PenguinJack","steam_id":76561198120680312,"connected_time":1110000000000,"state":"active","ping":82},{"user_id":386,"name":"Mage","steam_id":76561198285026879,"connected_time":975000000000,"state":"active","ping":69}]},{"server_id":14,"name":"Uncletopia | New York City | 2 | All Maps","name_short":"nyc-2","host":"nyc-1.us.uncletopia.com","port":27025,"enabled":true,"region":"us-east","cc":"us","latitude":40.73061,"longitude":-73.93524,"reserved":0,"last_update":"0001-01-01T00:00:00Z","name_a2s":"Uncletopia | New York City | 2 | All Maps","protocol":17,"map":"pl_barnblitz","folder":"tf","game":"Team Fortress","app_id":440,"player_count":23,"max_players":24,"Bots":0,"server_type":"Dedicated","server_os":"Linux","password":true,"vac":true,"version":"7882260","steam_id":85568392924469994,"keywords":["nocrits","nodmgspread","payload","uncletopia"],"game_id":440,"stv_port":27026,"stv_name":"Uncletopia | New York City | 2 | All Maps | STV","players":[{"user_id":233,"name":"LocaKola","steam_id":76561198173435430,"connected_time":1770000000000,"state":"active","ping":67},{"user_id":247,"name":"Femtofarad","steam_id":76561198308583053,"connected_time":32000000000,"state":"active","ping":75},{"user_id":234,"name":"aiming with drawing tablet","steam_id":76561198397662124,"connected_time":1727000000000,"state":"active","ping":95},{"user_id":200,"name":"SnareString","steam_id":76561199082119457,"connected_time":3689000000000,"state":"active","ping":115},{"user_id":242,"name":"Yeahboiiii","steam_id":76561198390325068,"connected_time":919000000000,"state":"active","ping":54},{"user_id":248,"name":"hashmap","steam_id":76561198043794014,"connected_time":19000000000,"state":"spawning","ping":45},{"user_id":217,"name":"(TTV) The_Astrum_Guardian","steam_id":76561198130134103,"connected_time":2974000000000,"state":"active","ping":61},{"user_id":225,"name":"Braamklauw","steam_id":76561198283287697,"connected_time":2477000000000,"state":"active","ping":136},{"user_id":240,"name":"Sir Quacksalot","steam_id":76561198048942777,"connected_time":1408000000000,"state":"active","ping":102},{"user_id":218,"name":"Tacobell_nugget","steam_id":76561199248567851,"connected_time":2967000000000,"state":"active","ping":107},{"user_id":184,"name":"Blobbyfish","steam_id":76561198822962650,"connected_time":4536000000000,"state":"active","ping":55},{"user_id":236,"name":"nekoknight tf2","steam_id":76561198400058665,"connected_time":1686000000000,"state":"active","ping":70},{"user_id":229,"name":"Guil","steam_id":76561197993289176,"connected_time":2373000000000,"state":"active","ping":68},{"user_id":159,"name":"riSygneD","steam_id":76561198331618687,"connected_time":6160000000000,"state":"active","ping":106},{"user_id":231,"name":"whoopsydoodle","steam_id":76561198045145360,"connected_time":1962000000000,"state":"active","ping":47},{"user_id":230,"name":"Mythical Lag","steam_id":76561198347031281,"connected_time":2325000000000,"state":"active","ping":84},{"user_id":246,"name":"Sensitive Shooter","steam_id":76561198041439581,"connected_time":490000000000,"state":"active","ping":52},{"user_id":220,"name":"ArrSayingPirate","steam_id":76561197997567278,"connected_time":2951000000000,"state":"active","ping":70},{"user_id":222,"name":"Racer X","steam_id":76561198073613932,"connected_time":2947000000000,"state":"active","ping":87},{"user_id":245,"name":"astr1d","steam_id":76561198272996700,"connected_time":809000000000,"state":"active","ping":76},{"user_id":195,"name":"The Notorious P.U.E.R.","steam_id":76561198046715542,"connected_time":4370000000000,"state":"active","ping":58},{"user_id":198,"name":"b4rry","steam_id":76561198365887154,"connected_time":4293000000000,"state":"active","ping":49},{"user_id":224,"name":"Mecha Sonic","steam_id":76561198327063410,"connected_time":2933000000000,"state":"active","ping":100}]},{"server_id":15,"name":"Uncletopia | New York City | 3 | Stopwatch Beta","name_short":"nyc-3","host":"nyc-1.us.uncletopia.com","port":27035,"enabled":true,"region":"us-east","cc":"us","latitude":40.73061,"longitude":-73.93524,"reserved":0,"last_update":"0001-01-01T00:00:00Z","name_a2s":"Uncletopia | New York City | 3 | Stopwatch Beta","protocol":17,"map":"workshop/koth_clearcut_b15.ugc2107050255","folder":"tf","game":"Team Fortress","app_id":440,"player_count":14,"max_players":24,"Bots":0,"server_type":"Dedicated","server_os":"Linux","password":true,"vac":true,"version":"7882260","steam_id":85568392924742820,"keywords":["cp","nocrits","nodmgspread","uncletopia"],"game_id":440,"stv_port":27036,"stv_name":"Uncletopia | New York City | 3 | Stopwatch Beta | STV","players":[{"user_id":82,"name":"JustLooking","steam_id":76561198207877387,"connected_time":577000000000,"state":"active","ping":44},{"user_id":61,"name":"Masotan","steam_id":76561199047187302,"connected_time":1483000000000,"state":"active","ping":63},{"user_id":56,"name":"Dr.Holiday","steam_id":76561198353465692,"connected_time":1825000000000,"state":"active","ping":56},{"user_id":48,"name":"MooseGoose82","steam_id":76561199123118241,"connected_time":2217000000000,"state":"active","ping":131},{"user_id":83,"name":"neet","steam_id":76561197968115168,"connected_time":523000000000,"state":"active","ping":44},{"user_id":73,"name":"Plinko","steam_id":76561197968530638,"connected_time":799000000000,"state":"active","ping":49},{"user_id":90,"name":"king dedede","steam_id":76561198965562679,"connected_time":167000000000,"state":"active","ping":66},{"user_id":84,"name":"monsterkill4567","steam_id":76561198272986367,"connected_time":506000000000,"state":"active","ping":116},{"user_id":79,"name":"nelly modelo","steam_id":76561198044875206,"connected_time":640000000000,"state":"active","ping":102},{"user_id":86,"name":"Gr4yy„ÉÉ","steam_id":76561198126936736,"connected_time":408000000000,"state":"active","ping":72},{"user_id":85,"name":"FRANKY!!!","steam_id":76561199211305343,"connected_time":501000000000,"state":"active","ping":112},{"user_id":89,"name":"Isaac Clarke","steam_id":76561198317662346,"connected_time":299000000000,"state":"active","ping":86},{"user_id":72,"name":"reatardhole","steam_id":76561198141217941,"connected_time":1174000000000,"state":"active","ping":50},{"user_id":41,"name":"Ciggy Stardust","steam_id":76561198061770842,"connected_time":3547000000000,"state":"active","ping":55}]},{"server_id":16,"name":"Uncletopia | New York City | 4 | Community","name_short":"nyc-4","host":"nyc-1.us.uncletopia.com","port":27045,"enabled":true,"region":"us-east","cc":"us","latitude":40.73061,"longitude":-73.93524,"reserved":0,"last_update":"0001-01-01T00:00:00Z","name_a2s":"Uncletopia | New York City | 4 | Community","protocol":17,"map":"workshop/pl_cactuscanyon_redux_final2.ugc2579644293","folder":"tf","game":"Team Fortress","app_id":440,"player_count":22,"max_players":24,"Bots":0,"server_type":"Dedicated","server_os":"Linux","password":true,"vac":true,"version":"7882260","steam_id":85568392924742821,"keywords":["nocrits","nodmgspread","payload","uncletopia"],"game_id":440,"stv_port":27046,"stv_name":"Uncletopia | New York City | 4 | Community | STV","players":[{"user_id":225,"name":"Dylanxp300","steam_id":76561198271974937,"connected_time":2078000000000,"state":"active","ping":60},{"user_id":166,"name":"crashymicsplody","steam_id":76561198213916765,"connected_time":5683000000000,"state":"active","ping":87},{"user_id":155,"name":"DeckofDragons","steam_id":76561198057398213,"connected_time":6426000000000,"state":"active","ping":94},{"user_id":245,"name":"k1tty","steam_id":76561198869348268,"connected_time":107000000000,"state":"active","ping":120},{"user_id":157,"name":"VexT","steam_id":76561199471734115,"connected_time":6272000000000,"state":"active","ping":90},{"user_id":212,"name":"VelocityMagnet","steam_id":76561199097484065,"connected_time":3119000000000,"state":"active","ping":46},{"user_id":216,"name":"GuyGoom","steam_id":76561198254522178,"connected_time":2488000000000,"state":"active","ping":86},{"user_id":238,"name":"RickyGangs26","steam_id":76561198351453925,"connected_time":769000000000,"state":"active","ping":103},{"user_id":214,"name":"TransientPoe","steam_id":76561198028957025,"connected_time":2840000000000,"state":"active","ping":63},{"user_id":239,"name":"COW","steam_id":76561198149003050,"connected_time":738000000000,"state":"active","ping":56},{"user_id":217,"name":"Peepster","steam_id":76561198297854733,"connected_time":2471000000000,"state":"active","ping":86},{"user_id":230,"name":"Atrain_","steam_id":76561198097007668,"connected_time":1841000000000,"state":"active","ping":50},{"user_id":226,"name":"JohnnyGitGud","steam_id":76561198401455467,"connected_time":2016000000000,"state":"active","ping":118},{"user_id":240,"name":"BopGnollEbon","steam_id":76561199013359318,"connected_time":704000000000,"state":"active","ping":88},{"user_id":241,"name":"bobbymcbobington","steam_id":76561199089411172,"connected_time":699000000000,"state":"active","ping":121},{"user_id":224,"name":"chuck","steam_id":76561198102300433,"connected_time":2134000000000,"state":"active","ping":75},{"user_id":242,"name":"BallofBandages","steam_id":76561198089817918,"connected_time":670000000000,"state":"active","ping":54},{"user_id":231,"name":"Goofball","steam_id":76561198061211537,"connected_time":1821000000000,"state":"active","ping":75},{"user_id":215,"name":"Obelix","steam_id":76561198274715109,"connected_time":2827000000000,"state":"active","ping":60},{"user_id":192,"name":"SentientKitKatBar(F2P)","steam_id":76561198842149924,"connected_time":4805000000000,"state":"active","ping":183},{"user_id":234,"name":"Balls‚Ñ¢","steam_id":76561198057538549,"connected_time":1422000000000,"state":"active","ping":73},{"user_id":244,"name":"Luke","steam_id":76561198090671431,"connected_time":442000000000,"state":"active","ping":84}]},{"server_id":142,"name":"Uncletopia | S√£o Paulo | 1 | All Maps","name_short":"sao-1","host":"sao-1.br.uncletopia.com","port":27015,"enabled":true,"region":"sa","cc":"br","latitude":-23.533773,"longitude":-46.62529,"reserved":0,"last_update":"0001-01-01T00:00:00Z","name_a2s":"Uncletopia | S√£o Paulo | 1 | All Maps","protocol":17,"map":"koth_viaduct","folder":"tf","game":"Team Fortress","app_id":440,"player_count":0,"max_players":24,"Bots":0,"server_type":"Dedicated","server_os":"Linux","password":true,"vac":true,"version":"7882260","steam_id":85568392924469996,"keywords":["cp","nocrits","nodmgspread","uncletopia"],"game_id":440,"stv_port":27016,"stv_name":"Uncletopia | S√£o Paulo | 1 | All Maps | STV","players":null},{"server_id":143,"name":"Uncletopia | S√£o Paulo | 2 | All Maps","name_short":"sao-2","host":"sao-2.br.uncletopia.com","port":27015,"enabled":true,"region":"sa","cc":"br","latitude":-23.533773,"longitude":-46.62529,"reserved":0,"last_update":"0001-01-01T00:00:00Z","name_a2s":"Uncletopia | S√£o Paulo | 2 | All Maps","protocol":17,"map":"koth_highpass","folder":"tf","game":"Team Fortress","app_id":440,"player_count":5,"max_players":24,"Bots":0,"server_type":"Dedicated","server_os":"Linux","password":true,"vac":true,"version":"7882260","steam_id":85568392924485349,"keywords":["cp","nocrits","nodmgspread","uncletopia"],"game_id":440,"stv_port":27016,"stv_name":"Uncletopia | S√£o Paulo | 2 | All Maps | STV","players":[{"user_id":253,"name":"Ambassadress Wolfina","steam_id":76561198067075413,"connected_time":2215000000000,"state":"active","ping":188},{"user_id":256,"name":"kate ‚ùÄ","steam_id":76561198805567120,"connected_time":1057000000000,"state":"active","ping":64},{"user_id":257,"name":"Cap'n Cook","steam_id":76561198865594419,"connected_time":417000000000,"state":"active","ping":45},{"user_id":261,"name":"THE DOUBLE DONKER","steam_id":76561199442139670,"connected_time":301000000000,"state":"active","ping":282},{"user_id":195,"name":"Kakaroto 286","steam_id":76561199006539437,"connected_time":6551000000000,"state":"active","ping":47}]},{"server_id":7,"name":"Uncletopia | Seattle | 1 | All Maps","name_short":"sea-1","host":"sea-1.us.uncletopia.com","port":27015,"enabled":true,"region":"us-west","cc":"us","latitude":47.608013,"longitude":-122.33517,"reserved":0,"last_update":"0001-01-01T00:00:00Z","name_a2s":"Uncletopia | Seattle | 1 | All Maps","protocol":17,"map":"cp_gorge","folder":"tf","game":"Team Fortress","app_id":440,"player_count":24,"max_players":24,"Bots":0,"server_type":"Dedicated","server_os":"Linux","password":true,"vac":true,"version":"7882260","steam_id":85568392924469997,"keywords":["cp","nocrits","nodmgspread","uncletopia"],"game_id":440,"stv_port":27016,"stv_name":"Uncletopia | Seattle | 1 | All Maps | STV","players":[{"user_id":541,"name":"BlazedBunny","steam_id":76561198243610560,"connected_time":3570000000000,"state":"active","ping":75},{"user_id":573,"name":"Keamy","steam_id":76561199471434875,"connected_time":963000000000,"state":"active","ping":37},{"user_id":564,"name":"Luca","steam_id":76561198125087140,"connected_time":1497000000000,"state":"active","ping":45},{"user_id":552,"name":"Smellbow McArmpit","steam_id":76561198109445099,"connected_time":2742000000000,"state":"active","ping":47},{"user_id":575,"name":"oil","steam_id":76561198099980149,"connected_time":254000000000,"state":"active","ping":73},{"user_id":572,"name":"Synergy","steam_id":76561198098630198,"connected_time":1031000000000,"state":"active","ping":44},{"user_id":551,"name":"[DEEP] Danmar33","steam_id":76561198056453091,"connected_time":2964000000000,"state":"active","ping":90},{"user_id":570,"name":"Omegaman","steam_id":76561198034579579,"connected_time":1135000000000,"state":"active","ping":45},{"user_id":577,"name":"Ducks","steam_id":76561198130038345,"connected_time":27000000000,"state":"spawning","ping":79},{"user_id":568,"name":"Rain","steam_id":76561198065612273,"connected_time":1455000000000,"state":"active","ping":45},{"user_id":497,"name":"Strikerbolt","steam_id":76561199095622897,"connected_time":8402000000000,"state":"active","ping":79},{"user_id":569,"name":"jayeskae","steam_id":76561198144220801,"connected_time":1312000000000,"state":"active","ping":45},{"user_id":529,"name":"HiFivr","steam_id":76561198285190162,"connected_time":4754000000000,"state":"active","ping":71},{"user_id":566,"name":"Induce Salt","steam_id":76561198116645978,"connected_time":1487000000000,"state":"active","ping":93},{"user_id":514,"name":"PopcornBucketGames","steam_id":76561199089562026,"connected_time":6450000000000,"state":"active","ping":56},{"user_id":571,"name":"gorlab","steam_id":76561198025089694,"connected_time":1085000000000,"state":"active","ping":52},{"user_id":574,"name":"roryisonamobilehotspot","steam_id":76561198065825165,"connected_time":269000000000,"state":"active","ping":108},{"user_id":556,"name":"o o o o o o o o o","steam_id":76561197993757506,"connected_time":2445000000000,"state":"active","ping":72},{"user_id":561,"name":"An Old Lady","steam_id":76561198047480318,"connected_time":2198000000000,"state":"active","ping":74},{"user_id":563,"name":"evilOlive","steam_id":76561198106222025,"connected_time":1863000000000,"state":"active","ping":81},{"user_id":554,"name":"jar","steam_id":76561198115553338,"connected_time":2664000000000,"state":"active","ping":59},{"user_id":546,"name":"Username","steam_id":76561199033122306,"connected_time":3253000000000,"state":"active","ping":156},{"user_id":539,"name":"[DEEP] Roz257","steam_id":76561198842844532,"connected_time":3767000000000,"state":"active","ping":135},{"user_id":549,"name":"some nerd","steam_id":76561198297272878,"connected_time":3047000000000,"state":"active","ping":69}]},{"server_id":119,"name":"Uncletopia | Seattle | 2 | All Maps","name_short":"sea-2","host":"sea-1.us.uncletopia.com","port":27025,"enabled":true,"region":"us-west","cc":"us","latitude":47.608013,"longitude":-122.33517,"reserved":0,"last_update":"0001-01-01T00:00:00Z","name_a2s":"Uncletopia | Seattle | 2 | All Maps","protocol":17,"map":"pl_pier","folder":"tf","game":"Team Fortress","app_id":440,"player_count":22,"max_players":24,"Bots":0,"server_type":"Dedicated","server_os":"Linux","password":true,"vac":true,"version":"7882260","steam_id":85568392924469998,"keywords":["nocrits","nodmgspread","payload","uncletopia"],"game_id":440,"stv_port":27026,"stv_name":"Uncletopia | Seattle | 2 | All Maps | STV","players":[{"user_id":503,"name":"Green_GarBear","steam_id":76561199468912415,"connected_time":671000000000,"state":"active","ping":66},{"user_id":497,"name":"perc 10","steam_id":76561198116471653,"connected_time":1323000000000,"state":"active","ping":62},{"user_id":495,"name":"AvocadoUnderwearA27","steam_id":76561199217910435,"connected_time":1865000000000,"state":"active","ping":113},{"user_id":477,"name":"Day Man","steam_id":76561198067154807,"connected_time":2937000000000,"state":"active","ping":44},{"user_id":457,"name":"SHADOW (he/him)","steam_id":76561198207768148,"connected_time":4313000000000,"state":"active","ping":76},{"user_id":498,"name":"Jacobzeba01","steam_id":76561198131808718,"connected_time":1312000000000,"state":"active","ping":64},{"user_id":465,"name":"Un_Zipped","steam_id":76561197990111649,"connected_time":3807000000000,"state":"active","ping":112},{"user_id":506,"name":"Rafl","steam_id":76561198055222756,"connected_time":600000000000,"state":"active","ping":99},{"user_id":500,"name":"MantisToboggan","steam_id":76561197969447887,"connected_time":1242000000000,"state":"active","ping":70},{"user_id":502,"name":"Arkus","steam_id":76561199092478198,"connected_time":686000000000,"state":"active","ping":44},{"user_id":494,"name":"AmiableNebula","steam_id":76561198094306627,"connected_time":1918000000000,"state":"active","ping":76},{"user_id":401,"name":"chunkysquare","steam_id":76561199076468383,"connected_time":8382000000000,"state":"active","ping":56},{"user_id":511,"name":"Gloomy","steam_id":76561198053742522,"connected_time":331000000000,"state":"active","ping":63},{"user_id":514,"name":"Mr8bittripper","steam_id":76561198133894229,"connected_time":53000000000,"state":"active","ping":37},{"user_id":509,"name":"SvicidalBug","steam_id":76561198221390504,"connected_time":446000000000,"state":"active","ping":62},{"user_id":380,"name":"carpet","steam_id":76561198207881077,"connected_time":9952000000000,"state":"active","ping":113},{"user_id":504,"name":"Peri","steam_id":76561198255311543,"connected_time":670000000000,"state":"active","ping":121},{"user_id":510,"name":"reverie","steam_id":76561198168158637,"connected_time":439000000000,"state":"active","ping":81},{"user_id":508,"name":"beeble!","steam_id":76561198219538525,"connected_time":576000000000,"state":"active","ping":108},{"user_id":484,"name":"lolgamer247","steam_id":76561198974645534,"connected_time":2905000000000,"state":"active","ping":68},{"user_id":473,"name":"Dimple #TF2Center","steam_id":76561198980324190,"connected_time":3068000000000,"state":"active","ping":50},{"user_id":493,"name":"dougrocks421","steam_id":76561198165063918,"connected_time":2319000000000,"state":"active","ping":35}]},{"server_id":406,"name":"Uncletopia | Seattle | 3 | Stopwatch Beta","name_short":"sea-3","host":"sea-1.us.uncletopia.com","port":27035,"enabled":true,"region":"us-west","cc":"us","latitude":47.608013,"longitude":-122.33517,"reserved":0,"last_update":"0001-01-01T00:00:00Z","name_a2s":"Uncletopia | Seattle | 3 | Stopwatch Beta","protocol":17,"map":"cp_process_final","folder":"tf","game":"Team Fortress","app_id":440,"player_count":0,"max_players":24,"Bots":0,"server_type":"Dedicated","server_os":"Linux","password":true,"vac":true,"version":"7882260","steam_id":85568392924515217,"keywords":["cp","nocrits","nodmgspread","uncletopia"],"game_id":440,"stv_port":27036,"stv_name":"Uncletopia | Seattle | 3 | Stopwatch Beta | STV","players":null},{"server_id":17,"name":"Uncletopia | San Francisco | 1 | All Maps","name_short":"sfo-1","host":"sfo-1.us.uncletopia.com","port":27015,"enabled":true,"region":"us-west","cc":"us","latitude":37.77397,"longitude":-122.4313,"reserved":0,"last_update":"0001-01-01T00:00:00Z","name_a2s":"Uncletopia | San Francisco | 1 | All Maps","protocol":17,"map":"cp_process_final","folder":"tf","game":"Team Fortress","app_id":440,"player_count":0,"max_players":24,"Bots":0,"server_type":"Dedicated","server_os":"Linux","password":true,"vac":true,"version":"7757534","steam_id":85568392924469999,"keywords":["cp","nocrits","nodmgspread","uncletopia"],"game_id":440,"stv_port":27016,"stv_name":"Uncletopia | San Francisco | 1 | All Maps | STV","players":null},{"server_id":18,"name":"Uncletopia | San Francisco | 2 | All Maps","name_short":"sfo-2","host":"sfo-1.us.uncletopia.com","port":27025,"enabled":true,"region":"us-west","cc":"us","latitude":37.77397,"longitude":-122.4313,"reserved":0,"last_update":"0001-01-01T00:00:00Z","name_a2s":"Uncletopia | San Francisco | 2 | All Maps","protocol":17,"map":"koth_highpass","folder":"tf","game":"Team Fortress","app_id":440,"player_count":0,"max_players":24,"Bots":0,"server_type":"Dedicated","server_os":"Linux","password":true,"vac":true,"version":"7757534","steam_id":85568392924470000,"keywords":["cp","nocrits","nodmgspread","uncletopia"],"game_id":440,"stv_port":27026,"stv_name":"Uncletopia | San Francisco | 2 | All Maps | STV","players":null},{"server_id":19,"name":"Uncletopia | San Francisco | 3 | Stopwatch Beta","name_short":"sfo-3","host":"sfo-1.us.uncletopia.com","port":27035,"enabled":true,"region":"us-west","cc":"us","latitude":37.77397,"longitude":-122.4313,"reserved":0,"last_update":"0001-01-01T00:00:00Z","name_a2s":"Uncletopia | San Francisco | 3 | Stopwatch Beta","protocol":17,"map":"koth_lakeside_final","folder":"tf","game":"Team Fortress","app_id":440,"player_count":0,"max_players":24,"Bots":0,"server_type":"Dedicated","server_os":"Linux","password":true,"vac":true,"version":"7757534","steam_id":85568392924742824,"keywords":["cp","nocrits","nodmgspread","uncletopia"],"game_id":440,"stv_port":27036,"stv_name":"Uncletopia | San Francisco | 3 | Stopwatch Beta | STV","players":null},{"server_id":20,"name":"Uncletopia | San Francisco | 4 | Community","name_short":"sfo-4","host":"sfo-1.us.uncletopia.com","port":27045,"enabled":true,"region":"us-west","cc":"us","latitude":37.77397,"longitude":-122.4313,"reserved":0,"last_update":"0001-01-01T00:00:00Z","name_a2s":"Uncletopia | San Francisco | 4 | Community","protocol":17,"map":"cp_altitude","folder":"tf","game":"Team Fortress","app_id":440,"player_count":0,"max_players":24,"Bots":0,"server_type":"Dedicated","server_os":"Linux","password":true,"vac":true,"version":"7757534","steam_id":85568392924742826,"keywords":["cp","nocrits","nodmgspread","uncletopia"],"game_id":440,"stv_port":27046,"stv_name":"Uncletopia | San Francisco | 4 | Community | STV","players":null},{"server_id":141,"name":"Uncletopia | Sydney | 1 | All Maps","name_short":"syd-1","host":"syd-1.au.uncletopia.com","port":27015,"enabled":true,"region":"au","cc":"au","latitude":-33.865143,"longitude":151.2099,"reserved":0,"last_update":"0001-01-01T00:00:00Z","name_a2s":"Uncletopia | Sydney | 1 | All Maps","protocol":17,"map":"koth_viaduct","folder":"tf","game":"Team Fortress","app_id":440,"player_count":15,"max_players":24,"Bots":0,"server_type":"Dedicated","server_os":"Linux","password":true,"vac":true,"version":"7882260","steam_id":85568392924470001,"keywords":["cp","nocrits","nodmgspread","uncletopia"],"game_id":440,"stv_port":27016,"stv_name":"Uncletopia | Sydney | 1 | All Maps | STV","players":[{"user_id":62,"name":"the presence","steam_id":76561198025099660,"connected_time":1789000000000,"state":"active","ping":34},{"user_id":63,"name":"absolute schmeater","steam_id":76561198048064049,"connected_time":1779000000000,"state":"active","ping":80},{"user_id":64,"name":"garnish master","steam_id":76561197996551827,"connected_time":1772000000000,"state":"active","ping":51},{"user_id":65,"name":"saudi ambassador messi","steam_id":76561198031293430,"connected_time":941000000000,"state":"active","ping":91},{"user_id":66,"name":"Blink L780","steam_id":76561198029493215,"connected_time":867000000000,"state":"active","ping":106},{"user_id":67,"name":"L.ion","steam_id":76561198261172910,"connected_time":834000000000,"state":"active","ping":51},{"user_id":70,"name":"E","steam_id":76561199173781370,"connected_time":530000000000,"state":"active","ping":145},{"user_id":71,"name":"cheeto dealer","steam_id":76561199243489976,"connected_time":498000000000,"state":"active","ping":327},{"user_id":72,"name":"grand intoxicating innocence","steam_id":76561198309142768,"connected_time":448000000000,"state":"active","ping":50},{"user_id":73,"name":"rudra","steam_id":76561198067731912,"connected_time":336000000000,"state":"active","ping":82},{"user_id":74,"name":"Sooka Phatwan","steam_id":76561198053796020,"connected_time":277000000000,"state":"active","ping":48},{"user_id":75,"name":"Snake ATM","steam_id":76561197968304462,"connected_time":187000000000,"state":"active","ping":53},{"user_id":76,"name":"miyamoto is daddy","steam_id":76561199483818230,"connected_time":96000000000,"state":"active","ping":88},{"user_id":77,"name":"Zepi","steam_id":76561198018887052,"connected_time":45000000000,"state":"active","ping":47},{"user_id":78,"name":"the triangle of trade","steam_id":76561198061532381,"connected_time":29000000000,"state":"active","ping":46}]},{"server_id":123,"name":"Uncletopia | Sydney | 2 | All Maps","name_short":"syd-2","host":"syd-1.au.uncletopia.com","port":27025,"enabled":true,"region":"au","cc":"au","latitude":-33.865143,"longitude":151.2099,"reserved":0,"last_update":"0001-01-01T00:00:00Z","name_a2s":"Uncletopia | Sydney | 2 | All Maps","protocol":17,"map":"koth_viaduct","folder":"tf","game":"Team Fortress","app_id":440,"player_count":0,"max_players":24,"Bots":0,"server_type":"Dedicated","server_os":"Linux","password":true,"vac":true,"version":"7882260","steam_id":85568392924470002,"keywords":["cp","nocrits","nodmgspread","uncletopia"],"game_id":440,"stv_port":27026,"stv_name":"Uncletopia | Sydney | 2 | All Maps | STV","players":null},{"server_id":395,"name":"Uncletopia | Sydney | 3 | All Maps","name_short":"syd-3","host":"syd-1.au.uncletopia.com","port":27035,"enabled":true,"region":"au","cc":"au","latitude":-33.865143,"longitude":151.2099,"reserved":0,"last_update":"0001-01-01T00:00:00Z","name_a2s":"Uncletopia | Sydney | 3 | All Maps","protocol":17,"map":"pl_badwater","folder":"tf","game":"Team Fortress","app_id":440,"player_count":0,"max_players":24,"Bots":0,"server_type":"Dedicated","server_os":"Linux","password":true,"vac":true,"version":"7882260","steam_id":85568392925194467,"keywords":["nocrits","nodmgspread","payload","uncletopia"],"game_id":440,"stv_port":27036,"stv_name":"Uncletopia | Sydney | 3 | All Maps | STV","players":null},{"server_id":396,"name":"Uncletopia | Sydney | 4 | All Maps","name_short":"syd-4","host":"syd-1.au.uncletopia.com","port":27045,"enabled":true,"region":"au","cc":"au","latitude":-33.865143,"longitude":151.2099,"reserved":0,"last_update":"0001-01-01T00:00:00Z","name_a2s":"Uncletopia | Sydney | 4 | All Maps","protocol":17,"map":"cp_dustbowl","folder":"tf","game":"Team Fortress","app_id":440,"player_count":0,"max_players":24,"Bots":0,"server_type":"Dedicated","server_os":"Linux","password":true,"vac":true,"version":"7882260","steam_id":85568392925397958,"keywords":["cp","nocrits","nodmgspread","uncletopia"],"game_id":440,"stv_port":27046,"stv_name":"Uncletopia | Sydney | 4 | All Maps | STV","players":null},{"server_id":58,"name":"Uncletopia | Sydney | 5 | Stopwatch Beta","name_short":"syd-5","host":"syd-1.au.uncletopia.com","port":27055,"enabled":true,"region":"au","cc":"au","latitude":-33.865143,"longitude":151.2099,"reserved":0,"last_update":"0001-01-01T00:00:00Z","name_a2s":"Uncletopia | Sydney | 5 | Stopwatch Beta","protocol":17,"map":"cp_snakewater_final1","folder":"tf","game":"Team Fortress","app_id":440,"player_count":0,"max_players":24,"Bots":0,"server_type":"Dedicated","server_os":"Linux","password":true,"vac":true,"version":"7882260","steam_id":85568392925397959,"keywords":["cp","nocrits","nodmgspread","uncletopia"],"game_id":440,"stv_port":27056,"stv_name":"Uncletopia | Sydney | 5 | Stopwatch Beta | STV","players":null},{"server_id":59,"name":"Uncletopia | Sydney | 6 | Community","name_short":"syd-6","host":"syd-1.au.uncletopia.com","port":27065,"enabled":true,"region":"au","cc":"au","latitude":-33.865143,"longitude":151.2099,"reserved":0,"last_update":"0001-01-01T00:00:00Z","name_a2s":"Uncletopia | Sydney | 6 | Community","protocol":17,"map":"workshop/koth_ramjam_rc1.ugc459778887","folder":"tf","game":"Team Fortress","app_id":440,"player_count":0,"max_players":24,"Bots":0,"server_type":"Dedicated","server_os":"Linux","password":true,"vac":true,"version":"7882260","steam_id":85568392925397960,"keywords":["cp","nocrits","nodmgspread","uncletopia"],"game_id":440,"stv_port":27066,"stv_name":"Uncletopia | Sydney | 6 | Community | STV","players":null},{"server_id":49,"name":"Uncletopia | Warsaw | 1 | All Maps","name_short":"waw-1","host":"waw-1.pl.uncletopia.com","port":27015,"enabled":true,"region":"eu","cc":"pl","latitude":52.2297,"longitude":21.017532,"reserved":0,"last_update":"0001-01-01T00:00:00Z","name_a2s":"","protocol":0,"map":"","folder":"","game":"","app_id":0,"player_count":0,"max_players":0,"Bots":0,"server_type":"","server_os":"","password":false,"vac":false,"version":"","steam_id":0,"keywords":null,"game_id":0,"stv_port":0,"stv_name":"","players":null},{"server_id":50,"name":"Uncletopia | Warsaw | 2 | All Maps","name_short":"waw-2","host":"waw-1.pl.uncletopia.com","port":27025,"enabled":true,"region":"eu","cc":"pl","latitude":52.2297,"longitude":21.017532,"reserved":0,"last_update":"0001-01-01T00:00:00Z","name_a2s":"Uncletopia | Warsaw | 2 | All Maps","protocol":17,"map":"cp_snakewater_final1","folder":"tf","game":"Team Fortress","app_id":440,"player_count":0,"max_players":24,"Bots":0,"server_type":"Dedicated","server_os":"Linux","password":true,"vac":true,"version":"7882260","steam_id":85568392925397851,"keywords":["cp","nocrits","nodmgspread","uncletopia"],"game_id":440,"stv_port":27026,"stv_name":"Uncletopia | Warsaw | 2 | All Maps | STV","players":null},{"server_id":51,"name":"Uncletopia | Warsaw | 3 | All Maps","name_short":"waw-3","host":"waw-1.pl.uncletopia.com","port":27035,"enabled":true,"region":"eu","cc":"pl","latitude":52.2297,"longitude":21.017532,"reserved":0,"last_update":"0001-01-01T00:00:00Z","name_a2s":"Uncletopia | Warsaw | 3 | All Maps","protocol":17,"map":"koth_lakeside_final","folder":"tf","game":"Team Fortress","app_id":440,"player_count":0,"max_players":24,"Bots":0,"server_type":"Dedicated","server_os":"Linux","password":true,"vac":true,"version":"7882260","steam_id":85568392925397852,"keywords":["cp","nocrits","nodmgspread","uncletopia"],"game_id":440,"stv_port":27036,"stv_name":"Uncletopia | Warsaw | 3 | All Maps | STV","players":null},{"server_id":52,"name":"Uncletopia | Warsaw | 4 | All Maps","name_short":"waw-4","host":"waw-1.pl.uncletopia.com","port":27045,"enabled":true,"region":"eu","cc":"pl","latitude":52.2297,"longitude":21.017532,"reserved":0,"last_update":"0001-01-01T00:00:00Z","name_a2s":"Uncletopia | Warsaw | 4 | All Maps","protocol":17,"map":"koth_highpass","folder":"tf","game":"Team Fortress","app_id":440,"player_count":0,"max_players":24,"Bots":0,"server_type":"Dedicated","server_os":"Linux","password":true,"vac":true,"version":"7882260","steam_id":85568392925397853,"keywords":["cp","nocrits","nodmgspread","uncletopia"],"game_id":440,"stv_port":27046,"stv_name":"Uncletopia | Warsaw | 4 | All Maps | STV","players":null},{"server_id":53,"name":"Uncletopia | Warsaw | 5 | Stopwatch Beta","name_short":"waw-5","host":"waw-1.pl.uncletopia.com","port":27055,"enabled":true,"region":"eu","cc":"pl","latitude":52.2297,"longitude":21.017532,"reserved":0,"last_update":"0001-01-01T00:00:00Z","name_a2s":"Uncletopia | Warsaw | 5 | Stopwatch Beta","protocol":17,"map":"cp_mountainlab","folder":"tf","game":"Team Fortress","app_id":440,"player_count":0,"max_players":24,"Bots":0,"server_type":"Dedicated","server_os":"Linux","password":true,"vac":true,"version":"7882260","steam_id":85568392925397854,"keywords":["cp","nocrits","nodmgspread","uncletopia"],"game_id":440,"stv_port":27056,"stv_name":"Uncletopia | Warsaw | 5 | Stopwatch Beta | STV","players":null},{"server_id":54,"name":"Uncletopia | Warsaw | 6 | Community","name_short":"waw-6","host":"waw-1.pl.uncletopia.com","port":27065,"enabled":true,"region":"eu","cc":"pl","latitude":52.2297,"longitude":21.017532,"reserved":0,"last_update":"0001-01-01T00:00:00Z","name_a2s":"Uncletopia | Warsaw | 6 | Community","protocol":17,"map":"workshop/cp_villa_b19.ugc2113052569","folder":"tf","game":"Team Fortress","app_id":440,"player_count":0,"max_players":24,"Bots":0,"server_type":"Dedicated","server_os":"Linux","password":true,"vac":true,"version":"7882260","steam_id":85568392925397856,"keywords":["cp","nocrits","nodmgspread","uncletopia"],"game_id":440,"stv_port":27066,"stv_name":"Uncletopia | Warsaw | 6 | Community | STV","players":null}]}