{"status":true,"message":"","result":[{"server_id":9,"name":"Uncletopia | Atlanta | 1 | All Maps","name_short":"atl-1","host":"atl-1.us.uncletopia.com","port":27015,"enabled":true,"region":"us-east","cc":"us","latitude":33.753746,"longitude":-84.38633,"reserved":0,"last_update":"0001-01-01T00:00:00Z","name_a2s":"Uncletopia | Atlanta | 1 | All Maps","protocol":17,"map":"pl_swiftwater_final1","folder":"tf","game":"Team Fortress","app_id":440,"player_count":0,"max_players":24,"Bots":0,"server_type":"Dedicated","server_os":"Linux","password":true,"vac":true,"version":"7757534","steam_id":85568392924469982,"keywords":["nocrits","nodmgspread","payload","uncletopia"],"game_id":440,"stv_port":27016,"stv_name":"Uncletopia | Atlanta | 1 | All Maps | STV","players":null},{"server_id":400,"name":"Uncletopia | Atlanta | 3 | Community","name_short":"atl-3","host":"atl-1.us.uncletopia.com","port":27035,"enabled":true,"region":"us-east","cc":"us","latitude":33.753746,"longitude":-84.38633,"reserved":0,"last_update":"0001-01-01T00:00:00Z","name_a2s":"Uncletopia | Atlanta | 3 | Community","protocol":17,"map":"workshop/koth_synthetic_rc6a.ugc1549817316","folder":"tf","game":"Team Fortress","app_id":440,"player_count":0,"max_players":24,"Bots":0,"server_type":"Dedicated","server_os":"Linux","password":true,"vac":true,"version":"7757534","steam_id":85568392924515187,"keywords":["cp","nocrits","nodmgspread","uncletopia"],"game_id":440,"stv_port":27036,"stv_name":"Uncletopia | Atlanta | 3 | Community | STV","players":null},{"server_id":401,"name":"Uncletopia | Atlanta | 4 | No Payload","name_short":"atl-4","host":"atl-1.us.uncletopia.com","port":27045,"enabled":true,"region":"us-east","cc":"us","latitude":33.753746,"longitude":-84.38633,"reserved":0,"last_update":"0001-01-01T00:00:00Z","name_a2s":"","protocol":0,"map":"","folder":"","game":"","app_id":0,"player_count":0,"max_players":0,"Bots":0,"server_type":"","server_os":"","password":false,"vac":false,"version":"","steam_id":0,"keywords":null,"game_id":0,"stv_port":0,"stv_name":"","players":null},{"server_id":2,"name":"Uncletopia | Chicago | 1 | All Maps","name_short":"chi-1","host":"chi-1.us.uncletopia.com","port":27015,"enabled":true,"region":"us-central","cc":"us","latitude":41.881832,"longitude":-87.62318,"reserved":0,"last_update":"0001-01-01T00:00:00Z","name_a2s":"Uncletopia | Chicago | 1 | All Maps","protocol":17,"map":"cp_steel","folder":"tf","game":"Team Fortress","app_id":440,"player_count":16,"max_players":24,"Bots":0,"server_type":"Dedicated","server_os":"Linux","password":true,"vac":true,"version":"7757534","steam_id":85568392924469984,"keywords":["cp","nocrits","nodmgspread","uncletopia"],"game_id":440,"stv_port":27016,"stv_name":"Uncletopia | Chicago | 1 | All Maps | STV","players":[{"user_id":882,"name":"Spoilt Pudding","steam_id":76561198001195423,"connected_time":5347000000000,"state":"active","ping":75},{"user_id":933,"name":"Jimothy","steam_id":76561198982248872,"connected_time":1189000000000,"state":"active","ping":71},{"user_id":944,"name":"8 wet lemons","steam_id":76561198403975457,"connected_time":172000000000,"state":"active","ping":71},{"user_id":929,"name":"MrPeanutBetter","steam_id":76561199149697526,"connected_time":1330000000000,"state":"active","ping":107},{"user_id":858,"name":"Bird watcher #savetf2","steam_id":76561199201098634,"connected_time":7383000000000,"state":"active","ping":59},{"user_id":945,"name":"daemon","steam_id":76561198001541433,"connected_time":65000000000,"state":"active","ping":47},{"user_id":946,"name":"Eins","steam_id":76561199030343810,"connected_time":33000000000,"state":"active","ping":57},{"user_id":937,"name":"Koyota","steam_id":76561198069878114,"connected_time":568000000000,"state":"active","ping":100},{"user_id":883,"name":"KotuAlls","steam_id":76561198325755844,"connected_time":5334000000000,"state":"active","ping":43},{"user_id":934,"name":"Lyra","steam_id":76561198043601838,"connected_time":1145000000000,"state":"active","ping":149},{"user_id":932,"name":"YOU, BUT VAPES","steam_id":76561198018353934,"connected_time":1191000000000,"state":"active","ping":66},{"user_id":935,"name":"Tresthebest360","steam_id":76561198965347175,"connected_time":929000000000,"state":"active","ping":68},{"user_id":940,"name":"seve","steam_id":76561197974470963,"connected_time":342000000000,"state":"active","ping":60},{"user_id":941,"name":"Tito","steam_id":76561198041702529,"connected_time":337000000000,"state":"active","ping":84},{"user_id":942,"name":"cAssBlaster","steam_id":76561198138488101,"connected_time":312000000000,"state":"active","ping":46},{"user_id":943,"name":"Pocket Furry","steam_id":76561199080485881,"connected_time":295000000000,"state":"active","ping":127}]},{"server_id":106,"name":"Uncletopia | Chicago | 2 | All Maps","name_short":"chi-2","host":"chi-1.us.uncletopia.com","port":27025,"enabled":true,"region":"us-central","cc":"us","latitude":41.881832,"longitude":-87.62318,"reserved":0,"last_update":"0001-01-01T00:00:00Z","name_a2s":"Uncletopia | Chicago | 2 | All Maps","protocol":17,"map":"pl_barnblitz","folder":"tf","game":"Team Fortress","app_id":440,"player_count":23,"max_players":24,"Bots":0,"server_type":"Dedicated","server_os":"Linux","password":true,"vac":true,"version":"7757534","steam_id":85568392924469985,"keywords":["nocrits","nodmgspread","payload","uncletopia"],"game_id":440,"stv_port":27026,"stv_name":"Uncletopia | Chicago | 2 | All Maps | STV","players":[{"user_id":1093,"name":"Poppet","steam_id":76561198012301951,"connected_time":304000000000,"state":"active","ping":55},{"user_id":1063,"name":"dollar menu demon","steam_id":76561198143083316,"connected_time":4283000000000,"state":"active","ping":76},{"user_id":1085,"name":"RoseTheGentleSoul","steam_id":76561198352025071,"connected_time":2079000000000,"state":"active","ping":66},{"user_id":1074,"name":"Bozo","steam_id":76561198084683634,"connected_time":2809000000000,"state":"active","ping":79},{"user_id":1091,"name":"TransWomanGaming","steam_id":76561198809645656,"connected_time":575000000000,"state":"active","ping":94},{"user_id":1090,"name":"Monster","steam_id":76561198189429665,"connected_time":1291000000000,"state":"active","ping":70},{"user_id":1089,"name":"Renleid","steam_id":76561198182489147,"connected_time":1554000000000,"state":"active","ping":77},{"user_id":1076,"name":"Sir airshots a lot","steam_id":76561199469686631,"connected_time":2644000000000,"state":"active","ping":45},{"user_id":1077,"name":"StarofDaybreak","steam_id":76561198051501253,"connected_time":2637000000000,"state":"active","ping":105},{"user_id":1028,"name":"Paradoxical_Wayfarer","steam_id":76561198043250942,"connected_time":6342000000000,"state":"active","ping":48},{"user_id":1078,"name":"Klaytox","steam_id":76561198112774030,"connected_time":2631000000000,"state":"active","ping":63},{"user_id":1048,"name":"Kronky","steam_id":76561198004401730,"connected_time":5033000000000,"state":"active","ping":72},{"user_id":1084,"name":"Coffee with a Stranger","steam_id":76561198307422313,"connected_time":2386000000000,"state":"active","ping":73},{"user_id":1094,"name":"The Blair SandWitch","steam_id":76561198067223699,"connected_time":251000000000,"state":"active","ping":99},{"user_id":1079,"name":"Rubles","steam_id":76561198070156875,"connected_time":2592000000000,"state":"active","ping":57},{"user_id":1044,"name":"Chemo","steam_id":76561197961308370,"connected_time":5372000000000,"state":"active","ping":70},{"user_id":1095,"name":"LP","steam_id":76561198130032444,"connected_time":236000000000,"state":"active","ping":91},{"user_id":1096,"name":"uwuziel","steam_id":76561198143355561,"connected_time":195000000000,"state":"active","ping":63},{"user_id":1081,"name":"Chrono","steam_id":76561198238868010,"connected_time":2568000000000,"state":"active","ping":120},{"user_id":1087,"name":"Trusty","steam_id":76561198035444237,"connected_time":1769000000000,"state":"active","ping":66},{"user_id":1068,"name":"AMU","steam_id":76561198092346231,"connected_time":3792000000000,"state":"active","ping":70},{"user_id":1092,"name":"Leviathan","steam_id":76561197997528907,"connected_time":573000000000,"state":"active","ping":59},{"user_id":1069,"name":"Joe Swanson","steam_id":76561199089907740,"connected_time":3791000000000,"state":"active","ping":97}]},{"server_id":402,"name":"Uncletopia | Chicago | 3 | All Maps","name_short":"chi-3","host":"chi-1.us.uncletopia.com","port":27035,"enabled":true,"region":"us-central","cc":"us","latitude":41.881832,"longitude":-87.62318,"reserved":0,"last_update":"0001-01-01T00:00:00Z","name_a2s":"Uncletopia | Chicago | 3 | All Maps","protocol":17,"map":"cp_altitude","folder":"tf","game":"Team Fortress","app_id":440,"player_count":0,"max_players":24,"Bots":0,"server_type":"Dedicated","server_os":"Linux","password":true,"vac":true,"version":"7757534","steam_id":85568392924515191,"keywords":["cp","nocrits","nodmgspread","uncletopia"],"game_id":440,"stv_port":27036,"stv_name":"Uncletopia | Chicago | 3 | All Maps | STV","players":null},{"server_id":403,"name":"Uncletopia | Chicago | 4 | All Maps","name_short":"chi-4","host":"chi-1.us.uncletopia.com","port":27045,"enabled":true,"region":"us-central","cc":"us","latitude":41.881832,"longitude":-87.62318,"reserved":0,"last_update":"0001-01-01T00:00:00Z","name_a2s":"Uncletopia | Chicago | 4 | All Maps","protocol":17,"map":"cp_snakewater_final1","folder":"tf","game":"Team Fortress","app_id":440,"player_count":0,"max_players":24,"Bots":0,"server_type":"Dedicated","server_os":"Linux","password":true,"vac":true,"version":"7757534","steam_id":85568392924515193,"keywords":["cp","nocrits","nodmgspread","uncletopia"],"game_id":440,"stv_port":27046,"stv_name":"Uncletopia | Chicago | 4 | All Maps | STV","players":null},{"server_id":36,"name":"Uncletopia | Chicago | 5 | All Maps","name_short":"chi-5","host":"chi-2.us.uncletopia.com","port":27015,"enabled":true,"region":"us-central","cc":"us","latitude":41.881832,"longitude":-87.62318,"reserved":0,"last_update":"0001-01-01T00:00:00Z","name_a2s":"Uncletopia | Chicago | 5 | All Maps","protocol":17,"map":"cp_snakewater_final1","folder":"tf","game":"Team Fortress","app_id":440,"player_count":0,"max_players":24,"Bots":0,"server_type":"Dedicated","server_os":"Linux","password":true,"vac":true,"version":"7757534","steam_id":85568392924866362,"keywords":["cp","nocrits","nodmgspread","uncletopia"],"game_id":440,"stv_port":27016,"stv_name":"Uncletopia | Chicago | 5 | All Maps | STV","players":null},{"server_id":37,"name":"Uncletopia | Chicago | 6 | All Maps","name_short":"chi-6","host":"chi-2.us.uncletopia.com","port":27025,"enabled":true,"region":"us-central","cc":"us","latitude":41.881832,"longitude":-87.62318,"reserved":0,"last_update":"0001-01-01T00:00:00Z","name_a2s":"Uncletopia | Chicago | 6 | All Maps","protocol":17,"map":"koth_viaduct","folder":"tf","game":"Team Fortress","app_id":440,"player_count":0,"max_players":24,"Bots":0,"server_type":"Dedicated","server_os":"Linux","password":true,"vac":true,"version":"7757534","steam_id":85568392924866363,"keywords":["cp","nocrits","nodmgspread","uncletopia"],"game_id":440,"stv_port":27026,"stv_name":"Uncletopia | Chicago | 6 | All Maps | STV","players":null},{"server_id":38,"name":"Uncletopia | Chicago | 7 | Stopwatch Beta","name_short":"chi-7","host":"chi-2.us.uncletopia.com","port":27035,"enabled":true,"region":"us-central","cc":"us","latitude":41.881832,"longitude":-87.62318,"reserved":0,"last_update":"0001-01-01T00:00:00Z","name_a2s":"Uncletopia | Chicago | 7 | Stopwatch Beta","protocol":17,"map":"workshop/pl_badwater_pro_v12.ugc2142942074","folder":"tf","game":"Team Fortress","app_id":440,"player_count":0,"max_players":24,"Bots":0,"server_type":"Dedicated","server_os":"Linux","password":true,"vac":true,"version":"7757534","steam_id":85568392924866364,"keywords":["nocrits","nodmgspread","payload","uncletopia"],"game_id":440,"stv_port":27036,"stv_name":"Uncletopia | Chicago | 7 | Stopwatch Beta | STV","players":null},{"server_id":39,"name":"Uncletopia | Chicago | 8 | Community","name_short":"chi-8","host":"chi-2.us.uncletopia.com","port":27045,"enabled":true,"region":"us-central","cc":"us","latitude":41.881832,"longitude":-87.62318,"reserved":0,"last_update":"0001-01-01T00:00:00Z","name_a2s":"Uncletopia | Chicago | 8 | Community","protocol":17,"map":"workshop/koth_synthetic_rc6a.ugc1549817316","folder":"tf","game":"Team Fortress","app_id":440,"player_count":0,"max_players":24,"Bots":0,"server_type":"Dedicated","server_os":"Linux","password":true,"vac":true,"version":"7757534","steam_id":85568392924866365,"keywords":["cp","nocrits","nodmgspread","uncletopia"],"game_id":440,"stv_port":27046,"stv_name":"Uncletopia | Chicago | 8 | Community | STV","players":null},{"server_id":8,"name":"Uncletopia | Dallas | 1 | All Maps","name_short":"dal-1","host":"dal-1.us.uncletopia.com","port":27015,"enabled":true,"region":"us-central","cc":"us","latitude":32.779167,"longitude":-96.80889,"reserved":0,"last_update":"0001-01-01T00:00:00Z","name_a2s":"Uncletopia | Dallas | 1 | All Maps","protocol":17,"map":"koth_lakeside_final","folder":"tf","game":"Team Fortress","app_id":440,"player_count":0,"max_players":24,"Bots":0,"server_type":"Dedicated","server_os":"Linux","password":true,"vac":true,"version":"7757534","steam_id":85568392924469986,"keywords":["cp","nocrits","nodmgspread","uncletopia"],"game_id":440,"stv_port":27016,"stv_name":"Uncletopia | Dallas | 1 | All Maps | STV","players":null},{"server_id":108,"name":"Uncletopia | Dallas | 2 | All Maps","name_short":"dal-2","host":"dal-1.us.uncletopia.com","port":27025,"enabled":true,"region":"us-central","cc":"us","latitude":32.779167,"longitude":-96.80889,"reserved":0,"last_update":"0001-01-01T00:00:00Z","name_a2s":"Uncletopia | Dallas | 2 | All Maps","protocol":17,"map":"cp_sunshine","folder":"tf","game":"Team Fortress","app_id":440,"player_count":0,"max_players":24,"Bots":0,"server_type":"Dedicated","server_os":"Linux","password":true,"vac":true,"version":"7757534","steam_id":85568392924469988,"keywords":["cp","nocrits","nodmgspread","uncletopia"],"game_id":440,"stv_port":27026,"stv_name":"Uncletopia | Dallas | 2 | All Maps | STV","players":null},{"server_id":5,"name":"Uncletopia | Frankfurt | 1 | All Maps","name_short":"frk-1","host":"frk-1.de.uncletopia.com","port":27015,"enabled":true,"region":"eu","cc":"de","latitude":50.110924,"longitude":8.682127,"reserved":0,"last_update":"0001-01-01T00:00:00Z","name_a2s":"Uncletopia | Frankfurt | 1 | All Maps","protocol":17,"map":"pl_barnblitz","folder":"tf","game":"Team Fortress","app_id":440,"player_count":24,"max_players":24,"Bots":0,"server_type":"Dedicated","server_os":"Linux","password":true,"vac":true,"version":"7757534","steam_id":85568392924469989,"keywords":["nocrits","nodmgspread","payload","uncletopia"],"game_id":440,"stv_port":27016,"stv_name":"Uncletopia | Frankfurt | 1 | All Maps | STV","players":[{"user_id":93,"name":"fmdi","steam_id":76561199433879329,"connected_time":2178000000000,"state":"active","ping":74},{"user_id":99,"name":"Pineapple Okanつ ◕_◕ ༽\ufffd\ufffd","steam_id":76561198069199449,"connected_time":1910000000000,"state":"active","ping":95},{"user_id":121,"name":"Hatsune Miku","steam_id":76561198031573426,"connected_time":295000000000,"state":"active","ping":65},{"user_id":119,"name":"Saken","steam_id":76561198049075295,"connected_time":533000000000,"state":"active","ping":59},{"user_id":108,"name":"nky","steam_id":76561198086229832,"connected_time":1317000000000,"state":"active","ping":56},{"user_id":103,"name":"Amandus","steam_id":76561198036281079,"connected_time":1543000000000,"state":"active","ping":60},{"user_id":85,"name":"Sleepyguy","steam_id":76561198008520542,"connected_time":2691000000000,"state":"active","ping":67},{"user_id":109,"name":"FANTANO MELON HEAD","steam_id":76561198146194820,"connected_time":1256000000000,"state":"active","ping":50},{"user_id":110,"name":"frenchie","steam_id":76561198178298931,"connected_time":1254000000000,"state":"active","ping":49},{"user_id":69,"name":"goblin","steam_id":76561198151122921,"connected_time":3599000000000,"state":"active","ping":74},{"user_id":105,"name":"Hadmund Gaming","steam_id":76561198119454822,"connected_time":1515000000000,"state":"active","ping":75},{"user_id":58,"name":"where is my egg?","steam_id":76561198172542535,"connected_time":3961000000000,"state":"active","ping":68},{"user_id":116,"name":"blade","steam_id":76561198235739036,"connected_time":973000000000,"state":"active","ping":89},{"user_id":60,"name":"Enigmus","steam_id":76561197994063627,"connected_time":3843000000000,"state":"active","ping":78},{"user_id":118,"name":"blindcinema_","steam_id":76561198026908105,"connected_time":897000000000,"state":"active","ping":72},{"user_id":106,"name":"Marchioly","steam_id":76561198335079215,"connected_time":1484000000000,"state":"active","ping":104},{"user_id":124,"name":"Korteh","steam_id":76561198162283027,"connected_time":130000000000,"state":"active","ping":103},{"user_id":120,"name":"lore","steam_id":76561198120984188,"connected_time":364000000000,"state":"active","ping":68},{"user_id":114,"name":"Moonlightexel","steam_id":76561198262044897,"connected_time":1138000000000,"state":"active","ping":83},{"user_id":97,"name":"Wenolainen","steam_id":76561198334592800,"connected_time":2007000000000,"state":"active","ping":86},{"user_id":104,"name":"on1on (pickled)","steam_id":76561197995304137,"connected_time":1531000000000,"state":"active","ping":66},{"user_id":125,"name":"Wüstenfuchs","steam_id":76561198453885708,"connected_time":20000000000,"state":"active","ping":70},{"user_id":100,"name":"Laru","steam_id":76561197998838438,"connected_time":1897000000000,"state":"active","ping":80},{"user_id":101,"name":"ympoop","steam_id":76561198202441870,"connected_time":1786000000000,"state":"active","ping":60}]},{"server_id":110,"name":"Uncletopia | Frankfurt | 2 | All Maps","name_short":"frk-2","host":"frk-1.de.uncletopia.com","port":27025,"enabled":true,"region":"eu","cc":"de","latitude":50.110924,"longitude":8.682127,"reserved":0,"last_update":"0001-01-01T00:00:00Z","name_a2s":"Uncletopia | Frankfurt | 2 | All Maps","protocol":17,"map":"cp_altitude","folder":"tf","game":"Team Fortress","app_id":440,"player_count":0,"max_players":24,"Bots":0,"server_type":"Dedicated","server_os":"Linux","password":true,"vac":true,"version":"7757534","steam_id":85568392924469990,"keywords":["cp","nocrits","nodmgspread","uncletopia"],"game_id":440,"stv_port":27026,"stv_name":"Uncletopia | Frankfurt | 2 | All Maps | STV","players":null},{"server_id":308,"name":"Uncletopia | Frankfurt | 3 | All Maps","name_short":"frk-3","host":"frk-1.de.uncletopia.com","port":27035,"enabled":true,"region":"eu","cc":"de","latitude":50.110924,"longitude":8.682127,"reserved":0,"last_update":"0001-01-01T00:00:00Z","name_a2s":"Uncletopia | Frankfurt | 3 | All Maps","protocol":17,"map":"pl_borneo","folder":"tf","game":"Team Fortress","app_id":440,"player_count":0,"max_players":24,"Bots":0,"server_type":"Dedicated","server_os":"Linux","password":true,"vac":true,"version":"7757534","steam_id":85568392924504274,"keywords":["nocrits","nodmgspread","payload","uncletopia"],"game_id":440,"stv_port":27036,"stv_name":"Uncletopia | Frankfurt | 3 | All Maps | STV","players":null},{"server_id":309,"name":"Uncletopia | Frankfurt | 4 | All Maps","name_short":"frk-4","host":"frk-1.de.uncletopia.com","port":27045,"enabled":true,"region":"eu","cc":"de","latitude":50.110924,"longitude":8.682127,"reserved":0,"last_update":"0001-01-01T00:00:00Z","name_a2s":"Uncletopia | Frankfurt | 4 | All Maps","protocol":17,"map":"koth_viaduct","folder":"tf","game":"Team Fortress","app_id":440,"player_count":0,"max_players":24,"Bots":0,"server_type":"Dedicated","server_os":"Linux","password":true,"vac":true,"version":"7757534","steam_id":85568392924504275,"keywords":["cp","nocrits","nodmgspread","uncletopia"],"game_id":440,"stv_port":27046,"stv_name":"Uncletopia | Frankfurt | 4 | All Maps | STV","players":null},{"server_id":310,"name":"Uncletopia | Frankfurt | 5 | All Maps","name_short":"frk-5","host":"frk-1.de.uncletopia.com","port":27055,"enabled":true,"region":"eu","cc":"de","latitude":50.110924,"longitude":8.682127,"reserved":0,"last_update":"0001-01-01T00:00:00Z","name_a2s":"Uncletopia | Frankfurt | 5 | All Maps","protocol":17,"map":"cp_sunshine","folder":"tf","game":"Team Fortress","app_id":440,"player_count":0,"max_players":24,"Bots":0,"server_type":"Dedicated","server_os":"Linux","password":true,"vac":true,"version":"7757534","steam_id":85568392924504277,"keywords":["cp","nocrits","nodmgspread","uncletopia"],"game_id":440,"stv_port":27056,"stv_name":"Uncletopia | Frankfurt | 5 | All Maps | STV","players":null},{"server_id":311,"name":"Uncletopia | Frankfurt | 6 | All Maps","name_short":"frk-6","host":"frk-1.de.uncletopia.com","port":27065,"enabled":true,"region":"eu","cc":"de","latitude":50.110924,"longitude":8.682127,"reserved":0,"last_update":"0001-01-01T00:00:00Z","name_a2s":"Uncletopia | Frankfurt | 6 | All Maps","protocol":17,"map":"pl_barnblitz","folder":"tf","game":"Team Fortress","app_id":440,"player_count":0,"max_players":24,"Bots":0,"server_type":"Dedicated","server_os":"Linux","password":true,"vac":true,"version":"7757534","steam_id":85568392924504278,"keywords":["nocrits","nodmgspread","payload","uncletopia"],"game_id":440,"stv_port":27066,"stv_name":"Uncletopia | Frankfurt | 6 | All Maps | STV","players":null},{"server_id":23,"name":"Uncletopia | Frankfurt | 7 | Stopwatch Beta","name_short":"frk-7","host":"frk-1.de.uncletopia.com","port":27075,"enabled":true,"region":"eu","cc":"de","latitude":50.110924,"longitude":8.682127,"reserved":0,"last_update":"0001-01-01T00:00:00Z","name_a2s":"Uncletopia | Frankfurt | 7 | Stopwatch Beta","protocol":17,"map":"pl_borneo","folder":"tf","game":"Team Fortress","app_id":440,"player_count":0,"max_players":24,"Bots":0,"server_type":"Dedicated","server_os":"Linux","password":true,"vac":true,"version":"7757534","steam_id":85568392924742827,"keywords":["nocrits","nodmgspread","payload","uncletopia"],"game_id":440,"stv_port":27076,"stv_name":"Uncletopia | Frankfurt | 7 | Stopwatch Beta | STV","players":null},{"server_id":24,"name":"Uncletopia | Frankfurt | 8 | Community","name_short":"frk-8","host":"frk-1.de.uncletopia.com","port":27085,"enabled":true,"region":"eu","cc":"de","latitude":50.110924,"longitude":8.682127,"reserved":0,"last_update":"0001-01-01T00:00:00Z","name_a2s":"Uncletopia | Frankfurt | 8 | Community","protocol":17,"map":"koth_viaduct","folder":"tf","game":"Team Fortress","app_id":440,"player_count":0,"max_players":24,"Bots":0,"server_type":"Dedicated","server_os":"Linux","password":true,"vac":true,"version":"7757534","steam_id":85568392924742828,"keywords":["cp","nocrits","nodmgspread","uncletopia"],"game_id":440,"stv_port":27086,"stv_name":"Uncletopia | Frankfurt | 8 | Community | STV","players":null},{"server_id":202,"name":"Uncletopia | Hong Kong | 1 | All Maps","name_short":"hgk-1","host":"hgk-1.hk.uncletopia.com","port":27015,"enabled":true,"region":"asia","cc":"hk","latitude":22.302711,"longitude":114.177216,"reserved":0,"last_update":"0001-01-01T00:00:00Z","name_a2s":"Uncletopia | Hong Kong | 1 | All Maps","protocol":17,"map":"cp_dustbowl","folder":"tf","game":"Team Fortress","app_id":440,"player_count":23,"max_players":24,"Bots":0,"server_type":"Dedicated","server_os":"Linux","password":true,"vac":true,"version":"7757534","steam_id":85568392924494504,"keywords":["cp","nocrits","nodmgspread","uncletopia"],"game_id":440,"stv_port":27016,"stv_name":"Uncletopia | Hong Kong | 1 | All Maps | STV","players":[{"user_id":120,"name":"Milk❤ (First Scope Enjoyer)","steam_id":76561198163911560,"connected_time":954000000000,"state":"active","ping":129},{"user_id":116,"name":"Crabs","steam_id":76561199445694770,"connected_time":1554000000000,"state":"active","ping":135},{"user_id":101,"name":"Noyour","steam_id":76561198323259830,"connected_time":2587000000000,"state":"active","ping":113},{"user_id":91,"name":"Urotsuki","steam_id":76561198074339034,"connected_time":3101000000000,"state":"active","ping":75},{"user_id":156,"name":"momosneakeradventure","steam_id":76561199046440440,"connected_time":292000000000,"state":"active","ping":43},{"user_id":125,"name":":)","steam_id":76561198437941450,"connected_time":907000000000,"state":"active","ping":84},{"user_id":103,"name":"qb","steam_id":76561198412329672,"connected_time":2470000000000,"state":"active","ping":90},{"user_id":60,"name":"vanidysuki","steam_id":76561198147851090,"connected_time":4823000000000,"state":"active","ping":88},{"user_id":64,"name":"screaming sniper","steam_id":76561199085568674,"connected_time":4406000000000,"state":"active","ping":63},{"user_id":98,"name":"P","steam_id":76561198304514505,"connected_time":2641000000000,"state":"active","ping":74},{"user_id":118,"name":"17","steam_id":76561198241530712,"connected_time":1060000000000,"state":"active","ping":60},{"user_id":126,"name":"Puddin","steam_id":76561198140052918,"connected_time":896000000000,"state":"active","ping":99},{"user_id":68,"name":"WELL EXCUSE PRINCESS","steam_id":76561198203073201,"connected_time":4168000000000,"state":"active","ping":60},{"user_id":109,"name":"divine moments of truth","steam_id":76561198413116920,"connected_time":1850000000000,"state":"active","ping":104},{"user_id":155,"name":"帕","steam_id":76561198439343999,"connected_time":374000000000,"state":"active","ping":79},{"user_id":104,"name":"David Keithson","steam_id":76561199279393636,"connected_time":2439000000000,"state":"active","ping":80},{"user_id":114,"name":"In(e)","steam_id":76561198362097007,"connected_time":1592000000000,"state":"active","ping":57},{"user_id":112,"name":"( ͡° ͜ʖ ͡°)","steam_id":76561198024666371,"connected_time":1822000000000,"state":"active","ping":90},{"user_id":159,"name":"derek.patriarca30","steam_id":76561199427230206,"connected_time":142000000000,"state":"active","ping":68},{"user_id":106,"name":"Stupid B l #saveTF2","steam_id":76561198131423270,"connected_time":2353000000000,"state":"active","ping":97},{"user_id":122,"name":"OMG !!!! HIHIHIHIHIHI","steam_id":76561199174449723,"connected_time":941000000000,"state":"active","ping":119},{"user_id":111,"name":"Bertengkar","steam_id":76561198213031155,"connected_time":1848000000000,"state":"active","ping":102},{"user_id":123,"name":"Lelouch","steam_id":76561198828840546,"connected_time":934000000000,"state":"active","ping":76}]},{"server_id":1,"name":"Uncletopia | Los Angeles | 1 | All Maps","name_short":"lax-1","host":"lax-1.us.uncletopia.com","port":27015,"enabled":true,"region":"us-west","cc":"us","latitude":33.94279,"longitude":-118.41004,"reserved":0,"last_update":"0001-01-01T00:00:00Z","name_a2s":"Uncletopia | Los Angeles | 1 | All Maps","protocol":17,"map":"pl_frontier_final","folder":"tf","game":"Team Fortress","app_id":440,"player_count":6,"max_players":24,"Bots":0,"server_type":"Dedicated","server_os":"Linux","password":true,"vac":true,"version":"7757534","steam_id":85568392924469991,"keywords":["nocrits","nodmgspread","payload","uncletopia"],"game_id":440,"stv_port":27016,"stv_name":"Uncletopia | Los Angeles | 1 | All Maps | STV","players":[{"user_id":601,"name":"Dabbin Blackbeard","steam_id":76561198046130846,"connected_time":813000000000,"state":"active","ping":90},{"user_id":546,"name":"Burgie","steam_id":76561198066425198,"connected_time":5577000000000,"state":"active","ping":45},{"user_id":597,"name":"Fry","steam_id":76561198065320920,"connected_time":1256000000000,"state":"active","ping":106},{"user_id":605,"name":"Reisen","steam_id":76561199174579733,"connected_time":564000000000,"state":"active","ping":109},{"user_id":603,"name":"FlyawayFever1","steam_id":76561198349977724,"connected_time":712000000000,"state":"active","ping":98},{"user_id":566,"name":"JoJoBo","steam_id":76561198211505960,"connected_time":3974000000000,"state":"active","ping":73}]},{"server_id":112,"name":"Uncletopia | Los Angeles | 2 | All Maps","name_short":"lax-2","host":"lax-1.us.uncletopia.com","port":27025,"enabled":true,"region":"us-west","cc":"us","latitude":33.94279,"longitude":-118.41004,"reserved":0,"last_update":"0001-01-01T00:00:00Z","name_a2s":"Uncletopia | Los Angeles | 2 | All Maps","protocol":17,"map":"cp_process_final","folder":"tf","game":"Team Fortress","app_id":440,"player_count":0,"max_players":24,"Bots":0,"server_type":"Dedicated","server_os":"Linux","password":true,"vac":true,"version":"7757534","steam_id":85568392924469992,"keywords":["cp","nocrits","nodmgspread","uncletopia"],"game_id":440,"stv_port":27026,"stv_name":"Uncletopia | Los Angeles | 2 | All Maps | STV","players":null},{"server_id":324,"name":"Uncletopia | Los Angeles | 3 | All Maps","name_short":"lax-3","host":"lax-1.us.uncletopia.com","port":27035,"enabled":true,"region":"us-west","cc":"us","latitude":33.94279,"longitude":-118.41004,"reserved":0,"last_update":"0001-01-01T00:00:00Z","name_a2s":"Uncletopia | Los Angeles | 3 | All Maps","protocol":17,"map":"koth_cascade","folder":"tf","game":"Team Fortress","app_id":440,"player_count":0,"max_players":24,"Bots":0,"server_type":"Dedicated","server_os":"Linux","password":true,"vac":true,"version":"7757534","steam_id":85568392924510198,"keywords":["cp","nocrits","nodmgspread","uncletopia"],"game_id":440,"stv_port":27036,"stv_name":"Uncletopia | Los Angeles | 3 | All Maps | STV","players":null},{"server_id":25,"name":"Uncletopia | Los Angeles | 4 | Stopwatch Beta","name_short":"lax-4","host":"lax-1.us.uncletopia.com","port":27045,"enabled":true,"region":"us-west","cc":"us","latitude":33.94279,"longitude":-118.41004,"reserved":0,"last_update":"0001-01-01T00:00:00Z","name_a2s":"Uncletopia | Los Angeles | 4 | Stopwatch Beta","protocol":17,"map":"workshop/koth_clearcut_b15.ugc2107050255","folder":"tf","game":"Team Fortress","app_id":440,"player_count":0,"max_players":24,"Bots":0,"server_type":"Dedicated","server_os":"Linux","password":true,"vac":true,"version":"7757534","steam_id":85568392924510199,"keywords":["cp","nocrits","nodmgspread","uncletopia"],"game_id":440,"stv_port":27046,"stv_name":"Uncletopia | Los Angeles | 4 | Stopwatch Beta | STV","players":null},{"server_id":11,"name":"Uncletopia | London | 1 | All Maps","name_short":"lon-1","host":"lon-1.uk.uncletopia.com","port":27015,"enabled":true,"region":"eu","cc":"gb","latitude":51.509865,"longitude":-0.118092,"reserved":0,"last_update":"0001-01-01T00:00:00Z","name_a2s":"Uncletopia | London | 1 | All Maps","protocol":17,"map":"pl_borneo","folder":"tf","game":"Team Fortress","app_id":440,"player_count":2,"max_players":24,"Bots":0,"server_type":"Dedicated","server_os":"Linux","password":true,"vac":true,"version":"7757534","steam_id":85568392924367362,"keywords":["nocrits","nodmgspread","payload","uncletopia"],"game_id":440,"stv_port":27016,"stv_name":"Uncletopia | London | 1 | All Maps | STV","players":[{"user_id":4,"name":"InsectKing","steam_id":76561199013519071,"connected_time":447000000000,"state":"active","ping":32},{"user_id":7,"name":"Fat Pigeon","steam_id":76561198817940142,"connected_time":209000000000,"state":"active","ping":46}]},{"server_id":114,"name":"Uncletopia | London | 2 | All Maps","name_short":"lon-2","host":"lon-1.uk.uncletopia.com","port":27025,"enabled":true,"region":"eu","cc":"gb","latitude":51.509865,"longitude":-0.118092,"reserved":0,"last_update":"0001-01-01T00:00:00Z","name_a2s":"Uncletopia | London | 2 | All Maps","protocol":17,"map":"pl_pier","folder":"tf","game":"Team Fortress","app_id":440,"player_count":0,"max_players":24,"Bots":0,"server_type":"Dedicated","server_os":"Linux","password":true,"vac":true,"version":"7757534","steam_id":85568392924470941,"keywords":["nocrits","nodmgspread","payload","uncletopia"],"game_id":440,"stv_port":27026,"stv_name":"Uncletopia | London | 2 | All Maps | STV","players":null},{"server_id":320,"name":"Uncletopia | London | 3 | All Maps","name_short":"lon-3","host":"lon-1.uk.uncletopia.com","port":27035,"enabled":true,"region":"eu","cc":"gb","latitude":51.509865,"longitude":-0.118092,"reserved":0,"last_update":"0001-01-01T00:00:00Z","name_a2s":"Uncletopia | London | 3 | All Maps","protocol":17,"map":"koth_cascade","folder":"tf","game":"Team Fortress","app_id":440,"player_count":0,"max_players":24,"Bots":0,"server_type":"Dedicated","server_os":"Linux","password":true,"vac":true,"version":"7757534","steam_id":85568392924510192,"keywords":["cp","nocrits","nodmgspread","uncletopia"],"game_id":440,"stv_port":27036,"stv_name":"Uncletopia | London | 3 | All Maps | STV","players":null},{"server_id":321,"name":"Uncletopia | London | 4 | All Maps","name_short":"lon-4","host":"lon-1.uk.uncletopia.com","port":27045,"enabled":true,"region":"eu","cc":"gb","latitude":51.509865,"longitude":-0.118092,"reserved":0,"last_update":"0001-01-01T00:00:00Z","name_a2s":"Uncletopia | London | 4 | All Maps","protocol":17,"map":"pl_barnblitz","folder":"tf","game":"Team Fortress","app_id":440,"player_count":0,"max_players":24,"Bots":0,"server_type":"Dedicated","server_os":"Linux","password":true,"vac":true,"version":"7757534","steam_id":85568392924510193,"keywords":["nocrits","nodmgspread","payload","uncletopia"],"game_id":440,"stv_port":27046,"stv_name":"Uncletopia | London | 4 | All Maps | STV","players":null},{"server_id":21,"name":"Uncletopia | London | 5 | All Maps","name_short":"lon-5","host":"lon-1.uk.uncletopia.com","port":27055,"enabled":true,"region":"eu","cc":"gb","latitude":51.509865,"longitude":-0.118092,"reserved":0,"last_update":"0001-01-01T00:00:00Z","name_a2s":"Uncletopia | London | 5 | All Maps","protocol":17,"map":"pl_pier","folder":"tf","game":"Team Fortress","app_id":440,"player_count":0,"max_players":24,"Bots":0,"server_type":"Dedicated","server_os":"Linux","password":true,"vac":true,"version":"7757534","steam_id":85568392924742829,"keywords":["nocrits","nodmgspread","payload","uncletopia"],"game_id":440,"stv_port":27056,"stv_name":"Uncletopia | London | 5 | All Maps | STV","players":null},{"server_id":22,"name":"Uncletopia | London | 6 | All Maps","name_short":"lon-6","host":"lon-1.uk.uncletopia.com","port":27065,"enabled":true,"region":"eu","cc":"gb","latitude":51.509865,"longitude":-0.118092,"reserved":0,"last_update":"0001-01-01T00:00:00Z","name_a2s":"Uncletopia | London | 6 | All Maps","protocol":17,"map":"koth_highpass","folder":"tf","game":"Team Fortress","app_id":440,"player_count":0,"max_players":24,"Bots":0,"server_type":"Dedicated","server_os":"Linux","password":true,"vac":true,"version":"7757534","steam_id":85568392924742830,"keywords":["cp","nocrits","nodmgspread","uncletopia"],"game_id":440,"stv_port":27066,"stv_name":"Uncletopia | London | 6 | All Maps | STV","players":null},{"server_id":40,"name":"Uncletopia | London | 7 | No Payload","name_short":"lon-7","host":"lon-1.uk.uncletopia.com","port":27075,"enabled":true,"region":"eu","cc":"gb","latitude":51.509865,"longitude":-0.118092,"reserved":0,"last_update":"0001-01-01T00:00:00Z","name_a2s":"Uncletopia | London | 7 | No Payload","protocol":17,"map":"koth_highpass","folder":"tf","game":"Team Fortress","app_id":440,"player_count":0,"max_players":24,"Bots":0,"server_type":"Dedicated","server_os":"Linux","password":true,"vac":true,"version":"7757534","steam_id":85568392924964314,"keywords":["cp","nocrits","nodmgspread","uncletopia"],"game_id":440,"stv_port":27076,"stv_name":"Uncletopia | London | 7 | No Payload | STV","players":null},{"server_id":41,"name":"Uncletopia | London | 8 | Community","name_short":"lon-8","host":"lon-1.uk.uncletopia.com","port":27085,"enabled":true,"region":"eu","cc":"gb","latitude":51.509865,"longitude":-0.118092,"reserved":0,"last_update":"0001-01-01T00:00:00Z","name_a2s":"Uncletopia | London | 8 | Community","protocol":17,"map":"cp_altitude","folder":"tf","game":"Team Fortress","app_id":440,"player_count":0,"max_players":24,"Bots":0,"server_type":"Dedicated","server_os":"Linux","password":true,"vac":true,"version":"7757534","steam_id":85568392924964315,"keywords":["cp","nocrits","nodmgspread","uncletopia"],"game_id":440,"stv_port":27086,"stv_name":"Uncletopia | London | 8 | Community | STV","players":null},{"server_id":300,"name":"Uncletopia | Montréal | 1 | All Maps","name_short":"mtl-1","host":"mtl-1.ca.uncletopia.com","port":27015,"enabled":true,"region":"us-east","cc":"ca","latitude":45.50889,"longitude":-73.56167,"reserved":0,"last_update":"0001-01-01T00:00:00Z","name_a2s":"Uncletopia | Montréal | 1 | All Maps","protocol":17,"map":"koth_highpass","folder":"tf","game":"Team Fortress","app_id":440,"player_count":0,"max_players":24,"Bots":0,"server_type":"Dedicated","server_os":"Linux","password":true,"vac":true,"version":"7757534","steam_id":85568392924500087,"keywords":["cp","nocrits","nodmgspread","uncletopia"],"game_id":440,"stv_port":27016,"stv_name":"Uncletopia | Montréal | 1 | All Maps | STV","players":null},{"server_id":301,"name":"Uncletopia | Montréal | 2 | All Maps","name_short":"mtl-2","host":"mtl-1.ca.uncletopia.com","port":27025,"enabled":true,"region":"us-east","cc":"ca","latitude":45.50889,"longitude":-73.56167,"reserved":0,"last_update":"0001-01-01T00:00:00Z","name_a2s":"Uncletopia | Montréal | 2 | All Maps","protocol":17,"map":"pl_borneo","folder":"tf","game":"Team Fortress","app_id":440,"player_count":0,"max_players":24,"Bots":0,"server_type":"Dedicated","server_os":"Linux","password":true,"vac":true,"version":"7757534","steam_id":85568392924500088,"keywords":["nocrits","nodmgspread","payload","uncletopia"],"game_id":440,"stv_port":27026,"stv_name":"Uncletopia | Montréal | 2 | All Maps | STV","players":null},{"server_id":302,"name":"Uncletopia | Montréal | 3 | All Maps","name_short":"mtl-3","host":"mtl-1.ca.uncletopia.com","port":27035,"enabled":true,"region":"us-east","cc":"ca","latitude":45.50889,"longitude":-73.56167,"reserved":0,"last_update":"0001-01-01T00:00:00Z","name_a2s":"Uncletopia | Montréal | 3 | All Maps","protocol":17,"map":"pl_badwater","folder":"tf","game":"Team Fortress","app_id":440,"player_count":0,"max_players":24,"Bots":0,"server_type":"Dedicated","server_os":"Linux","password":true,"vac":true,"version":"7757534","steam_id":85568392924500089,"keywords":["nocrits","nodmgspread","payload","uncletopia"],"game_id":440,"stv_port":27036,"stv_name":"Uncletopia | Montréal | 3 | All Maps | STV","players":null},{"server_id":303,"name":"Uncletopia | Montréal | 4 | No Payload","name_short":"mtl-4","host":"mtl-1.ca.uncletopia.com","port":27045,"enabled":true,"region":"us-east","cc":"ca","latitude":45.50889,"longitude":-73.56167,"reserved":0,"last_update":"0001-01-01T00:00:00Z","name_a2s":"Uncletopia | Montréal | 4 | No Payload","protocol":17,"map":"pl_pier","folder":"tf","game":"Team Fortress","app_id":440,"player_count":0,"max_players":24,"Bots":0,"server_type":"Dedicated","server_os":"Linux","password":true,"vac":true,"version":"7757534","steam_id":85568392924500090,"keywords":["nocrits","nodmgspread","payload","uncletopia"],"game_id":440,"stv_port":27046,"stv_name":"Uncletopia | Montréal | 4 | No Payload | STV","players":null},{"server_id":13,"name":"Uncletopia | New York City | 1 | All Maps","name_short":"nyc-1","host":"nyc-1.us.uncletopia.com","port":27015,"enabled":true,"region":"us-east","cc":"us","latitude":40.73061,"longitude":-73.93524,"reserved":0,"last_update":"0001-01-01T00:00:00Z","name_a2s":"Uncletopia | New York City | 1 | All Maps","protocol":17,"map":"pl_barnblitz","folder":"tf","game":"Team Fortress","app_id":440,"player_count":0,"max_players":24,"Bots":0,"server_type":"Dedicated","server_os":"Linux","password":true,"vac":true,"version":"7757534","steam_id":85568392924469993,"keywords":["nocrits","nodmgspread","payload","uncletopia"],"game_id":440,"stv_port":27016,"stv_name":"Uncletopia | New York City | 1 | All Maps | STV","players":null},{"server_id":14,"name":"Uncletopia | New York City | 2 | All Maps","name_short":"nyc-2","host":"nyc-1.us.uncletopia.com","port":27025,"enabled":true,"region":"us-east","cc":"us","latitude":40.73061,"longitude":-73.93524,"reserved":0,"last_update":"0001-01-01T00:00:00Z","name_a2s":"Uncletopia | New York City | 2 | All Maps","protocol":17,"map":"koth_cascade","folder":"tf","game":"Team Fortress","app_id":440,"player_count":0,"max_players":24,"Bots":0,"server_type":"Dedicated","server_os":"Linux","password":true,"vac":true,"version":"7757534","steam_id":85568392924469994,"keywords":["cp","nocrits","nodmgspread","uncletopia"],"game_id":440,"stv_port":27026,"stv_name":"Uncletopia | New York City | 2 | All Maps | STV","players":null},{"server_id":15,"name":"Uncletopia | New York City | 3 | Stopwatch Beta","name_short":"nyc-3","host":"nyc-1.us.uncletopia.com","port":27035,"enabled":true,"region":"us-east","cc":"us","latitude":40.73061,"longitude":-73.93524,"reserved":0,"last_update":"0001-01-01T00:00:00Z","name_a2s":"Uncletopia | New York City | 3 | Stopwatch Beta","protocol":17,"map":"pl_swiftwater_final1","folder":"tf","game":"Team Fortress","app_id":440,"player_count":0,"max_players":24,"Bots":0,"server_type":"Dedicated","server_os":"Linux","password":true,"vac":true,"version":"7757534","steam_id":85568392924742820,"keywords":["nocrits","nodmgspread","payload","uncletopia"],"game_id":440,"stv_port":27036,"stv_name":"Uncletopia | New York City | 3 | Stopwatch Beta | STV","players":null},{"server_id":16,"name":"Uncletopia | New York City | 4 | Community","name_short":"nyc-4","host":"nyc-1.us.uncletopia.com","port":27045,"enabled":true,"region":"us-east","cc":"us","latitude":40.73061,"longitude":-73.93524,"reserved":0,"last_update":"0001-01-01T00:00:00Z","name_a2s":"Uncletopia | New York City | 4 | Community","protocol":17,"map":"workshop/koth_slaughter_rc1.ugc1712845210","folder":"tf","game":"Team Fortress","app_id":440,"player_count":0,"max_players":24,"Bots":0,"server_type":"Dedicated","server_os":"Linux","password":true,"vac":true,"version":"7757534","steam_id":85568392924742821,"keywords":["cp","nocrits","nodmgspread","uncletopia"],"game_id":440,"stv_port":27046,"stv_name":"Uncletopia | New York City | 4 | Community | STV","players":null},{"server_id":142,"name":"Uncletopia | São Paulo | 1 | All Maps","name_short":"sao-1","host":"sao-1.br.uncletopia.com","port":27015,"enabled":true,"region":"sa","cc":"br","latitude":-23.533773,"longitude":-46.62529,"reserved":0,"last_update":"0001-01-01T00:00:00Z","name_a2s":"Uncletopia | São Paulo | 1 | All Maps","protocol":17,"map":"cp_altitude","folder":"tf","game":"Team Fortress","app_id":440,"player_count":0,"max_players":24,"Bots":0,"server_type":"Dedicated","server_os":"Linux","password":true,"vac":true,"version":"7757534","steam_id":85568392924469996,"keywords":["cp","nocrits","nodmgspread","uncletopia"],"game_id":440,"stv_port":27016,"stv_name":"Uncletopia | São Paulo | 1 | All Maps | STV","players":null},{"server_id":143,"name":"Uncletopia | São Paulo | 2 | All Maps","name_short":"sao-2","host":"sao-2.br.uncletopia.com","port":27015,"enabled":true,"region":"sa","cc":"br","latitude":-23.533773,"longitude":-46.62529,"reserved":0,"last_update":"0001-01-01T00:00:00Z","name_a2s":"Uncletopia | São Paulo | 2 | All Maps","protocol":17,"map":"koth_viaduct","folder":"tf","game":"Team Fortress","app_id":440,"player_count":0,"max_players":24,"Bots":0,"server_type":"Dedicated","server_os":"Linux","password":true,"vac":true,"version":"7757534","steam_id":85568392924485349,"keywords":["cp","nocrits","nodmgspread","uncletopia"],"game_id":440,"stv_port":27016,"stv_name":"Uncletopia | São Paulo | 2 | All Maps | STV","players":null},{"server_id":7,"name":"Uncletopia | Seattle | 1 | All Maps","name_short":"sea-1","host":"sea-1.us.uncletopia.com","port":27015,"enabled":true,"region":"us-west","cc":"us","latitude":47.608013,"longitude":-122.33517,"reserved":0,"last_update":"0001-01-01T00:00:00Z","name_a2s":"Uncletopia | Seattle | 1 | All Maps","protocol":17,"map":"plr_hightower","folder":"tf","game":"Team Fortress","app_id":440,"player_count":18,"max_players":24,"Bots":0,"server_type":"Dedicated","server_os":"Linux","password":true,"vac":true,"version":"7757534","steam_id":85568392924469997,"keywords":["nocrits","nodmgspread","payload","uncletopia"],"game_id":440,"stv_port":27016,"stv_name":"Uncletopia | Seattle | 1 | All Maps | STV","players":[{"user_id":722,"name":"Level 99 Mudcrab","steam_id":76561198077452771,"connected_time":20702000000000,"state":"active","ping":50},{"user_id":951,"name":"Bing Soy","steam_id":76561199091381775,"connected_time":1052000000000,"state":"active","ping":105},{"user_id":952,"name":"SilentninjaTheUndefenestratable","steam_id":76561198387601885,"connected_time":926000000000,"state":"active","ping":83},{"user_id":947,"name":"[TrC] Dackstrus","steam_id":76561197973518509,"connected_time":1858000000000,"state":"active","ping":53},{"user_id":953,"name":"deta \"o_O_o_O_o_O_o_O\" zeta","steam_id":76561198143209841,"connected_time":719000000000,"state":"active","ping":56},{"user_id":949,"name":"aa","steam_id":76561198827093202,"connected_time":1415000000000,"state":"active","ping":191},{"user_id":931,"name":"Gaz01in3","steam_id":76561199106896166,"connected_time":3323000000000,"state":"active","ping":67},{"user_id":956,"name":"SkyLark","steam_id":76561198303618132,"connected_time":358000000000,"state":"active","ping":58},{"user_id":957,"name":"Rudy","steam_id":76561198089227368,"connected_time":357000000000,"state":"active","ping":179},{"user_id":936,"name":"eye see you","steam_id":76561198115242460,"connected_time":3126000000000,"state":"active","ping":46},{"user_id":959,"name":"PeptoBismol","steam_id":76561198082669076,"connected_time":250000000000,"state":"active","ping":85},{"user_id":960,"name":"Zorlovo","steam_id":76561198006443283,"connected_time":232000000000,"state":"active","ping":89},{"user_id":961,"name":"ShibikuZaMimikyu [Music]","steam_id":76561197995852042,"connected_time":181000000000,"state":"active","ping":45},{"user_id":916,"name":"PerKnuckleChuckle","steam_id":76561198023221596,"connected_time":4033000000000,"state":"active","ping":85},{"user_id":962,"name":"ʀ.ꕤ｡.","steam_id":76561198029580420,"connected_time":155000000000,"state":"active","ping":167},{"user_id":927,"name":"snippier doogle","steam_id":76561198206922028,"connected_time":3420000000000,"state":"active","ping":75},{"user_id":929,"name":"the pizza","steam_id":76561198221331476,"connected_time":3415000000000,"state":"active","ping":57},{"user_id":942,"name":"Luv","steam_id":76561199200757524,"connected_time":2475000000000,"state":"active","ping":77}]},{"server_id":119,"name":"Uncletopia | Seattle | 2 | All Maps","name_short":"sea-2","host":"sea-1.us.uncletopia.com","port":27025,"enabled":true,"region":"us-west","cc":"us","latitude":47.608013,"longitude":-122.33517,"reserved":0,"last_update":"0001-01-01T00:00:00Z","name_a2s":"Uncletopia | Seattle | 2 | All Maps","protocol":17,"map":"cp_snakewater_final1","folder":"tf","game":"Team Fortress","app_id":440,"player_count":22,"max_players":24,"Bots":0,"server_type":"Dedicated","server_os":"Linux","password":true,"vac":true,"version":"7757534","steam_id":85568392924469998,"keywords":["cp","nocrits","nodmgspread","uncletopia"],"game_id":440,"stv_port":27026,"stv_name":"Uncletopia | Seattle | 2 | All Maps | STV","players":[{"user_id":800,"name":"Cob","steam_id":76561198042518365,"connected_time":3022000000000,"state":"active","ping":61},{"user_id":830,"name":"The Professor","steam_id":76561198113760863,"connected_time":419000000000,"state":"active","ping":112},{"user_id":831,"name":"Quiznos","steam_id":76561198202235136,"connected_time":408000000000,"state":"active","ping":85},{"user_id":832,"name":"Arrythmia","steam_id":76561198093748123,"connected_time":306000000000,"state":"active","ping":54},{"user_id":829,"name":"Antimony","steam_id":76561198013078239,"connected_time":442000000000,"state":"active","ping":58},{"user_id":822,"name":"Dauntless Duelist","steam_id":76561198025056018,"connected_time":1246000000000,"state":"active","ping":47},{"user_id":818,"name":"Spy achungus","steam_id":76561198135651070,"connected_time":1557000000000,"state":"active","ping":130},{"user_id":823,"name":"sTAPler","steam_id":76561198394008714,"connected_time":1168000000000,"state":"active","ping":94},{"user_id":816,"name":"✿ PoutyBun ✿","steam_id":76561197965762847,"connected_time":1733000000000,"state":"active","ping":41},{"user_id":798,"name":"QueenPinharam","steam_id":76561199015626409,"connected_time":3133000000000,"state":"active","ping":113},{"user_id":778,"name":"Goob","steam_id":76561198256918638,"connected_time":4240000000000,"state":"active","ping":67},{"user_id":833,"name":"Vespen","steam_id":76561198259984019,"connected_time":301000000000,"state":"active","ping":69},{"user_id":813,"name":"money getter","steam_id":76561199065645094,"connected_time":2150000000000,"state":"active","ping":85},{"user_id":780,"name":"Syrup","steam_id":76561198335677073,"connected_time":4234000000000,"state":"active","ping":73},{"user_id":784,"name":"milwr","steam_id":76561198243695590,"connected_time":3960000000000,"state":"active","ping":46},{"user_id":824,"name":"Cash","steam_id":76561198066362201,"connected_time":1057000000000,"state":"active","ping":90},{"user_id":768,"name":"Orion","steam_id":76561198415125637,"connected_time":4736000000000,"state":"active","ping":124},{"user_id":835,"name":"diamondmaid","steam_id":76561198126925269,"connected_time":281000000000,"state":"active","ping":77},{"user_id":820,"name":"Xerkz","steam_id":76561198063335500,"connected_time":1519000000000,"state":"active","ping":67},{"user_id":827,"name":"Jimmy Gibbs Jr.","steam_id":76561198174633790,"connected_time":823000000000,"state":"active","ping":96},{"user_id":828,"name":"enchilada9","steam_id":76561198043696755,"connected_time":641000000000,"state":"active","ping":72},{"user_id":836,"name":"Junkyard Kitty","steam_id":76561198034712323,"connected_time":251000000000,"state":"active","ping":80}]},{"server_id":406,"name":"Uncletopia | Seattle | 3 | Stopwatch Beta","name_short":"sea-3","host":"sea-1.us.uncletopia.com","port":27035,"enabled":true,"region":"us-west","cc":"us","latitude":47.608013,"longitude":-122.33517,"reserved":0,"last_update":"0001-01-01T00:00:00Z","name_a2s":"Uncletopia | Seattle | 3 | Stopwatch Beta","protocol":17,"map":"workshop/koth_ramjam_rc1.ugc459778887","folder":"tf","game":"Team Fortress","app_id":440,"player_count":0,"max_players":24,"Bots":0,"server_type":"Dedicated","server_os":"Linux","password":true,"vac":true,"version":"7757534","steam_id":85568392924515217,"keywords":["cp","nocrits","nodmgspread","uncletopia"],"game_id":440,"stv_port":27036,"stv_name":"Uncletopia | Seattle | 3 | Stopwatch Beta | STV","players":null},{"server_id":17,"name":"Uncletopia | San Francisco | 1 | All Maps","name_short":"sfo-1","host":"sfo-1.us.uncletopia.com","port":27015,"enabled":true,"region":"us-west","cc":"us","latitude":37.77397,"longitude":-122.4313,"reserved":0,"last_update":"0001-01-01T00:00:00Z","name_a2s":"Uncletopia | San Francisco | 1 | All Maps","protocol":17,"map":"cp_sunshine","folder":"tf","game":"Team Fortress","app_id":440,"player_count":0,"max_players":24,"Bots":0,"server_type":"Dedicated","server_os":"Linux","password":true,"vac":true,"version":"7757534","steam_id":85568392924469999,"keywords":["cp","nocrits","nodmgspread","uncletopia"],"game_id":440,"stv_port":27016,"stv_name":"Uncletopia | San Francisco | 1 | All Maps | STV","players":null},{"server_id":18,"name":"Uncletopia | San Francisco | 2 | All Maps","name_short":"sfo-2","host":"sfo-1.us.uncletopia.com","port":27025,"enabled":true,"region":"us-west","cc":"us","latitude":37.77397,"longitude":-122.4313,"reserved":0,"last_update":"0001-01-01T00:00:00Z","name_a2s":"Uncletopia | San Francisco | 2 | All Maps","protocol":17,"map":"pl_snowycoast","folder":"tf","game":"Team Fortress","app_id":440,"player_count":0,"max_players":24,"Bots":0,"server_type":"Dedicated","server_os":"Linux","password":true,"vac":true,"version":"7757534","steam_id":85568392924470000,"keywords":["nocrits","nodmgspread","payload","uncletopia"],"game_id":440,"stv_port":27026,"stv_name":"Uncletopia | San Francisco | 2 | All Maps | STV","players":null},{"server_id":19,"name":"Uncletopia | San Francisco | 3 | Stopwatch Beta","name_short":"sfo-3","host":"sfo-1.us.uncletopia.com","port":27035,"enabled":true,"region":"us-west","cc":"us","latitude":37.77397,"longitude":-122.4313,"reserved":0,"last_update":"0001-01-01T00:00:00Z","name_a2s":"Uncletopia | San Francisco | 3 | Stopwatch Beta","protocol":17,"map":"cp_sunshine","folder":"tf","game":"Team Fortress","app_id":440,"player_count":0,"max_players":24,"Bots":0,"server_type":"Dedicated","server_os":"Linux","password":true,"vac":true,"version":"7757534","steam_id":85568392924742824,"keywords":["cp","nocrits","nodmgspread","uncletopia"],"game_id":440,"stv_port":27036,"stv_name":"Uncletopia | San Francisco | 3 | Stopwatch Beta | STV","players":null},{"server_id":20,"name":"Uncletopia | San Francisco | 4 | Community","name_short":"sfo-4","host":"sfo-1.us.uncletopia.com","port":27045,"enabled":true,"region":"us-west","cc":"us","latitude":37.77397,"longitude":-122.4313,"reserved":0,"last_update":"0001-01-01T00:00:00Z","name_a2s":"Uncletopia | San Francisco | 4 | Community","protocol":17,"map":"workshop/cp_snowbase_b18.ugc2081770490","folder":"tf","game":"Team Fortress","app_id":440,"player_count":0,"max_players":24,"Bots":0,"server_type":"Dedicated","server_os":"Linux","password":true,"vac":true,"version":"7757534","steam_id":85568392924742826,"keywords":["cp","nocrits","nodmgspread","uncletopia"],"game_id":440,"stv_port":27046,"stv_name":"Uncletopia | San Francisco | 4 | Community | STV","players":null},{"server_id":141,"name":"Uncletopia | Sydney | 1 | All Maps","name_short":"syd-1","host":"syd-1.au.uncletopia.com","port":27015,"enabled":true,"region":"au","cc":"au","latitude":-33.865143,"longitude":151.2099,"reserved":0,"last_update":"0001-01-01T00:00:00Z","name_a2s":"Uncletopia | Sydney | 1 | All Maps","protocol":17,"map":"koth_harvest_final","folder":"tf","game":"Team Fortress","app_id":440,"player_count":23,"max_players":24,"Bots":0,"server_type":"Dedicated","server_os":"Linux","password":true,"vac":true,"version":"7757534","steam_id":85568392924470001,"keywords":["cp","nocrits","nodmgspread","uncletopia"],"game_id":440,"stv_port":27016,"stv_name":"Uncletopia | Sydney | 1 | All Maps | STV","players":[{"user_id":578,"name":"seiran","steam_id":76561198880907232,"connected_time":1615000000000,"state":"active","ping":99},{"user_id":549,"name":"skinny loser man","steam_id":76561198094041769,"connected_time":4660000000000,"state":"active","ping":45},{"user_id":567,"name":"Charm","steam_id":76561198028891054,"connected_time":2757000000000,"state":"active","ping":60},{"user_id":497,"name":"abcdef","steam_id":76561198083700749,"connected_time":8541000000000,"state":"active","ping":54},{"user_id":600,"name":"Van","steam_id":76561198027324852,"connected_time":154000000000,"state":"active","ping":76},{"user_id":522,"name":"Mac","steam_id":76561198063407128,"connected_time":6588000000000,"state":"active","ping":50},{"user_id":550,"name":"-Blackout337-","steam_id":76561198043519112,"connected_time":4438000000000,"state":"active","ping":113},{"user_id":540,"name":"Glockenspe (She/Her)","steam_id":76561199184115241,"connected_time":5404000000000,"state":"active","ping":50},{"user_id":597,"name":"cLoWn bOy Gaming","steam_id":76561198075767357,"connected_time":324000000000,"state":"active","ping":68},{"user_id":589,"name":"Moist","steam_id":76561198110566656,"connected_time":1078000000000,"state":"active","ping":51},{"user_id":575,"name":"Oysenberry","steam_id":76561198125443335,"connected_time":1798000000000,"state":"active","ping":44},{"user_id":593,"name":"Phlog enthusiast","steam_id":76561198344085093,"connected_time":596000000000,"state":"active","ping":108},{"user_id":562,"name":"Captain Canadia","steam_id":76561198167967735,"connected_time":3190000000000,"state":"active","ping":50},{"user_id":579,"name":"the normoaner","steam_id":76561198082423230,"connected_time":1608000000000,"state":"active","ping":79},{"user_id":594,"name":"Father Flaraty","steam_id":76561198965577791,"connected_time":351000000000,"state":"active","ping":117},{"user_id":561,"name":"jim :)","steam_id":76561198127508905,"connected_time":3237000000000,"state":"active","ping":43},{"user_id":598,"name":"jo mama asshol","steam_id":76561198802915059,"connected_time":315000000000,"state":"active","ping":99},{"user_id":516,"name":"Flaveus","steam_id":76561197996567542,"connected_time":7279000000000,"state":"active","ping":62},{"user_id":584,"name":"Jimmy Wong","steam_id":76561198152485272,"connected_time":1532000000000,"state":"active","ping":48},{"user_id":585,"name":"Mayor Ballsworth","steam_id":76561199174593635,"connected_time":1527000000000,"state":"active","ping":78},{"user_id":586,"name":"Jamie2Cool","steam_id":76561198155695809,"connected_time":1457000000000,"state":"active","ping":90},{"user_id":588,"name":"lemur","steam_id":76561198278239170,"connected_time":1317000000000,"state":"active","ping":86},{"user_id":595,"name":"Pile of Sneed","steam_id":76561198143537391,"connected_time":351000000000,"state":"active","ping":61}]},{"server_id":123,"name":"Uncletopia | Sydney | 2 | All Maps","name_short":"syd-2","host":"syd-1.au.uncletopia.com","port":27025,"enabled":true,"region":"au","cc":"au","latitude":-33.865143,"longitude":151.2099,"reserved":0,"last_update":"0001-01-01T00:00:00Z","name_a2s":"Uncletopia | Sydney | 2 | All Maps","protocol":17,"map":"koth_lakeside_final","folder":"tf","game":"Team Fortress","app_id":440,"player_count":3,"max_players":24,"Bots":0,"server_type":"Dedicated","server_os":"Linux","password":true,"vac":true,"version":"7757534","steam_id":85568392924470002,"keywords":["cp","nocrits","nodmgspread","uncletopia"],"game_id":440,"stv_port":27026,"stv_name":"Uncletopia | Sydney | 2 | All Maps | STV","players":[{"user_id":33,"name":"The Feared","steam_id":76561198380825547,"connected_time":354000000000,"state":"active","ping":85},{"user_id":34,"name":"beans (real)","steam_id":76561198085708153,"connected_time":348000000000,"state":"active","ping":85},{"user_id":35,"name":"Patadam","steam_id":76561198143786902,"connected_time":301000000000,"state":"active","ping":82}]},{"server_id":395,"name":"Uncletopia | Sydney | 3 | All Maps","name_short":"syd-3","host":"syd-1.au.uncletopia.com","port":27035,"enabled":true,"region":"au","cc":"au","latitude":-33.865143,"longitude":151.2099,"reserved":0,"last_update":"0001-01-01T00:00:00Z","name_a2s":"Uncletopia | Sydney | 3 | All Maps","protocol":17,"map":"pl_barnblitz","folder":"tf","game":"Team Fortress","app_id":440,"player_count":24,"max_players":24,"Bots":0,"server_type":"Dedicated","server_os":"Linux","password":true,"vac":true,"version":"7757534","steam_id":85568392925194467,"keywords":["nocrits","nodmgspread","payload","uncletopia"],"game_id":440,"stv_port":27036,"stv_name":"Uncletopia | Sydney | 3 | All Maps | STV","players":[{"user_id":106,"name":"number 1 priority","steam_id":76561199293904159,"connected_time":1252000000000,"state":"active","ping":66},{"user_id":99,"name":"Smae ⎊ ⎊","steam_id":76561198161497327,"connected_time":1662000000000,"state":"active","ping":62},{"user_id":101,"name":"voxii","steam_id":76561198099698281,"connected_time":1525000000000,"state":"active","ping":68},{"user_id":80,"name":"father of the year","steam_id":76561198032459203,"connected_time":2942000000000,"state":"active","ping":58},{"user_id":102,"name":"DKC","steam_id":76561198313578155,"connected_time":1490000000000,"state":"active","ping":44},{"user_id":117,"name":"Fuzzy","steam_id":76561198081319798,"connected_time":439000000000,"state":"active","ping":60},{"user_id":111,"name":"Frog Friend","steam_id":76561198054505772,"connected_time":1027000000000,"state":"active","ping":58},{"user_id":56,"name":"hive","steam_id":76561199099744527,"connected_time":3936000000000,"state":"active","ping":53},{"user_id":113,"name":"KnowZero","steam_id":76561198095752015,"connected_time":921000000000,"state":"active","ping":55},{"user_id":90,"name":"McCrab","steam_id":76561199088821963,"connected_time":2250000000000,"state":"active","ping":64},{"user_id":73,"name":"beanpope","steam_id":76561199005815714,"connected_time":3156000000000,"state":"active","ping":54},{"user_id":110,"name":"Wampy","steam_id":76561199211235248,"connected_time":1080000000000,"state":"active","ping":57},{"user_id":116,"name":"FIX","steam_id":76561197995157189,"connected_time":458000000000,"state":"active","ping":50},{"user_id":92,"name":"Bill Nye","steam_id":76561198312898168,"connected_time":2168000000000,"state":"active","ping":58},{"user_id":93,"name":"Lvel","steam_id":76561198867264589,"connected_time":2118000000000,"state":"active","ping":52},{"user_id":64,"name":"♥ Sharpy \u003e v \u003c","steam_id":76561198091613743,"connected_time":3660000000000,"state":"active","ping":95},{"user_id":82,"name":"Ratbagus","steam_id":76561197993827486,"connected_time":2909000000000,"state":"active","ping":75},{"user_id":74,"name":"MikkyD","steam_id":76561198043452962,"connected_time":3112000000000,"state":"active","ping":70},{"user_id":112,"name":"bunji","steam_id":76561198073046687,"connected_time":952000000000,"state":"active","ping":59},{"user_id":84,"name":"Nylk","steam_id":76561198033625169,"connected_time":2822000000000,"state":"active","ping":40},{"user_id":107,"name":"piratespy22","steam_id":76561198042198744,"connected_time":1250000000000,"state":"active","ping":49},{"user_id":108,"name":"Big Dingus Gayming","steam_id":76561198057682041,"connected_time":1244000000000,"state":"active","ping":69},{"user_id":97,"name":"Cafe","steam_id":76561198061587693,"connected_time":1955000000000,"state":"active","ping":99},{"user_id":114,"name":"Dr. Hoppity","steam_id":76561197999715646,"connected_time":718000000000,"state":"active","ping":56}]},{"server_id":396,"name":"Uncletopia | Sydney | 4 | All Maps","name_short":"syd-4","host":"syd-1.au.uncletopia.com","port":27045,"enabled":true,"region":"au","cc":"au","latitude":-33.865143,"longitude":151.2099,"reserved":0,"last_update":"0001-01-01T00:00:00Z","name_a2s":"Uncletopia | Sydney | 4 | All Maps","protocol":17,"map":"koth_viaduct","folder":"tf","game":"Team Fortress","app_id":440,"player_count":0,"max_players":24,"Bots":0,"server_type":"Dedicated","server_os":"Linux","password":true,"vac":true,"version":"7757534","steam_id":85568392925397958,"keywords":["cp","nocrits","nodmgspread","uncletopia"],"game_id":440,"stv_port":27046,"stv_name":"Uncletopia | Sydney | 4 | All Maps | STV","players":null},{"server_id":58,"name":"Uncletopia | Sydney | 5 | Stopwatch Beta","name_short":"syd-5","host":"syd-1.au.uncletopia.com","port":27055,"enabled":true,"region":"au","cc":"au","latitude":-33.865143,"longitude":151.2099,"reserved":0,"last_update":"0001-01-01T00:00:00Z","name_a2s":"Uncletopia | Sydney | 5 | Stopwatch Beta","protocol":17,"map":"koth_cascade","folder":"tf","game":"Team Fortress","app_id":440,"player_count":0,"max_players":24,"Bots":0,"server_type":"Dedicated","server_os":"Linux","password":true,"vac":true,"version":"7757534","steam_id":85568392925397959,"keywords":["cp","nocrits","nodmgspread","uncletopia"],"game_id":440,"stv_port":27056,"stv_name":"Uncletopia | Sydney | 5 | Stopwatch Beta | STV","players":null},{"server_id":59,"name":"Uncletopia | Sydney | 6 | Community","name_short":"syd-6","host":"syd-1.au.uncletopia.com","port":27065,"enabled":true,"region":"au","cc":"au","latitude":-33.865143,"longitude":151.2099,"reserved":0,"last_update":"0001-01-01T00:00:00Z","name_a2s":"Uncletopia | Sydney | 6 | Community","protocol":17,"map":"workshop/koth_product_final.ugc454272353","folder":"tf","game":"Team Fortress","app_id":440,"player_count":0,"max_players":24,"Bots":0,"server_type":"Dedicated","server_os":"Linux","password":true,"vac":true,"version":"7757534","steam_id":85568392925397960,"keywords":["cp","nocrits","nodmgspread","uncletopia"],"game_id":440,"stv_port":27066,"stv_name":"Uncletopia | Sydney | 6 | Community | STV","players":null},{"server_id":49,"name":"Uncletopia | Warsaw | 1 | All Maps","name_short":"waw-1","host":"waw-1.pl.uncletopia.com","port":27015,"enabled":true,"region":"eu","cc":"pl","latitude":52.2297,"longitude":21.017532,"reserved":0,"last_update":"0001-01-01T00:00:00Z","name_a2s":"","protocol":0,"map":"","folder":"","game":"","app_id":0,"player_count":0,"max_players":0,"Bots":0,"server_type":"","server_os":"","password":false,"vac":false,"version":"","steam_id":0,"keywords":null,"game_id":0,"stv_port":0,"stv_name":"","players":null},{"server_id":50,"name":"Uncletopia | Warsaw | 2 | All Maps","name_short":"waw-2","host":"waw-1.pl.uncletopia.com","port":27025,"enabled":true,"region":"eu","cc":"pl","latitude":52.2297,"longitude":21.017532,"reserved":0,"last_update":"0001-01-01T00:00:00Z","name_a2s":"Uncletopia | Warsaw | 2 | All Maps","protocol":17,"map":"koth_lakeside_final","folder":"tf","game":"Team Fortress","app_id":440,"player_count":0,"max_players":24,"Bots":0,"server_type":"Dedicated","server_os":"Linux","password":true,"vac":true,"version":"7757534","steam_id":85568392925397851,"keywords":["cp","nocrits","nodmgspread","uncletopia"],"game_id":440,"stv_port":27026,"stv_name":"Uncletopia | Warsaw | 2 | All Maps | STV","players":null},{"server_id":51,"name":"Uncletopia | Warsaw | 3 | All Maps","name_short":"waw-3","host":"waw-1.pl.uncletopia.com","port":27035,"enabled":true,"region":"eu","cc":"pl","latitude":52.2297,"longitude":21.017532,"reserved":0,"last_update":"0001-01-01T00:00:00Z","name_a2s":"Uncletopia | Warsaw | 3 | All Maps","protocol":17,"map":"pl_barnblitz","folder":"tf","game":"Team Fortress","app_id":440,"player_count":0,"max_players":24,"Bots":0,"server_type":"Dedicated","server_os":"Linux","password":true,"vac":true,"version":"7757534","steam_id":85568392925397852,"keywords":["nocrits","nodmgspread","payload","uncletopia"],"game_id":440,"stv_port":27036,"stv_name":"Uncletopia | Warsaw | 3 | All Maps | STV","players":null},{"server_id":52,"name":"Uncletopia | Warsaw | 4 | All Maps","name_short":"waw-4","host":"waw-1.pl.uncletopia.com","port":27045,"enabled":true,"region":"eu","cc":"pl","latitude":52.2297,"longitude":21.017532,"reserved":0,"last_update":"0001-01-01T00:00:00Z","name_a2s":"Uncletopia | Warsaw | 4 | All Maps","protocol":17,"map":"cp_altitude","folder":"tf","game":"Team Fortress","app_id":440,"player_count":0,"max_players":24,"Bots":0,"server_type":"Dedicated","server_os":"Linux","password":true,"vac":true,"version":"7757534","steam_id":85568392925397853,"keywords":["cp","nocrits","nodmgspread","uncletopia"],"game_id":440,"stv_port":27046,"stv_name":"Uncletopia | Warsaw | 4 | All Maps | STV","players":null},{"server_id":53,"name":"Uncletopia | Warsaw | 5 | Stopwatch Beta","name_short":"waw-5","host":"waw-1.pl.uncletopia.com","port":27055,"enabled":true,"region":"eu","cc":"pl","latitude":52.2297,"longitude":21.017532,"reserved":0,"last_update":"0001-01-01T00:00:00Z","name_a2s":"Uncletopia | Warsaw | 5 | Stopwatch Beta","protocol":17,"map":"pl_pier","folder":"tf","game":"Team Fortress","app_id":440,"player_count":0,"max_players":24,"Bots":0,"server_type":"Dedicated","server_os":"Linux","password":true,"vac":true,"version":"7757534","steam_id":85568392925397854,"keywords":["nocrits","nodmgspread","payload","uncletopia"],"game_id":440,"stv_port":27056,"stv_name":"Uncletopia | Warsaw | 5 | Stopwatch Beta | STV","players":null},{"server_id":54,"name":"Uncletopia | Warsaw | 6 | Community","name_short":"waw-6","host":"waw-1.pl.uncletopia.com","port":27065,"enabled":true,"region":"eu","cc":"pl","latitude":52.2297,"longitude":21.017532,"reserved":0,"last_update":"0001-01-01T00:00:00Z","name_a2s":"Uncletopia | Warsaw | 6 | Community","protocol":17,"map":"koth_highpass","folder":"tf","game":"Team Fortress","app_id":440,"player_count":0,"max_players":24,"Bots":0,"server_type":"Dedicated","server_os":"Linux","password":true,"vac":true,"version":"7757534","steam_id":85568392925397856,"keywords":["cp","nocrits","nodmgspread","uncletopia"],"game_id":440,"stv_port":27066,"stv_name":"Uncletopia | Warsaw | 6 | Community | STV","players":null}]}