{"status":true,"message":"","result":[{"server_id":9,"name":"Uncletopia | Atlanta | 1 | All Maps","name_short":"atl-1","host":"atl-1.us.uncletopia.com","port":27015,"enabled":true,"region":"us-east","cc":"us","latitude":33.753746,"longitude":-84.38633,"reserved":0,"last_update":"0001-01-01T00:00:00Z","name_a2s":"Uncletopia | Atlanta | 1 | All Maps","protocol":17,"map":"pl_snowycoast","folder":"tf","game":"Team Fortress","app_id":440,"player_count":0,"max_players":24,"Bots":0,"server_type":"Dedicated","server_os":"Linux","password":true,"vac":true,"version":"7742253","steam_id":85568392924469982,"keywords":["nocrits","nodmgspread","payload","uncletopia"],"game_id":440,"stv_port":27016,"stv_name":"Uncletopia | Atlanta | 1 | All Maps | STV","players":null},{"server_id":400,"name":"Uncletopia | Atlanta | 3 | Stopwatch Beta","name_short":"atl-3","host":"atl-1.us.uncletopia.com","port":27035,"enabled":true,"region":"us-east","cc":"us","latitude":33.753746,"longitude":-84.38633,"reserved":0,"last_update":"0001-01-01T00:00:00Z","name_a2s":"Uncletopia | Atlanta | 3 | Stopwatch Beta","protocol":17,"map":"pl_pier","folder":"tf","game":"Team Fortress","app_id":440,"player_count":1,"max_players":24,"Bots":0,"server_type":"Dedicated","server_os":"Linux","password":true,"vac":true,"version":"7742253","steam_id":85568392924515187,"keywords":["nocrits","nodmgspread","payload","uncletopia"],"game_id":440,"stv_port":27036,"stv_name":"Uncletopia | Atlanta | 3 | Stopwatch Beta | STV","players":[{"user_id":3,"name":"abomination","steam_id":76561198167974713,"connected_time":95000000000,"state":"active","ping":51}]},{"server_id":401,"name":"Uncletopia | Atlanta | 4 | No Payload","name_short":"atl-4","host":"atl-1.us.uncletopia.com","port":27045,"enabled":true,"region":"us-east","cc":"us","latitude":33.753746,"longitude":-84.38633,"reserved":0,"last_update":"0001-01-01T00:00:00Z","name_a2s":"Uncletopia | Atlanta | 4 | No Payload","protocol":17,"map":"pl_pier","folder":"tf","game":"Team Fortress","app_id":440,"player_count":0,"max_players":24,"Bots":0,"server_type":"Dedicated","server_os":"Linux","password":true,"vac":true,"version":"7723704","steam_id":85568392924515188,"keywords":["nocrits","nodmgspread","payload","uncletopia"],"game_id":440,"stv_port":27046,"stv_name":"Uncletopia | Atlanta | 4 | No Payload | STV","players":null},{"server_id":2,"name":"Uncletopia | Chicago | 1 | All Maps","name_short":"chi-1","host":"chi-1.us.uncletopia.com","port":27015,"enabled":true,"region":"us-central","cc":"us","latitude":41.881832,"longitude":-87.62318,"reserved":0,"last_update":"0001-01-01T00:00:00Z","name_a2s":"Uncletopia | Chicago | 1 | All Maps","protocol":17,"map":"cp_dustbowl","folder":"tf","game":"Team Fortress","app_id":440,"player_count":0,"max_players":24,"Bots":0,"server_type":"Dedicated","server_os":"Linux","password":true,"vac":true,"version":"7742253","steam_id":85568392924469984,"keywords":["cp","nocrits","nodmgspread","uncletopia"],"game_id":440,"stv_port":27016,"stv_name":"Uncletopia | Chicago | 1 | All Maps | STV","players":null},{"server_id":106,"name":"Uncletopia | Chicago | 2 | All Maps","name_short":"chi-2","host":"chi-1.us.uncletopia.com","port":27025,"enabled":true,"region":"us-central","cc":"us","latitude":41.881832,"longitude":-87.62318,"reserved":0,"last_update":"0001-01-01T00:00:00Z","name_a2s":"Uncletopia | Chicago | 2 | All Maps","protocol":17,"map":"pl_snowycoast","folder":"tf","game":"Team Fortress","app_id":440,"player_count":0,"max_players":24,"Bots":0,"server_type":"Dedicated","server_os":"Linux","password":true,"vac":true,"version":"7742253","steam_id":85568392924469985,"keywords":["nocrits","nodmgspread","payload","uncletopia"],"game_id":440,"stv_port":27026,"stv_name":"Uncletopia | Chicago | 2 | All Maps | STV","players":null},{"server_id":402,"name":"Uncletopia | Chicago | 3 | All Maps","name_short":"chi-3","host":"chi-1.us.uncletopia.com","port":27035,"enabled":true,"region":"us-central","cc":"us","latitude":41.881832,"longitude":-87.62318,"reserved":0,"last_update":"0001-01-01T00:00:00Z","name_a2s":"Uncletopia | Chicago | 3 | All Maps","protocol":17,"map":"koth_viaduct","folder":"tf","game":"Team Fortress","app_id":440,"player_count":0,"max_players":24,"Bots":0,"server_type":"Dedicated","server_os":"Linux","password":true,"vac":true,"version":"7742253","steam_id":85568392924515191,"keywords":["cp","nocrits","nodmgspread","uncletopia"],"game_id":440,"stv_port":27036,"stv_name":"Uncletopia | Chicago | 3 | All Maps | STV","players":null},{"server_id":403,"name":"Uncletopia | Chicago | 4 | All Maps","name_short":"chi-4","host":"chi-1.us.uncletopia.com","port":27045,"enabled":true,"region":"us-central","cc":"us","latitude":41.881832,"longitude":-87.62318,"reserved":0,"last_update":"0001-01-01T00:00:00Z","name_a2s":"Uncletopia | Chicago | 4 | All Maps","protocol":17,"map":"koth_lakeside_final","folder":"tf","game":"Team Fortress","app_id":440,"player_count":0,"max_players":24,"Bots":0,"server_type":"Dedicated","server_os":"Linux","password":true,"vac":true,"version":"7742253","steam_id":85568392924515193,"keywords":["cp","nocrits","nodmgspread","uncletopia"],"game_id":440,"stv_port":27046,"stv_name":"Uncletopia | Chicago | 4 | All Maps | STV","players":null},{"server_id":36,"name":"Uncletopia | Chicago | 5 | All Maps","name_short":"chi-5","host":"chi-2.us.uncletopia.com","port":27015,"enabled":true,"region":"us-central","cc":"us","latitude":41.881832,"longitude":-87.62318,"reserved":0,"last_update":"0001-01-01T00:00:00Z","name_a2s":"Uncletopia | Chicago | 5 | All Maps","protocol":17,"map":"cp_mountainlab","folder":"tf","game":"Team Fortress","app_id":440,"player_count":24,"max_players":24,"Bots":0,"server_type":"Dedicated","server_os":"Linux","password":true,"vac":true,"version":"7742253","steam_id":85568392924866362,"keywords":["cp","nocrits","nodmgspread","uncletopia"],"game_id":440,"stv_port":27016,"stv_name":"Uncletopia | Chicago | 5 | All Maps | STV","players":[{"user_id":7,"name":"UWBW","steam_id":76561198007524241,"connected_time":1332000000000,"state":"active","ping":61},{"user_id":10,"name":"Vivzen","steam_id":76561198972619900,"connected_time":1062000000000,"state":"active","ping":64},{"user_id":5,"name":"Gas Can","steam_id":76561198162853003,"connected_time":1878000000000,"state":"active","ping":61},{"user_id":9,"name":"kametro4","steam_id":76561198835430429,"connected_time":1081000000000,"state":"active","ping":95},{"user_id":11,"name":"William Wallace","steam_id":76561199343316814,"connected_time":1046000000000,"state":"active","ping":66},{"user_id":12,"name":"splatana stamper","steam_id":76561198183960699,"connected_time":1001000000000,"state":"active","ping":52},{"user_id":13,"name":"Trollamoo","steam_id":76561198865767224,"connected_time":952000000000,"state":"active","ping":49},{"user_id":30,"name":"ObiWonJacobi","steam_id":76561198041921071,"connected_time":630000000000,"state":"active","ping":102},{"user_id":15,"name":"ATL1 | Pango","steam_id":76561198069811545,"connected_time":910000000000,"state":"active","ping":90},{"user_id":16,"name":"Thog","steam_id":76561198093699060,"connected_time":904000000000,"state":"active","ping":74},{"user_id":17,"name":"Carl, Good to see you","steam_id":76561198070574075,"connected_time":902000000000,"state":"active","ping":64},{"user_id":34,"name":"‚ù§Dumpster Cat‚ù§","steam_id":76561199200969139,"connected_time":80000000000,"state":"spawning","ping":145},{"user_id":19,"name":"Juni Rocket Racer Rebel Cortez","steam_id":76561198115552623,"connected_time":829000000000,"state":"active","ping":54},{"user_id":20,"name":"Awildrock","steam_id":76561198040401086,"connected_time":828000000000,"state":"active","ping":77},{"user_id":21,"name":"toq","steam_id":76561198400316620,"connected_time":789000000000,"state":"active","ping":89},{"user_id":22,"name":"Cruisin'","steam_id":76561199245457119,"connected_time":780000000000,"state":"active","ping":80},{"user_id":23,"name":"Pixler544","steam_id":76561198240575132,"connected_time":738000000000,"state":"active","ping":82},{"user_id":24,"name":"teaspinator","steam_id":76561199069748074,"connected_time":725000000000,"state":"active","ping":44},{"user_id":25,"name":"Razz","steam_id":76561198158027533,"connected_time":714000000000,"state":"active","ping":47},{"user_id":26,"name":"Wilhelmktx","steam_id":76561198158102295,"connected_time":711000000000,"state":"active","ping":67},{"user_id":27,"name":"simon hardy","steam_id":76561197964961555,"connected_time":695000000000,"state":"active","ping":108},{"user_id":28,"name":"The Foolish Samurai","steam_id":76561198094494945,"connected_time":653000000000,"state":"active","ping":106},{"user_id":29,"name":"rlty","steam_id":76561198009395055,"connected_time":645000000000,"state":"active","ping":71},{"user_id":32,"name":"Veir≈´ Viseris","steam_id":76561197989857176,"connected_time":147000000000,"state":"active","ping":158}]},{"server_id":37,"name":"Uncletopia | Chicago | 6 | All Maps","name_short":"chi-6","host":"chi-2.us.uncletopia.com","port":27025,"enabled":true,"region":"us-central","cc":"us","latitude":41.881832,"longitude":-87.62318,"reserved":0,"last_update":"0001-01-01T00:00:00Z","name_a2s":"Uncletopia | Chicago | 6 | All Maps","protocol":17,"map":"cp_sunshine","folder":"tf","game":"Team Fortress","app_id":440,"player_count":0,"max_players":24,"Bots":0,"server_type":"Dedicated","server_os":"Linux","password":true,"vac":true,"version":"7742253","steam_id":85568392924866363,"keywords":["cp","nocrits","nodmgspread","uncletopia"],"game_id":440,"stv_port":27026,"stv_name":"Uncletopia | Chicago | 6 | All Maps | STV","players":null},{"server_id":38,"name":"Uncletopia | Chicago | 7 | Stopwatch Beta","name_short":"chi-7","host":"chi-2.us.uncletopia.com","port":27035,"enabled":true,"region":"us-central","cc":"us","latitude":41.881832,"longitude":-87.62318,"reserved":0,"last_update":"0001-01-01T00:00:00Z","name_a2s":"Uncletopia | Chicago | 7 | Stopwatch Beta","protocol":17,"map":"koth_lakeside_final","folder":"tf","game":"Team Fortress","app_id":440,"player_count":0,"max_players":24,"Bots":0,"server_type":"Dedicated","server_os":"Linux","password":true,"vac":true,"version":"7742253","steam_id":85568392924866364,"keywords":["cp","nocrits","nodmgspread","uncletopia"],"game_id":440,"stv_port":27036,"stv_name":"Uncletopia | Chicago | 7 | Stopwatch Beta | STV","players":null},{"server_id":39,"name":"Uncletopia | Chicago | 8 | Community","name_short":"chi-8","host":"chi-2.us.uncletopia.com","port":27045,"enabled":true,"region":"us-central","cc":"us","latitude":41.881832,"longitude":-87.62318,"reserved":0,"last_update":"0001-01-01T00:00:00Z","name_a2s":"Uncletopia | Chicago | 8 | Community","protocol":17,"map":"koth_lakeside_final","folder":"tf","game":"Team Fortress","app_id":440,"player_count":0,"max_players":24,"Bots":0,"server_type":"Dedicated","server_os":"Linux","password":true,"vac":true,"version":"7742253","steam_id":85568392924866365,"keywords":["cp","nocrits","nodmgspread","uncletopia"],"game_id":440,"stv_port":27046,"stv_name":"Uncletopia | Chicago | 8 | Community | STV","players":null},{"server_id":8,"name":"Uncletopia | Dallas | 1 | All Maps","name_short":"dal-1","host":"dal-1.us.uncletopia.com","port":27015,"enabled":true,"region":"us-central","cc":"us","latitude":32.779167,"longitude":-96.80889,"reserved":0,"last_update":"0001-01-01T00:00:00Z","name_a2s":"Uncletopia | Dallas | 1 | All Maps","protocol":17,"map":"cp_mountainlab","folder":"tf","game":"Team Fortress","app_id":440,"player_count":0,"max_players":24,"Bots":0,"server_type":"Dedicated","server_os":"Linux","password":true,"vac":true,"version":"7742253","steam_id":85568392924469986,"keywords":["cp","nocrits","nodmgspread","uncletopia"],"game_id":440,"stv_port":27016,"stv_name":"Uncletopia | Dallas | 1 | All Maps | STV","players":null},{"server_id":108,"name":"Uncletopia | Dallas | 2 | All Maps","name_short":"dal-2","host":"dal-1.us.uncletopia.com","port":27025,"enabled":true,"region":"us-central","cc":"us","latitude":32.779167,"longitude":-96.80889,"reserved":0,"last_update":"0001-01-01T00:00:00Z","name_a2s":"Uncletopia | Dallas | 2 | All Maps","protocol":17,"map":"plr_hightower","folder":"tf","game":"Team Fortress","app_id":440,"player_count":0,"max_players":24,"Bots":0,"server_type":"Dedicated","server_os":"Linux","password":true,"vac":true,"version":"7742253","steam_id":85568392924469988,"keywords":["nocrits","nodmgspread","payload","uncletopia"],"game_id":440,"stv_port":27026,"stv_name":"Uncletopia | Dallas | 2 | All Maps | STV","players":null},{"server_id":5,"name":"Uncletopia | Frankfurt | 1 | All Maps","name_short":"frk-1","host":"frk-1.de.uncletopia.com","port":27015,"enabled":true,"region":"eu","cc":"de","latitude":50.110924,"longitude":8.682127,"reserved":0,"last_update":"0001-01-01T00:00:00Z","name_a2s":"Uncletopia | Frankfurt | 1 | All Maps","protocol":17,"map":"pl_badwater","folder":"tf","game":"Team Fortress","app_id":440,"player_count":24,"max_players":24,"Bots":0,"server_type":"Dedicated","server_os":"Linux","password":true,"vac":true,"version":"7742253","steam_id":85568392924469989,"keywords":["nocrits","nodmgspread","payload","uncletopia"],"game_id":440,"stv_port":27016,"stv_name":"Uncletopia | Frankfurt | 1 | All Maps | STV","players":[{"user_id":289,"name":"-rikeOo-","steam_id":76561198303995379,"connected_time":391000000000,"state":"active","ping":67},{"user_id":280,"name":"Hyperis","steam_id":76561199048110177,"connected_time":856000000000,"state":"active","ping":59},{"user_id":285,"name":"henoadam","steam_id":76561198151350377,"connected_time":755000000000,"state":"active","ping":59},{"user_id":290,"name":"Fran","steam_id":76561199070516960,"connected_time":373000000000,"state":"active","ping":61},{"user_id":282,"name":"nikke","steam_id":76561198035655270,"connected_time":802000000000,"state":"active","ping":84},{"user_id":264,"name":"Mingo","steam_id":76561199191245650,"connected_time":2100000000000,"state":"active","ping":90},{"user_id":261,"name":"joe fishington","steam_id":76561198261250961,"connected_time":2269000000000,"state":"active","ping":102},{"user_id":233,"name":"Wrabchev* Just_Smile","steam_id":76561198040645344,"connected_time":5021000000000,"state":"active","ping":84},{"user_id":293,"name":"NatP","steam_id":76561198012083811,"connected_time":53000000000,"state":"active","ping":78},{"user_id":283,"name":"naaaa","steam_id":76561198136259553,"connected_time":799000000000,"state":"active","ping":90},{"user_id":231,"name":"PLUTO","steam_id":76561198312436128,"connected_time":5165000000000,"state":"active","ping":130},{"user_id":244,"name":"0______0","steam_id":76561198118695421,"connected_time":3891000000000,"state":"active","ping":70},{"user_id":284,"name":"gmem","steam_id":76561198070006725,"connected_time":760000000000,"state":"active","ping":71},{"user_id":278,"name":"Andreus","steam_id":76561199403926001,"connected_time":1075000000000,"state":"active","ping":70},{"user_id":286,"name":"Egap","steam_id":76561199070653454,"connected_time":750000000000,"state":"active","ping":73},{"user_id":248,"name":"Xiqui","steam_id":76561198818386611,"connected_time":3827000000000,"state":"active","ping":89},{"user_id":291,"name":"just a guy with brain damage","steam_id":76561198427311777,"connected_time":367000000000,"state":"active","ping":74},{"user_id":292,"name":"Blink","steam_id":76561198144033005,"connected_time":364000000000,"state":"active","ping":62},{"user_id":266,"name":"sharting","steam_id":76561198133782205,"connected_time":1964000000000,"state":"active","ping":126},{"user_id":287,"name":"Ged","steam_id":76561198079288943,"connected_time":749000000000,"state":"active","ping":111},{"user_id":276,"name":"Mor'du","steam_id":76561198274105878,"connected_time":1139000000000,"state":"active","ping":79},{"user_id":205,"name":"reer","steam_id":76561198087222583,"connected_time":7120000000000,"state":"active","ping":56},{"user_id":250,"name":"RiX","steam_id":76561197969053733,"connected_time":3767000000000,"state":"active","ping":61},{"user_id":273,"name":"wise ukrainian shaman","steam_id":76561198989398023,"connected_time":1353000000000,"state":"active","ping":103}]},{"server_id":110,"name":"Uncletopia | Frankfurt | 2 | All Maps","name_short":"frk-2","host":"frk-1.de.uncletopia.com","port":27025,"enabled":true,"region":"eu","cc":"de","latitude":50.110924,"longitude":8.682127,"reserved":0,"last_update":"0001-01-01T00:00:00Z","name_a2s":"Uncletopia | Frankfurt | 2 | All Maps","protocol":17,"map":"koth_viaduct","folder":"tf","game":"Team Fortress","app_id":440,"player_count":24,"max_players":24,"Bots":0,"server_type":"Dedicated","server_os":"Linux","password":true,"vac":true,"version":"7742253","steam_id":85568392924469990,"keywords":["cp","nocrits","nodmgspread","uncletopia"],"game_id":440,"stv_port":27026,"stv_name":"Uncletopia | Frankfurt | 2 | All Maps | STV","players":[{"user_id":266,"name":"Pain in a Box","steam_id":76561197990777173,"connected_time":165000000000,"state":"active","ping":66},{"user_id":267,"name":"Brinier","steam_id":76561199012604288,"connected_time":158000000000,"state":"active","ping":59},{"user_id":229,"name":"B≈Å√§ck..","steam_id":76561198300644952,"connected_time":1792000000000,"state":"active","ping":68},{"user_id":219,"name":"KNARRER","steam_id":76561199130777953,"connected_time":2388000000000,"state":"active","ping":45},{"user_id":232,"name":"Radical priest","steam_id":76561198110470565,"connected_time":1449000000000,"state":"active","ping":93},{"user_id":233,"name":"Getrkod","steam_id":76561198986560793,"connected_time":1438000000000,"state":"active","ping":59},{"user_id":234,"name":"Boycie","steam_id":76561198179116027,"connected_time":1425000000000,"state":"active","ping":64},{"user_id":199,"name":"2 Bugatti Richh","steam_id":76561198122416996,"connected_time":3002000000000,"state":"active","ping":45},{"user_id":252,"name":"Ducky[WADZ]üê§","steam_id":76561198060341245,"connected_time":1111000000000,"state":"active","ping":47},{"user_id":235,"name":"Bravo to Alpha","steam_id":76561198149821972,"connected_time":1419000000000,"state":"active","ping":146},{"user_id":239,"name":",zem","steam_id":76561198864329072,"connected_time":1370000000000,"state":"active","ping":92},{"user_id":268,"name":"curse these metal hands","steam_id":76561198056531586,"connected_time":146000000000,"state":"active","ping":69},{"user_id":240,"name":"iIMOFIi","steam_id":76561199000483925,"connected_time":1356000000000,"state":"active","ping":156},{"user_id":265,"name":"suN","steam_id":76561198334556356,"connected_time":371000000000,"state":"active","ping":75},{"user_id":270,"name":"Will","steam_id":76561198088266191,"connected_time":66000000000,"state":"active","ping":115},{"user_id":271,"name":"System","steam_id":76561199442503973,"connected_time":14000000000,"state":"active","ping":53},{"user_id":269,"name":"–ò–Ω—Å–ø–µ–∫—Ç–æ—Ä –ê—Ç–∞—Å","steam_id":76561199175688390,"connected_time":126000000000,"state":"active","ping":77},{"user_id":244,"name":"aph","steam_id":76561198057722639,"connected_time":1283000000000,"state":"active","ping":60},{"user_id":251,"name":"Fell","steam_id":76561197987041054,"connected_time":1121000000000,"state":"active","ping":68},{"user_id":255,"name":"Mean Green Peen","steam_id":76561198228455736,"connected_time":1023000000000,"state":"active","ping":65},{"user_id":247,"name":"Mr. Luck | SFM","steam_id":76561198088255641,"connected_time":1252000000000,"state":"active","ping":116},{"user_id":208,"name":"Cobb Salads","steam_id":76561197971140507,"connected_time":2806000000000,"state":"active","ping":64},{"user_id":250,"name":"Acheron","steam_id":76561198306593373,"connected_time":1155000000000,"state":"active","ping":75},{"user_id":261,"name":"Proofmean","steam_id":76561198878552103,"connected_time":687000000000,"state":"active","ping":56}]},{"server_id":308,"name":"Uncletopia | Frankfurt | 3 | All Maps","name_short":"frk-3","host":"frk-1.de.uncletopia.com","port":27035,"enabled":true,"region":"eu","cc":"de","latitude":50.110924,"longitude":8.682127,"reserved":0,"last_update":"0001-01-01T00:00:00Z","name_a2s":"Uncletopia | Frankfurt | 3 | All Maps","protocol":17,"map":"pl_pier","folder":"tf","game":"Team Fortress","app_id":440,"player_count":0,"max_players":24,"Bots":0,"server_type":"Dedicated","server_os":"Linux","password":true,"vac":true,"version":"7742253","steam_id":85568392924504274,"keywords":["nocrits","nodmgspread","payload","uncletopia"],"game_id":440,"stv_port":27036,"stv_name":"Uncletopia | Frankfurt | 3 | All Maps | STV","players":null},{"server_id":309,"name":"Uncletopia | Frankfurt | 4 | All Maps","name_short":"frk-4","host":"frk-1.de.uncletopia.com","port":27045,"enabled":true,"region":"eu","cc":"de","latitude":50.110924,"longitude":8.682127,"reserved":0,"last_update":"0001-01-01T00:00:00Z","name_a2s":"Uncletopia | Frankfurt | 4 | All Maps","protocol":17,"map":"pl_pier","folder":"tf","game":"Team Fortress","app_id":440,"player_count":21,"max_players":24,"Bots":0,"server_type":"Dedicated","server_os":"Linux","password":true,"vac":true,"version":"7742253","steam_id":85568392924504275,"keywords":["nocrits","nodmgspread","payload","uncletopia"],"game_id":440,"stv_port":27046,"stv_name":"Uncletopia | Frankfurt | 4 | All Maps | STV","players":[{"user_id":212,"name":"lugiagaurdien","steam_id":76561198894274440,"connected_time":525000000000,"state":"active","ping":55},{"user_id":174,"name":"JohaTG","steam_id":76561198804468284,"connected_time":3008000000000,"state":"active","ping":63},{"user_id":215,"name":"Deemus","steam_id":76561199058781650,"connected_time":151000000000,"state":"active","ping":80},{"user_id":194,"name":"PhantomStriker","steam_id":76561199116689935,"connected_time":1759000000000,"state":"active","ping":96},{"user_id":183,"name":"ohemgee","steam_id":76561198043873119,"connected_time":2498000000000,"state":"active","ping":135},{"user_id":214,"name":"all snipers are edgy cowards","steam_id":76561198060200599,"connected_time":178000000000,"state":"active","ping":100},{"user_id":216,"name":"Explosion","steam_id":76561198033465837,"connected_time":91000000000,"state":"active","ping":70},{"user_id":190,"name":"fried","steam_id":76561198307522022,"connected_time":2011000000000,"state":"active","ping":52},{"user_id":199,"name":"thekoolest88","steam_id":76561199022415672,"connected_time":1562000000000,"state":"active","ping":147},{"user_id":102,"name":"GodOfGobboz","steam_id":76561198154677956,"connected_time":5941000000000,"state":"active","ping":76},{"user_id":170,"name":"Givi","steam_id":76561198808819694,"connected_time":3222000000000,"state":"active","ping":45},{"user_id":172,"name":"Kapitan Polska","steam_id":76561197968069413,"connected_time":3170000000000,"state":"active","ping":50},{"user_id":206,"name":"Eisik","steam_id":76561199061086990,"connected_time":1270000000000,"state":"active","ping":76},{"user_id":184,"name":"Piteras","steam_id":76561198858532207,"connected_time":2407000000000,"state":"active","ping":68},{"user_id":203,"name":"where is my egg?","steam_id":76561198172542535,"connected_time":1433000000000,"state":"active","ping":88},{"user_id":218,"name":"Charlie","steam_id":76561198091070593,"connected_time":16000000000,"state":"spawning","ping":69},{"user_id":207,"name":"Dark Souls Reference","steam_id":76561198094102747,"connected_time":1249000000000,"state":"active","ping":67},{"user_id":204,"name":"resupplylocker is a fat lil cun","steam_id":76561199436238409,"connected_time":1431000000000,"state":"active","ping":89},{"user_id":91,"name":"Ezio Auditore","steam_id":76561198453527850,"connected_time":6348000000000,"state":"active","ping":76},{"user_id":201,"name":":3","steam_id":76561199366281472,"connected_time":1512000000000,"state":"active","ping":170},{"user_id":185,"name":"wot","steam_id":76561198074956732,"connected_time":2085000000000,"state":"active","ping":46}]},{"server_id":310,"name":"Uncletopia | Frankfurt | 5 | All Maps","name_short":"frk-5","host":"frk-1.de.uncletopia.com","port":27055,"enabled":true,"region":"eu","cc":"de","latitude":50.110924,"longitude":8.682127,"reserved":0,"last_update":"0001-01-01T00:00:00Z","name_a2s":"Uncletopia | Frankfurt | 5 | All Maps","protocol":17,"map":"pl_badwater","folder":"tf","game":"Team Fortress","app_id":440,"player_count":24,"max_players":24,"Bots":0,"server_type":"Dedicated","server_os":"Linux","password":true,"vac":true,"version":"7742253","steam_id":85568392924504277,"keywords":["nocrits","nodmgspread","payload","uncletopia"],"game_id":440,"stv_port":27056,"stv_name":"Uncletopia | Frankfurt | 5 | All Maps | STV","players":[{"user_id":461,"name":"yuh","steam_id":76561199005555839,"connected_time":2484000000000,"state":"active","ping":65},{"user_id":476,"name":"AWP Bodyshot :) ‚ù§","steam_id":76561198029928533,"connected_time":572000000000,"state":"active","ping":45},{"user_id":471,"name":"hotdog enjoyer","steam_id":76561199065132696,"connected_time":1426000000000,"state":"active","ping":65},{"user_id":441,"name":"Fbafroguy","steam_id":76561199113010473,"connected_time":3861000000000,"state":"active","ping":63},{"user_id":445,"name":"Frog","steam_id":76561198043981067,"connected_time":3148000000000,"state":"active","ping":74},{"user_id":427,"name":"Nick","steam_id":76561198036109469,"connected_time":4588000000000,"state":"active","ping":90},{"user_id":449,"name":"Fortezza","steam_id":76561198972539903,"connected_time":2862000000000,"state":"active","ping":55},{"user_id":475,"name":"murderwow","steam_id":76561198024566944,"connected_time":897000000000,"state":"active","ping":99},{"user_id":451,"name":"Joe Byron","steam_id":76561198044465070,"connected_time":2786000000000,"state":"active","ping":87},{"user_id":452,"name":"PACKED_420","steam_id":76561199199932446,"connected_time":2786000000000,"state":"active","ping":165},{"user_id":480,"name":"Femboypawnguy","steam_id":76561198274894771,"connected_time":308000000000,"state":"active","ping":57},{"user_id":481,"name":"VIN WEASEL","steam_id":76561198014387066,"connected_time":300000000000,"state":"active","ping":42},{"user_id":446,"name":"Carry Krypl","steam_id":76561198136938121,"connected_time":2981000000000,"state":"active","ping":48},{"user_id":477,"name":"Mishaswy","steam_id":76561198156848144,"connected_time":559000000000,"state":"active","ping":94},{"user_id":479,"name":"ErJu","steam_id":76561198106273165,"connected_time":405000000000,"state":"active","ping":67},{"user_id":455,"name":"KeepIT.OK?","steam_id":76561198957890584,"connected_time":2694000000000,"state":"active","ping":120},{"user_id":457,"name":"Psychicpie","steam_id":76561198126065206,"connected_time":2614000000000,"state":"active","ping":49},{"user_id":462,"name":"gambling addicted retard","steam_id":76561199039713160,"connected_time":2473000000000,"state":"active","ping":58},{"user_id":482,"name":"Sesud(HUN)","steam_id":76561198749887503,"connected_time":254000000000,"state":"active","ping":121},{"user_id":465,"name":"Redmailbox","steam_id":76561198042930322,"connected_time":2235000000000,"state":"active","ping":62},{"user_id":460,"name":"Beb","steam_id":76561198106119248,"connected_time":2578000000000,"state":"active","ping":66},{"user_id":469,"name":"Van","steam_id":76561199177668753,"connected_time":1427000000000,"state":"active","ping":54},{"user_id":466,"name":"M@T!X „Éû„ÉÜ„Ç£","steam_id":76561198273121669,"connected_time":2167000000000,"state":"active","ping":87},{"user_id":470,"name":"cslevi","steam_id":76561198142858923,"connected_time":1427000000000,"state":"active","ping":66}]},{"server_id":311,"name":"Uncletopia | Frankfurt | 6 | All Maps","name_short":"frk-6","host":"frk-1.de.uncletopia.com","port":27065,"enabled":true,"region":"eu","cc":"de","latitude":50.110924,"longitude":8.682127,"reserved":0,"last_update":"0001-01-01T00:00:00Z","name_a2s":"Uncletopia | Frankfurt | 6 | All Maps","protocol":17,"map":"koth_lakeside_final","folder":"tf","game":"Team Fortress","app_id":440,"player_count":0,"max_players":24,"Bots":0,"server_type":"Dedicated","server_os":"Linux","password":true,"vac":true,"version":"7742253","steam_id":85568392924504278,"keywords":["cp","nocrits","nodmgspread","uncletopia"],"game_id":440,"stv_port":27066,"stv_name":"Uncletopia | Frankfurt | 6 | All Maps | STV","players":null},{"server_id":23,"name":"Uncletopia | Frankfurt | 7 | Stopwatch Beta","name_short":"frk-7","host":"frk-1.de.uncletopia.com","port":27075,"enabled":true,"region":"eu","cc":"de","latitude":50.110924,"longitude":8.682127,"reserved":0,"last_update":"0001-01-01T00:00:00Z","name_a2s":"Uncletopia | Frankfurt | 7 | Stopwatch Beta","protocol":17,"map":"pl_badwater","folder":"tf","game":"Team Fortress","app_id":440,"player_count":0,"max_players":24,"Bots":0,"server_type":"Dedicated","server_os":"Linux","password":true,"vac":true,"version":"7742253","steam_id":85568392924742827,"keywords":["nocrits","nodmgspread","payload","uncletopia"],"game_id":440,"stv_port":27076,"stv_name":"Uncletopia | Frankfurt | 7 | Stopwatch Beta | STV","players":null},{"server_id":24,"name":"Uncletopia | Frankfurt | 8 | Community","name_short":"frk-8","host":"frk-1.de.uncletopia.com","port":27085,"enabled":true,"region":"eu","cc":"de","latitude":50.110924,"longitude":8.682127,"reserved":0,"last_update":"0001-01-01T00:00:00Z","name_a2s":"Uncletopia | Frankfurt | 8 | Community","protocol":17,"map":"workshop/pl_cactuscanyon_redux_rc4b.ugc2579644293","folder":"tf","game":"Team Fortress","app_id":440,"player_count":0,"max_players":24,"Bots":0,"server_type":"Dedicated","server_os":"Linux","password":true,"vac":true,"version":"7742253","steam_id":85568392924742828,"keywords":["nocrits","nodmgspread","payload","uncletopia"],"game_id":440,"stv_port":27086,"stv_name":"Uncletopia | Frankfurt | 8 | Community | STV","players":null},{"server_id":202,"name":"Uncletopia | Hong Kong | 1 | All Maps","name_short":"hgk-1","host":"hgk-1.hk.uncletopia.com","port":27015,"enabled":true,"region":"asia","cc":"hk","latitude":22.302711,"longitude":114.177216,"reserved":0,"last_update":"0001-01-01T00:00:00Z","name_a2s":"Uncletopia | Hong Kong | 1 | All Maps","protocol":17,"map":"pl_borneo","folder":"tf","game":"Team Fortress","app_id":440,"player_count":14,"max_players":24,"Bots":0,"server_type":"Dedicated","server_os":"Linux","password":true,"vac":true,"version":"7742253","steam_id":85568392924494504,"keywords":["nocrits","nodmgspread","payload","uncletopia"],"game_id":440,"stv_port":27016,"stv_name":"Uncletopia | Hong Kong | 1 | All Maps | STV","players":[{"user_id":596,"name":"The Cake is a lie","steam_id":76561198190738610,"connected_time":1566000000000,"state":"active","ping":91},{"user_id":580,"name":"clori","steam_id":76561199146847474,"connected_time":2313000000000,"state":"active","ping":67},{"user_id":581,"name":"ducksaremean","steam_id":76561199093126935,"connected_time":2301000000000,"state":"active","ping":73},{"user_id":602,"name":"ConHosh1","steam_id":76561199387718733,"connected_time":1223000000000,"state":"active","ping":70},{"user_id":443,"name":"Pillboi","steam_id":76561198011172886,"connected_time":12127000000000,"state":"active","ping":36},{"user_id":614,"name":"MoNin","steam_id":76561199040744579,"connected_time":11000000000,"state":"spawning","ping":188},{"user_id":571,"name":"Owmyn","steam_id":76561199239651098,"connected_time":2915000000000,"state":"active","ping":100},{"user_id":585,"name":"brah","steam_id":76561199159894607,"connected_time":2198000000000,"state":"active","ping":92},{"user_id":503,"name":"Ïø†ÌÇ§","steam_id":76561197997220367,"connected_time":6836000000000,"state":"active","ping":50},{"user_id":606,"name":"Ss3nKrad","steam_id":76561198198587875,"connected_time":1042000000000,"state":"active","ping":67},{"user_id":593,"name":"xPhid","steam_id":76561199080808930,"connected_time":1698000000000,"state":"active","ping":135},{"user_id":591,"name":"ÊØç„ÅÆËÇâÂõ£Â≠ê","steam_id":76561198069561896,"connected_time":1994000000000,"state":"active","ping":25},{"user_id":553,"name":"bocchi the oppai","steam_id":76561198008307645,"connected_time":4286000000000,"state":"active","ping":97},{"user_id":609,"name":"rudolph","steam_id":76561199012678702,"connected_time":713000000000,"state":"active","ping":89}]},{"server_id":1,"name":"Uncletopia | Los Angeles | 1 | All Maps","name_short":"lax-1","host":"lax-1.us.uncletopia.com","port":27015,"enabled":true,"region":"us-west","cc":"us","latitude":33.94279,"longitude":-118.41004,"reserved":0,"last_update":"0001-01-01T00:00:00Z","name_a2s":"Uncletopia | Los Angeles | 1 | All Maps","protocol":17,"map":"cp_dustbowl","folder":"tf","game":"Team Fortress","app_id":440,"player_count":0,"max_players":24,"Bots":0,"server_type":"Dedicated","server_os":"Linux","password":true,"vac":true,"version":"7742253","steam_id":85568392924469991,"keywords":["cp","nocrits","nodmgspread","uncletopia"],"game_id":440,"stv_port":27016,"stv_name":"Uncletopia | Los Angeles | 1 | All Maps | STV","players":null},{"server_id":112,"name":"Uncletopia | Los Angeles | 2 | All Maps","name_short":"lax-2","host":"lax-1.us.uncletopia.com","port":27025,"enabled":true,"region":"us-west","cc":"us","latitude":33.94279,"longitude":-118.41004,"reserved":0,"last_update":"0001-01-01T00:00:00Z","name_a2s":"Uncletopia | Los Angeles | 2 | All Maps","protocol":17,"map":"pl_frontier_final","folder":"tf","game":"Team Fortress","app_id":440,"player_count":0,"max_players":24,"Bots":0,"server_type":"Dedicated","server_os":"Linux","password":true,"vac":true,"version":"7742253","steam_id":85568392924469992,"keywords":["nocrits","nodmgspread","payload","uncletopia"],"game_id":440,"stv_port":27026,"stv_name":"Uncletopia | Los Angeles | 2 | All Maps | STV","players":null},{"server_id":324,"name":"Uncletopia | Los Angeles | 3 | All Maps","name_short":"lax-3","host":"lax-1.us.uncletopia.com","port":27035,"enabled":true,"region":"us-west","cc":"us","latitude":33.94279,"longitude":-118.41004,"reserved":0,"last_update":"0001-01-01T00:00:00Z","name_a2s":"Uncletopia | Los Angeles | 3 | All Maps","protocol":17,"map":"pl_swiftwater_final1","folder":"tf","game":"Team Fortress","app_id":440,"player_count":0,"max_players":24,"Bots":0,"server_type":"Dedicated","server_os":"Linux","password":true,"vac":true,"version":"7742253","steam_id":85568392924510198,"keywords":["nocrits","nodmgspread","payload","uncletopia"],"game_id":440,"stv_port":27036,"stv_name":"Uncletopia | Los Angeles | 3 | All Maps | STV","players":null},{"server_id":25,"name":"Uncletopia | Los Angeles | 4 | Stopwatch Beta","name_short":"lax-4","host":"lax-1.us.uncletopia.com","port":27045,"enabled":true,"region":"us-west","cc":"us","latitude":33.94279,"longitude":-118.41004,"reserved":0,"last_update":"0001-01-01T00:00:00Z","name_a2s":"Uncletopia | Los Angeles | 4 | Stopwatch Beta","protocol":17,"map":"cp_snakewater_final1","folder":"tf","game":"Team Fortress","app_id":440,"player_count":0,"max_players":24,"Bots":0,"server_type":"Dedicated","server_os":"Linux","password":true,"vac":true,"version":"7742253","steam_id":85568392924510199,"keywords":["cp","nocrits","nodmgspread","uncletopia"],"game_id":440,"stv_port":27046,"stv_name":"Uncletopia | Los Angeles | 4 | Stopwatch Beta | STV","players":null},{"server_id":11,"name":"Uncletopia | London | 1 | All Maps","name_short":"lon-1","host":"lon-1.uk.uncletopia.com","port":27015,"enabled":true,"region":"eu","cc":"gb","latitude":51.509865,"longitude":-0.118092,"reserved":0,"last_update":"0001-01-01T00:00:00Z","name_a2s":"Uncletopia | London | 1 | All Maps","protocol":17,"map":"pl_pier","folder":"tf","game":"Team Fortress","app_id":440,"player_count":25,"max_players":24,"Bots":0,"server_type":"Dedicated","server_os":"Linux","password":true,"vac":true,"version":"7742253","steam_id":85568392924367362,"keywords":["nocrits","nodmgspread","payload","uncletopia"],"game_id":440,"stv_port":27016,"stv_name":"Uncletopia | London | 1 | All Maps | STV","players":[{"user_id":256,"name":"JohnTraveltime","steam_id":76561199244281754,"connected_time":983000000000,"state":"active","ping":62},{"user_id":247,"name":"I like apple","steam_id":76561198108115790,"connected_time":1495000000000,"state":"active","ping":49},{"user_id":250,"name":"Stille Willem","steam_id":76561198093579428,"connected_time":1082000000000,"state":"active","ping":58},{"user_id":266,"name":"ugly","steam_id":76561199050412617,"connected_time":298000000000,"state":"active","ping":116},{"user_id":240,"name":"I Don't Know","steam_id":76561198841011430,"connected_time":1875000000000,"state":"active","ping":70},{"user_id":272,"name":"Lucan","steam_id":76561198219195135,"connected_time":109000000000,"state":"active","ping":51},{"user_id":258,"name":"Doggo","steam_id":76561198245583528,"connected_time":968000000000,"state":"active","ping":66},{"user_id":207,"name":"I-I","steam_id":76561198267969436,"connected_time":4361000000000,"state":"active","ping":55},{"user_id":216,"name":"Le Bon Toutou","steam_id":76561198300902712,"connected_time":2997000000000,"state":"active","ping":67},{"user_id":264,"name":"LOBZIK","steam_id":76561198114830120,"connected_time":451000000000,"state":"active","ping":77},{"user_id":253,"name":"El Pybro","steam_id":76561198104675157,"connected_time":1044000000000,"state":"active","ping":71},{"user_id":235,"name":"fector","steam_id":76561199204249586,"connected_time":2107000000000,"state":"active","ping":122},{"user_id":259,"name":"JustACoomer","steam_id":76561198151433181,"connected_time":964000000000,"state":"active","ping":54},{"user_id":260,"name":"jge","steam_id":76561198123186387,"connected_time":944000000000,"state":"active","ping":54},{"user_id":273,"name":"Shrexy","steam_id":76561198077946996,"connected_time":15000000000,"state":"spawning","ping":69},{"user_id":257,"name":"PASTAMANIA!","steam_id":76561197967858558,"connected_time":976000000000,"state":"active","ping":38},{"user_id":261,"name":"Not Clickbait (not clickbait)","steam_id":76561198951275407,"connected_time":942000000000,"state":"active","ping":79},{"user_id":254,"name":"punchmypotatoes","steam_id":76561198091255731,"connected_time":1042000000000,"state":"active","ping":55},{"user_id":234,"name":"Salih","steam_id":76561198287934839,"connected_time":2124000000000,"state":"active","ping":60},{"user_id":255,"name":"Carrot","steam_id":76561198119340863,"connected_time":1036000000000,"state":"active","ping":43},{"user_id":263,"name":"Chad IV","steam_id":76561198107767058,"connected_time":628000000000,"state":"active","ping":89},{"user_id":242,"name":"$799 Sak of Cheese","steam_id":76561198066642220,"connected_time":1809000000000,"state":"active","ping":72},{"user_id":270,"name":"Scrumlet","steam_id":76561198339806643,"connected_time":182000000000,"state":"active","ping":97},{"user_id":201,"name":"JOHN GAMING (based)","steam_id":76561199085822219,"connected_time":4960000000000,"state":"active","ping":85},{"user_id":246,"name":"koko","steam_id":76561198903997529,"connected_time":1616000000000,"state":"active","ping":84}]},{"server_id":114,"name":"Uncletopia | London | 2 | All Maps","name_short":"lon-2","host":"lon-1.uk.uncletopia.com","port":27025,"enabled":true,"region":"eu","cc":"gb","latitude":51.509865,"longitude":-0.118092,"reserved":0,"last_update":"0001-01-01T00:00:00Z","name_a2s":"Uncletopia | London | 2 | All Maps","protocol":17,"map":"koth_cascade","folder":"tf","game":"Team Fortress","app_id":440,"player_count":24,"max_players":24,"Bots":0,"server_type":"Dedicated","server_os":"Linux","password":true,"vac":true,"version":"7742253","steam_id":85568392924470941,"keywords":["cp","nocrits","nodmgspread","uncletopia"],"game_id":440,"stv_port":27026,"stv_name":"Uncletopia | London | 2 | All Maps | STV","players":[{"user_id":314,"name":"tactical783","steam_id":76561199051688560,"connected_time":1156000000000,"state":"active","ping":63},{"user_id":277,"name":"fiber1","steam_id":76561198095518320,"connected_time":2411000000000,"state":"active","ping":134},{"user_id":312,"name":"lukastank but on sedatives","steam_id":76561198071882999,"connected_time":1178000000000,"state":"active","ping":69},{"user_id":342,"name":"10 Years in the joint","steam_id":76561198371280938,"connected_time":288000000000,"state":"active","ping":79},{"user_id":344,"name":"Nitrogliceryna","steam_id":76561199105104134,"connected_time":215000000000,"state":"active","ping":73},{"user_id":299,"name":"Weenie Hut Jr's","steam_id":76561198050515739,"connected_time":2052000000000,"state":"active","ping":47},{"user_id":275,"name":"kuqkk88","steam_id":76561199427949758,"connected_time":2466000000000,"state":"active","ping":127},{"user_id":334,"name":"InsectKing","steam_id":76561199013519071,"connected_time":624000000000,"state":"active","ping":45},{"user_id":343,"name":"–î–µ–Ω–∏—Å –ë–∞–∑—É–∫–∞","steam_id":76561198835849082,"connected_time":279000000000,"state":"active","ping":83},{"user_id":300,"name":"InfamousAxe","steam_id":76561198099504739,"connected_time":1847000000000,"state":"active","ping":115},{"user_id":337,"name":"Feelin' Supersonic","steam_id":76561198005738407,"connected_time":513000000000,"state":"active","ping":84},{"user_id":281,"name":"Cosmetic brain","steam_id":76561198055936410,"connected_time":2338000000000,"state":"active","ping":78},{"user_id":336,"name":"Ibelieveto","steam_id":76561198831479712,"connected_time":571000000000,"state":"active","ping":40},{"user_id":330,"name":"AndrooKeK","steam_id":76561198293934368,"connected_time":840000000000,"state":"active","ping":70},{"user_id":338,"name":"kotamine","steam_id":76561198068907991,"connected_time":407000000000,"state":"active","ping":71},{"user_id":287,"name":"Dongus","steam_id":76561198042774930,"connected_time":2244000000000,"state":"active","ping":67},{"user_id":317,"name":"wombgaming","steam_id":76561198063116981,"connected_time":1041000000000,"state":"active","ping":154},{"user_id":339,"name":"Remyie","steam_id":76561198131031404,"connected_time":392000000000,"state":"active","ping":94},{"user_id":340,"name":"TheBeardedM1G","steam_id":76561198040208946,"connected_time":382000000000,"state":"active","ping":53},{"user_id":290,"name":"Protector.CZ","steam_id":76561197972341084,"connected_time":2222000000000,"state":"active","ping":76},{"user_id":236,"name":"JeanCorben","steam_id":76561197965133561,"connected_time":4974000000000,"state":"active","ping":45},{"user_id":346,"name":"tshirt","steam_id":76561198040757844,"connected_time":142000000000,"state":"active","ping":79},{"user_id":296,"name":"MooK","steam_id":76561198361784169,"connected_time":2176000000000,"state":"active","ping":84},{"user_id":313,"name":"You slumber","steam_id":76561198344639692,"connected_time":1173000000000,"state":"active","ping":81}]},{"server_id":320,"name":"Uncletopia | London | 3 | All Maps","name_short":"lon-3","host":"lon-1.uk.uncletopia.com","port":27035,"enabled":true,"region":"eu","cc":"gb","latitude":51.509865,"longitude":-0.118092,"reserved":0,"last_update":"0001-01-01T00:00:00Z","name_a2s":"Uncletopia | London | 3 | All Maps","protocol":17,"map":"cp_process_final","folder":"tf","game":"Team Fortress","app_id":440,"player_count":24,"max_players":24,"Bots":0,"server_type":"Dedicated","server_os":"Linux","password":true,"vac":true,"version":"7742253","steam_id":85568392924510192,"keywords":["cp","nocrits","nodmgspread","uncletopia"],"game_id":440,"stv_port":27036,"stv_name":"Uncletopia | London | 3 | All Maps | STV","players":[{"user_id":106,"name":"Penis Contortionist","steam_id":76561198073663784,"connected_time":2318000000000,"state":"active","ping":33},{"user_id":98,"name":"a black bishop from chess","steam_id":76561199226943577,"connected_time":2936000000000,"state":"active","ping":50},{"user_id":8,"name":"Karate Joe","steam_id":76561198412017408,"connected_time":7438000000000,"state":"active","ping":117},{"user_id":111,"name":"kaT","steam_id":76561198879664338,"connected_time":2134000000000,"state":"active","ping":61},{"user_id":131,"name":"Vero_Wk","steam_id":76561199048182950,"connected_time":504000000000,"state":"active","ping":81},{"user_id":134,"name":"ArekanPL","steam_id":76561198306811916,"connected_time":149000000000,"state":"active","ping":81},{"user_id":69,"name":"Flare","steam_id":76561198039098320,"connected_time":4395000000000,"state":"active","ping":50},{"user_id":55,"name":"Orochi","steam_id":76561198265192382,"connected_time":5577000000000,"state":"active","ping":64},{"user_id":96,"name":"moon","steam_id":76561199212557251,"connected_time":3023000000000,"state":"active","ping":107},{"user_id":113,"name":"timby","steam_id":76561198094389483,"connected_time":1931000000000,"state":"active","ping":64},{"user_id":118,"name":"lego man","steam_id":76561198053394831,"connected_time":1626000000000,"state":"active","ping":71},{"user_id":133,"name":"F1-M","steam_id":76561198198409875,"connected_time":290000000000,"state":"active","ping":125},{"user_id":121,"name":"Areck2","steam_id":76561199041737814,"connected_time":941000000000,"state":"active","ping":45},{"user_id":128,"name":"Tibbs","steam_id":76561197987980406,"connected_time":668000000000,"state":"active","ping":71},{"user_id":125,"name":"[T]aKer","steam_id":76561198001778013,"connected_time":847000000000,"state":"active","ping":47},{"user_id":92,"name":"Micha≈Ç","steam_id":76561198320346362,"connected_time":3146000000000,"state":"active","ping":74},{"user_id":126,"name":"J3NS!","steam_id":76561198284241630,"connected_time":844000000000,"state":"active","ping":58},{"user_id":132,"name":"vortexe","steam_id":76561198291669358,"connected_time":456000000000,"state":"active","ping":68},{"user_id":129,"name":"BladedBloom4611","steam_id":76561198416655215,"connected_time":660000000000,"state":"active","ping":46},{"user_id":124,"name":"Vince","steam_id":76561199103000131,"connected_time":854000000000,"state":"active","ping":48},{"user_id":99,"name":"Tort","steam_id":76561198329646769,"connected_time":2893000000000,"state":"active","ping":50},{"user_id":87,"name":"SimplePig","steam_id":76561198071862153,"connected_time":3497000000000,"state":"active","ping":105},{"user_id":56,"name":"SoupER","steam_id":76561198063056668,"connected_time":5567000000000,"state":"active","ping":37},{"user_id":123,"name":"lawrencefishdom","steam_id":76561199190918059,"connected_time":873000000000,"state":"active","ping":50}]},{"server_id":321,"name":"Uncletopia | London | 4 | All Maps","name_short":"lon-4","host":"lon-1.uk.uncletopia.com","port":27045,"enabled":true,"region":"eu","cc":"gb","latitude":51.509865,"longitude":-0.118092,"reserved":0,"last_update":"0001-01-01T00:00:00Z","name_a2s":"Uncletopia | London | 4 | All Maps","protocol":17,"map":"koth_highpass","folder":"tf","game":"Team Fortress","app_id":440,"player_count":0,"max_players":24,"Bots":0,"server_type":"Dedicated","server_os":"Linux","password":true,"vac":true,"version":"7742253","steam_id":85568392924510193,"keywords":["cp","nocrits","nodmgspread","uncletopia"],"game_id":440,"stv_port":27046,"stv_name":"Uncletopia | London | 4 | All Maps | STV","players":null},{"server_id":21,"name":"Uncletopia | London | 5 | All Maps","name_short":"lon-5","host":"lon-1.uk.uncletopia.com","port":27055,"enabled":true,"region":"eu","cc":"gb","latitude":51.509865,"longitude":-0.118092,"reserved":0,"last_update":"0001-01-01T00:00:00Z","name_a2s":"Uncletopia | London | 5 | All Maps","protocol":17,"map":"pl_badwater","folder":"tf","game":"Team Fortress","app_id":440,"player_count":24,"max_players":24,"Bots":0,"server_type":"Dedicated","server_os":"Linux","password":true,"vac":true,"version":"7742253","steam_id":85568392924742829,"keywords":["nocrits","nodmgspread","payload","uncletopia"],"game_id":440,"stv_port":27056,"stv_name":"Uncletopia | London | 5 | All Maps | STV","players":[{"user_id":75,"name":"Kahvi","steam_id":76561198723244199,"connected_time":1622000000000,"state":"active","ping":74},{"user_id":90,"name":"citronous","steam_id":76561198093290934,"connected_time":282000000000,"state":"active","ping":64},{"user_id":73,"name":"Rezkey","steam_id":76561198206079048,"connected_time":1697000000000,"state":"active","ping":60},{"user_id":67,"name":"Sch","steam_id":76561198071341689,"connected_time":1997000000000,"state":"active","ping":63},{"user_id":91,"name":"KLAMA  ‚ù§","steam_id":76561198351549661,"connected_time":281000000000,"state":"active","ping":75},{"user_id":59,"name":"AwterSix","steam_id":76561198042561678,"connected_time":2474000000000,"state":"active","ping":59},{"user_id":77,"name":"Dominus.","steam_id":76561199065917088,"connected_time":1011000000000,"state":"active","ping":71},{"user_id":92,"name":"fzubic6","steam_id":76561199390237727,"connected_time":280000000000,"state":"active","ping":83},{"user_id":74,"name":"Jendos","steam_id":76561198026471272,"connected_time":1625000000000,"state":"active","ping":114},{"user_id":93,"name":"PlebCord","steam_id":76561198120685803,"connected_time":234000000000,"state":"active","ping":76},{"user_id":53,"name":"Fat Pigeon","steam_id":76561198817940142,"connected_time":2740000000000,"state":"active","ping":45},{"user_id":78,"name":"wheelie bin","steam_id":76561198040040328,"connected_time":989000000000,"state":"active","ping":45},{"user_id":56,"name":"Smag","steam_id":76561198153675141,"connected_time":2579000000000,"state":"active","ping":55},{"user_id":82,"name":"dom free","steam_id":76561198271529535,"connected_time":802000000000,"state":"active","ping":80},{"user_id":57,"name":"PsychicTrampoline","steam_id":76561199466414348,"connected_time":2539000000000,"state":"active","ping":51},{"user_id":86,"name":"DannyWebbie","steam_id":76561198928086504,"connected_time":684000000000,"state":"active","ping":92},{"user_id":94,"name":"Bonca","steam_id":76561198137503531,"connected_time":231000000000,"state":"active","ping":75},{"user_id":85,"name":"Combat Wombat","steam_id":76561197994720068,"connected_time":726000000000,"state":"active","ping":55},{"user_id":35,"name":"Mr.O #deletesniper","steam_id":76561198039567498,"connected_time":3403000000000,"state":"active","ping":62},{"user_id":36,"name":"beurgeur","steam_id":76561198872426314,"connected_time":3400000000000,"state":"active","ping":38},{"user_id":87,"name":"OutOfRage","steam_id":76561198211205791,"connected_time":683000000000,"state":"active","ping":45},{"user_id":89,"name":"I am the one who donks","steam_id":76561198419583460,"connected_time":603000000000,"state":"active","ping":67},{"user_id":96,"name":"chey","steam_id":76561198035380064,"connected_time":188000000000,"state":"active","ping":59},{"user_id":95,"name":"RIFT","steam_id":76561198991622379,"connected_time":220000000000,"state":"active","ping":45}]},{"server_id":22,"name":"Uncletopia | London | 6 | All Maps","name_short":"lon-6","host":"lon-1.uk.uncletopia.com","port":27065,"enabled":true,"region":"eu","cc":"gb","latitude":51.509865,"longitude":-0.118092,"reserved":0,"last_update":"0001-01-01T00:00:00Z","name_a2s":"Uncletopia | London | 6 | All Maps","protocol":17,"map":"koth_cascade","folder":"tf","game":"Team Fortress","app_id":440,"player_count":0,"max_players":24,"Bots":0,"server_type":"Dedicated","server_os":"Linux","password":true,"vac":true,"version":"7742253","steam_id":85568392924742830,"keywords":["cp","nocrits","nodmgspread","uncletopia"],"game_id":440,"stv_port":27066,"stv_name":"Uncletopia | London | 6 | All Maps | STV","players":null},{"server_id":40,"name":"Uncletopia | London | 7 | No Payload","name_short":"lon-7","host":"lon-1.uk.uncletopia.com","port":27075,"enabled":true,"region":"eu","cc":"gb","latitude":51.509865,"longitude":-0.118092,"reserved":0,"last_update":"0001-01-01T00:00:00Z","name_a2s":"Uncletopia | London | 7 | No Payload","protocol":17,"map":"koth_viaduct","folder":"tf","game":"Team Fortress","app_id":440,"player_count":0,"max_players":24,"Bots":0,"server_type":"Dedicated","server_os":"Linux","password":true,"vac":true,"version":"7742253","steam_id":85568392924964314,"keywords":["cp","nocrits","nodmgspread","uncletopia"],"game_id":440,"stv_port":27076,"stv_name":"Uncletopia | London | 7 | No Payload | STV","players":null},{"server_id":41,"name":"Uncletopia | London | 8 | Community","name_short":"lon-8","host":"lon-1.uk.uncletopia.com","port":27085,"enabled":true,"region":"eu","cc":"gb","latitude":51.509865,"longitude":-0.118092,"reserved":0,"last_update":"0001-01-01T00:00:00Z","name_a2s":"Uncletopia | London | 8 | Community","protocol":17,"map":"cp_altitude","folder":"tf","game":"Team Fortress","app_id":440,"player_count":0,"max_players":24,"Bots":0,"server_type":"Dedicated","server_os":"Linux","password":true,"vac":true,"version":"7742253","steam_id":85568392924964315,"keywords":["cp","nocrits","nodmgspread","uncletopia"],"game_id":440,"stv_port":27086,"stv_name":"Uncletopia | London | 8 | Community | STV","players":null},{"server_id":300,"name":"Uncletopia | Montr√©al | 1 | All Maps","name_short":"mtl-1","host":"mtl-1.ca.uncletopia.com","port":27015,"enabled":true,"region":"us-east","cc":"ca","latitude":45.50889,"longitude":-73.56167,"reserved":0,"last_update":"0001-01-01T00:00:00Z","name_a2s":"Uncletopia | Montr√©al | 1 | All Maps","protocol":17,"map":"cp_snakewater_final1","folder":"tf","game":"Team Fortress","app_id":440,"player_count":0,"max_players":24,"Bots":0,"server_type":"Dedicated","server_os":"Linux","password":true,"vac":true,"version":"7742253","steam_id":85568392924500087,"keywords":["cp","nocrits","nodmgspread","uncletopia"],"game_id":440,"stv_port":27016,"stv_name":"Uncletopia | Montr√©al | 1 | All Maps | STV","players":null},{"server_id":301,"name":"Uncletopia | Montr√©al | 2 | All Maps","name_short":"mtl-2","host":"mtl-1.ca.uncletopia.com","port":27025,"enabled":true,"region":"us-east","cc":"ca","latitude":45.50889,"longitude":-73.56167,"reserved":0,"last_update":"0001-01-01T00:00:00Z","name_a2s":"Uncletopia | Montr√©al | 2 | All Maps","protocol":17,"map":"koth_highpass","folder":"tf","game":"Team Fortress","app_id":440,"player_count":0,"max_players":24,"Bots":0,"server_type":"Dedicated","server_os":"Linux","password":true,"vac":true,"version":"7742253","steam_id":85568392924500088,"keywords":["cp","nocrits","nodmgspread","uncletopia"],"game_id":440,"stv_port":27026,"stv_name":"Uncletopia | Montr√©al | 2 | All Maps | STV","players":null},{"server_id":302,"name":"Uncletopia | Montr√©al | 3 | All Maps","name_short":"mtl-3","host":"mtl-1.ca.uncletopia.com","port":27035,"enabled":true,"region":"us-east","cc":"ca","latitude":45.50889,"longitude":-73.56167,"reserved":0,"last_update":"0001-01-01T00:00:00Z","name_a2s":"Uncletopia | Montr√©al | 3 | All Maps","protocol":17,"map":"cp_mountainlab","folder":"tf","game":"Team Fortress","app_id":440,"player_count":0,"max_players":24,"Bots":0,"server_type":"Dedicated","server_os":"Linux","password":true,"vac":true,"version":"7742253","steam_id":85568392924500089,"keywords":["cp","nocrits","nodmgspread","uncletopia"],"game_id":440,"stv_port":27036,"stv_name":"Uncletopia | Montr√©al | 3 | All Maps | STV","players":null},{"server_id":303,"name":"Uncletopia | Montr√©al | 4 | No Payload","name_short":"mtl-4","host":"mtl-1.ca.uncletopia.com","port":27045,"enabled":true,"region":"us-east","cc":"ca","latitude":45.50889,"longitude":-73.56167,"reserved":0,"last_update":"0001-01-01T00:00:00Z","name_a2s":"Uncletopia | Montr√©al | 4 | No Payload","protocol":17,"map":"cp_snakewater_final1","folder":"tf","game":"Team Fortress","app_id":440,"player_count":0,"max_players":24,"Bots":0,"server_type":"Dedicated","server_os":"Linux","password":true,"vac":true,"version":"7742253","steam_id":85568392924500090,"keywords":["cp","nocrits","nodmgspread","uncletopia"],"game_id":440,"stv_port":27046,"stv_name":"Uncletopia | Montr√©al | 4 | No Payload | STV","players":null},{"server_id":13,"name":"Uncletopia | New York City | 1 | All Maps","name_short":"nyc-1","host":"nyc-1.us.uncletopia.com","port":27015,"enabled":true,"region":"us-east","cc":"us","latitude":40.73061,"longitude":-73.93524,"reserved":0,"last_update":"0001-01-01T00:00:00Z","name_a2s":"Uncletopia | New York City | 1 | All Maps","protocol":17,"map":"cp_mountainlab","folder":"tf","game":"Team Fortress","app_id":440,"player_count":0,"max_players":24,"Bots":0,"server_type":"Dedicated","server_os":"Linux","password":true,"vac":true,"version":"7742253","steam_id":85568392924469993,"keywords":["cp","nocrits","nodmgspread","uncletopia"],"game_id":440,"stv_port":27016,"stv_name":"Uncletopia | New York City | 1 | All Maps | STV","players":null},{"server_id":14,"name":"Uncletopia | New York City | 2 | All Maps","name_short":"nyc-2","host":"nyc-1.us.uncletopia.com","port":27025,"enabled":true,"region":"us-east","cc":"us","latitude":40.73061,"longitude":-73.93524,"reserved":0,"last_update":"0001-01-01T00:00:00Z","name_a2s":"Uncletopia | New York City | 2 | All Maps","protocol":17,"map":"cp_altitude","folder":"tf","game":"Team Fortress","app_id":440,"player_count":0,"max_players":24,"Bots":0,"server_type":"Dedicated","server_os":"Linux","password":true,"vac":true,"version":"7742253","steam_id":85568392924469994,"keywords":["cp","nocrits","nodmgspread","uncletopia"],"game_id":440,"stv_port":27026,"stv_name":"Uncletopia | New York City | 2 | All Maps | STV","players":null},{"server_id":15,"name":"Uncletopia | New York City | 3 | Stopwatch Beta","name_short":"nyc-3","host":"nyc-1.us.uncletopia.com","port":27035,"enabled":true,"region":"us-east","cc":"us","latitude":40.73061,"longitude":-73.93524,"reserved":0,"last_update":"0001-01-01T00:00:00Z","name_a2s":"Uncletopia | New York City | 3 | Stopwatch Beta","protocol":17,"map":"pl_pier","folder":"tf","game":"Team Fortress","app_id":440,"player_count":0,"max_players":24,"Bots":0,"server_type":"Dedicated","server_os":"Linux","password":true,"vac":true,"version":"7742253","steam_id":85568392924742820,"keywords":["nocrits","nodmgspread","payload","uncletopia"],"game_id":440,"stv_port":27036,"stv_name":"Uncletopia | New York City | 3 | Stopwatch Beta | STV","players":null},{"server_id":16,"name":"Uncletopia | New York City | 4 | Community","name_short":"nyc-4","host":"nyc-1.us.uncletopia.com","port":27045,"enabled":true,"region":"us-east","cc":"us","latitude":40.73061,"longitude":-73.93524,"reserved":0,"last_update":"0001-01-01T00:00:00Z","name_a2s":"Uncletopia | New York City | 4 | Community","protocol":17,"map":"koth_viaduct","folder":"tf","game":"Team Fortress","app_id":440,"player_count":0,"max_players":24,"Bots":0,"server_type":"Dedicated","server_os":"Linux","password":true,"vac":true,"version":"7742253","steam_id":85568392924742821,"keywords":["cp","nocrits","nodmgspread","uncletopia"],"game_id":440,"stv_port":27046,"stv_name":"Uncletopia | New York City | 4 | Community | STV","players":null},{"server_id":142,"name":"Uncletopia | S√£o Paulo | 1 | All Maps","name_short":"sao-1","host":"sao-1.br.uncletopia.com","port":27015,"enabled":true,"region":"sa","cc":"br","latitude":-23.533773,"longitude":-46.62529,"reserved":0,"last_update":"0001-01-01T00:00:00Z","name_a2s":"Uncletopia | S√£o Paulo | 1 | All Maps","protocol":17,"map":"koth_viaduct","folder":"tf","game":"Team Fortress","app_id":440,"player_count":2,"max_players":24,"Bots":0,"server_type":"Dedicated","server_os":"Linux","password":true,"vac":true,"version":"7742253","steam_id":85568392924469996,"keywords":["cp","nocrits","nodmgspread","uncletopia"],"game_id":440,"stv_port":27016,"stv_name":"Uncletopia | S√£o Paulo | 1 | All Maps | STV","players":[{"user_id":15,"name":"Ï¶à","steam_id":76561198143438576,"connected_time":559000000000,"state":"active","ping":34},{"user_id":14,"name":"Vic Rattlehead","steam_id":76561199232899925,"connected_time":679000000000,"state":"active","ping":50}]},{"server_id":143,"name":"Uncletopia | S√£o Paulo | 2 | All Maps","name_short":"sao-2","host":"sao-2.br.uncletopia.com","port":27015,"enabled":true,"region":"sa","cc":"br","latitude":-23.533773,"longitude":-46.62529,"reserved":0,"last_update":"0001-01-01T00:00:00Z","name_a2s":"Uncletopia | S√£o Paulo | 2 | All Maps","protocol":17,"map":"koth_viaduct","folder":"tf","game":"Team Fortress","app_id":440,"player_count":0,"max_players":24,"Bots":0,"server_type":"Dedicated","server_os":"Linux","password":true,"vac":true,"version":"7742253","steam_id":85568392924485349,"keywords":["cp","nocrits","nodmgspread","uncletopia"],"game_id":440,"stv_port":27016,"stv_name":"Uncletopia | S√£o Paulo | 2 | All Maps | STV","players":null},{"server_id":7,"name":"Uncletopia | Seattle | 1 | All Maps","name_short":"sea-1","host":"sea-1.us.uncletopia.com","port":27015,"enabled":true,"region":"us-west","cc":"us","latitude":47.608013,"longitude":-122.33517,"reserved":0,"last_update":"0001-01-01T00:00:00Z","name_a2s":"Uncletopia | Seattle | 1 | All Maps","protocol":17,"map":"pl_frontier_final","folder":"tf","game":"Team Fortress","app_id":440,"player_count":0,"max_players":24,"Bots":0,"server_type":"Dedicated","server_os":"Linux","password":true,"vac":true,"version":"7742253","steam_id":85568392924469997,"keywords":["nocrits","nodmgspread","payload","uncletopia"],"game_id":440,"stv_port":27016,"stv_name":"Uncletopia | Seattle | 1 | All Maps | STV","players":null},{"server_id":119,"name":"Uncletopia | Seattle | 2 | All Maps","name_short":"sea-2","host":"sea-1.us.uncletopia.com","port":27025,"enabled":true,"region":"us-west","cc":"us","latitude":47.608013,"longitude":-122.33517,"reserved":0,"last_update":"0001-01-01T00:00:00Z","name_a2s":"Uncletopia | Seattle | 2 | All Maps","protocol":17,"map":"pl_swiftwater_final1","folder":"tf","game":"Team Fortress","app_id":440,"player_count":0,"max_players":24,"Bots":0,"server_type":"Dedicated","server_os":"Linux","password":true,"vac":true,"version":"7742253","steam_id":85568392924469998,"keywords":["nocrits","nodmgspread","payload","uncletopia"],"game_id":440,"stv_port":27026,"stv_name":"Uncletopia | Seattle | 2 | All Maps | STV","players":null},{"server_id":406,"name":"Uncletopia | Seattle | 3 | Stopwatch Beta","name_short":"sea-3","host":"sea-1.us.uncletopia.com","port":27035,"enabled":true,"region":"us-west","cc":"us","latitude":47.608013,"longitude":-122.33517,"reserved":0,"last_update":"0001-01-01T00:00:00Z","name_a2s":"Uncletopia | Seattle | 3 | Stopwatch Beta","protocol":17,"map":"cp_altitude","folder":"tf","game":"Team Fortress","app_id":440,"player_count":0,"max_players":24,"Bots":0,"server_type":"Dedicated","server_os":"Linux","password":true,"vac":true,"version":"7742253","steam_id":85568392924515217,"keywords":["cp","nocrits","nodmgspread","uncletopia"],"game_id":440,"stv_port":27036,"stv_name":"Uncletopia | Seattle | 3 | Stopwatch Beta | STV","players":null},{"server_id":17,"name":"Uncletopia | San Francisco | 1 | All Maps","name_short":"sfo-1","host":"sfo-1.us.uncletopia.com","port":27015,"enabled":true,"region":"us-west","cc":"us","latitude":37.77397,"longitude":-122.4313,"reserved":0,"last_update":"0001-01-01T00:00:00Z","name_a2s":"Uncletopia | San Francisco | 1 | All Maps","protocol":17,"map":"pl_snowycoast","folder":"tf","game":"Team Fortress","app_id":440,"player_count":0,"max_players":24,"Bots":0,"server_type":"Dedicated","server_os":"Linux","password":true,"vac":true,"version":"7742253","steam_id":85568392924469999,"keywords":["nocrits","nodmgspread","payload","uncletopia"],"game_id":440,"stv_port":27016,"stv_name":"Uncletopia | San Francisco | 1 | All Maps | STV","players":null},{"server_id":18,"name":"Uncletopia | San Francisco | 2 | All Maps","name_short":"sfo-2","host":"sfo-1.us.uncletopia.com","port":27025,"enabled":true,"region":"us-west","cc":"us","latitude":37.77397,"longitude":-122.4313,"reserved":0,"last_update":"0001-01-01T00:00:00Z","name_a2s":"Uncletopia | San Francisco | 2 | All Maps","protocol":17,"map":"cp_altitude","folder":"tf","game":"Team Fortress","app_id":440,"player_count":0,"max_players":24,"Bots":0,"server_type":"Dedicated","server_os":"Linux","password":true,"vac":true,"version":"7742253","steam_id":85568392924470000,"keywords":["cp","nocrits","nodmgspread","uncletopia"],"game_id":440,"stv_port":27026,"stv_name":"Uncletopia | San Francisco | 2 | All Maps | STV","players":null},{"server_id":19,"name":"Uncletopia | San Francisco | 3 | Stopwatch Beta","name_short":"sfo-3","host":"sfo-1.us.uncletopia.com","port":27035,"enabled":true,"region":"us-west","cc":"us","latitude":37.77397,"longitude":-122.4313,"reserved":0,"last_update":"0001-01-01T00:00:00Z","name_a2s":"Uncletopia | San Francisco | 3 | Stopwatch Beta","protocol":17,"map":"koth_lakeside_final","folder":"tf","game":"Team Fortress","app_id":440,"player_count":2,"max_players":24,"Bots":0,"server_type":"Dedicated","server_os":"Linux","password":true,"vac":true,"version":"7742253","steam_id":85568392924742824,"keywords":["cp","nocrits","nodmgspread","uncletopia"],"game_id":440,"stv_port":27036,"stv_name":"Uncletopia | San Francisco | 3 | Stopwatch Beta | STV","players":[{"user_id":3,"name":"zehuelaracer","steam_id":76561199455364456,"connected_time":197000000000,"state":"active","ping":193},{"user_id":5,"name":"Archimedes???","steam_id":76561199390879401,"connected_time":132000000000,"state":"active","ping":213}]},{"server_id":20,"name":"Uncletopia | San Francisco | 4 | Community","name_short":"sfo-4","host":"sfo-1.us.uncletopia.com","port":27045,"enabled":true,"region":"us-west","cc":"us","latitude":37.77397,"longitude":-122.4313,"reserved":0,"last_update":"0001-01-01T00:00:00Z","name_a2s":"Uncletopia | San Francisco | 4 | Community","protocol":17,"map":"cp_dustbowl","folder":"tf","game":"Team Fortress","app_id":440,"player_count":0,"max_players":24,"Bots":0,"server_type":"Dedicated","server_os":"Linux","password":true,"vac":true,"version":"7742253","steam_id":85568392924742826,"keywords":["cp","nocrits","nodmgspread","uncletopia"],"game_id":440,"stv_port":27046,"stv_name":"Uncletopia | San Francisco | 4 | Community | STV","players":null},{"server_id":141,"name":"Uncletopia | Sydney | 1 | All Maps","name_short":"syd-1","host":"syd-1.au.uncletopia.com","port":27015,"enabled":true,"region":"au","cc":"au","latitude":-33.865143,"longitude":151.2099,"reserved":0,"last_update":"0001-01-01T00:00:00Z","name_a2s":"Uncletopia | Sydney | 1 | All Maps","protocol":17,"map":"cp_snakewater_final1","folder":"tf","game":"Team Fortress","app_id":440,"player_count":0,"max_players":24,"Bots":0,"server_type":"Dedicated","server_os":"Linux","password":true,"vac":true,"version":"7742253","steam_id":85568392924470001,"keywords":["cp","nocrits","nodmgspread","uncletopia"],"game_id":440,"stv_port":27016,"stv_name":"Uncletopia | Sydney | 1 | All Maps | STV","players":null},{"server_id":123,"name":"Uncletopia | Sydney | 2 | All Maps","name_short":"syd-2","host":"syd-1.au.uncletopia.com","port":27025,"enabled":true,"region":"au","cc":"au","latitude":-33.865143,"longitude":151.2099,"reserved":0,"last_update":"0001-01-01T00:00:00Z","name_a2s":"Uncletopia | Sydney | 2 | All Maps","protocol":17,"map":"pl_barnblitz","folder":"tf","game":"Team Fortress","app_id":440,"player_count":19,"max_players":24,"Bots":0,"server_type":"Dedicated","server_os":"Linux","password":true,"vac":true,"version":"7742253","steam_id":85568392924470002,"keywords":["nocrits","nodmgspread","payload","uncletopia"],"game_id":440,"stv_port":27026,"stv_name":"Uncletopia | Sydney | 2 | All Maps | STV","players":[{"user_id":857,"name":"Purple is the best colour","steam_id":76561198828481105,"connected_time":1250000000000,"state":"active","ping":139},{"user_id":855,"name":"artel","steam_id":76561198013735219,"connected_time":1476000000000,"state":"active","ping":53},{"user_id":809,"name":"A threat unbeknownst","steam_id":76561198293776102,"connected_time":6185000000000,"state":"active","ping":45},{"user_id":867,"name":"miracle","steam_id":76561199010236190,"connected_time":339000000000,"state":"active","ping":43},{"user_id":868,"name":"BIGNATE","steam_id":76561199207791519,"connected_time":137000000000,"state":"active","ping":93},{"user_id":869,"name":"maslowski02","steam_id":76561199410835527,"connected_time":51000000000,"state":"spawning","ping":312},{"user_id":790,"name":"Jiffy360","steam_id":76561198149550772,"connected_time":7964000000000,"state":"active","ping":90},{"user_id":861,"name":"‚àënigma ·∂† ≥·µâ·µâ  ∞·µè üçú","steam_id":76561198074888825,"connected_time":811000000000,"state":"active","ping":46},{"user_id":810,"name":"xfol","steam_id":76561197973048879,"connected_time":6145000000000,"state":"active","ping":63},{"user_id":823,"name":"Paradon YT","steam_id":76561198060176705,"connected_time":3894000000000,"state":"active","ping":106},{"user_id":817,"name":"Jad","steam_id":76561198453862581,"connected_time":5355000000000,"state":"active","ping":92},{"user_id":826,"name":"old chunk of coal","steam_id":76561197990537324,"connected_time":3606000000000,"state":"active","ping":107},{"user_id":832,"name":"Bending Unit 22","steam_id":76561197963944556,"connected_time":3373000000000,"state":"active","ping":57},{"user_id":828,"name":"zavati","steam_id":76561198240272824,"connected_time":3547000000000,"state":"active","ping":142},{"user_id":848,"name":"Bing Soy","steam_id":76561198057093383,"connected_time":2347000000000,"state":"active","ping":45},{"user_id":849,"name":"aerO.","steam_id":76561197988828263,"connected_time":2111000000000,"state":"active","ping":59},{"user_id":776,"name":"Soru","steam_id":76561198010844786,"connected_time":8413000000000,"state":"active","ping":70},{"user_id":788,"name":"Plowie789","steam_id":76561198144492322,"connected_time":8065000000000,"state":"active","ping":79},{"user_id":841,"name":"WickedOS","steam_id":76561198452767008,"connected_time":3168000000000,"state":"active","ping":49}]},{"server_id":395,"name":"Uncletopia | Sydney | 3 | All Maps","name_short":"syd-3","host":"syd-1.au.uncletopia.com","port":27035,"enabled":true,"region":"au","cc":"au","latitude":-33.865143,"longitude":151.2099,"reserved":0,"last_update":"0001-01-01T00:00:00Z","name_a2s":"Uncletopia | Sydney | 3 | All Maps","protocol":17,"map":"koth_king","folder":"tf","game":"Team Fortress","app_id":440,"player_count":0,"max_players":24,"Bots":0,"server_type":"Dedicated","server_os":"Linux","password":true,"vac":true,"version":"7742253","steam_id":85568392925194467,"keywords":["cp","nocrits","nodmgspread","uncletopia"],"game_id":440,"stv_port":27036,"stv_name":"Uncletopia | Sydney | 3 | All Maps | STV","players":null},{"server_id":396,"name":"Uncletopia | Sydney | 4 | All Maps","name_short":"syd-4","host":"syd-1.au.uncletopia.com","port":27045,"enabled":true,"region":"au","cc":"au","latitude":-33.865143,"longitude":151.2099,"reserved":0,"last_update":"0001-01-01T00:00:00Z","name_a2s":"Uncletopia | Sydney | 4 | All Maps","protocol":17,"map":"pl_frontier_final","folder":"tf","game":"Team Fortress","app_id":440,"player_count":0,"max_players":24,"Bots":0,"server_type":"Dedicated","server_os":"Linux","password":true,"vac":true,"version":"7742253","steam_id":85568392925397958,"keywords":["nocrits","nodmgspread","payload","uncletopia"],"game_id":440,"stv_port":27046,"stv_name":"Uncletopia | Sydney | 4 | All Maps | STV","players":null},{"server_id":58,"name":"Uncletopia | Sydney | 5 | Stopwatch Beta","name_short":"syd-5","host":"syd-1.au.uncletopia.com","port":27055,"enabled":true,"region":"au","cc":"au","latitude":-33.865143,"longitude":151.2099,"reserved":0,"last_update":"0001-01-01T00:00:00Z","name_a2s":"Uncletopia | Sydney | 5 | Stopwatch Beta","protocol":17,"map":"workshop/pl_summercoast_rc8e.ugc1761528829","folder":"tf","game":"Team Fortress","app_id":440,"player_count":0,"max_players":24,"Bots":0,"server_type":"Dedicated","server_os":"Linux","password":true,"vac":true,"version":"7742253","steam_id":85568392925397959,"keywords":["nocrits","nodmgspread","payload","uncletopia"],"game_id":440,"stv_port":27056,"stv_name":"Uncletopia | Sydney | 5 | Stopwatch Beta | STV","players":null},{"server_id":59,"name":"Uncletopia | Sydney | 6 | Community","name_short":"syd-6","host":"syd-1.au.uncletopia.com","port":27065,"enabled":true,"region":"au","cc":"au","latitude":-33.865143,"longitude":151.2099,"reserved":0,"last_update":"0001-01-01T00:00:00Z","name_a2s":"Uncletopia | Sydney | 6 | Community","protocol":17,"map":"workshop/koth_ramjam_rc1.ugc459778887","folder":"tf","game":"Team Fortress","app_id":440,"player_count":0,"max_players":24,"Bots":0,"server_type":"Dedicated","server_os":"Linux","password":true,"vac":true,"version":"7742253","steam_id":85568392925397960,"keywords":["cp","nocrits","nodmgspread","uncletopia"],"game_id":440,"stv_port":27066,"stv_name":"Uncletopia | Sydney | 6 | Community | STV","players":null},{"server_id":49,"name":"Uncletopia | Warsaw | 1 | All Maps","name_short":"waw-1","host":"waw-1.pl.uncletopia.com","port":27015,"enabled":true,"region":"eu","cc":"pl","latitude":52.2297,"longitude":21.017532,"reserved":0,"last_update":"0001-01-01T00:00:00Z","name_a2s":"","protocol":0,"map":"","folder":"","game":"","app_id":0,"player_count":0,"max_players":0,"Bots":0,"server_type":"","server_os":"","password":false,"vac":false,"version":"","steam_id":0,"keywords":null,"game_id":0,"stv_port":0,"stv_name":"","players":null},{"server_id":50,"name":"Uncletopia | Warsaw | 2 | All Maps","name_short":"waw-2","host":"waw-1.pl.uncletopia.com","port":27025,"enabled":true,"region":"eu","cc":"pl","latitude":52.2297,"longitude":21.017532,"reserved":0,"last_update":"0001-01-01T00:00:00Z","name_a2s":"Uncletopia | Warsaw | 2 | All Maps","protocol":17,"map":"pl_borneo","folder":"tf","game":"Team Fortress","app_id":440,"player_count":0,"max_players":24,"Bots":0,"server_type":"Dedicated","server_os":"Linux","password":true,"vac":true,"version":"7742253","steam_id":85568392925397851,"keywords":["nocrits","nodmgspread","payload","uncletopia"],"game_id":440,"stv_port":27026,"stv_name":"Uncletopia | Warsaw | 2 | All Maps | STV","players":null},{"server_id":51,"name":"Uncletopia | Warsaw | 3 | All Maps","name_short":"waw-3","host":"waw-1.pl.uncletopia.com","port":27035,"enabled":true,"region":"eu","cc":"pl","latitude":52.2297,"longitude":21.017532,"reserved":0,"last_update":"0001-01-01T00:00:00Z","name_a2s":"Uncletopia | Warsaw | 3 | All Maps","protocol":17,"map":"koth_lakeside_final","folder":"tf","game":"Team Fortress","app_id":440,"player_count":0,"max_players":24,"Bots":0,"server_type":"Dedicated","server_os":"Linux","password":true,"vac":true,"version":"7742253","steam_id":85568392925397852,"keywords":["cp","nocrits","nodmgspread","uncletopia"],"game_id":440,"stv_port":27036,"stv_name":"Uncletopia | Warsaw | 3 | All Maps | STV","players":null},{"server_id":52,"name":"Uncletopia | Warsaw | 4 | All Maps","name_short":"waw-4","host":"waw-1.pl.uncletopia.com","port":27045,"enabled":true,"region":"eu","cc":"pl","latitude":52.2297,"longitude":21.017532,"reserved":0,"last_update":"0001-01-01T00:00:00Z","name_a2s":"Uncletopia | Warsaw | 4 | All Maps","protocol":17,"map":"koth_king","folder":"tf","game":"Team Fortress","app_id":440,"player_count":10,"max_players":24,"Bots":0,"server_type":"Dedicated","server_os":"Linux","password":true,"vac":true,"version":"7742253","steam_id":85568392925397853,"keywords":["cp","nocrits","nodmgspread","uncletopia"],"game_id":440,"stv_port":27046,"stv_name":"Uncletopia | Warsaw | 4 | All Maps | STV","players":[{"user_id":37,"name":"King Fightist","steam_id":76561198159987523,"connected_time":540000000000,"state":"active","ping":159},{"user_id":12,"name":"Lordware","steam_id":76561198022011299,"connected_time":2110000000000,"state":"active","ping":92},{"user_id":14,"name":"Osmo","steam_id":76561199286764992,"connected_time":2087000000000,"state":"active","ping":45},{"user_id":29,"name":"non_ai","steam_id":76561198270951938,"connected_time":1111000000000,"state":"active","ping":149},{"user_id":39,"name":"Mann o' Sticky's","steam_id":76561199236549417,"connected_time":295000000000,"state":"active","ping":153},{"user_id":18,"name":"bad 2 za bona","steam_id":76561199065919134,"connected_time":1739000000000,"state":"active","ping":33},{"user_id":27,"name":"Accwith12chr","steam_id":76561198311593297,"connected_time":1381000000000,"state":"active","ping":87},{"user_id":21,"name":"Gecko4526 (tera.gg)","steam_id":76561199206805585,"connected_time":1597000000000,"state":"active","ping":292},{"user_id":33,"name":"autistic luigi","steam_id":76561199218285040,"connected_time":876000000000,"state":"active","ping":46},{"user_id":34,"name":"Pain","steam_id":76561198106997949,"connected_time":835000000000,"state":"active","ping":48}]},{"server_id":53,"name":"Uncletopia | Warsaw | 5 | Stopwatch Beta","name_short":"waw-5","host":"waw-1.pl.uncletopia.com","port":27055,"enabled":true,"region":"eu","cc":"pl","latitude":52.2297,"longitude":21.017532,"reserved":0,"last_update":"0001-01-01T00:00:00Z","name_a2s":"Uncletopia | Warsaw | 5 | Stopwatch Beta","protocol":17,"map":"pl_swiftwater_final1","folder":"tf","game":"Team Fortress","app_id":440,"player_count":0,"max_players":24,"Bots":0,"server_type":"Dedicated","server_os":"Linux","password":true,"vac":true,"version":"7742253","steam_id":85568392925397854,"keywords":["nocrits","nodmgspread","payload","uncletopia"],"game_id":440,"stv_port":27056,"stv_name":"Uncletopia | Warsaw | 5 | Stopwatch Beta | STV","players":null},{"server_id":54,"name":"Uncletopia | Warsaw | 6 | Community","name_short":"waw-6","host":"waw-1.pl.uncletopia.com","port":27065,"enabled":true,"region":"eu","cc":"pl","latitude":52.2297,"longitude":21.017532,"reserved":0,"last_update":"0001-01-01T00:00:00Z","name_a2s":"Uncletopia | Warsaw | 6 | Community","protocol":17,"map":"koth_highpass","folder":"tf","game":"Team Fortress","app_id":440,"player_count":0,"max_players":24,"Bots":0,"server_type":"Dedicated","server_os":"Linux","password":true,"vac":true,"version":"7742253","steam_id":85568392925397856,"keywords":["cp","nocrits","nodmgspread","uncletopia"],"game_id":440,"stv_port":27066,"stv_name":"Uncletopia | Warsaw | 6 | Community | STV","players":null}]}