{"status":true,"message":"","result":[{"server_id":9,"name":"Uncletopia | Atlanta | 1 | All Maps","name_short":"atl-1","host":"atl-1.us.uncletopia.com","port":27015,"enabled":true,"region":"us-east","cc":"us","latitude":33.753746,"longitude":-84.38633,"reserved":0,"last_update":"0001-01-01T00:00:00Z","name_a2s":"Uncletopia | Atlanta | 1 | All Maps","protocol":17,"map":"koth_highpass","folder":"tf","game":"Team Fortress","app_id":440,"player_count":0,"max_players":24,"Bots":0,"server_type":"Dedicated","server_os":"Linux","password":true,"vac":true,"version":"7757534","steam_id":85568392924469982,"keywords":["cp","nocrits","nodmgspread","uncletopia"],"game_id":440,"stv_port":27016,"stv_name":"Uncletopia | Atlanta | 1 | All Maps | STV","players":null},{"server_id":400,"name":"Uncletopia | Atlanta | 3 | Community","name_short":"atl-3","host":"atl-1.us.uncletopia.com","port":27035,"enabled":true,"region":"us-east","cc":"us","latitude":33.753746,"longitude":-84.38633,"reserved":0,"last_update":"0001-01-01T00:00:00Z","name_a2s":"Uncletopia | Atlanta | 3 | Community","protocol":17,"map":"cp_mountainlab","folder":"tf","game":"Team Fortress","app_id":440,"player_count":0,"max_players":24,"Bots":0,"server_type":"Dedicated","server_os":"Linux","password":true,"vac":true,"version":"7757534","steam_id":85568392924515187,"keywords":["cp","nocrits","nodmgspread","uncletopia"],"game_id":440,"stv_port":27036,"stv_name":"Uncletopia | Atlanta | 3 | Community | STV","players":null},{"server_id":401,"name":"Uncletopia | Atlanta | 4 | No Payload","name_short":"atl-4","host":"atl-1.us.uncletopia.com","port":27045,"enabled":true,"region":"us-east","cc":"us","latitude":33.753746,"longitude":-84.38633,"reserved":0,"last_update":"0001-01-01T00:00:00Z","name_a2s":"","protocol":0,"map":"","folder":"","game":"","app_id":0,"player_count":0,"max_players":0,"Bots":0,"server_type":"","server_os":"","password":false,"vac":false,"version":"","steam_id":0,"keywords":null,"game_id":0,"stv_port":0,"stv_name":"","players":null},{"server_id":2,"name":"Uncletopia | Chicago | 1 | All Maps","name_short":"chi-1","host":"chi-1.us.uncletopia.com","port":27015,"enabled":true,"region":"us-central","cc":"us","latitude":41.881832,"longitude":-87.62318,"reserved":0,"last_update":"0001-01-01T00:00:00Z","name_a2s":"Uncletopia | Chicago | 1 | All Maps","protocol":17,"map":"pl_frontier_final","folder":"tf","game":"Team Fortress","app_id":440,"player_count":24,"max_players":24,"Bots":0,"server_type":"Dedicated","server_os":"Linux","password":true,"vac":true,"version":"7757534","steam_id":85568392924469984,"keywords":["nocrits","nodmgspread","payload","uncletopia"],"game_id":440,"stv_port":27016,"stv_name":"Uncletopia | Chicago | 1 | All Maps | STV","players":[{"user_id":1095,"name":"ceetu ‰ªñ‰ª¨Êù•‰∫Ü ‰ªñ‰ª¨Êù•‰∫Ü","steam_id":76561198393892843,"connected_time":2437000000000,"state":"active","ping":74},{"user_id":1130,"name":".mei","steam_id":76561198133887117,"connected_time":18000000000,"state":"active","ping":78},{"user_id":1088,"name":"Eden","steam_id":76561198075587475,"connected_time":2795000000000,"state":"active","ping":38},{"user_id":1096,"name":"Squid","steam_id":76561198092753658,"connected_time":2334000000000,"state":"active","ping":78},{"user_id":1116,"name":"momb","steam_id":76561198142234038,"connected_time":796000000000,"state":"active","ping":84},{"user_id":1099,"name":"HotboyMcgee","steam_id":76561198904731782,"connected_time":2107000000000,"state":"active","ping":90},{"user_id":1126,"name":"TTV Cheerfulmarioba","steam_id":76561198312859090,"connected_time":519000000000,"state":"active","ping":75},{"user_id":1094,"name":"Kobicha","steam_id":76561198144970720,"connected_time":2538000000000,"state":"active","ping":90},{"user_id":1129,"name":"StarlightTH","steam_id":76561198046922727,"connected_time":52000000000,"state":"spawning","ping":175},{"user_id":1077,"name":"mechiimi ‚òÖ","steam_id":76561198321627268,"connected_time":4596000000000,"state":"active","ping":119},{"user_id":1117,"name":"üå∏MelWormüå∏","steam_id":76561198084145814,"connected_time":739000000000,"state":"active","ping":67},{"user_id":1103,"name":"Ket","steam_id":76561198241951244,"connected_time":1932000000000,"state":"active","ping":59},{"user_id":1104,"name":"Kaluka","steam_id":76561198036861445,"connected_time":1863000000000,"state":"active","ping":99},{"user_id":1124,"name":"BaDboY6996","steam_id":76561197969386201,"connected_time":588000000000,"state":"active","ping":60},{"user_id":1106,"name":"KingToaster","steam_id":76561198007903802,"connected_time":1830000000000,"state":"active","ping":82},{"user_id":1123,"name":"vOMIT BOY","steam_id":76561198167279375,"connected_time":606000000000,"state":"active","ping":95},{"user_id":1113,"name":"Tee","steam_id":76561198213326445,"connected_time":1321000000000,"state":"active","ping":97},{"user_id":1110,"name":"CrossFire","steam_id":76561198005437496,"connected_time":1702000000000,"state":"active","ping":99},{"user_id":1128,"name":"Doc","steam_id":76561198044196439,"connected_time":192000000000,"state":"active","ping":128},{"user_id":1042,"name":"Pyrovision Enthusiast","steam_id":76561198211892779,"connected_time":7542000000000,"state":"active","ping":63},{"user_id":1111,"name":"Victor","steam_id":76561198848984975,"connected_time":1574000000000,"state":"active","ping":86},{"user_id":1112,"name":"Shmoo","steam_id":76561198809915108,"connected_time":1541000000000,"state":"active","ping":85},{"user_id":1114,"name":"Evolution","steam_id":76561198144767370,"connected_time":1104000000000,"state":"active","ping":57},{"user_id":1122,"name":"MY RATCHET BM CALLING #DECLINED","steam_id":76561198144766439,"connected_time":684000000000,"state":"active","ping":43}]},{"server_id":106,"name":"Uncletopia | Chicago | 2 | All Maps","name_short":"chi-2","host":"chi-1.us.uncletopia.com","port":27025,"enabled":true,"region":"us-central","cc":"us","latitude":41.881832,"longitude":-87.62318,"reserved":0,"last_update":"0001-01-01T00:00:00Z","name_a2s":"Uncletopia | Chicago | 2 | All Maps","protocol":17,"map":"pl_snowycoast","folder":"tf","game":"Team Fortress","app_id":440,"player_count":0,"max_players":24,"Bots":0,"server_type":"Dedicated","server_os":"Linux","password":true,"vac":true,"version":"7757534","steam_id":85568392924469985,"keywords":["nocrits","nodmgspread","payload","uncletopia"],"game_id":440,"stv_port":27026,"stv_name":"Uncletopia | Chicago | 2 | All Maps | STV","players":null},{"server_id":402,"name":"Uncletopia | Chicago | 3 | All Maps","name_short":"chi-3","host":"chi-1.us.uncletopia.com","port":27035,"enabled":true,"region":"us-central","cc":"us","latitude":41.881832,"longitude":-87.62318,"reserved":0,"last_update":"0001-01-01T00:00:00Z","name_a2s":"Uncletopia | Chicago | 3 | All Maps","protocol":17,"map":"cp_process_final","folder":"tf","game":"Team Fortress","app_id":440,"player_count":0,"max_players":24,"Bots":0,"server_type":"Dedicated","server_os":"Linux","password":true,"vac":true,"version":"7757534","steam_id":85568392924515191,"keywords":["cp","nocrits","nodmgspread","uncletopia"],"game_id":440,"stv_port":27036,"stv_name":"Uncletopia | Chicago | 3 | All Maps | STV","players":null},{"server_id":403,"name":"Uncletopia | Chicago | 4 | All Maps","name_short":"chi-4","host":"chi-1.us.uncletopia.com","port":27045,"enabled":true,"region":"us-central","cc":"us","latitude":41.881832,"longitude":-87.62318,"reserved":0,"last_update":"0001-01-01T00:00:00Z","name_a2s":"Uncletopia | Chicago | 4 | All Maps","protocol":17,"map":"koth_cascade","folder":"tf","game":"Team Fortress","app_id":440,"player_count":0,"max_players":24,"Bots":0,"server_type":"Dedicated","server_os":"Linux","password":true,"vac":true,"version":"7757534","steam_id":85568392924515193,"keywords":["cp","nocrits","nodmgspread","uncletopia"],"game_id":440,"stv_port":27046,"stv_name":"Uncletopia | Chicago | 4 | All Maps | STV","players":null},{"server_id":36,"name":"Uncletopia | Chicago | 5 | All Maps","name_short":"chi-5","host":"chi-2.us.uncletopia.com","port":27015,"enabled":true,"region":"us-central","cc":"us","latitude":41.881832,"longitude":-87.62318,"reserved":0,"last_update":"0001-01-01T00:00:00Z","name_a2s":"Uncletopia | Chicago | 5 | All Maps","protocol":17,"map":"pl_snowycoast","folder":"tf","game":"Team Fortress","app_id":440,"player_count":0,"max_players":24,"Bots":0,"server_type":"Dedicated","server_os":"Linux","password":true,"vac":true,"version":"7757534","steam_id":85568392924866362,"keywords":["nocrits","nodmgspread","payload","uncletopia"],"game_id":440,"stv_port":27016,"stv_name":"Uncletopia | Chicago | 5 | All Maps | STV","players":null},{"server_id":37,"name":"Uncletopia | Chicago | 6 | All Maps","name_short":"chi-6","host":"chi-2.us.uncletopia.com","port":27025,"enabled":true,"region":"us-central","cc":"us","latitude":41.881832,"longitude":-87.62318,"reserved":0,"last_update":"0001-01-01T00:00:00Z","name_a2s":"Uncletopia | Chicago | 6 | All Maps","protocol":17,"map":"pl_snowycoast","folder":"tf","game":"Team Fortress","app_id":440,"player_count":0,"max_players":24,"Bots":0,"server_type":"Dedicated","server_os":"Linux","password":true,"vac":true,"version":"7757534","steam_id":85568392924866363,"keywords":["nocrits","nodmgspread","payload","uncletopia"],"game_id":440,"stv_port":27026,"stv_name":"Uncletopia | Chicago | 6 | All Maps | STV","players":null},{"server_id":38,"name":"Uncletopia | Chicago | 7 | Stopwatch Beta","name_short":"chi-7","host":"chi-2.us.uncletopia.com","port":27035,"enabled":true,"region":"us-central","cc":"us","latitude":41.881832,"longitude":-87.62318,"reserved":0,"last_update":"0001-01-01T00:00:00Z","name_a2s":"Uncletopia | Chicago | 7 | Stopwatch Beta","protocol":17,"map":"koth_viaduct","folder":"tf","game":"Team Fortress","app_id":440,"player_count":0,"max_players":24,"Bots":0,"server_type":"Dedicated","server_os":"Linux","password":true,"vac":true,"version":"7757534","steam_id":85568392924866364,"keywords":["cp","nocrits","nodmgspread","uncletopia"],"game_id":440,"stv_port":27036,"stv_name":"Uncletopia | Chicago | 7 | Stopwatch Beta | STV","players":null},{"server_id":39,"name":"Uncletopia | Chicago | 8 | Community","name_short":"chi-8","host":"chi-2.us.uncletopia.com","port":27045,"enabled":true,"region":"us-central","cc":"us","latitude":41.881832,"longitude":-87.62318,"reserved":0,"last_update":"0001-01-01T00:00:00Z","name_a2s":"Uncletopia | Chicago | 8 | Community","protocol":17,"map":"workshop/koth_ramjam_rc1.ugc459778887","folder":"tf","game":"Team Fortress","app_id":440,"player_count":0,"max_players":24,"Bots":0,"server_type":"Dedicated","server_os":"Linux","password":true,"vac":true,"version":"7757534","steam_id":85568392924866365,"keywords":["cp","nocrits","nodmgspread","uncletopia"],"game_id":440,"stv_port":27046,"stv_name":"Uncletopia | Chicago | 8 | Community | STV","players":null},{"server_id":8,"name":"Uncletopia | Dallas | 1 | All Maps","name_short":"dal-1","host":"dal-1.us.uncletopia.com","port":27015,"enabled":true,"region":"us-central","cc":"us","latitude":32.779167,"longitude":-96.80889,"reserved":0,"last_update":"0001-01-01T00:00:00Z","name_a2s":"Uncletopia | Dallas | 1 | All Maps","protocol":17,"map":"cp_snakewater_final1","folder":"tf","game":"Team Fortress","app_id":440,"player_count":0,"max_players":24,"Bots":0,"server_type":"Dedicated","server_os":"Linux","password":true,"vac":true,"version":"7757534","steam_id":85568392924469986,"keywords":["cp","nocrits","nodmgspread","uncletopia"],"game_id":440,"stv_port":27016,"stv_name":"Uncletopia | Dallas | 1 | All Maps | STV","players":null},{"server_id":108,"name":"Uncletopia | Dallas | 2 | All Maps","name_short":"dal-2","host":"dal-1.us.uncletopia.com","port":27025,"enabled":true,"region":"us-central","cc":"us","latitude":32.779167,"longitude":-96.80889,"reserved":0,"last_update":"0001-01-01T00:00:00Z","name_a2s":"Uncletopia | Dallas | 2 | All Maps","protocol":17,"map":"pl_swiftwater_final1","folder":"tf","game":"Team Fortress","app_id":440,"player_count":0,"max_players":24,"Bots":0,"server_type":"Dedicated","server_os":"Linux","password":true,"vac":true,"version":"7757534","steam_id":85568392924469988,"keywords":["nocrits","nodmgspread","payload","uncletopia"],"game_id":440,"stv_port":27026,"stv_name":"Uncletopia | Dallas | 2 | All Maps | STV","players":null},{"server_id":5,"name":"Uncletopia | Frankfurt | 1 | All Maps","name_short":"frk-1","host":"frk-1.de.uncletopia.com","port":27015,"enabled":true,"region":"eu","cc":"de","latitude":50.110924,"longitude":8.682127,"reserved":0,"last_update":"0001-01-01T00:00:00Z","name_a2s":"Uncletopia | Frankfurt | 1 | All Maps","protocol":17,"map":"pl_badwater","folder":"tf","game":"Team Fortress","app_id":440,"player_count":24,"max_players":24,"Bots":0,"server_type":"Dedicated","server_os":"Linux","password":true,"vac":true,"version":"7757534","steam_id":85568392924469989,"keywords":["nocrits","nodmgspread","payload","uncletopia"],"game_id":440,"stv_port":27016,"stv_name":"Uncletopia | Frankfurt | 1 | All Maps | STV","players":[{"user_id":155,"name":"Leibeigener","steam_id":76561199275478305,"connected_time":1091000000000,"state":"active","ping":39},{"user_id":109,"name":"on1on (pickled)","steam_id":76561197995304137,"connected_time":4336000000000,"state":"active","ping":58},{"user_id":174,"name":"Hussite","steam_id":76561199293036742,"connected_time":111000000000,"state":"active","ping":45},{"user_id":133,"name":"Diavolo","steam_id":76561198846232981,"connected_time":2961000000000,"state":"active","ping":151},{"user_id":172,"name":"6 headed goat","steam_id":76561199232442508,"connected_time":121000000000,"state":"active","ping":72},{"user_id":156,"name":"Anti_Dragon","steam_id":76561198969060607,"connected_time":1071000000000,"state":"active","ping":119},{"user_id":159,"name":"aGryphoN","steam_id":76561198245175308,"connected_time":891000000000,"state":"active","ping":64},{"user_id":110,"name":"I've got a ruddy gun","steam_id":76561198031573426,"connected_time":4333000000000,"state":"active","ping":72},{"user_id":143,"name":"Carry Krypl","steam_id":76561198136938121,"connected_time":1959000000000,"state":"active","ping":56},{"user_id":160,"name":"poliakov.noam","steam_id":76561199259322961,"connected_time":888000000000,"state":"active","ping":110},{"user_id":168,"name":"weSt","steam_id":76561198000913325,"connected_time":493000000000,"state":"active","ping":56},{"user_id":171,"name":"Seeker","steam_id":76561198873052772,"connected_time":144000000000,"state":"active","ping":63},{"user_id":173,"name":"Quack","steam_id":76561198048712219,"connected_time":120000000000,"state":"active","ping":69},{"user_id":175,"name":"Kahvi","steam_id":76561198723244199,"connected_time":111000000000,"state":"active","ping":77},{"user_id":123,"name":"Ane≈•√°k","steam_id":76561198159294906,"connected_time":3489000000000,"state":"active","ping":52},{"user_id":147,"name":"naleksi","steam_id":76561198018391055,"connected_time":1515000000000,"state":"active","ping":102},{"user_id":161,"name":"Dzieciol","steam_id":76561198160237556,"connected_time":774000000000,"state":"active","ping":70},{"user_id":134,"name":"squo","steam_id":76561198324357479,"connected_time":2878000000000,"state":"active","ping":75},{"user_id":167,"name":"baijro","steam_id":76561198061001376,"connected_time":498000000000,"state":"active","ping":66},{"user_id":170,"name":"Edla","steam_id":76561198062815315,"connected_time":425000000000,"state":"active","ping":106},{"user_id":176,"name":"Igames","steam_id":76561198414062544,"connected_time":103000000000,"state":"active","ping":62},{"user_id":136,"name":"Bob Sacamano","steam_id":76561198085610701,"connected_time":2584000000000,"state":"active","ping":93},{"user_id":166,"name":"FlameTheGame","steam_id":76561198841108519,"connected_time":588000000000,"state":"active","ping":78},{"user_id":152,"name":"materacci","steam_id":76561198213421904,"connected_time":1249000000000,"state":"active","ping":89}]},{"server_id":110,"name":"Uncletopia | Frankfurt | 2 | All Maps","name_short":"frk-2","host":"frk-1.de.uncletopia.com","port":27025,"enabled":true,"region":"eu","cc":"de","latitude":50.110924,"longitude":8.682127,"reserved":0,"last_update":"0001-01-01T00:00:00Z","name_a2s":"Uncletopia | Frankfurt | 2 | All Maps","protocol":17,"map":"pl_swiftwater_final1","folder":"tf","game":"Team Fortress","app_id":440,"player_count":0,"max_players":24,"Bots":0,"server_type":"Dedicated","server_os":"Linux","password":true,"vac":true,"version":"7757534","steam_id":85568392924469990,"keywords":["nocrits","nodmgspread","payload","uncletopia"],"game_id":440,"stv_port":27026,"stv_name":"Uncletopia | Frankfurt | 2 | All Maps | STV","players":null},{"server_id":308,"name":"Uncletopia | Frankfurt | 3 | All Maps","name_short":"frk-3","host":"frk-1.de.uncletopia.com","port":27035,"enabled":true,"region":"eu","cc":"de","latitude":50.110924,"longitude":8.682127,"reserved":0,"last_update":"0001-01-01T00:00:00Z","name_a2s":"Uncletopia | Frankfurt | 3 | All Maps","protocol":17,"map":"koth_viaduct","folder":"tf","game":"Team Fortress","app_id":440,"player_count":0,"max_players":24,"Bots":0,"server_type":"Dedicated","server_os":"Linux","password":true,"vac":true,"version":"7757534","steam_id":85568392924504274,"keywords":["cp","nocrits","nodmgspread","uncletopia"],"game_id":440,"stv_port":27036,"stv_name":"Uncletopia | Frankfurt | 3 | All Maps | STV","players":null},{"server_id":309,"name":"Uncletopia | Frankfurt | 4 | All Maps","name_short":"frk-4","host":"frk-1.de.uncletopia.com","port":27045,"enabled":true,"region":"eu","cc":"de","latitude":50.110924,"longitude":8.682127,"reserved":0,"last_update":"0001-01-01T00:00:00Z","name_a2s":"Uncletopia | Frankfurt | 4 | All Maps","protocol":17,"map":"pl_badwater","folder":"tf","game":"Team Fortress","app_id":440,"player_count":24,"max_players":24,"Bots":0,"server_type":"Dedicated","server_os":"Linux","password":true,"vac":true,"version":"7757534","steam_id":85568392924504275,"keywords":["nocrits","nodmgspread","payload","uncletopia"],"game_id":440,"stv_port":27046,"stv_name":"Uncletopia | Frankfurt | 4 | All Maps | STV","players":[{"user_id":116,"name":"Kapitan Polska","steam_id":76561197968069413,"connected_time":1440000000000,"state":"active","ping":72},{"user_id":83,"name":"Amandus","steam_id":76561198036281079,"connected_time":3553000000000,"state":"active","ping":57},{"user_id":87,"name":"XfarisGamerX","steam_id":76561198367579380,"connected_time":3466000000000,"state":"active","ping":130},{"user_id":7,"name":"Aspartus","steam_id":76561198101385763,"connected_time":7513000000000,"state":"active","ping":32},{"user_id":108,"name":"Ale","steam_id":76561198908841078,"connected_time":1715000000000,"state":"active","ping":83},{"user_id":95,"name":"Roby","steam_id":76561198358015863,"connected_time":2955000000000,"state":"active","ping":84},{"user_id":111,"name":"ympoop","steam_id":76561198202441870,"connected_time":1547000000000,"state":"active","ping":60},{"user_id":109,"name":"I am piss man","steam_id":76561198039209685,"connected_time":1648000000000,"state":"active","ping":57},{"user_id":113,"name":"heavy sings (real)","steam_id":76561199023804405,"connected_time":1495000000000,"state":"active","ping":74},{"user_id":102,"name":"rather be a ghost","steam_id":76561198192838927,"connected_time":2068000000000,"state":"active","ping":94},{"user_id":82,"name":"Michael Jesus","steam_id":76561198060895626,"connected_time":3692000000000,"state":"active","ping":72},{"user_id":74,"name":"Proto-arc","steam_id":76561198012776747,"connected_time":4220000000000,"state":"active","ping":57},{"user_id":122,"name":"Socks","steam_id":76561198255241161,"connected_time":323000000000,"state":"active","ping":174},{"user_id":112,"name":"Ged","steam_id":76561198079288943,"connected_time":1518000000000,"state":"active","ping":107},{"user_id":91,"name":"thuurs","steam_id":76561198095850568,"connected_time":3192000000000,"state":"active","ping":48},{"user_id":90,"name":"engineer drip","steam_id":76561198991032570,"connected_time":3355000000000,"state":"active","ping":81},{"user_id":124,"name":"Joy","steam_id":76561198155314925,"connected_time":65000000000,"state":"active","ping":64},{"user_id":78,"name":"yeah I'm riding thru the ar e a","steam_id":76561198340620890,"connected_time":4114000000000,"state":"active","ping":59},{"user_id":125,"name":"sin","steam_id":76561198193416785,"connected_time":22000000000,"state":"spawning","ping":45},{"user_id":105,"name":"Piellino","steam_id":76561198156873276,"connected_time":2022000000000,"state":"active","ping":92},{"user_id":77,"name":"killer croc","steam_id":76561198261795972,"connected_time":4186000000000,"state":"active","ping":77},{"user_id":115,"name":"_Cpt.Decoder_","steam_id":76561198236937010,"connected_time":1495000000000,"state":"active","ping":76},{"user_id":118,"name":"Kemalismus","steam_id":76561198394441106,"connected_time":1131000000000,"state":"active","ping":118},{"user_id":123,"name":"ÊÇ™","steam_id":76561198095879087,"connected_time":300000000000,"state":"active","ping":67}]},{"server_id":310,"name":"Uncletopia | Frankfurt | 5 | All Maps","name_short":"frk-5","host":"frk-1.de.uncletopia.com","port":27055,"enabled":true,"region":"eu","cc":"de","latitude":50.110924,"longitude":8.682127,"reserved":0,"last_update":"0001-01-01T00:00:00Z","name_a2s":"Uncletopia | Frankfurt | 5 | All Maps","protocol":17,"map":"cp_altitude","folder":"tf","game":"Team Fortress","app_id":440,"player_count":0,"max_players":24,"Bots":0,"server_type":"Dedicated","server_os":"Linux","password":true,"vac":true,"version":"7757534","steam_id":85568392924504277,"keywords":["cp","nocrits","nodmgspread","uncletopia"],"game_id":440,"stv_port":27056,"stv_name":"Uncletopia | Frankfurt | 5 | All Maps | STV","players":null},{"server_id":311,"name":"Uncletopia | Frankfurt | 6 | All Maps","name_short":"frk-6","host":"frk-1.de.uncletopia.com","port":27065,"enabled":true,"region":"eu","cc":"de","latitude":50.110924,"longitude":8.682127,"reserved":0,"last_update":"0001-01-01T00:00:00Z","name_a2s":"Uncletopia | Frankfurt | 6 | All Maps","protocol":17,"map":"pl_barnblitz","folder":"tf","game":"Team Fortress","app_id":440,"player_count":0,"max_players":24,"Bots":0,"server_type":"Dedicated","server_os":"Linux","password":true,"vac":true,"version":"7757534","steam_id":85568392924504278,"keywords":["nocrits","nodmgspread","payload","uncletopia"],"game_id":440,"stv_port":27066,"stv_name":"Uncletopia | Frankfurt | 6 | All Maps | STV","players":null},{"server_id":23,"name":"Uncletopia | Frankfurt | 7 | Stopwatch Beta","name_short":"frk-7","host":"frk-1.de.uncletopia.com","port":27075,"enabled":true,"region":"eu","cc":"de","latitude":50.110924,"longitude":8.682127,"reserved":0,"last_update":"0001-01-01T00:00:00Z","name_a2s":"Uncletopia | Frankfurt | 7 | Stopwatch Beta","protocol":17,"map":"workshop/cp_reckoner_rc6.ugc674719999","folder":"tf","game":"Team Fortress","app_id":440,"player_count":0,"max_players":24,"Bots":0,"server_type":"Dedicated","server_os":"Linux","password":true,"vac":true,"version":"7757534","steam_id":85568392924742827,"keywords":["cp","nocrits","nodmgspread","uncletopia"],"game_id":440,"stv_port":27076,"stv_name":"Uncletopia | Frankfurt | 7 | Stopwatch Beta | STV","players":null},{"server_id":24,"name":"Uncletopia | Frankfurt | 8 | Community","name_short":"frk-8","host":"frk-1.de.uncletopia.com","port":27085,"enabled":true,"region":"eu","cc":"de","latitude":50.110924,"longitude":8.682127,"reserved":0,"last_update":"0001-01-01T00:00:00Z","name_a2s":"Uncletopia | Frankfurt | 8 | Community","protocol":17,"map":"koth_viaduct","folder":"tf","game":"Team Fortress","app_id":440,"player_count":0,"max_players":24,"Bots":0,"server_type":"Dedicated","server_os":"Linux","password":true,"vac":true,"version":"7757534","steam_id":85568392924742828,"keywords":["cp","nocrits","nodmgspread","uncletopia"],"game_id":440,"stv_port":27086,"stv_name":"Uncletopia | Frankfurt | 8 | Community | STV","players":null},{"server_id":202,"name":"Uncletopia | Hong Kong | 1 | All Maps","name_short":"hgk-1","host":"hgk-1.hk.uncletopia.com","port":27015,"enabled":true,"region":"asia","cc":"hk","latitude":22.302711,"longitude":114.177216,"reserved":0,"last_update":"0001-01-01T00:00:00Z","name_a2s":"Uncletopia | Hong Kong | 1 | All Maps","protocol":17,"map":"pl_badwater","folder":"tf","game":"Team Fortress","app_id":440,"player_count":24,"max_players":24,"Bots":0,"server_type":"Dedicated","server_os":"Linux","password":true,"vac":true,"version":"7757534","steam_id":85568392924494504,"keywords":["nocrits","nodmgspread","payload","uncletopia"],"game_id":440,"stv_port":27016,"stv_name":"Uncletopia | Hong Kong | 1 | All Maps | STV","players":[{"user_id":286,"name":"rtgod","steam_id":76561198125363469,"connected_time":401000000000,"state":"active","ping":78},{"user_id":234,"name":"„Éû„Ç∞„Éä„Çπ","steam_id":76561198208990721,"connected_time":5602000000000,"state":"active","ping":143},{"user_id":282,"name":"CasualGamer","steam_id":76561199012277706,"connected_time":500000000000,"state":"active","ping":82},{"user_id":258,"name":"Â∏ï","steam_id":76561198439343999,"connected_time":2741000000000,"state":"active","ping":80},{"user_id":270,"name":"23rd","steam_id":76561199014675406,"connected_time":1802000000000,"state":"active","ping":128},{"user_id":256,"name":"Sk√ºll Lad45","steam_id":76561198963567654,"connected_time":2792000000000,"state":"active","ping":122},{"user_id":280,"name":"Midnight Blaze","steam_id":76561198017669598,"connected_time":522000000000,"state":"active","ping":73},{"user_id":279,"name":"Aug","steam_id":76561199212711900,"connected_time":698000000000,"state":"active","ping":100},{"user_id":31,"name":"vintage","steam_id":76561198230213828,"connected_time":23094000000000,"state":"active","ping":60},{"user_id":281,"name":"happyman","steam_id":76561198045585030,"connected_time":504000000000,"state":"active","ping":72},{"user_id":288,"name":"Sayo-Nara","steam_id":76561198005744733,"connected_time":326000000000,"state":"active","ping":93},{"user_id":287,"name":"Can sub","steam_id":76561198970391737,"connected_time":397000000000,"state":"active","ping":87},{"user_id":289,"name":"UncleAliVA","steam_id":76561198003066514,"connected_time":303000000000,"state":"active","ping":76},{"user_id":291,"name":"SUPER PRO ENGINEER","steam_id":76561198981987710,"connected_time":22000000000,"state":"active","ping":94},{"user_id":272,"name":"ItsAMeWilfred","steam_id":76561198965171490,"connected_time":1717000000000,"state":"active","ping":78},{"user_id":278,"name":"corpse_cadaver","steam_id":76561199225360457,"connected_time":722000000000,"state":"active","ping":75},{"user_id":285,"name":"ducksaremean","steam_id":76561199093126935,"connected_time":449000000000,"state":"active","ping":88},{"user_id":262,"name":"hayonsteam","steam_id":76561199438952901,"connected_time":2453000000000,"state":"active","ping":54},{"user_id":290,"name":"heroin drink","steam_id":76561199184102279,"connected_time":298000000000,"state":"active","ping":87},{"user_id":194,"name":"bmbmbm","steam_id":76561198413116920,"connected_time":11384000000000,"state":"active","ping":104},{"user_id":195,"name":"Noyour","steam_id":76561198323259830,"connected_time":11384000000000,"state":"active","ping":118},{"user_id":269,"name":"MySejahtera","steam_id":76561198331763015,"connected_time":1815000000000,"state":"active","ping":88},{"user_id":274,"name":"Ivy","steam_id":76561198400698408,"connected_time":1446000000000,"state":"active","ping":90},{"user_id":276,"name":"SunShine","steam_id":76561198323642446,"connected_time":1340000000000,"state":"active","ping":103}]},{"server_id":1,"name":"Uncletopia | Los Angeles | 1 | All Maps","name_short":"lax-1","host":"lax-1.us.uncletopia.com","port":27015,"enabled":true,"region":"us-west","cc":"us","latitude":33.94279,"longitude":-118.41004,"reserved":0,"last_update":"0001-01-01T00:00:00Z","name_a2s":"Uncletopia | Los Angeles | 1 | All Maps","protocol":17,"map":"pl_swiftwater_final1","folder":"tf","game":"Team Fortress","app_id":440,"player_count":0,"max_players":24,"Bots":0,"server_type":"Dedicated","server_os":"Linux","password":true,"vac":true,"version":"7757534","steam_id":85568392924469991,"keywords":["nocrits","nodmgspread","payload","uncletopia"],"game_id":440,"stv_port":27016,"stv_name":"Uncletopia | Los Angeles | 1 | All Maps | STV","players":null},{"server_id":112,"name":"Uncletopia | Los Angeles | 2 | All Maps","name_short":"lax-2","host":"lax-1.us.uncletopia.com","port":27025,"enabled":true,"region":"us-west","cc":"us","latitude":33.94279,"longitude":-118.41004,"reserved":0,"last_update":"0001-01-01T00:00:00Z","name_a2s":"Uncletopia | Los Angeles | 2 | All Maps","protocol":17,"map":"koth_lakeside_final","folder":"tf","game":"Team Fortress","app_id":440,"player_count":0,"max_players":24,"Bots":0,"server_type":"Dedicated","server_os":"Linux","password":true,"vac":true,"version":"7757534","steam_id":85568392924469992,"keywords":["cp","nocrits","nodmgspread","uncletopia"],"game_id":440,"stv_port":27026,"stv_name":"Uncletopia | Los Angeles | 2 | All Maps | STV","players":null},{"server_id":324,"name":"Uncletopia | Los Angeles | 3 | All Maps","name_short":"lax-3","host":"lax-1.us.uncletopia.com","port":27035,"enabled":true,"region":"us-west","cc":"us","latitude":33.94279,"longitude":-118.41004,"reserved":0,"last_update":"0001-01-01T00:00:00Z","name_a2s":"Uncletopia | Los Angeles | 3 | All Maps","protocol":17,"map":"cp_snakewater_final1","folder":"tf","game":"Team Fortress","app_id":440,"player_count":0,"max_players":24,"Bots":0,"server_type":"Dedicated","server_os":"Linux","password":true,"vac":true,"version":"7757534","steam_id":85568392924510198,"keywords":["cp","nocrits","nodmgspread","uncletopia"],"game_id":440,"stv_port":27036,"stv_name":"Uncletopia | Los Angeles | 3 | All Maps | STV","players":null},{"server_id":25,"name":"Uncletopia | Los Angeles | 4 | Stopwatch Beta","name_short":"lax-4","host":"lax-1.us.uncletopia.com","port":27045,"enabled":true,"region":"us-west","cc":"us","latitude":33.94279,"longitude":-118.41004,"reserved":0,"last_update":"0001-01-01T00:00:00Z","name_a2s":"Uncletopia | Los Angeles | 4 | Stopwatch Beta","protocol":17,"map":"pl_borneo","folder":"tf","game":"Team Fortress","app_id":440,"player_count":0,"max_players":24,"Bots":0,"server_type":"Dedicated","server_os":"Linux","password":true,"vac":true,"version":"7757534","steam_id":85568392924510199,"keywords":["nocrits","nodmgspread","payload","uncletopia"],"game_id":440,"stv_port":27046,"stv_name":"Uncletopia | Los Angeles | 4 | Stopwatch Beta | STV","players":null},{"server_id":11,"name":"Uncletopia | London | 1 | All Maps","name_short":"lon-1","host":"lon-1.uk.uncletopia.com","port":27015,"enabled":true,"region":"eu","cc":"gb","latitude":51.509865,"longitude":-0.118092,"reserved":0,"last_update":"0001-01-01T00:00:00Z","name_a2s":"Uncletopia | London | 1 | All Maps","protocol":17,"map":"cp_altitude","folder":"tf","game":"Team Fortress","app_id":440,"player_count":0,"max_players":24,"Bots":0,"server_type":"Dedicated","server_os":"Linux","password":true,"vac":true,"version":"7757534","steam_id":85568392924367362,"keywords":["cp","nocrits","nodmgspread","uncletopia"],"game_id":440,"stv_port":27016,"stv_name":"Uncletopia | London | 1 | All Maps | STV","players":null},{"server_id":114,"name":"Uncletopia | London | 2 | All Maps","name_short":"lon-2","host":"lon-1.uk.uncletopia.com","port":27025,"enabled":true,"region":"eu","cc":"gb","latitude":51.509865,"longitude":-0.118092,"reserved":0,"last_update":"0001-01-01T00:00:00Z","name_a2s":"Uncletopia | London | 2 | All Maps","protocol":17,"map":"cp_sunshine","folder":"tf","game":"Team Fortress","app_id":440,"player_count":0,"max_players":24,"Bots":0,"server_type":"Dedicated","server_os":"Linux","password":true,"vac":true,"version":"7757534","steam_id":85568392924470941,"keywords":["cp","nocrits","nodmgspread","uncletopia"],"game_id":440,"stv_port":27026,"stv_name":"Uncletopia | London | 2 | All Maps | STV","players":null},{"server_id":320,"name":"Uncletopia | London | 3 | All Maps","name_short":"lon-3","host":"lon-1.uk.uncletopia.com","port":27035,"enabled":true,"region":"eu","cc":"gb","latitude":51.509865,"longitude":-0.118092,"reserved":0,"last_update":"0001-01-01T00:00:00Z","name_a2s":"Uncletopia | London | 3 | All Maps","protocol":17,"map":"cp_steel","folder":"tf","game":"Team Fortress","app_id":440,"player_count":24,"max_players":24,"Bots":0,"server_type":"Dedicated","server_os":"Linux","password":true,"vac":true,"version":"7757534","steam_id":85568392924510192,"keywords":["cp","nocrits","nodmgspread","uncletopia"],"game_id":440,"stv_port":27036,"stv_name":"Uncletopia | London | 3 | All Maps | STV","players":[{"user_id":290,"name":"Cheers Mate!","steam_id":76561198265192382,"connected_time":800000000000,"state":"active","ping":62},{"user_id":297,"name":"Dunxle","steam_id":76561198236630276,"connected_time":355000000000,"state":"active","ping":44},{"user_id":271,"name":"Laru","steam_id":76561197998838438,"connected_time":2456000000000,"state":"active","ping":77},{"user_id":298,"name":"Fluff","steam_id":76561197989782846,"connected_time":346000000000,"state":"active","ping":44},{"user_id":286,"name":"The_Jaystone","steam_id":76561198126280691,"connected_time":1364000000000,"state":"active","ping":32},{"user_id":299,"name":"fire","steam_id":76561198063674613,"connected_time":276000000000,"state":"active","ping":55},{"user_id":265,"name":"Chicken balls","steam_id":76561199052690012,"connected_time":2662000000000,"state":"active","ping":87},{"user_id":294,"name":"Jimortal","steam_id":76561198342426856,"connected_time":447000000000,"state":"active","ping":82},{"user_id":300,"name":"Hetmanych","steam_id":76561198870926865,"connected_time":256000000000,"state":"active","ping":38},{"user_id":304,"name":"E-why","steam_id":76561198063270899,"connected_time":139000000000,"state":"active","ping":40},{"user_id":255,"name":"tired","steam_id":76561198046838168,"connected_time":3537000000000,"state":"active","ping":60},{"user_id":293,"name":"Wenolainen","steam_id":76561198334592800,"connected_time":641000000000,"state":"active","ping":95},{"user_id":291,"name":"walluu","steam_id":76561198121830870,"connected_time":796000000000,"state":"active","ping":81},{"user_id":202,"name":"bigfutacock56","steam_id":76561198835619904,"connected_time":6520000000000,"state":"active","ping":115},{"user_id":241,"name":"NestRoyal","steam_id":76561198196233254,"connected_time":4375000000000,"state":"active","ping":86},{"user_id":295,"name":"Weng","steam_id":76561198049762029,"connected_time":446000000000,"state":"active","ping":46},{"user_id":301,"name":"borb","steam_id":76561198203486600,"connected_time":200000000000,"state":"active","ping":45},{"user_id":302,"name":"silicon based life form","steam_id":76561199127121346,"connected_time":195000000000,"state":"active","ping":56},{"user_id":282,"name":"meatsoupcube","steam_id":76561198276802249,"connected_time":1702000000000,"state":"active","ping":104},{"user_id":287,"name":"Meddler","steam_id":76561198033001402,"connected_time":1239000000000,"state":"active","ping":45},{"user_id":278,"name":"TheLogicult","steam_id":76561198072324306,"connected_time":2022000000000,"state":"active","ping":38},{"user_id":281,"name":"i am the demoman","steam_id":76561198379862033,"connected_time":1833000000000,"state":"active","ping":83},{"user_id":296,"name":"Syd","steam_id":76561198020515027,"connected_time":439000000000,"state":"active","ping":89},{"user_id":303,"name":"Chambersite","steam_id":76561198197022399,"connected_time":165000000000,"state":"active","ping":71}]},{"server_id":321,"name":"Uncletopia | London | 4 | All Maps","name_short":"lon-4","host":"lon-1.uk.uncletopia.com","port":27045,"enabled":true,"region":"eu","cc":"gb","latitude":51.509865,"longitude":-0.118092,"reserved":0,"last_update":"0001-01-01T00:00:00Z","name_a2s":"Uncletopia | London | 4 | All Maps","protocol":17,"map":"pl_barnblitz","folder":"tf","game":"Team Fortress","app_id":440,"player_count":0,"max_players":24,"Bots":0,"server_type":"Dedicated","server_os":"Linux","password":true,"vac":true,"version":"7757534","steam_id":85568392924510193,"keywords":["nocrits","nodmgspread","payload","uncletopia"],"game_id":440,"stv_port":27046,"stv_name":"Uncletopia | London | 4 | All Maps | STV","players":null},{"server_id":21,"name":"Uncletopia | London | 5 | All Maps","name_short":"lon-5","host":"lon-1.uk.uncletopia.com","port":27055,"enabled":true,"region":"eu","cc":"gb","latitude":51.509865,"longitude":-0.118092,"reserved":0,"last_update":"0001-01-01T00:00:00Z","name_a2s":"Uncletopia | London | 5 | All Maps","protocol":17,"map":"pl_pier","folder":"tf","game":"Team Fortress","app_id":440,"player_count":0,"max_players":24,"Bots":0,"server_type":"Dedicated","server_os":"Linux","password":true,"vac":true,"version":"7757534","steam_id":85568392924742829,"keywords":["nocrits","nodmgspread","payload","uncletopia"],"game_id":440,"stv_port":27056,"stv_name":"Uncletopia | London | 5 | All Maps | STV","players":null},{"server_id":22,"name":"Uncletopia | London | 6 | All Maps","name_short":"lon-6","host":"lon-1.uk.uncletopia.com","port":27065,"enabled":true,"region":"eu","cc":"gb","latitude":51.509865,"longitude":-0.118092,"reserved":0,"last_update":"0001-01-01T00:00:00Z","name_a2s":"Uncletopia | London | 6 | All Maps","protocol":17,"map":"pl_pier","folder":"tf","game":"Team Fortress","app_id":440,"player_count":0,"max_players":24,"Bots":0,"server_type":"Dedicated","server_os":"Linux","password":true,"vac":true,"version":"7757534","steam_id":85568392924742830,"keywords":["nocrits","nodmgspread","payload","uncletopia"],"game_id":440,"stv_port":27066,"stv_name":"Uncletopia | London | 6 | All Maps | STV","players":null},{"server_id":40,"name":"Uncletopia | London | 7 | No Payload","name_short":"lon-7","host":"lon-1.uk.uncletopia.com","port":27075,"enabled":true,"region":"eu","cc":"gb","latitude":51.509865,"longitude":-0.118092,"reserved":0,"last_update":"0001-01-01T00:00:00Z","name_a2s":"Uncletopia | London | 7 | No Payload","protocol":17,"map":"ctf_landfall","folder":"tf","game":"Team Fortress","app_id":440,"player_count":24,"max_players":24,"Bots":0,"server_type":"Dedicated","server_os":"Linux","password":true,"vac":true,"version":"7757534","steam_id":85568392924964314,"keywords":["ctf","nocrits","nodmgspread","uncletopia"],"game_id":440,"stv_port":27076,"stv_name":"Uncletopia | London | 7 | No Payload | STV","players":[{"user_id":59,"name":"Dolcelatte","steam_id":76561198038501770,"connected_time":1498000000000,"state":"active","ping":61},{"user_id":38,"name":"FryFish","steam_id":76561198064183241,"connected_time":2441000000000,"state":"active","ping":76},{"user_id":88,"name":"certified transphobe","steam_id":76561198845044956,"connected_time":249000000000,"state":"active","ping":82},{"user_id":10,"name":"Tryrn","steam_id":76561198075487436,"connected_time":3969000000000,"state":"active","ping":86},{"user_id":75,"name":"Pirovideo","steam_id":76561198850819934,"connected_time":907000000000,"state":"active","ping":43},{"user_id":71,"name":"Hussain_144","steam_id":76561198346029208,"connected_time":989000000000,"state":"active","ping":172},{"user_id":63,"name":"wide appreciator","steam_id":76561198083286511,"connected_time":1315000000000,"state":"active","ping":52},{"user_id":76,"name":"alma","steam_id":76561198857712172,"connected_time":784000000000,"state":"active","ping":68},{"user_id":25,"name":"[waffles]","steam_id":76561198951206047,"connected_time":2839000000000,"state":"active","ping":81},{"user_id":78,"name":"Fbafroguy","steam_id":76561199113010473,"connected_time":726000000000,"state":"active","ping":55},{"user_id":70,"name":"trans takeover 2024","steam_id":76561198262910410,"connected_time":1094000000000,"state":"active","ping":117},{"user_id":53,"name":"Son Goku","steam_id":76561199383437138,"connected_time":1846000000000,"state":"active","ping":124},{"user_id":65,"name":"Brinier","steam_id":76561199012604288,"connected_time":1297000000000,"state":"active","ping":70},{"user_id":54,"name":"Setade","steam_id":76561198161957305,"connected_time":1758000000000,"state":"active","ping":54},{"user_id":66,"name":"boofing prozac","steam_id":76561198851157897,"connected_time":1243000000000,"state":"active","ping":74},{"user_id":87,"name":"TSAR FACE","steam_id":76561198822725169,"connected_time":284000000000,"state":"active","ping":51},{"user_id":69,"name":"bullbdoog","steam_id":76561198332951792,"connected_time":1158000000000,"state":"active","ping":75},{"user_id":48,"name":"erobrine2","steam_id":76561198173218318,"connected_time":2081000000000,"state":"active","ping":46},{"user_id":79,"name":"enigma","steam_id":76561198452111945,"connected_time":721000000000,"state":"active","ping":43},{"user_id":90,"name":"^1MARAMA PALEX","steam_id":76561198311372563,"connected_time":158000000000,"state":"active","ping":76},{"user_id":73,"name":"MajorKlebstoff","steam_id":76561198035489363,"connected_time":968000000000,"state":"active","ping":59},{"user_id":86,"name":"actuallythere","steam_id":76561198434566417,"connected_time":455000000000,"state":"active","ping":61},{"user_id":83,"name":"trans werewolf","steam_id":76561198107235989,"connected_time":548000000000,"state":"active","ping":67},{"user_id":84,"name":"static","steam_id":76561198836825741,"connected_time":496000000000,"state":"active","ping":44}]},{"server_id":41,"name":"Uncletopia | London | 8 | Community","name_short":"lon-8","host":"lon-1.uk.uncletopia.com","port":27085,"enabled":true,"region":"eu","cc":"gb","latitude":51.509865,"longitude":-0.118092,"reserved":0,"last_update":"0001-01-01T00:00:00Z","name_a2s":"Uncletopia | London | 8 | Community","protocol":17,"map":"workshop/pl_cactuscanyon_redux_final1.ugc2579644293","folder":"tf","game":"Team Fortress","app_id":440,"player_count":5,"max_players":24,"Bots":0,"server_type":"Dedicated","server_os":"Linux","password":true,"vac":true,"version":"7757534","steam_id":85568392924964315,"keywords":["nocrits","nodmgspread","payload","uncletopia"],"game_id":440,"stv_port":27086,"stv_name":"Uncletopia | London | 8 | Community | STV","players":[{"user_id":4,"name":"fried","steam_id":76561198307522022,"connected_time":2491000000000,"state":"active","ping":48},{"user_id":5,"name":"Truegr","steam_id":76561198811912339,"connected_time":2444000000000,"state":"active","ping":53},{"user_id":10,"name":"Em_Pl3h","steam_id":76561199208403146,"connected_time":107000000000,"state":"active","ping":121},{"user_id":7,"name":"Mandele","steam_id":76561199183213205,"connected_time":2044000000000,"state":"active","ping":93},{"user_id":8,"name":"Topme","steam_id":76561198091734693,"connected_time":1960000000000,"state":"active","ping":60}]},{"server_id":300,"name":"Uncletopia | Montr√©al | 1 | All Maps","name_short":"mtl-1","host":"mtl-1.ca.uncletopia.com","port":27015,"enabled":true,"region":"us-east","cc":"ca","latitude":45.50889,"longitude":-73.56167,"reserved":0,"last_update":"0001-01-01T00:00:00Z","name_a2s":"Uncletopia | Montr√©al | 1 | All Maps","protocol":17,"map":"pl_pier","folder":"tf","game":"Team Fortress","app_id":440,"player_count":0,"max_players":24,"Bots":0,"server_type":"Dedicated","server_os":"Linux","password":true,"vac":true,"version":"7757534","steam_id":85568392924500087,"keywords":["nocrits","nodmgspread","payload","uncletopia"],"game_id":440,"stv_port":27016,"stv_name":"Uncletopia | Montr√©al | 1 | All Maps | STV","players":null},{"server_id":301,"name":"Uncletopia | Montr√©al | 2 | All Maps","name_short":"mtl-2","host":"mtl-1.ca.uncletopia.com","port":27025,"enabled":true,"region":"us-east","cc":"ca","latitude":45.50889,"longitude":-73.56167,"reserved":0,"last_update":"0001-01-01T00:00:00Z","name_a2s":"Uncletopia | Montr√©al | 2 | All Maps","protocol":17,"map":"cp_sunshine","folder":"tf","game":"Team Fortress","app_id":440,"player_count":0,"max_players":24,"Bots":0,"server_type":"Dedicated","server_os":"Linux","password":true,"vac":true,"version":"7757534","steam_id":85568392924500088,"keywords":["cp","nocrits","nodmgspread","uncletopia"],"game_id":440,"stv_port":27026,"stv_name":"Uncletopia | Montr√©al | 2 | All Maps | STV","players":null},{"server_id":302,"name":"Uncletopia | Montr√©al | 3 | All Maps","name_short":"mtl-3","host":"mtl-1.ca.uncletopia.com","port":27035,"enabled":true,"region":"us-east","cc":"ca","latitude":45.50889,"longitude":-73.56167,"reserved":0,"last_update":"0001-01-01T00:00:00Z","name_a2s":"Uncletopia | Montr√©al | 3 | All Maps","protocol":17,"map":"pl_frontier_final","folder":"tf","game":"Team Fortress","app_id":440,"player_count":0,"max_players":24,"Bots":0,"server_type":"Dedicated","server_os":"Linux","password":true,"vac":true,"version":"7757534","steam_id":85568392924500089,"keywords":["nocrits","nodmgspread","payload","uncletopia"],"game_id":440,"stv_port":27036,"stv_name":"Uncletopia | Montr√©al | 3 | All Maps | STV","players":null},{"server_id":303,"name":"Uncletopia | Montr√©al | 4 | No Payload","name_short":"mtl-4","host":"mtl-1.ca.uncletopia.com","port":27045,"enabled":true,"region":"us-east","cc":"ca","latitude":45.50889,"longitude":-73.56167,"reserved":0,"last_update":"0001-01-01T00:00:00Z","name_a2s":"Uncletopia | Montr√©al | 4 | No Payload","protocol":17,"map":"pl_pier","folder":"tf","game":"Team Fortress","app_id":440,"player_count":0,"max_players":24,"Bots":0,"server_type":"Dedicated","server_os":"Linux","password":true,"vac":true,"version":"7757534","steam_id":85568392924500090,"keywords":["nocrits","nodmgspread","payload","uncletopia"],"game_id":440,"stv_port":27046,"stv_name":"Uncletopia | Montr√©al | 4 | No Payload | STV","players":null},{"server_id":13,"name":"Uncletopia | New York City | 1 | All Maps","name_short":"nyc-1","host":"nyc-1.us.uncletopia.com","port":27015,"enabled":true,"region":"us-east","cc":"us","latitude":40.73061,"longitude":-73.93524,"reserved":0,"last_update":"0001-01-01T00:00:00Z","name_a2s":"Uncletopia | New York City | 1 | All Maps","protocol":17,"map":"cp_mountainlab","folder":"tf","game":"Team Fortress","app_id":440,"player_count":0,"max_players":24,"Bots":0,"server_type":"Dedicated","server_os":"Linux","password":true,"vac":true,"version":"7757534","steam_id":85568392924469993,"keywords":["cp","nocrits","nodmgspread","uncletopia"],"game_id":440,"stv_port":27016,"stv_name":"Uncletopia | New York City | 1 | All Maps | STV","players":null},{"server_id":14,"name":"Uncletopia | New York City | 2 | All Maps","name_short":"nyc-2","host":"nyc-1.us.uncletopia.com","port":27025,"enabled":true,"region":"us-east","cc":"us","latitude":40.73061,"longitude":-73.93524,"reserved":0,"last_update":"0001-01-01T00:00:00Z","name_a2s":"Uncletopia | New York City | 2 | All Maps","protocol":17,"map":"cp_dustbowl","folder":"tf","game":"Team Fortress","app_id":440,"player_count":0,"max_players":24,"Bots":0,"server_type":"Dedicated","server_os":"Linux","password":true,"vac":true,"version":"7757534","steam_id":85568392924469994,"keywords":["cp","nocrits","nodmgspread","uncletopia"],"game_id":440,"stv_port":27026,"stv_name":"Uncletopia | New York City | 2 | All Maps | STV","players":null},{"server_id":15,"name":"Uncletopia | New York City | 3 | Stopwatch Beta","name_short":"nyc-3","host":"nyc-1.us.uncletopia.com","port":27035,"enabled":true,"region":"us-east","cc":"us","latitude":40.73061,"longitude":-73.93524,"reserved":0,"last_update":"0001-01-01T00:00:00Z","name_a2s":"Uncletopia | New York City | 3 | Stopwatch Beta","protocol":17,"map":"koth_cascade","folder":"tf","game":"Team Fortress","app_id":440,"player_count":0,"max_players":24,"Bots":0,"server_type":"Dedicated","server_os":"Linux","password":true,"vac":true,"version":"7757534","steam_id":85568392924742820,"keywords":["cp","nocrits","nodmgspread","uncletopia"],"game_id":440,"stv_port":27036,"stv_name":"Uncletopia | New York City | 3 | Stopwatch Beta | STV","players":null},{"server_id":16,"name":"Uncletopia | New York City | 4 | Community","name_short":"nyc-4","host":"nyc-1.us.uncletopia.com","port":27045,"enabled":true,"region":"us-east","cc":"us","latitude":40.73061,"longitude":-73.93524,"reserved":0,"last_update":"0001-01-01T00:00:00Z","name_a2s":"Uncletopia | New York City | 4 | Community","protocol":17,"map":"pl_frontier_final","folder":"tf","game":"Team Fortress","app_id":440,"player_count":0,"max_players":24,"Bots":0,"server_type":"Dedicated","server_os":"Linux","password":true,"vac":true,"version":"7757534","steam_id":85568392924742821,"keywords":["nocrits","nodmgspread","payload","uncletopia"],"game_id":440,"stv_port":27046,"stv_name":"Uncletopia | New York City | 4 | Community | STV","players":null},{"server_id":142,"name":"Uncletopia | S√£o Paulo | 1 | All Maps","name_short":"sao-1","host":"sao-1.br.uncletopia.com","port":27015,"enabled":true,"region":"sa","cc":"br","latitude":-23.533773,"longitude":-46.62529,"reserved":0,"last_update":"0001-01-01T00:00:00Z","name_a2s":"Uncletopia | S√£o Paulo | 1 | All Maps","protocol":17,"map":"cp_altitude","folder":"tf","game":"Team Fortress","app_id":440,"player_count":0,"max_players":24,"Bots":0,"server_type":"Dedicated","server_os":"Linux","password":true,"vac":true,"version":"7757534","steam_id":85568392924469996,"keywords":["cp","nocrits","nodmgspread","uncletopia"],"game_id":440,"stv_port":27016,"stv_name":"Uncletopia | S√£o Paulo | 1 | All Maps | STV","players":null},{"server_id":143,"name":"Uncletopia | S√£o Paulo | 2 | All Maps","name_short":"sao-2","host":"sao-2.br.uncletopia.com","port":27015,"enabled":true,"region":"sa","cc":"br","latitude":-23.533773,"longitude":-46.62529,"reserved":0,"last_update":"0001-01-01T00:00:00Z","name_a2s":"Uncletopia | S√£o Paulo | 2 | All Maps","protocol":17,"map":"koth_viaduct","folder":"tf","game":"Team Fortress","app_id":440,"player_count":0,"max_players":24,"Bots":0,"server_type":"Dedicated","server_os":"Linux","password":true,"vac":true,"version":"7757534","steam_id":85568392924485349,"keywords":["cp","nocrits","nodmgspread","uncletopia"],"game_id":440,"stv_port":27016,"stv_name":"Uncletopia | S√£o Paulo | 2 | All Maps | STV","players":null},{"server_id":7,"name":"Uncletopia | Seattle | 1 | All Maps","name_short":"sea-1","host":"sea-1.us.uncletopia.com","port":27015,"enabled":true,"region":"us-west","cc":"us","latitude":47.608013,"longitude":-122.33517,"reserved":0,"last_update":"0001-01-01T00:00:00Z","name_a2s":"Uncletopia | Seattle | 1 | All Maps","protocol":17,"map":"koth_viaduct","folder":"tf","game":"Team Fortress","app_id":440,"player_count":23,"max_players":24,"Bots":0,"server_type":"Dedicated","server_os":"Linux","password":true,"vac":true,"version":"7757534","steam_id":85568392924469997,"keywords":["cp","nocrits","nodmgspread","uncletopia"],"game_id":440,"stv_port":27016,"stv_name":"Uncletopia | Seattle | 1 | All Maps | STV","players":[{"user_id":680,"name":"Yaint","steam_id":76561198032868026,"connected_time":1273000000000,"state":"active","ping":53},{"user_id":691,"name":"[DEEP]able","steam_id":76561198292552182,"connected_time":624000000000,"state":"active","ping":96},{"user_id":705,"name":"Epicflyingpie","steam_id":76561198149925178,"connected_time":9000000000,"state":"active","ping":133},{"user_id":694,"name":"Screwwie","steam_id":76561198006892781,"connected_time":291000000000,"state":"active","ping":54},{"user_id":657,"name":"Hornet","steam_id":76561198130369526,"connected_time":4436000000000,"state":"active","ping":68},{"user_id":648,"name":"GIYGAS","steam_id":76561198193888289,"connected_time":4767000000000,"state":"active","ping":46},{"user_id":649,"name":"\\m/ Cyfun (she/it)","steam_id":76561197960882221,"connected_time":4752000000000,"state":"active","ping":84},{"user_id":695,"name":"TGGHaze gaming","steam_id":76561199134730784,"connected_time":289000000000,"state":"active","ping":132},{"user_id":670,"name":"Slime Burgerüß™üçî","steam_id":76561198046162123,"connected_time":1870000000000,"state":"active","ping":45},{"user_id":682,"name":"jole","steam_id":76561198037292232,"connected_time":1247000000000,"state":"active","ping":131},{"user_id":673,"name":"reknud","steam_id":76561198066114874,"connected_time":1820000000000,"state":"active","ping":53},{"user_id":688,"name":"Thequirka","steam_id":76561198968058652,"connected_time":1035000000000,"state":"active","ping":50},{"user_id":674,"name":"s","steam_id":76561198149443710,"connected_time":1810000000000,"state":"active","ping":83},{"user_id":675,"name":"Maxx","steam_id":76561198045405304,"connected_time":1784000000000,"state":"active","ping":54},{"user_id":676,"name":"Vespen","steam_id":76561198259984019,"connected_time":1697000000000,"state":"active","ping":65},{"user_id":700,"name":"ABlancoKid","steam_id":76561198056365375,"connected_time":205000000000,"state":"active","ping":69},{"user_id":689,"name":"SadFapping","steam_id":76561198076651049,"connected_time":732000000000,"state":"active","ping":59},{"user_id":697,"name":"Kingmako1099","steam_id":76561199266890323,"connected_time":272000000000,"state":"active","ping":134},{"user_id":698,"name":"A Shiny Meat Bicycle","steam_id":76561198358757709,"connected_time":250000000000,"state":"active","ping":148},{"user_id":701,"name":"the shart ultimatum","steam_id":76561198004882625,"connected_time":176000000000,"state":"active","ping":82},{"user_id":702,"name":"tax_evasion","steam_id":76561198094818557,"connected_time":107000000000,"state":"active","ping":58},{"user_id":612,"name":"Antzen","steam_id":76561198041343470,"connected_time":9413000000000,"state":"active","ping":75},{"user_id":704,"name":"North","steam_id":76561199173696836,"connected_time":83000000000,"state":"active","ping":71}]},{"server_id":119,"name":"Uncletopia | Seattle | 2 | All Maps","name_short":"sea-2","host":"sea-1.us.uncletopia.com","port":27025,"enabled":true,"region":"us-west","cc":"us","latitude":47.608013,"longitude":-122.33517,"reserved":0,"last_update":"0001-01-01T00:00:00Z","name_a2s":"Uncletopia | Seattle | 2 | All Maps","protocol":17,"map":"pl_borneo","folder":"tf","game":"Team Fortress","app_id":440,"player_count":0,"max_players":24,"Bots":0,"server_type":"Dedicated","server_os":"Linux","password":true,"vac":true,"version":"7757534","steam_id":85568392924469998,"keywords":["nocrits","nodmgspread","payload","uncletopia"],"game_id":440,"stv_port":27026,"stv_name":"Uncletopia | Seattle | 2 | All Maps | STV","players":null},{"server_id":406,"name":"Uncletopia | Seattle | 3 | Stopwatch Beta","name_short":"sea-3","host":"sea-1.us.uncletopia.com","port":27035,"enabled":true,"region":"us-west","cc":"us","latitude":47.608013,"longitude":-122.33517,"reserved":0,"last_update":"0001-01-01T00:00:00Z","name_a2s":"Uncletopia | Seattle | 3 | Stopwatch Beta","protocol":17,"map":"pl_swiftwater_final1","folder":"tf","game":"Team Fortress","app_id":440,"player_count":0,"max_players":24,"Bots":0,"server_type":"Dedicated","server_os":"Linux","password":true,"vac":true,"version":"7757534","steam_id":85568392924515217,"keywords":["nocrits","nodmgspread","payload","uncletopia"],"game_id":440,"stv_port":27036,"stv_name":"Uncletopia | Seattle | 3 | Stopwatch Beta | STV","players":null},{"server_id":17,"name":"Uncletopia | San Francisco | 1 | All Maps","name_short":"sfo-1","host":"sfo-1.us.uncletopia.com","port":27015,"enabled":true,"region":"us-west","cc":"us","latitude":37.77397,"longitude":-122.4313,"reserved":0,"last_update":"0001-01-01T00:00:00Z","name_a2s":"Uncletopia | San Francisco | 1 | All Maps","protocol":17,"map":"cp_process_final","folder":"tf","game":"Team Fortress","app_id":440,"player_count":0,"max_players":24,"Bots":0,"server_type":"Dedicated","server_os":"Linux","password":true,"vac":true,"version":"7757534","steam_id":85568392924469999,"keywords":["cp","nocrits","nodmgspread","uncletopia"],"game_id":440,"stv_port":27016,"stv_name":"Uncletopia | San Francisco | 1 | All Maps | STV","players":null},{"server_id":18,"name":"Uncletopia | San Francisco | 2 | All Maps","name_short":"sfo-2","host":"sfo-1.us.uncletopia.com","port":27025,"enabled":true,"region":"us-west","cc":"us","latitude":37.77397,"longitude":-122.4313,"reserved":0,"last_update":"0001-01-01T00:00:00Z","name_a2s":"Uncletopia | San Francisco | 2 | All Maps","protocol":17,"map":"koth_cascade","folder":"tf","game":"Team Fortress","app_id":440,"player_count":0,"max_players":24,"Bots":0,"server_type":"Dedicated","server_os":"Linux","password":true,"vac":true,"version":"7757534","steam_id":85568392924470000,"keywords":["cp","nocrits","nodmgspread","uncletopia"],"game_id":440,"stv_port":27026,"stv_name":"Uncletopia | San Francisco | 2 | All Maps | STV","players":null},{"server_id":19,"name":"Uncletopia | San Francisco | 3 | Stopwatch Beta","name_short":"sfo-3","host":"sfo-1.us.uncletopia.com","port":27035,"enabled":true,"region":"us-west","cc":"us","latitude":37.77397,"longitude":-122.4313,"reserved":0,"last_update":"0001-01-01T00:00:00Z","name_a2s":"Uncletopia | San Francisco | 3 | Stopwatch Beta","protocol":17,"map":"workshop/koth_ramjam_rc1.ugc459778887","folder":"tf","game":"Team Fortress","app_id":440,"player_count":0,"max_players":24,"Bots":0,"server_type":"Dedicated","server_os":"Linux","password":true,"vac":true,"version":"7757534","steam_id":85568392924742824,"keywords":["cp","nocrits","nodmgspread","uncletopia"],"game_id":440,"stv_port":27036,"stv_name":"Uncletopia | San Francisco | 3 | Stopwatch Beta | STV","players":null},{"server_id":20,"name":"Uncletopia | San Francisco | 4 | Community","name_short":"sfo-4","host":"sfo-1.us.uncletopia.com","port":27045,"enabled":true,"region":"us-west","cc":"us","latitude":37.77397,"longitude":-122.4313,"reserved":0,"last_update":"0001-01-01T00:00:00Z","name_a2s":"Uncletopia | San Francisco | 4 | Community","protocol":17,"map":"workshop/koth_slaughter_rc1.ugc1712845210","folder":"tf","game":"Team Fortress","app_id":440,"player_count":0,"max_players":24,"Bots":0,"server_type":"Dedicated","server_os":"Linux","password":true,"vac":true,"version":"7757534","steam_id":85568392924742826,"keywords":["cp","nocrits","nodmgspread","uncletopia"],"game_id":440,"stv_port":27046,"stv_name":"Uncletopia | San Francisco | 4 | Community | STV","players":null},{"server_id":141,"name":"Uncletopia | Sydney | 1 | All Maps","name_short":"syd-1","host":"syd-1.au.uncletopia.com","port":27015,"enabled":true,"region":"au","cc":"au","latitude":-33.865143,"longitude":151.2099,"reserved":0,"last_update":"0001-01-01T00:00:00Z","name_a2s":"Uncletopia | Sydney | 1 | All Maps","protocol":17,"map":"koth_lakeside_final","folder":"tf","game":"Team Fortress","app_id":440,"player_count":24,"max_players":24,"Bots":0,"server_type":"Dedicated","server_os":"Linux","password":true,"vac":true,"version":"7757534","steam_id":85568392924470001,"keywords":["cp","nocrits","nodmgspread","uncletopia"],"game_id":440,"stv_port":27016,"stv_name":"Uncletopia | Sydney | 1 | All Maps | STV","players":[{"user_id":648,"name":"Mayor Ballsworth","steam_id":76561199174593635,"connected_time":1060000000000,"state":"active","ping":74},{"user_id":658,"name":"Crimson Aurora","steam_id":76561198157492747,"connected_time":538000000000,"state":"active","ping":98},{"user_id":665,"name":"jim :)","steam_id":76561198127508905,"connected_time":495000000000,"state":"active","ping":36},{"user_id":585,"name":"uncle nephew junior","steam_id":76561198930683342,"connected_time":6314000000000,"state":"active","ping":52},{"user_id":559,"name":"Ganome Chilled","steam_id":76561198064898965,"connected_time":7248000000000,"state":"active","ping":75},{"user_id":642,"name":"Joshua Graham","steam_id":76561198136604959,"connected_time":1271000000000,"state":"active","ping":75},{"user_id":646,"name":"Bayonet Enthusiast","steam_id":76561198088904161,"connected_time":1233000000000,"state":"active","ping":59},{"user_id":538,"name":"Charm","steam_id":76561198028891054,"connected_time":7841000000000,"state":"active","ping":59},{"user_id":668,"name":"KKY_GO","steam_id":76561199226848173,"connected_time":314000000000,"state":"active","ping":134},{"user_id":561,"name":"SamK #AnnexTF2","steam_id":76561198149051619,"connected_time":7227000000000,"state":"active","ping":65},{"user_id":657,"name":"Link","steam_id":76561198043171944,"connected_time":587000000000,"state":"active","ping":59},{"user_id":526,"name":"LightningBlock","steam_id":76561198289997742,"connected_time":9646000000000,"state":"active","ping":40},{"user_id":670,"name":"ericacummins","steam_id":76561198946280912,"connected_time":256000000000,"state":"active","ping":80},{"user_id":651,"name":"Turbo_dip","steam_id":76561198446508846,"connected_time":939000000000,"state":"active","ping":75},{"user_id":652,"name":"crack","steam_id":76561198077370413,"connected_time":919000000000,"state":"active","ping":85},{"user_id":655,"name":"Marmalade Cat","steam_id":76561198086309767,"connected_time":753000000000,"state":"active","ping":66},{"user_id":659,"name":"Beehive","steam_id":76561199436707447,"connected_time":532000000000,"state":"active","ping":53},{"user_id":673,"name":"Fzzzzzzzzzzzzzzzzzzzzzzzzzzzzzz","steam_id":76561198298584081,"connected_time":119000000000,"state":"active","ping":60},{"user_id":635,"name":"thrax","steam_id":76561197992385270,"connected_time":1951000000000,"state":"active","ping":51},{"user_id":667,"name":"Genuline","steam_id":76561198126426787,"connected_time":357000000000,"state":"active","ping":46},{"user_id":672,"name":" ∞·µâÀ°·µñ","steam_id":76561199015579760,"connected_time":156000000000,"state":"active","ping":43},{"user_id":671,"name":"fresh","steam_id":76561199233850076,"connected_time":241000000000,"state":"active","ping":69},{"user_id":647,"name":"Terry Buckner","steam_id":76561198206027948,"connected_time":1232000000000,"state":"active","ping":73},{"user_id":664,"name":"APVC","steam_id":76561199090168813,"connected_time":506000000000,"state":"active","ping":71}]},{"server_id":123,"name":"Uncletopia | Sydney | 2 | All Maps","name_short":"syd-2","host":"syd-1.au.uncletopia.com","port":27025,"enabled":true,"region":"au","cc":"au","latitude":-33.865143,"longitude":151.2099,"reserved":0,"last_update":"0001-01-01T00:00:00Z","name_a2s":"Uncletopia | Sydney | 2 | All Maps","protocol":17,"map":"cp_dustbowl","folder":"tf","game":"Team Fortress","app_id":440,"player_count":24,"max_players":24,"Bots":0,"server_type":"Dedicated","server_os":"Linux","password":true,"vac":true,"version":"7757534","steam_id":85568392924470002,"keywords":["cp","nocrits","nodmgspread","uncletopia"],"game_id":440,"stv_port":27026,"stv_name":"Uncletopia | Sydney | 2 | All Maps | STV","players":[{"user_id":164,"name":"Fleetfoot","steam_id":76561198072845816,"connected_time":2529000000000,"state":"active","ping":49},{"user_id":181,"name":"abcdef","steam_id":76561198083700749,"connected_time":1441000000000,"state":"active","ping":42},{"user_id":195,"name":"cyc –ø—Å–∏—Ö–æ–∫–∏–¥","steam_id":76561198039233724,"connected_time":11000000000,"state":"spawning","ping":305},{"user_id":174,"name":"Nyk","steam_id":76561198125000580,"connected_time":1824000000000,"state":"active","ping":44},{"user_id":189,"name":"Pompadouraus","steam_id":76561198327530525,"connected_time":958000000000,"state":"active","ping":74},{"user_id":128,"name":"UnseenStroke","steam_id":76561198265303268,"connected_time":4757000000000,"state":"active","ping":58},{"user_id":178,"name":"CoolJosh3k","steam_id":76561197997407342,"connected_time":1707000000000,"state":"active","ping":51},{"user_id":190,"name":"Sancho","steam_id":76561197995288524,"connected_time":749000000000,"state":"active","ping":70},{"user_id":131,"name":"DKC","steam_id":76561198313578155,"connected_time":4614000000000,"state":"active","ping":38},{"user_id":191,"name":"Luden","steam_id":76561198069165922,"connected_time":741000000000,"state":"active","ping":69},{"user_id":158,"name":"Dance Dance Penetration","steam_id":76561198106490799,"connected_time":3438000000000,"state":"active","ping":48},{"user_id":179,"name":"SaltierThanYou","steam_id":76561198444395188,"connected_time":1648000000000,"state":"active","ping":83},{"user_id":194,"name":"xX_sexhaver_Xx(real)","steam_id":76561199205171109,"connected_time":34000000000,"state":"active","ping":60},{"user_id":192,"name":"Ethos","steam_id":76561197970514852,"connected_time":706000000000,"state":"active","ping":60},{"user_id":143,"name":"MEGA","steam_id":76561198201819060,"connected_time":4032000000000,"state":"active","ping":70},{"user_id":186,"name":"tenten","steam_id":76561198402822072,"connected_time":1203000000000,"state":"active","ping":101},{"user_id":148,"name":"Del Davis","steam_id":76561199365669004,"connected_time":3833000000000,"state":"active","ping":56},{"user_id":145,"name":"Niugnepybbuhc","steam_id":76561198013433435,"connected_time":3969000000000,"state":"active","ping":59},{"user_id":146,"name":"rANdom ASSOrteD pOtATO","steam_id":76561198018893228,"connected_time":3964000000000,"state":"active","ping":79},{"user_id":167,"name":"Demopyro Legend","steam_id":76561198355308266,"connected_time":2376000000000,"state":"active","ping":75},{"user_id":188,"name":"Knifey","steam_id":76561197971225098,"connected_time":1012000000000,"state":"active","ping":69},{"user_id":161,"name":"Mike Davis","steam_id":76561199009189725,"connected_time":3009000000000,"state":"active","ping":65},{"user_id":155,"name":"East","steam_id":76561197998179587,"connected_time":3586000000000,"state":"active","ping":103},{"user_id":156,"name":"Whyyan","steam_id":76561198123825900,"connected_time":3568000000000,"state":"active","ping":66}]},{"server_id":395,"name":"Uncletopia | Sydney | 3 | All Maps","name_short":"syd-3","host":"syd-1.au.uncletopia.com","port":27035,"enabled":true,"region":"au","cc":"au","latitude":-33.865143,"longitude":151.2099,"reserved":0,"last_update":"0001-01-01T00:00:00Z","name_a2s":"Uncletopia | Sydney | 3 | All Maps","protocol":17,"map":"koth_lakeside_final","folder":"tf","game":"Team Fortress","app_id":440,"player_count":0,"max_players":24,"Bots":0,"server_type":"Dedicated","server_os":"Linux","password":true,"vac":true,"version":"7757534","steam_id":85568392925194467,"keywords":["cp","nocrits","nodmgspread","uncletopia"],"game_id":440,"stv_port":27036,"stv_name":"Uncletopia | Sydney | 3 | All Maps | STV","players":null},{"server_id":396,"name":"Uncletopia | Sydney | 4 | All Maps","name_short":"syd-4","host":"syd-1.au.uncletopia.com","port":27045,"enabled":true,"region":"au","cc":"au","latitude":-33.865143,"longitude":151.2099,"reserved":0,"last_update":"0001-01-01T00:00:00Z","name_a2s":"Uncletopia | Sydney | 4 | All Maps","protocol":17,"map":"koth_lakeside_final","folder":"tf","game":"Team Fortress","app_id":440,"player_count":0,"max_players":24,"Bots":0,"server_type":"Dedicated","server_os":"Linux","password":true,"vac":true,"version":"7757534","steam_id":85568392925397958,"keywords":["cp","nocrits","nodmgspread","uncletopia"],"game_id":440,"stv_port":27046,"stv_name":"Uncletopia | Sydney | 4 | All Maps | STV","players":null},{"server_id":58,"name":"Uncletopia | Sydney | 5 | Stopwatch Beta","name_short":"syd-5","host":"syd-1.au.uncletopia.com","port":27055,"enabled":true,"region":"au","cc":"au","latitude":-33.865143,"longitude":151.2099,"reserved":0,"last_update":"0001-01-01T00:00:00Z","name_a2s":"Uncletopia | Sydney | 5 | Stopwatch Beta","protocol":17,"map":"cp_gullywash_final1","folder":"tf","game":"Team Fortress","app_id":440,"player_count":6,"max_players":24,"Bots":0,"server_type":"Dedicated","server_os":"Linux","password":true,"vac":true,"version":"7757534","steam_id":85568392925397959,"keywords":["cp","nocrits","nodmgspread","uncletopia"],"game_id":440,"stv_port":27056,"stv_name":"Uncletopia | Sydney | 5 | Stopwatch Beta | STV","players":[{"user_id":12,"name":"pathetic ham sniper","steam_id":76561199143951435,"connected_time":1350000000000,"state":"active","ping":252},{"user_id":14,"name":"Dame Da Ne Guy","steam_id":76561198145027367,"connected_time":880000000000,"state":"active","ping":55},{"user_id":8,"name":"The Bisoneer TF2","steam_id":76561199446773766,"connected_time":2866000000000,"state":"active","ping":89},{"user_id":16,"name":"manglemonster","steam_id":76561198155233607,"connected_time":184000000000,"state":"active","ping":47},{"user_id":17,"name":"wildnumbat","steam_id":76561198285531988,"connected_time":129000000000,"state":"active","ping":55},{"user_id":15,"name":"DEMACLIO","steam_id":76561198046654525,"connected_time":448000000000,"state":"active","ping":51}]},{"server_id":59,"name":"Uncletopia | Sydney | 6 | Community","name_short":"syd-6","host":"syd-1.au.uncletopia.com","port":27065,"enabled":true,"region":"au","cc":"au","latitude":-33.865143,"longitude":151.2099,"reserved":0,"last_update":"0001-01-01T00:00:00Z","name_a2s":"Uncletopia | Sydney | 6 | Community","protocol":17,"map":"workshop/koth_kemptown_rc1.ugc767410655","folder":"tf","game":"Team Fortress","app_id":440,"player_count":0,"max_players":24,"Bots":0,"server_type":"Dedicated","server_os":"Linux","password":true,"vac":true,"version":"7757534","steam_id":85568392925397960,"keywords":["cp","nocrits","nodmgspread","uncletopia"],"game_id":440,"stv_port":27066,"stv_name":"Uncletopia | Sydney | 6 | Community | STV","players":null},{"server_id":49,"name":"Uncletopia | Warsaw | 1 | All Maps","name_short":"waw-1","host":"waw-1.pl.uncletopia.com","port":27015,"enabled":true,"region":"eu","cc":"pl","latitude":52.2297,"longitude":21.017532,"reserved":0,"last_update":"0001-01-01T00:00:00Z","name_a2s":"","protocol":0,"map":"","folder":"","game":"","app_id":0,"player_count":0,"max_players":0,"Bots":0,"server_type":"","server_os":"","password":false,"vac":false,"version":"","steam_id":0,"keywords":null,"game_id":0,"stv_port":0,"stv_name":"","players":null},{"server_id":50,"name":"Uncletopia | Warsaw | 2 | All Maps","name_short":"waw-2","host":"waw-1.pl.uncletopia.com","port":27025,"enabled":true,"region":"eu","cc":"pl","latitude":52.2297,"longitude":21.017532,"reserved":0,"last_update":"0001-01-01T00:00:00Z","name_a2s":"Uncletopia | Warsaw | 2 | All Maps","protocol":17,"map":"pl_frontier_final","folder":"tf","game":"Team Fortress","app_id":440,"player_count":0,"max_players":24,"Bots":0,"server_type":"Dedicated","server_os":"Linux","password":true,"vac":true,"version":"7757534","steam_id":85568392925397851,"keywords":["nocrits","nodmgspread","payload","uncletopia"],"game_id":440,"stv_port":27026,"stv_name":"Uncletopia | Warsaw | 2 | All Maps | STV","players":null},{"server_id":51,"name":"Uncletopia | Warsaw | 3 | All Maps","name_short":"waw-3","host":"waw-1.pl.uncletopia.com","port":27035,"enabled":true,"region":"eu","cc":"pl","latitude":52.2297,"longitude":21.017532,"reserved":0,"last_update":"0001-01-01T00:00:00Z","name_a2s":"Uncletopia | Warsaw | 3 | All Maps","protocol":17,"map":"pl_barnblitz","folder":"tf","game":"Team Fortress","app_id":440,"player_count":0,"max_players":24,"Bots":0,"server_type":"Dedicated","server_os":"Linux","password":true,"vac":true,"version":"7757534","steam_id":85568392925397852,"keywords":["nocrits","nodmgspread","payload","uncletopia"],"game_id":440,"stv_port":27036,"stv_name":"Uncletopia | Warsaw | 3 | All Maps | STV","players":null},{"server_id":52,"name":"Uncletopia | Warsaw | 4 | All Maps","name_short":"waw-4","host":"waw-1.pl.uncletopia.com","port":27045,"enabled":true,"region":"eu","cc":"pl","latitude":52.2297,"longitude":21.017532,"reserved":0,"last_update":"0001-01-01T00:00:00Z","name_a2s":"Uncletopia | Warsaw | 4 | All Maps","protocol":17,"map":"cp_altitude","folder":"tf","game":"Team Fortress","app_id":440,"player_count":0,"max_players":24,"Bots":0,"server_type":"Dedicated","server_os":"Linux","password":true,"vac":true,"version":"7757534","steam_id":85568392925397853,"keywords":["cp","nocrits","nodmgspread","uncletopia"],"game_id":440,"stv_port":27046,"stv_name":"Uncletopia | Warsaw | 4 | All Maps | STV","players":null},{"server_id":53,"name":"Uncletopia | Warsaw | 5 | Stopwatch Beta","name_short":"waw-5","host":"waw-1.pl.uncletopia.com","port":27055,"enabled":true,"region":"eu","cc":"pl","latitude":52.2297,"longitude":21.017532,"reserved":0,"last_update":"0001-01-01T00:00:00Z","name_a2s":"Uncletopia | Warsaw | 5 | Stopwatch Beta","protocol":17,"map":"pl_pier","folder":"tf","game":"Team Fortress","app_id":440,"player_count":0,"max_players":24,"Bots":0,"server_type":"Dedicated","server_os":"Linux","password":true,"vac":true,"version":"7757534","steam_id":85568392925397854,"keywords":["nocrits","nodmgspread","payload","uncletopia"],"game_id":440,"stv_port":27056,"stv_name":"Uncletopia | Warsaw | 5 | Stopwatch Beta | STV","players":null},{"server_id":54,"name":"Uncletopia | Warsaw | 6 | Community","name_short":"waw-6","host":"waw-1.pl.uncletopia.com","port":27065,"enabled":true,"region":"eu","cc":"pl","latitude":52.2297,"longitude":21.017532,"reserved":0,"last_update":"0001-01-01T00:00:00Z","name_a2s":"Uncletopia | Warsaw | 6 | Community","protocol":17,"map":"koth_highpass","folder":"tf","game":"Team Fortress","app_id":440,"player_count":0,"max_players":24,"Bots":0,"server_type":"Dedicated","server_os":"Linux","password":true,"vac":true,"version":"7757534","steam_id":85568392925397856,"keywords":["cp","nocrits","nodmgspread","uncletopia"],"game_id":440,"stv_port":27066,"stv_name":"Uncletopia | Warsaw | 6 | Community | STV","players":null}]}