{"status":true,"message":"","result":[{"server_id":9,"name":"Uncletopia | Atlanta | 1 | All Maps","name_short":"atl-1","host":"atl-1.us.uncletopia.com","port":27015,"enabled":true,"region":"us-east","cc":"us","latitude":33.753746,"longitude":-84.38633,"reserved":0,"last_update":"0001-01-01T00:00:00Z","name_a2s":"Uncletopia | Atlanta | 1 | All Maps","protocol":17,"map":"pl_badwater","folder":"tf","game":"Team Fortress","app_id":440,"player_count":24,"max_players":24,"Bots":0,"server_type":"Dedicated","server_os":"Linux","password":true,"vac":true,"version":"7757534","steam_id":85568392924469982,"keywords":["nocrits","nodmgspread","payload","uncletopia"],"game_id":440,"stv_port":27016,"stv_name":"Uncletopia | Atlanta | 1 | All Maps | STV","players":[{"user_id":529,"name":"Albino Jellyfish","steam_id":76561198208561097,"connected_time":2862000000000,"state":"active","ping":63},{"user_id":542,"name":"BambuBabyPackRunner","steam_id":76561198320866421,"connected_time":2462000000000,"state":"active","ping":57},{"user_id":432,"name":"Ashes!","steam_id":76561197998475441,"connected_time":11620000000000,"state":"active","ping":77},{"user_id":544,"name":"cheed weed","steam_id":76561198089638718,"connected_time":1656000000000,"state":"active","ping":54},{"user_id":512,"name":"Fever Dreams","steam_id":76561198116614620,"connected_time":5066000000000,"state":"active","ping":71},{"user_id":494,"name":"Tay1Qr","steam_id":76561198082809935,"connected_time":6866000000000,"state":"active","ping":61},{"user_id":559,"name":"Diego Sandals","steam_id":76561198854221260,"connected_time":1000000000000,"state":"active","ping":136},{"user_id":533,"name":"@jaybeem_","steam_id":76561198074388032,"connected_time":2782000000000,"state":"active","ping":75},{"user_id":550,"name":"Brass beast heavy","steam_id":76561198274197623,"connected_time":1388000000000,"state":"active","ping":143},{"user_id":545,"name":"⇌ | ϟtriKeR | ⇋","steam_id":76561199389089862,"connected_time":1504000000000,"state":"active","ping":135},{"user_id":556,"name":"Maxxycat","steam_id":76561198194062681,"connected_time":1167000000000,"state":"active","ping":75},{"user_id":534,"name":"years","steam_id":76561197994098627,"connected_time":2760000000000,"state":"active","ping":119},{"user_id":515,"name":"The Builder","steam_id":76561198093432863,"connected_time":4100000000000,"state":"active","ping":71},{"user_id":514,"name":"TheRealMud","steam_id":76561198138312993,"connected_time":4790000000000,"state":"active","ping":86},{"user_id":522,"name":"Jnlaw","steam_id":76561198009307069,"connected_time":3832000000000,"state":"active","ping":100},{"user_id":564,"name":"Legit_Jaxer","steam_id":76561198172234053,"connected_time":300000000000,"state":"active","ping":106},{"user_id":555,"name":"Duckywinner","steam_id":76561198254828139,"connected_time":1189000000000,"state":"active","ping":64},{"user_id":546,"name":"yvko","steam_id":76561198165724991,"connected_time":1502000000000,"state":"active","ping":60},{"user_id":549,"name":"Capt.Swag","steam_id":76561198088340994,"connected_time":1421000000000,"state":"active","ping":101},{"user_id":548,"name":"Scarlett-Platinum","steam_id":76561198200503134,"connected_time":1436000000000,"state":"active","ping":68},{"user_id":509,"name":"BreadReceiver","steam_id":76561198862555841,"connected_time":5392000000000,"state":"active","ping":70},{"user_id":539,"name":"I am a mooshroom","steam_id":76561198104198295,"connected_time":2662000000000,"state":"active","ping":87},{"user_id":551,"name":"business cat","steam_id":76561198056776496,"connected_time":1358000000000,"state":"active","ping":78},{"user_id":563,"name":"wabba doo","steam_id":76561198867130576,"connected_time":477000000000,"state":"active","ping":91}]},{"server_id":400,"name":"Uncletopia | Atlanta | 3 | Community","name_short":"atl-3","host":"atl-1.us.uncletopia.com","port":27035,"enabled":true,"region":"us-east","cc":"us","latitude":33.753746,"longitude":-84.38633,"reserved":0,"last_update":"0001-01-01T00:00:00Z","name_a2s":"Uncletopia | Atlanta | 3 | Community","protocol":17,"map":"workshop/koth_synthetic_rc6a.ugc1549817316","folder":"tf","game":"Team Fortress","app_id":440,"player_count":0,"max_players":24,"Bots":0,"server_type":"Dedicated","server_os":"Linux","password":true,"vac":true,"version":"7757534","steam_id":85568392924515187,"keywords":["cp","nocrits","nodmgspread","uncletopia"],"game_id":440,"stv_port":27036,"stv_name":"Uncletopia | Atlanta | 3 | Community | STV","players":null},{"server_id":401,"name":"Uncletopia | Atlanta | 4 | No Payload","name_short":"atl-4","host":"atl-1.us.uncletopia.com","port":27045,"enabled":true,"region":"us-east","cc":"us","latitude":33.753746,"longitude":-84.38633,"reserved":0,"last_update":"0001-01-01T00:00:00Z","name_a2s":"","protocol":0,"map":"","folder":"","game":"","app_id":0,"player_count":0,"max_players":0,"Bots":0,"server_type":"","server_os":"","password":false,"vac":false,"version":"","steam_id":0,"keywords":null,"game_id":0,"stv_port":0,"stv_name":"","players":null},{"server_id":2,"name":"Uncletopia | Chicago | 1 | All Maps","name_short":"chi-1","host":"chi-1.us.uncletopia.com","port":27015,"enabled":true,"region":"us-central","cc":"us","latitude":41.881832,"longitude":-87.62318,"reserved":0,"last_update":"0001-01-01T00:00:00Z","name_a2s":"Uncletopia | Chicago | 1 | All Maps","protocol":17,"map":"pl_pier","folder":"tf","game":"Team Fortress","app_id":440,"player_count":24,"max_players":24,"Bots":0,"server_type":"Dedicated","server_os":"Linux","password":true,"vac":true,"version":"7757534","steam_id":85568392924469984,"keywords":["nocrits","nodmgspread","payload","uncletopia"],"game_id":440,"stv_port":27016,"stv_name":"Uncletopia | Chicago | 1 | All Maps | STV","players":[{"user_id":657,"name":"Ace Chromatica","steam_id":76561198042211131,"connected_time":5185000000000,"state":"active","ping":55},{"user_id":727,"name":"cow","steam_id":76561198117331762,"connected_time":107000000000,"state":"active","ping":44},{"user_id":729,"name":"Toast","steam_id":76561198234616616,"connected_time":75000000000,"state":"active","ping":54},{"user_id":728,"name":"baddawap","steam_id":76561198069619698,"connected_time":86000000000,"state":"active","ping":56},{"user_id":712,"name":"Discipline","steam_id":76561198019206178,"connected_time":1036000000000,"state":"active","ping":85},{"user_id":730,"name":"Antifa Alligator","steam_id":76561197988170816,"connected_time":68000000000,"state":"active","ping":65},{"user_id":700,"name":"augs","steam_id":76561199120607417,"connected_time":1386000000000,"state":"active","ping":63},{"user_id":725,"name":"Weeb","steam_id":76561198935795395,"connected_time":711000000000,"state":"active","ping":94},{"user_id":642,"name":"blob","steam_id":76561198122375328,"connected_time":6724000000000,"state":"active","ping":66},{"user_id":697,"name":"Cam","steam_id":76561198139174433,"connected_time":1443000000000,"state":"active","ping":89},{"user_id":731,"name":"Fiendish Frog","steam_id":76561198029478821,"connected_time":67000000000,"state":"active","ping":67},{"user_id":718,"name":"Scalie with Soup","steam_id":76561198126745958,"connected_time":893000000000,"state":"active","ping":82},{"user_id":722,"name":"slippin jeffy","steam_id":76561198004630011,"connected_time":856000000000,"state":"active","ping":46},{"user_id":721,"name":"Porsy","steam_id":76561198041850843,"connected_time":873000000000,"state":"active","ping":46},{"user_id":699,"name":"MoonWolf","steam_id":76561198095735033,"connected_time":1420000000000,"state":"active","ping":72},{"user_id":666,"name":"Veridian","steam_id":76561198096334078,"connected_time":4219000000000,"state":"active","ping":62},{"user_id":716,"name":"melvyn lft","steam_id":76561198113226381,"connected_time":916000000000,"state":"active","ping":86},{"user_id":733,"name":"Froakie","steam_id":76561198125261443,"connected_time":50000000000,"state":"active","ping":111},{"user_id":723,"name":"rustyorion","steam_id":76561198439186347,"connected_time":845000000000,"state":"active","ping":107},{"user_id":726,"name":"Sarbanes-Oxley","steam_id":76561197975898479,"connected_time":365000000000,"state":"active","ping":76},{"user_id":682,"name":"good job, go straight ahead","steam_id":76561198035698704,"connected_time":3006000000000,"state":"active","ping":103},{"user_id":734,"name":"Myron","steam_id":76561198894676484,"connected_time":47000000000,"state":"active","ping":94},{"user_id":707,"name":"Paradoxical_Wayfarer","steam_id":76561198043250942,"connected_time":1302000000000,"state":"active","ping":50},{"user_id":708,"name":"Mook","steam_id":76561198042415553,"connected_time":1300000000000,"state":"active","ping":45}]},{"server_id":106,"name":"Uncletopia | Chicago | 2 | All Maps","name_short":"chi-2","host":"chi-1.us.uncletopia.com","port":27025,"enabled":true,"region":"us-central","cc":"us","latitude":41.881832,"longitude":-87.62318,"reserved":0,"last_update":"0001-01-01T00:00:00Z","name_a2s":"Uncletopia | Chicago | 2 | All Maps","protocol":17,"map":"plr_bananabay","folder":"tf","game":"Team Fortress","app_id":440,"player_count":24,"max_players":24,"Bots":0,"server_type":"Dedicated","server_os":"Linux","password":true,"vac":true,"version":"7757534","steam_id":85568392924469985,"keywords":["nocrits","nodmgspread","payload","uncletopia"],"game_id":440,"stv_port":27026,"stv_name":"Uncletopia | Chicago | 2 | All Maps | STV","players":[{"user_id":904,"name":"ZAZA Enjoyer","steam_id":76561198094426099,"connected_time":652000000000,"state":"active","ping":113},{"user_id":852,"name":"LtK","steam_id":76561197993180943,"connected_time":3569000000000,"state":"active","ping":60},{"user_id":892,"name":"is undertale real?","steam_id":76561198090289497,"connected_time":1166000000000,"state":"active","ping":73},{"user_id":880,"name":"Vulpes","steam_id":76561198038929334,"connected_time":2042000000000,"state":"active","ping":57},{"user_id":885,"name":"yeeye","steam_id":76561198094306054,"connected_time":1684000000000,"state":"active","ping":75},{"user_id":898,"name":"Smiles","steam_id":76561198107197973,"connected_time":861000000000,"state":"active","ping":60},{"user_id":899,"name":"Mush","steam_id":76561198393461065,"connected_time":796000000000,"state":"active","ping":79},{"user_id":889,"name":"shanghai","steam_id":76561197997961542,"connected_time":1357000000000,"state":"active","ping":71},{"user_id":900,"name":"Anderred","steam_id":76561198149983847,"connected_time":791000000000,"state":"active","ping":86},{"user_id":807,"name":"Mr. Dry Lips","steam_id":76561198028157625,"connected_time":6895000000000,"state":"active","ping":92},{"user_id":915,"name":"John the Faptist","steam_id":76561198119567552,"connected_time":252000000000,"state":"active","ping":102},{"user_id":871,"name":"Fantastic","steam_id":76561198079088978,"connected_time":2465000000000,"state":"active","ping":44},{"user_id":886,"name":"bary","steam_id":76561197988317087,"connected_time":1676000000000,"state":"active","ping":64},{"user_id":854,"name":"The local hobo","steam_id":76561198289650060,"connected_time":3471000000000,"state":"active","ping":84},{"user_id":905,"name":"Hach","steam_id":76561198044072315,"connected_time":651000000000,"state":"active","ping":125},{"user_id":872,"name":"Yeshie the Dragon Layer","steam_id":76561198080214214,"connected_time":2458000000000,"state":"active","ping":42},{"user_id":888,"name":"SpiffyGuacamole","steam_id":76561198353586005,"connected_time":1632000000000,"state":"active","ping":74},{"user_id":913,"name":"uhooter","steam_id":76561198007829078,"connected_time":402000000000,"state":"active","ping":45},{"user_id":828,"name":"Dr. Dick","steam_id":76561198138011922,"connected_time":6006000000000,"state":"active","ping":70},{"user_id":906,"name":"Jon Snuh","steam_id":76561198075298635,"connected_time":606000000000,"state":"active","ping":55},{"user_id":914,"name":"Quaker Oats","steam_id":76561197992800293,"connected_time":400000000000,"state":"active","ping":90},{"user_id":907,"name":"Menachem","steam_id":76561198041226420,"connected_time":604000000000,"state":"active","ping":45},{"user_id":909,"name":"cute dragon","steam_id":76561198031046069,"connected_time":477000000000,"state":"active","ping":60},{"user_id":916,"name":"Yune","steam_id":76561198039324447,"connected_time":235000000000,"state":"active","ping":89}]},{"server_id":402,"name":"Uncletopia | Chicago | 3 | All Maps","name_short":"chi-3","host":"chi-1.us.uncletopia.com","port":27035,"enabled":true,"region":"us-central","cc":"us","latitude":41.881832,"longitude":-87.62318,"reserved":0,"last_update":"0001-01-01T00:00:00Z","name_a2s":"Uncletopia | Chicago | 3 | All Maps","protocol":17,"map":"cp_process_final","folder":"tf","game":"Team Fortress","app_id":440,"player_count":0,"max_players":24,"Bots":0,"server_type":"Dedicated","server_os":"Linux","password":true,"vac":true,"version":"7757534","steam_id":85568392924515191,"keywords":["cp","nocrits","nodmgspread","uncletopia"],"game_id":440,"stv_port":27036,"stv_name":"Uncletopia | Chicago | 3 | All Maps | STV","players":null},{"server_id":403,"name":"Uncletopia | Chicago | 4 | All Maps","name_short":"chi-4","host":"chi-1.us.uncletopia.com","port":27045,"enabled":true,"region":"us-central","cc":"us","latitude":41.881832,"longitude":-87.62318,"reserved":0,"last_update":"0001-01-01T00:00:00Z","name_a2s":"Uncletopia | Chicago | 4 | All Maps","protocol":17,"map":"pl_swiftwater_final1","folder":"tf","game":"Team Fortress","app_id":440,"player_count":24,"max_players":24,"Bots":0,"server_type":"Dedicated","server_os":"Linux","password":true,"vac":true,"version":"7757534","steam_id":85568392924515193,"keywords":["nocrits","nodmgspread","payload","uncletopia"],"game_id":440,"stv_port":27046,"stv_name":"Uncletopia | Chicago | 4 | All Maps | STV","players":[{"user_id":713,"name":"Vladikr1","steam_id":76561198401495362,"connected_time":1295000000000,"state":"active","ping":81},{"user_id":723,"name":"MK","steam_id":76561198044764469,"connected_time":425000000000,"state":"active","ping":87},{"user_id":698,"name":"Fudgely","steam_id":76561198039425862,"connected_time":3276000000000,"state":"active","ping":68},{"user_id":724,"name":"Resistance","steam_id":76561198146782074,"connected_time":409000000000,"state":"active","ping":51},{"user_id":725,"name":"ikola","steam_id":76561198841721149,"connected_time":382000000000,"state":"active","ping":102},{"user_id":681,"name":"Lucifer Sam","steam_id":76561198056603045,"connected_time":3868000000000,"state":"active","ping":82},{"user_id":648,"name":"rudy","steam_id":76561198088712799,"connected_time":7797000000000,"state":"active","ping":79},{"user_id":611,"name":"creepycrawler","steam_id":76561198352016831,"connected_time":11756000000000,"state":"active","ping":64},{"user_id":721,"name":"Leviathan","steam_id":76561197997528907,"connected_time":516000000000,"state":"active","ping":60},{"user_id":665,"name":"Bliztank | RGL.gg","steam_id":76561198019252798,"connected_time":5042000000000,"state":"active","ping":59},{"user_id":709,"name":"Horrizan","steam_id":76561197965028480,"connected_time":1727000000000,"state":"active","ping":75},{"user_id":624,"name":"fish","steam_id":76561198054070811,"connected_time":10691000000000,"state":"active","ping":108},{"user_id":704,"name":"Lore","steam_id":76561198098407538,"connected_time":2243000000000,"state":"active","ping":54},{"user_id":630,"name":"TÖZI","steam_id":76561198045268695,"connected_time":9946000000000,"state":"active","ping":59},{"user_id":717,"name":"riceeater","steam_id":76561198121400478,"connected_time":638000000000,"state":"active","ping":70},{"user_id":718,"name":"Keg","steam_id":76561198242688458,"connected_time":629000000000,"state":"active","ping":72},{"user_id":700,"name":"Boogie","steam_id":76561198043626626,"connected_time":3260000000000,"state":"active","ping":51},{"user_id":701,"name":"SCARY MONSTERS","steam_id":76561198042034176,"connected_time":2484000000000,"state":"active","ping":68},{"user_id":707,"name":"Scut","steam_id":76561198973734291,"connected_time":1840000000000,"state":"active","ping":97},{"user_id":719,"name":"Smart Cranberry","steam_id":76561198125059468,"connected_time":620000000000,"state":"active","ping":69},{"user_id":691,"name":"trappy (showered)","steam_id":76561198402801140,"connected_time":3597000000000,"state":"active","ping":67},{"user_id":664,"name":"Hugo","steam_id":76561198045581609,"connected_time":5060000000000,"state":"active","ping":68},{"user_id":711,"name":"goodbye stinky","steam_id":76561198017428900,"connected_time":1711000000000,"state":"active","ping":60},{"user_id":636,"name":"daemon","steam_id":76561198001541433,"connected_time":8842000000000,"state":"active","ping":59}]},{"server_id":36,"name":"Uncletopia | Chicago | 5 | All Maps","name_short":"chi-5","host":"chi-2.us.uncletopia.com","port":27015,"enabled":true,"region":"us-central","cc":"us","latitude":41.881832,"longitude":-87.62318,"reserved":0,"last_update":"0001-01-01T00:00:00Z","name_a2s":"Uncletopia | Chicago | 5 | All Maps","protocol":17,"map":"cp_snakewater_final1","folder":"tf","game":"Team Fortress","app_id":440,"player_count":0,"max_players":24,"Bots":0,"server_type":"Dedicated","server_os":"Linux","password":true,"vac":true,"version":"7757534","steam_id":85568392924866362,"keywords":["cp","nocrits","nodmgspread","uncletopia"],"game_id":440,"stv_port":27016,"stv_name":"Uncletopia | Chicago | 5 | All Maps | STV","players":null},{"server_id":37,"name":"Uncletopia | Chicago | 6 | All Maps","name_short":"chi-6","host":"chi-2.us.uncletopia.com","port":27025,"enabled":true,"region":"us-central","cc":"us","latitude":41.881832,"longitude":-87.62318,"reserved":0,"last_update":"0001-01-01T00:00:00Z","name_a2s":"Uncletopia | Chicago | 6 | All Maps","protocol":17,"map":"cp_snakewater_final1","folder":"tf","game":"Team Fortress","app_id":440,"player_count":0,"max_players":24,"Bots":0,"server_type":"Dedicated","server_os":"Linux","password":true,"vac":true,"version":"7757534","steam_id":85568392924866363,"keywords":["cp","nocrits","nodmgspread","uncletopia"],"game_id":440,"stv_port":27026,"stv_name":"Uncletopia | Chicago | 6 | All Maps | STV","players":null},{"server_id":38,"name":"Uncletopia | Chicago | 7 | Stopwatch Beta","name_short":"chi-7","host":"chi-2.us.uncletopia.com","port":27035,"enabled":true,"region":"us-central","cc":"us","latitude":41.881832,"longitude":-87.62318,"reserved":0,"last_update":"0001-01-01T00:00:00Z","name_a2s":"Uncletopia | Chicago | 7 | Stopwatch Beta","protocol":17,"map":"workshop/pl_badwater_pro_v12.ugc2142942074","folder":"tf","game":"Team Fortress","app_id":440,"player_count":0,"max_players":24,"Bots":0,"server_type":"Dedicated","server_os":"Linux","password":true,"vac":true,"version":"7757534","steam_id":85568392924866364,"keywords":["nocrits","nodmgspread","payload","uncletopia"],"game_id":440,"stv_port":27036,"stv_name":"Uncletopia | Chicago | 7 | Stopwatch Beta | STV","players":null},{"server_id":39,"name":"Uncletopia | Chicago | 8 | Community","name_short":"chi-8","host":"chi-2.us.uncletopia.com","port":27045,"enabled":true,"region":"us-central","cc":"us","latitude":41.881832,"longitude":-87.62318,"reserved":0,"last_update":"0001-01-01T00:00:00Z","name_a2s":"Uncletopia | Chicago | 8 | Community","protocol":17,"map":"workshop/koth_slaughter_rc1.ugc1712845210","folder":"tf","game":"Team Fortress","app_id":440,"player_count":17,"max_players":24,"Bots":0,"server_type":"Dedicated","server_os":"Linux","password":true,"vac":true,"version":"7757534","steam_id":85568392924866365,"keywords":["cp","nocrits","nodmgspread","uncletopia"],"game_id":440,"stv_port":27046,"stv_name":"Uncletopia | Chicago | 8 | Community | STV","players":[{"user_id":180,"name":"CFGU || RAWRWAFL","steam_id":76561198032118386,"connected_time":392000000000,"state":"active","ping":87},{"user_id":123,"name":"BenBen07","steam_id":76561198129584634,"connected_time":5096000000000,"state":"active","ping":77},{"user_id":174,"name":"XxMisery.Fan_2009xX","steam_id":76561198256886614,"connected_time":871000000000,"state":"active","ping":107},{"user_id":170,"name":"Pastel Ink","steam_id":76561199151508585,"connected_time":1544000000000,"state":"active","ping":90},{"user_id":137,"name":"living in mushroom park","steam_id":76561198097588802,"connected_time":3172000000000,"state":"active","ping":49},{"user_id":138,"name":"pee fartress poo","steam_id":76561198063152319,"connected_time":3129000000000,"state":"active","ping":64},{"user_id":139,"name":"Big Puff","steam_id":76561198209820681,"connected_time":3099000000000,"state":"active","ping":62},{"user_id":182,"name":"95 mustang, with the hot dawg","steam_id":76561198012030780,"connected_time":354000000000,"state":"active","ping":70},{"user_id":158,"name":"JimmySquid","steam_id":76561198254242530,"connected_time":2215000000000,"state":"active","ping":67},{"user_id":184,"name":"chopstick","steam_id":76561199088135100,"connected_time":193000000000,"state":"active","ping":103},{"user_id":144,"name":"FrodobagginsTNT","steam_id":76561198224940688,"connected_time":2867000000000,"state":"active","ping":79},{"user_id":185,"name":"Rock Kickass","steam_id":76561198450510841,"connected_time":134000000000,"state":"active","ping":115},{"user_id":127,"name":"cwaggs76","steam_id":76561199013048778,"connected_time":4935000000000,"state":"active","ping":62},{"user_id":162,"name":"itsme1","steam_id":76561199403281509,"connected_time":2186000000000,"state":"active","ping":106},{"user_id":171,"name":"bash -lc ./asshat.sh","steam_id":76561198004584315,"connected_time":1355000000000,"state":"active","ping":68},{"user_id":172,"name":"pyr0m","steam_id":76561198062567022,"connected_time":1003000000000,"state":"active","ping":76},{"user_id":177,"name":"hazypoz","steam_id":76561198075647830,"connected_time":550000000000,"state":"active","ping":55}]},{"server_id":8,"name":"Uncletopia | Dallas | 1 | All Maps","name_short":"dal-1","host":"dal-1.us.uncletopia.com","port":27015,"enabled":true,"region":"us-central","cc":"us","latitude":32.779167,"longitude":-96.80889,"reserved":0,"last_update":"0001-01-01T00:00:00Z","name_a2s":"Uncletopia | Dallas | 1 | All Maps","protocol":17,"map":"pl_swiftwater_final1","folder":"tf","game":"Team Fortress","app_id":440,"player_count":24,"max_players":24,"Bots":0,"server_type":"Dedicated","server_os":"Linux","password":true,"vac":true,"version":"7757534","steam_id":85568392924469986,"keywords":["nocrits","nodmgspread","payload","uncletopia"],"game_id":440,"stv_port":27016,"stv_name":"Uncletopia | Dallas | 1 | All Maps | STV","players":[{"user_id":783,"name":"What A Thrill :^)","steam_id":76561198041198327,"connected_time":3401000000000,"state":"active","ping":85},{"user_id":774,"name":"DragonHeart","steam_id":76561198013245625,"connected_time":4470000000000,"state":"active","ping":70},{"user_id":813,"name":"_cza","steam_id":76561198079793576,"connected_time":440000000000,"state":"active","ping":104},{"user_id":810,"name":"Person","steam_id":76561198093244204,"connected_time":660000000000,"state":"active","ping":89},{"user_id":818,"name":"MR BEAST","steam_id":76561199276349941,"connected_time":302000000000,"state":"active","ping":69},{"user_id":812,"name":"Lezabel","steam_id":76561198970753261,"connected_time":493000000000,"state":"active","ping":75},{"user_id":814,"name":"Newbie","steam_id":76561199247058253,"connected_time":431000000000,"state":"active","ping":73},{"user_id":817,"name":"microninjeez","steam_id":76561198074936422,"connected_time":402000000000,"state":"active","ping":82},{"user_id":719,"name":"Lord Garrard","steam_id":76561198212184303,"connected_time":9587000000000,"state":"active","ping":55},{"user_id":815,"name":"Nerdin4Life","steam_id":76561198138417387,"connected_time":429000000000,"state":"active","ping":91},{"user_id":795,"name":"Deer","steam_id":76561198062350861,"connected_time":2552000000000,"state":"active","ping":98},{"user_id":718,"name":"Ryo31337","steam_id":76561198063083553,"connected_time":9640000000000,"state":"active","ping":58},{"user_id":771,"name":"white woman","steam_id":76561199116679777,"connected_time":4602000000000,"state":"active","ping":75},{"user_id":772,"name":"RedheadRed","steam_id":76561198110361411,"connected_time":4546000000000,"state":"active","ping":73},{"user_id":816,"name":"haah__","steam_id":76561198280309059,"connected_time":427000000000,"state":"active","ping":86},{"user_id":782,"name":"Chara Dreemurr","steam_id":76561198843330128,"connected_time":3570000000000,"state":"active","ping":89},{"user_id":819,"name":"{ST} Oxythemoron","steam_id":76561198060089965,"connected_time":264000000000,"state":"active","ping":54},{"user_id":809,"name":"DarkLink909","steam_id":76561198084139172,"connected_time":682000000000,"state":"active","ping":89},{"user_id":820,"name":"Ronnie Pickering!","steam_id":76561198041842118,"connected_time":249000000000,"state":"active","ping":77},{"user_id":825,"name":"hummus in my tummus","steam_id":76561199438698036,"connected_time":91000000000,"state":"active","ping":89},{"user_id":821,"name":"MINI CRIT!999","steam_id":76561198027649268,"connected_time":245000000000,"state":"active","ping":78},{"user_id":822,"name":"sleepychungus45","steam_id":76561198215559840,"connected_time":230000000000,"state":"active","ping":70},{"user_id":701,"name":"Local Talent","steam_id":76561199053290637,"connected_time":11454000000000,"state":"active","ping":76},{"user_id":638,"name":"finger","steam_id":76561198068558572,"connected_time":15273000000000,"state":"active","ping":71}]},{"server_id":108,"name":"Uncletopia | Dallas | 2 | All Maps","name_short":"dal-2","host":"dal-1.us.uncletopia.com","port":27025,"enabled":true,"region":"us-central","cc":"us","latitude":32.779167,"longitude":-96.80889,"reserved":0,"last_update":"0001-01-01T00:00:00Z","name_a2s":"Uncletopia | Dallas | 2 | All Maps","protocol":17,"map":"cp_sunshine","folder":"tf","game":"Team Fortress","app_id":440,"player_count":1,"max_players":24,"Bots":0,"server_type":"Dedicated","server_os":"Linux","password":true,"vac":true,"version":"7757534","steam_id":85568392924469988,"keywords":["cp","nocrits","nodmgspread","uncletopia"],"game_id":440,"stv_port":27026,"stv_name":"Uncletopia | Dallas | 2 | All Maps | STV","players":[{"user_id":586,"name":"nyxia- .*:･ﾟ✧","steam_id":76561198174415170,"connected_time":855000000000,"state":"active","ping":67}]},{"server_id":5,"name":"Uncletopia | Frankfurt | 1 | All Maps","name_short":"frk-1","host":"frk-1.de.uncletopia.com","port":27015,"enabled":true,"region":"eu","cc":"de","latitude":50.110924,"longitude":8.682127,"reserved":0,"last_update":"0001-01-01T00:00:00Z","name_a2s":"Uncletopia | Frankfurt | 1 | All Maps","protocol":17,"map":"pl_badwater","folder":"tf","game":"Team Fortress","app_id":440,"player_count":0,"max_players":24,"Bots":0,"server_type":"Dedicated","server_os":"Linux","password":true,"vac":true,"version":"7757534","steam_id":85568392924469989,"keywords":["nocrits","nodmgspread","payload","uncletopia"],"game_id":440,"stv_port":27016,"stv_name":"Uncletopia | Frankfurt | 1 | All Maps | STV","players":null},{"server_id":110,"name":"Uncletopia | Frankfurt | 2 | All Maps","name_short":"frk-2","host":"frk-1.de.uncletopia.com","port":27025,"enabled":true,"region":"eu","cc":"de","latitude":50.110924,"longitude":8.682127,"reserved":0,"last_update":"0001-01-01T00:00:00Z","name_a2s":"Uncletopia | Frankfurt | 2 | All Maps","protocol":17,"map":"cp_altitude","folder":"tf","game":"Team Fortress","app_id":440,"player_count":0,"max_players":24,"Bots":0,"server_type":"Dedicated","server_os":"Linux","password":true,"vac":true,"version":"7757534","steam_id":85568392924469990,"keywords":["cp","nocrits","nodmgspread","uncletopia"],"game_id":440,"stv_port":27026,"stv_name":"Uncletopia | Frankfurt | 2 | All Maps | STV","players":null},{"server_id":308,"name":"Uncletopia | Frankfurt | 3 | All Maps","name_short":"frk-3","host":"frk-1.de.uncletopia.com","port":27035,"enabled":true,"region":"eu","cc":"de","latitude":50.110924,"longitude":8.682127,"reserved":0,"last_update":"0001-01-01T00:00:00Z","name_a2s":"Uncletopia | Frankfurt | 3 | All Maps","protocol":17,"map":"pl_borneo","folder":"tf","game":"Team Fortress","app_id":440,"player_count":0,"max_players":24,"Bots":0,"server_type":"Dedicated","server_os":"Linux","password":true,"vac":true,"version":"7757534","steam_id":85568392924504274,"keywords":["nocrits","nodmgspread","payload","uncletopia"],"game_id":440,"stv_port":27036,"stv_name":"Uncletopia | Frankfurt | 3 | All Maps | STV","players":null},{"server_id":309,"name":"Uncletopia | Frankfurt | 4 | All Maps","name_short":"frk-4","host":"frk-1.de.uncletopia.com","port":27045,"enabled":true,"region":"eu","cc":"de","latitude":50.110924,"longitude":8.682127,"reserved":0,"last_update":"0001-01-01T00:00:00Z","name_a2s":"Uncletopia | Frankfurt | 4 | All Maps","protocol":17,"map":"pl_pier","folder":"tf","game":"Team Fortress","app_id":440,"player_count":0,"max_players":24,"Bots":0,"server_type":"Dedicated","server_os":"Linux","password":true,"vac":true,"version":"7757534","steam_id":85568392924504275,"keywords":["nocrits","nodmgspread","payload","uncletopia"],"game_id":440,"stv_port":27046,"stv_name":"Uncletopia | Frankfurt | 4 | All Maps | STV","players":null},{"server_id":310,"name":"Uncletopia | Frankfurt | 5 | All Maps","name_short":"frk-5","host":"frk-1.de.uncletopia.com","port":27055,"enabled":true,"region":"eu","cc":"de","latitude":50.110924,"longitude":8.682127,"reserved":0,"last_update":"0001-01-01T00:00:00Z","name_a2s":"Uncletopia | Frankfurt | 5 | All Maps","protocol":17,"map":"cp_altitude","folder":"tf","game":"Team Fortress","app_id":440,"player_count":0,"max_players":24,"Bots":0,"server_type":"Dedicated","server_os":"Linux","password":true,"vac":true,"version":"7757534","steam_id":85568392924504277,"keywords":["cp","nocrits","nodmgspread","uncletopia"],"game_id":440,"stv_port":27056,"stv_name":"Uncletopia | Frankfurt | 5 | All Maps | STV","players":null},{"server_id":311,"name":"Uncletopia | Frankfurt | 6 | All Maps","name_short":"frk-6","host":"frk-1.de.uncletopia.com","port":27065,"enabled":true,"region":"eu","cc":"de","latitude":50.110924,"longitude":8.682127,"reserved":0,"last_update":"0001-01-01T00:00:00Z","name_a2s":"Uncletopia | Frankfurt | 6 | All Maps","protocol":17,"map":"pl_barnblitz","folder":"tf","game":"Team Fortress","app_id":440,"player_count":0,"max_players":24,"Bots":0,"server_type":"Dedicated","server_os":"Linux","password":true,"vac":true,"version":"7757534","steam_id":85568392924504278,"keywords":["nocrits","nodmgspread","payload","uncletopia"],"game_id":440,"stv_port":27066,"stv_name":"Uncletopia | Frankfurt | 6 | All Maps | STV","players":null},{"server_id":23,"name":"Uncletopia | Frankfurt | 7 | Stopwatch Beta","name_short":"frk-7","host":"frk-1.de.uncletopia.com","port":27075,"enabled":true,"region":"eu","cc":"de","latitude":50.110924,"longitude":8.682127,"reserved":0,"last_update":"0001-01-01T00:00:00Z","name_a2s":"Uncletopia | Frankfurt | 7 | Stopwatch Beta","protocol":17,"map":"pl_borneo","folder":"tf","game":"Team Fortress","app_id":440,"player_count":0,"max_players":24,"Bots":0,"server_type":"Dedicated","server_os":"Linux","password":true,"vac":true,"version":"7757534","steam_id":85568392924742827,"keywords":["nocrits","nodmgspread","payload","uncletopia"],"game_id":440,"stv_port":27076,"stv_name":"Uncletopia | Frankfurt | 7 | Stopwatch Beta | STV","players":null},{"server_id":24,"name":"Uncletopia | Frankfurt | 8 | Community","name_short":"frk-8","host":"frk-1.de.uncletopia.com","port":27085,"enabled":true,"region":"eu","cc":"de","latitude":50.110924,"longitude":8.682127,"reserved":0,"last_update":"0001-01-01T00:00:00Z","name_a2s":"Uncletopia | Frankfurt | 8 | Community","protocol":17,"map":"koth_viaduct","folder":"tf","game":"Team Fortress","app_id":440,"player_count":0,"max_players":24,"Bots":0,"server_type":"Dedicated","server_os":"Linux","password":true,"vac":true,"version":"7757534","steam_id":85568392924742828,"keywords":["cp","nocrits","nodmgspread","uncletopia"],"game_id":440,"stv_port":27086,"stv_name":"Uncletopia | Frankfurt | 8 | Community | STV","players":null},{"server_id":202,"name":"Uncletopia | Hong Kong | 1 | All Maps","name_short":"hgk-1","host":"hgk-1.hk.uncletopia.com","port":27015,"enabled":true,"region":"asia","cc":"hk","latitude":22.302711,"longitude":114.177216,"reserved":0,"last_update":"0001-01-01T00:00:00Z","name_a2s":"Uncletopia | Hong Kong | 1 | All Maps","protocol":17,"map":"pl_barnblitz","folder":"tf","game":"Team Fortress","app_id":440,"player_count":0,"max_players":24,"Bots":0,"server_type":"Dedicated","server_os":"Linux","password":true,"vac":true,"version":"7757534","steam_id":85568392924494504,"keywords":["nocrits","nodmgspread","payload","uncletopia"],"game_id":440,"stv_port":27016,"stv_name":"Uncletopia | Hong Kong | 1 | All Maps | STV","players":null},{"server_id":1,"name":"Uncletopia | Los Angeles | 1 | All Maps","name_short":"lax-1","host":"lax-1.us.uncletopia.com","port":27015,"enabled":true,"region":"us-west","cc":"us","latitude":33.94279,"longitude":-118.41004,"reserved":0,"last_update":"0001-01-01T00:00:00Z","name_a2s":"Uncletopia | Los Angeles | 1 | All Maps","protocol":17,"map":"pl_barnblitz","folder":"tf","game":"Team Fortress","app_id":440,"player_count":22,"max_players":24,"Bots":0,"server_type":"Dedicated","server_os":"Linux","password":true,"vac":true,"version":"7757534","steam_id":85568392924469991,"keywords":["nocrits","nodmgspread","payload","uncletopia"],"game_id":440,"stv_port":27016,"stv_name":"Uncletopia | Los Angeles | 1 | All Maps | STV","players":[{"user_id":417,"name":"Saulce","steam_id":76561198066142119,"connected_time":43000000000,"state":"spawning","ping":59},{"user_id":405,"name":"lamadre07","steam_id":76561198067337453,"connected_time":873000000000,"state":"active","ping":109},{"user_id":394,"name":"john","steam_id":76561198850447852,"connected_time":1879000000000,"state":"active","ping":87},{"user_id":406,"name":"Flyingcat9000","steam_id":76561198179561797,"connected_time":835000000000,"state":"active","ping":48},{"user_id":418,"name":"Burrito","steam_id":76561199453910560,"connected_time":32000000000,"state":"active","ping":70},{"user_id":399,"name":"EOAW","steam_id":76561198310451639,"connected_time":1259000000000,"state":"active","ping":61},{"user_id":407,"name":"Master Cannoli","steam_id":76561198272327518,"connected_time":832000000000,"state":"active","ping":71},{"user_id":415,"name":"isco","steam_id":76561198046014847,"connected_time":514000000000,"state":"active","ping":42},{"user_id":400,"name":"Shamrock Shake Oct.10.2020 @8pm","steam_id":76561198833313201,"connected_time":1258000000000,"state":"active","ping":55},{"user_id":408,"name":"AxonAndroidCM","steam_id":76561198086269391,"connected_time":787000000000,"state":"active","ping":116},{"user_id":370,"name":"Biznickel","steam_id":76561199422511230,"connected_time":4353000000000,"state":"active","ping":80},{"user_id":378,"name":"PinguEnjoyer6","steam_id":76561199186723516,"connected_time":3350000000000,"state":"active","ping":62},{"user_id":409,"name":"Igrium","steam_id":76561198119549811,"connected_time":769000000000,"state":"active","ping":64},{"user_id":388,"name":"Satori Komeiji","steam_id":76561198158211423,"connected_time":2632000000000,"state":"active","ping":40},{"user_id":356,"name":"darkness.danny3481","steam_id":76561198132808002,"connected_time":5734000000000,"state":"active","ping":46},{"user_id":404,"name":"The Drunk Rat Bastard","steam_id":76561198994667208,"connected_time":937000000000,"state":"active","ping":100},{"user_id":411,"name":"Oh No! It's Twister!","steam_id":76561198016791916,"connected_time":638000000000,"state":"active","ping":114},{"user_id":403,"name":"crush","steam_id":76561198107219183,"connected_time":992000000000,"state":"active","ping":59},{"user_id":371,"name":"OG Mando","steam_id":76561198799439774,"connected_time":4340000000000,"state":"active","ping":46},{"user_id":376,"name":"nzippy","steam_id":76561199048618678,"connected_time":3675000000000,"state":"active","ping":78},{"user_id":362,"name":"riSygneD","steam_id":76561198331618687,"connected_time":5236000000000,"state":"active","ping":32},{"user_id":412,"name":"The Caretaker","steam_id":76561198125241411,"connected_time":637000000000,"state":"active","ping":70}]},{"server_id":112,"name":"Uncletopia | Los Angeles | 2 | All Maps","name_short":"lax-2","host":"lax-1.us.uncletopia.com","port":27025,"enabled":true,"region":"us-west","cc":"us","latitude":33.94279,"longitude":-118.41004,"reserved":0,"last_update":"0001-01-01T00:00:00Z","name_a2s":"Uncletopia | Los Angeles | 2 | All Maps","protocol":17,"map":"pl_badwater","folder":"tf","game":"Team Fortress","app_id":440,"player_count":24,"max_players":24,"Bots":0,"server_type":"Dedicated","server_os":"Linux","password":true,"vac":true,"version":"7757534","steam_id":85568392924469992,"keywords":["nocrits","nodmgspread","payload","uncletopia"],"game_id":440,"stv_port":27026,"stv_name":"Uncletopia | Los Angeles | 2 | All Maps | STV","players":[{"user_id":196,"name":"Cripple","steam_id":76561198068597828,"connected_time":1794000000000,"state":"active","ping":75},{"user_id":213,"name":"like we always do it this time!","steam_id":76561198145669711,"connected_time":522000000000,"state":"active","ping":43},{"user_id":219,"name":"unchmiri","steam_id":76561199181659125,"connected_time":412000000000,"state":"active","ping":77},{"user_id":197,"name":"Omnoman","steam_id":76561198006258213,"connected_time":1790000000000,"state":"active","ping":113},{"user_id":214,"name":"Duncle Frazzle","steam_id":76561198145596626,"connected_time":515000000000,"state":"active","ping":70},{"user_id":209,"name":"xs","steam_id":76561198106938500,"connected_time":927000000000,"state":"active","ping":46},{"user_id":215,"name":"Haywood Jablowme","steam_id":76561198097721532,"connected_time":476000000000,"state":"active","ping":51},{"user_id":176,"name":"iiamiizzyy","steam_id":76561198355030751,"connected_time":3659000000000,"state":"active","ping":130},{"user_id":106,"name":"SPACECOWBOY","steam_id":76561199093645953,"connected_time":7979000000000,"state":"active","ping":77},{"user_id":206,"name":"bigman1","steam_id":76561198050225055,"connected_time":1297000000000,"state":"active","ping":45},{"user_id":212,"name":"hotdog every meal","steam_id":76561198392514273,"connected_time":544000000000,"state":"active","ping":83},{"user_id":216,"name":"duck","steam_id":76561198828470191,"connected_time":460000000000,"state":"active","ping":110},{"user_id":211,"name":"FLEM!","steam_id":76561198321987717,"connected_time":696000000000,"state":"active","ping":98},{"user_id":217,"name":"matanui277","steam_id":76561198329614588,"connected_time":452000000000,"state":"active","ping":62},{"user_id":218,"name":"bobbyreinman2009","steam_id":76561198804763186,"connected_time":420000000000,"state":"active","ping":105},{"user_id":220,"name":"JennoCuber","steam_id":76561199091148176,"connected_time":391000000000,"state":"active","ping":67},{"user_id":221,"name":"TeCon","steam_id":76561198049127236,"connected_time":388000000000,"state":"active","ping":56},{"user_id":202,"name":"✪Fiischer","steam_id":76561198133260927,"connected_time":1702000000000,"state":"active","ping":69},{"user_id":223,"name":"Wendall555","steam_id":76561198985637603,"connected_time":286000000000,"state":"active","ping":170},{"user_id":168,"name":"|2nd-AD| AttackPelican ๑ﭥ","steam_id":76561198353278175,"connected_time":4326000000000,"state":"active","ping":115},{"user_id":182,"name":"MinusSoup918","steam_id":76561198060902773,"connected_time":3386000000000,"state":"active","ping":64},{"user_id":169,"name":"Andreshatesmondays","steam_id":76561198889349797,"connected_time":4301000000000,"state":"active","ping":38},{"user_id":183,"name":"Ati","steam_id":76561198381841894,"connected_time":3357000000000,"state":"active","ping":104},{"user_id":222,"name":"noelle","steam_id":76561198842577534,"connected_time":374000000000,"state":"active","ping":92}]},{"server_id":324,"name":"Uncletopia | Los Angeles | 3 | All Maps","name_short":"lax-3","host":"lax-1.us.uncletopia.com","port":27035,"enabled":true,"region":"us-west","cc":"us","latitude":33.94279,"longitude":-118.41004,"reserved":0,"last_update":"0001-01-01T00:00:00Z","name_a2s":"Uncletopia | Los Angeles | 3 | All Maps","protocol":17,"map":"cp_snakewater_final1","folder":"tf","game":"Team Fortress","app_id":440,"player_count":18,"max_players":24,"Bots":0,"server_type":"Dedicated","server_os":"Linux","password":true,"vac":true,"version":"7757534","steam_id":85568392924510198,"keywords":["cp","nocrits","nodmgspread","uncletopia"],"game_id":440,"stv_port":27036,"stv_name":"Uncletopia | Los Angeles | 3 | All Maps | STV","players":[{"user_id":308,"name":"Sir Nope (TSS)","steam_id":76561198035935649,"connected_time":261000000000,"state":"active","ping":58},{"user_id":309,"name":"zaza2k","steam_id":76561198393760567,"connected_time":256000000000,"state":"active","ping":48},{"user_id":250,"name":"Rommel2007","steam_id":76561198041744631,"connected_time":5765000000000,"state":"active","ping":56},{"user_id":296,"name":"Oniko","steam_id":76561198087703138,"connected_time":1012000000000,"state":"active","ping":74},{"user_id":306,"name":"Psychobanana","steam_id":76561199142143339,"connected_time":288000000000,"state":"active","ping":62},{"user_id":297,"name":"Nuclear Fusion","steam_id":76561198202841164,"connected_time":1003000000000,"state":"active","ping":47},{"user_id":314,"name":"Grassman (Cc)","steam_id":76561198026488532,"connected_time":100000000000,"state":"active","ping":52},{"user_id":311,"name":"HOG RIDER","steam_id":76561198298589502,"connected_time":213000000000,"state":"active","ping":47},{"user_id":293,"name":"1000 Ping","steam_id":76561198098330939,"connected_time":1177000000000,"state":"active","ping":66},{"user_id":294,"name":"Big Honk","steam_id":76561198268755194,"connected_time":1161000000000,"state":"active","ping":45},{"user_id":299,"name":"Lesqueegly","steam_id":76561198834540304,"connected_time":948000000000,"state":"active","ping":44},{"user_id":307,"name":"snippier doogle","steam_id":76561198206922028,"connected_time":283000000000,"state":"active","ping":47},{"user_id":312,"name":"DragonWing","steam_id":76561198353039415,"connected_time":198000000000,"state":"active","ping":104},{"user_id":315,"name":"Nexus-6 Android","steam_id":76561198331023058,"connected_time":95000000000,"state":"active","ping":84},{"user_id":316,"name":"fatty408","steam_id":76561198130322877,"connected_time":87000000000,"state":"active","ping":60},{"user_id":317,"name":"Insanity_Book","steam_id":76561198282715309,"connected_time":84000000000,"state":"active","ping":77},{"user_id":318,"name":"Pyrokets","steam_id":76561199148588770,"connected_time":65000000000,"state":"active","ping":67},{"user_id":287,"name":"bare minimum","steam_id":76561198288482730,"connected_time":1579000000000,"state":"active","ping":51}]},{"server_id":25,"name":"Uncletopia | Los Angeles | 4 | Stopwatch Beta","name_short":"lax-4","host":"lax-1.us.uncletopia.com","port":27045,"enabled":true,"region":"us-west","cc":"us","latitude":33.94279,"longitude":-118.41004,"reserved":0,"last_update":"0001-01-01T00:00:00Z","name_a2s":"Uncletopia | Los Angeles | 4 | Stopwatch Beta","protocol":17,"map":"workshop/koth_clearcut_b15.ugc2107050255","folder":"tf","game":"Team Fortress","app_id":440,"player_count":0,"max_players":24,"Bots":0,"server_type":"Dedicated","server_os":"Linux","password":true,"vac":true,"version":"7757534","steam_id":85568392924510199,"keywords":["cp","nocrits","nodmgspread","uncletopia"],"game_id":440,"stv_port":27046,"stv_name":"Uncletopia | Los Angeles | 4 | Stopwatch Beta | STV","players":null},{"server_id":11,"name":"Uncletopia | London | 1 | All Maps","name_short":"lon-1","host":"lon-1.uk.uncletopia.com","port":27015,"enabled":true,"region":"eu","cc":"gb","latitude":51.509865,"longitude":-0.118092,"reserved":0,"last_update":"0001-01-01T00:00:00Z","name_a2s":"Uncletopia | London | 1 | All Maps","protocol":17,"map":"cp_altitude","folder":"tf","game":"Team Fortress","app_id":440,"player_count":0,"max_players":24,"Bots":0,"server_type":"Dedicated","server_os":"Linux","password":true,"vac":true,"version":"7757534","steam_id":85568392924367362,"keywords":["cp","nocrits","nodmgspread","uncletopia"],"game_id":440,"stv_port":27016,"stv_name":"Uncletopia | London | 1 | All Maps | STV","players":null},{"server_id":114,"name":"Uncletopia | London | 2 | All Maps","name_short":"lon-2","host":"lon-1.uk.uncletopia.com","port":27025,"enabled":true,"region":"eu","cc":"gb","latitude":51.509865,"longitude":-0.118092,"reserved":0,"last_update":"0001-01-01T00:00:00Z","name_a2s":"Uncletopia | London | 2 | All Maps","protocol":17,"map":"pl_pier","folder":"tf","game":"Team Fortress","app_id":440,"player_count":0,"max_players":24,"Bots":0,"server_type":"Dedicated","server_os":"Linux","password":true,"vac":true,"version":"7757534","steam_id":85568392924470941,"keywords":["nocrits","nodmgspread","payload","uncletopia"],"game_id":440,"stv_port":27026,"stv_name":"Uncletopia | London | 2 | All Maps | STV","players":null},{"server_id":320,"name":"Uncletopia | London | 3 | All Maps","name_short":"lon-3","host":"lon-1.uk.uncletopia.com","port":27035,"enabled":true,"region":"eu","cc":"gb","latitude":51.509865,"longitude":-0.118092,"reserved":0,"last_update":"0001-01-01T00:00:00Z","name_a2s":"Uncletopia | London | 3 | All Maps","protocol":17,"map":"pl_swiftwater_final1","folder":"tf","game":"Team Fortress","app_id":440,"player_count":0,"max_players":24,"Bots":0,"server_type":"Dedicated","server_os":"Linux","password":true,"vac":true,"version":"7757534","steam_id":85568392924510192,"keywords":["nocrits","nodmgspread","payload","uncletopia"],"game_id":440,"stv_port":27036,"stv_name":"Uncletopia | London | 3 | All Maps | STV","players":null},{"server_id":321,"name":"Uncletopia | London | 4 | All Maps","name_short":"lon-4","host":"lon-1.uk.uncletopia.com","port":27045,"enabled":true,"region":"eu","cc":"gb","latitude":51.509865,"longitude":-0.118092,"reserved":0,"last_update":"0001-01-01T00:00:00Z","name_a2s":"Uncletopia | London | 4 | All Maps","protocol":17,"map":"pl_barnblitz","folder":"tf","game":"Team Fortress","app_id":440,"player_count":0,"max_players":24,"Bots":0,"server_type":"Dedicated","server_os":"Linux","password":true,"vac":true,"version":"7757534","steam_id":85568392924510193,"keywords":["nocrits","nodmgspread","payload","uncletopia"],"game_id":440,"stv_port":27046,"stv_name":"Uncletopia | London | 4 | All Maps | STV","players":null},{"server_id":21,"name":"Uncletopia | London | 5 | All Maps","name_short":"lon-5","host":"lon-1.uk.uncletopia.com","port":27055,"enabled":true,"region":"eu","cc":"gb","latitude":51.509865,"longitude":-0.118092,"reserved":0,"last_update":"0001-01-01T00:00:00Z","name_a2s":"Uncletopia | London | 5 | All Maps","protocol":17,"map":"pl_pier","folder":"tf","game":"Team Fortress","app_id":440,"player_count":0,"max_players":24,"Bots":0,"server_type":"Dedicated","server_os":"Linux","password":true,"vac":true,"version":"7757534","steam_id":85568392924742829,"keywords":["nocrits","nodmgspread","payload","uncletopia"],"game_id":440,"stv_port":27056,"stv_name":"Uncletopia | London | 5 | All Maps | STV","players":null},{"server_id":22,"name":"Uncletopia | London | 6 | All Maps","name_short":"lon-6","host":"lon-1.uk.uncletopia.com","port":27065,"enabled":true,"region":"eu","cc":"gb","latitude":51.509865,"longitude":-0.118092,"reserved":0,"last_update":"0001-01-01T00:00:00Z","name_a2s":"Uncletopia | London | 6 | All Maps","protocol":17,"map":"koth_highpass","folder":"tf","game":"Team Fortress","app_id":440,"player_count":0,"max_players":24,"Bots":0,"server_type":"Dedicated","server_os":"Linux","password":true,"vac":true,"version":"7757534","steam_id":85568392924742830,"keywords":["cp","nocrits","nodmgspread","uncletopia"],"game_id":440,"stv_port":27066,"stv_name":"Uncletopia | London | 6 | All Maps | STV","players":null},{"server_id":40,"name":"Uncletopia | London | 7 | No Payload","name_short":"lon-7","host":"lon-1.uk.uncletopia.com","port":27075,"enabled":true,"region":"eu","cc":"gb","latitude":51.509865,"longitude":-0.118092,"reserved":0,"last_update":"0001-01-01T00:00:00Z","name_a2s":"Uncletopia | London | 7 | No Payload","protocol":17,"map":"koth_highpass","folder":"tf","game":"Team Fortress","app_id":440,"player_count":0,"max_players":24,"Bots":0,"server_type":"Dedicated","server_os":"Linux","password":true,"vac":true,"version":"7757534","steam_id":85568392924964314,"keywords":["cp","nocrits","nodmgspread","uncletopia"],"game_id":440,"stv_port":27076,"stv_name":"Uncletopia | London | 7 | No Payload | STV","players":null},{"server_id":41,"name":"Uncletopia | London | 8 | Community","name_short":"lon-8","host":"lon-1.uk.uncletopia.com","port":27085,"enabled":true,"region":"eu","cc":"gb","latitude":51.509865,"longitude":-0.118092,"reserved":0,"last_update":"0001-01-01T00:00:00Z","name_a2s":"Uncletopia | London | 8 | Community","protocol":17,"map":"cp_altitude","folder":"tf","game":"Team Fortress","app_id":440,"player_count":0,"max_players":24,"Bots":0,"server_type":"Dedicated","server_os":"Linux","password":true,"vac":true,"version":"7757534","steam_id":85568392924964315,"keywords":["cp","nocrits","nodmgspread","uncletopia"],"game_id":440,"stv_port":27086,"stv_name":"Uncletopia | London | 8 | Community | STV","players":null},{"server_id":300,"name":"Uncletopia | Montréal | 1 | All Maps","name_short":"mtl-1","host":"mtl-1.ca.uncletopia.com","port":27015,"enabled":true,"region":"us-east","cc":"ca","latitude":45.50889,"longitude":-73.56167,"reserved":0,"last_update":"0001-01-01T00:00:00Z","name_a2s":"Uncletopia | Montréal | 1 | All Maps","protocol":17,"map":"koth_highpass","folder":"tf","game":"Team Fortress","app_id":440,"player_count":0,"max_players":24,"Bots":0,"server_type":"Dedicated","server_os":"Linux","password":true,"vac":true,"version":"7757534","steam_id":85568392924500087,"keywords":["cp","nocrits","nodmgspread","uncletopia"],"game_id":440,"stv_port":27016,"stv_name":"Uncletopia | Montréal | 1 | All Maps | STV","players":null},{"server_id":301,"name":"Uncletopia | Montréal | 2 | All Maps","name_short":"mtl-2","host":"mtl-1.ca.uncletopia.com","port":27025,"enabled":true,"region":"us-east","cc":"ca","latitude":45.50889,"longitude":-73.56167,"reserved":0,"last_update":"0001-01-01T00:00:00Z","name_a2s":"Uncletopia | Montréal | 2 | All Maps","protocol":17,"map":"pl_borneo","folder":"tf","game":"Team Fortress","app_id":440,"player_count":0,"max_players":24,"Bots":0,"server_type":"Dedicated","server_os":"Linux","password":true,"vac":true,"version":"7757534","steam_id":85568392924500088,"keywords":["nocrits","nodmgspread","payload","uncletopia"],"game_id":440,"stv_port":27026,"stv_name":"Uncletopia | Montréal | 2 | All Maps | STV","players":null},{"server_id":302,"name":"Uncletopia | Montréal | 3 | All Maps","name_short":"mtl-3","host":"mtl-1.ca.uncletopia.com","port":27035,"enabled":true,"region":"us-east","cc":"ca","latitude":45.50889,"longitude":-73.56167,"reserved":0,"last_update":"0001-01-01T00:00:00Z","name_a2s":"Uncletopia | Montréal | 3 | All Maps","protocol":17,"map":"pl_badwater","folder":"tf","game":"Team Fortress","app_id":440,"player_count":0,"max_players":24,"Bots":0,"server_type":"Dedicated","server_os":"Linux","password":true,"vac":true,"version":"7757534","steam_id":85568392924500089,"keywords":["nocrits","nodmgspread","payload","uncletopia"],"game_id":440,"stv_port":27036,"stv_name":"Uncletopia | Montréal | 3 | All Maps | STV","players":null},{"server_id":303,"name":"Uncletopia | Montréal | 4 | No Payload","name_short":"mtl-4","host":"mtl-1.ca.uncletopia.com","port":27045,"enabled":true,"region":"us-east","cc":"ca","latitude":45.50889,"longitude":-73.56167,"reserved":0,"last_update":"0001-01-01T00:00:00Z","name_a2s":"Uncletopia | Montréal | 4 | No Payload","protocol":17,"map":"pl_pier","folder":"tf","game":"Team Fortress","app_id":440,"player_count":0,"max_players":24,"Bots":0,"server_type":"Dedicated","server_os":"Linux","password":true,"vac":true,"version":"7757534","steam_id":85568392924500090,"keywords":["nocrits","nodmgspread","payload","uncletopia"],"game_id":440,"stv_port":27046,"stv_name":"Uncletopia | Montréal | 4 | No Payload | STV","players":null},{"server_id":13,"name":"Uncletopia | New York City | 1 | All Maps","name_short":"nyc-1","host":"nyc-1.us.uncletopia.com","port":27015,"enabled":true,"region":"us-east","cc":"us","latitude":40.73061,"longitude":-73.93524,"reserved":0,"last_update":"0001-01-01T00:00:00Z","name_a2s":"Uncletopia | New York City | 1 | All Maps","protocol":17,"map":"pl_barnblitz","folder":"tf","game":"Team Fortress","app_id":440,"player_count":0,"max_players":24,"Bots":0,"server_type":"Dedicated","server_os":"Linux","password":true,"vac":true,"version":"7757534","steam_id":85568392924469993,"keywords":["nocrits","nodmgspread","payload","uncletopia"],"game_id":440,"stv_port":27016,"stv_name":"Uncletopia | New York City | 1 | All Maps | STV","players":null},{"server_id":14,"name":"Uncletopia | New York City | 2 | All Maps","name_short":"nyc-2","host":"nyc-1.us.uncletopia.com","port":27025,"enabled":true,"region":"us-east","cc":"us","latitude":40.73061,"longitude":-73.93524,"reserved":0,"last_update":"0001-01-01T00:00:00Z","name_a2s":"Uncletopia | New York City | 2 | All Maps","protocol":17,"map":"pl_frontier_final","folder":"tf","game":"Team Fortress","app_id":440,"player_count":24,"max_players":24,"Bots":0,"server_type":"Dedicated","server_os":"Linux","password":true,"vac":true,"version":"7757534","steam_id":85568392924469994,"keywords":["nocrits","nodmgspread","payload","uncletopia"],"game_id":440,"stv_port":27026,"stv_name":"Uncletopia | New York City | 2 | All Maps | STV","players":[{"user_id":571,"name":"ape (real)","steam_id":76561198379444671,"connected_time":1639000000000,"state":"active","ping":67},{"user_id":561,"name":"The Muffin Man","steam_id":76561199088286427,"connected_time":2121000000000,"state":"active","ping":114},{"user_id":562,"name":"THRILLHO","steam_id":76561198371663047,"connected_time":2084000000000,"state":"active","ping":45},{"user_id":563,"name":"fitotutus","steam_id":76561197974993253,"connected_time":1998000000000,"state":"active","ping":92},{"user_id":583,"name":"Fluffy Knight","steam_id":76561198119122675,"connected_time":1255000000000,"state":"active","ping":97},{"user_id":592,"name":"ChaoticAngel","steam_id":76561198293528217,"connected_time":503000000000,"state":"active","ping":49},{"user_id":593,"name":"LAB8","steam_id":76561198047743526,"connected_time":486000000000,"state":"active","ping":105},{"user_id":594,"name":"fuzze","steam_id":76561198214461775,"connected_time":468000000000,"state":"active","ping":75},{"user_id":595,"name":"Rudy","steam_id":76561198013456828,"connected_time":453000000000,"state":"active","ping":60},{"user_id":568,"name":"Cornelius","steam_id":76561198123447388,"connected_time":1826000000000,"state":"active","ping":67},{"user_id":602,"name":"Chillin Turt","steam_id":76561198025796849,"connected_time":109000000000,"state":"active","ping":74},{"user_id":574,"name":"Krellah","steam_id":76561198287045069,"connected_time":1501000000000,"state":"active","ping":61},{"user_id":573,"name":"Westlyroots","steam_id":76561198170431198,"connected_time":1520000000000,"state":"active","ping":61},{"user_id":600,"name":"The Lonely Croc","steam_id":76561198123241396,"connected_time":248000000000,"state":"active","ping":100},{"user_id":575,"name":"Anax Alter","steam_id":76561198110249546,"connected_time":1497000000000,"state":"active","ping":44},{"user_id":576,"name":"sonic1394","steam_id":76561198054636788,"connected_time":1476000000000,"state":"active","ping":70},{"user_id":577,"name":"Chaffy2125","steam_id":76561198232839260,"connected_time":1463000000000,"state":"active","ping":127},{"user_id":582,"name":"Proshoetoe","steam_id":76561198040566915,"connected_time":1287000000000,"state":"active","ping":120},{"user_id":585,"name":"Sjrx","steam_id":76561198209330223,"connected_time":1222000000000,"state":"active","ping":94},{"user_id":586,"name":"Baron von Whoopsie","steam_id":76561197996691013,"connected_time":1212000000000,"state":"active","ping":57},{"user_id":598,"name":"Terror-Billy #SaveTF2","steam_id":76561198328141870,"connected_time":418000000000,"state":"active","ping":67},{"user_id":587,"name":"iceman","steam_id":76561198135397441,"connected_time":1166000000000,"state":"active","ping":77},{"user_id":601,"name":"name420","steam_id":76561198129374525,"connected_time":245000000000,"state":"active","ping":70},{"user_id":589,"name":"Curly","steam_id":76561198071608569,"connected_time":1159000000000,"state":"active","ping":106}]},{"server_id":15,"name":"Uncletopia | New York City | 3 | Stopwatch Beta","name_short":"nyc-3","host":"nyc-1.us.uncletopia.com","port":27035,"enabled":true,"region":"us-east","cc":"us","latitude":40.73061,"longitude":-73.93524,"reserved":0,"last_update":"0001-01-01T00:00:00Z","name_a2s":"Uncletopia | New York City | 3 | Stopwatch Beta","protocol":17,"map":"pl_swiftwater_final1","folder":"tf","game":"Team Fortress","app_id":440,"player_count":0,"max_players":24,"Bots":0,"server_type":"Dedicated","server_os":"Linux","password":true,"vac":true,"version":"7757534","steam_id":85568392924742820,"keywords":["nocrits","nodmgspread","payload","uncletopia"],"game_id":440,"stv_port":27036,"stv_name":"Uncletopia | New York City | 3 | Stopwatch Beta | STV","players":null},{"server_id":16,"name":"Uncletopia | New York City | 4 | Community","name_short":"nyc-4","host":"nyc-1.us.uncletopia.com","port":27045,"enabled":true,"region":"us-east","cc":"us","latitude":40.73061,"longitude":-73.93524,"reserved":0,"last_update":"0001-01-01T00:00:00Z","name_a2s":"Uncletopia | New York City | 4 | Community","protocol":17,"map":"workshop/koth_slaughter_rc1.ugc1712845210","folder":"tf","game":"Team Fortress","app_id":440,"player_count":0,"max_players":24,"Bots":0,"server_type":"Dedicated","server_os":"Linux","password":true,"vac":true,"version":"7757534","steam_id":85568392924742821,"keywords":["cp","nocrits","nodmgspread","uncletopia"],"game_id":440,"stv_port":27046,"stv_name":"Uncletopia | New York City | 4 | Community | STV","players":null},{"server_id":142,"name":"Uncletopia | São Paulo | 1 | All Maps","name_short":"sao-1","host":"sao-1.br.uncletopia.com","port":27015,"enabled":true,"region":"sa","cc":"br","latitude":-23.533773,"longitude":-46.62529,"reserved":0,"last_update":"0001-01-01T00:00:00Z","name_a2s":"Uncletopia | São Paulo | 1 | All Maps","protocol":17,"map":"koth_lakeside_final","folder":"tf","game":"Team Fortress","app_id":440,"player_count":0,"max_players":24,"Bots":0,"server_type":"Dedicated","server_os":"Linux","password":true,"vac":true,"version":"7757534","steam_id":85568392924469996,"keywords":["cp","nocrits","nodmgspread","uncletopia"],"game_id":440,"stv_port":27016,"stv_name":"Uncletopia | São Paulo | 1 | All Maps | STV","players":null},{"server_id":143,"name":"Uncletopia | São Paulo | 2 | All Maps","name_short":"sao-2","host":"sao-2.br.uncletopia.com","port":27015,"enabled":true,"region":"sa","cc":"br","latitude":-23.533773,"longitude":-46.62529,"reserved":0,"last_update":"0001-01-01T00:00:00Z","name_a2s":"Uncletopia | São Paulo | 2 | All Maps","protocol":17,"map":"koth_highpass","folder":"tf","game":"Team Fortress","app_id":440,"player_count":0,"max_players":24,"Bots":0,"server_type":"Dedicated","server_os":"Linux","password":true,"vac":true,"version":"7757534","steam_id":85568392924485349,"keywords":["cp","nocrits","nodmgspread","uncletopia"],"game_id":440,"stv_port":27016,"stv_name":"Uncletopia | São Paulo | 2 | All Maps | STV","players":null},{"server_id":7,"name":"Uncletopia | Seattle | 1 | All Maps","name_short":"sea-1","host":"sea-1.us.uncletopia.com","port":27015,"enabled":true,"region":"us-west","cc":"us","latitude":47.608013,"longitude":-122.33517,"reserved":0,"last_update":"0001-01-01T00:00:00Z","name_a2s":"Uncletopia | Seattle | 1 | All Maps","protocol":17,"map":"cp_dustbowl","folder":"tf","game":"Team Fortress","app_id":440,"player_count":24,"max_players":24,"Bots":0,"server_type":"Dedicated","server_os":"Linux","password":true,"vac":true,"version":"7757534","steam_id":85568392924469997,"keywords":["cp","nocrits","nodmgspread","uncletopia"],"game_id":440,"stv_port":27016,"stv_name":"Uncletopia | Seattle | 1 | All Maps | STV","players":[{"user_id":722,"name":"Level 99 Mudcrab","steam_id":76561198077452771,"connected_time":5004000000000,"state":"active","ping":60},{"user_id":790,"name":"blinkerton city","steam_id":76561198054270410,"connected_time":695000000000,"state":"active","ping":49},{"user_id":773,"name":"Ghee Buttersnaps","steam_id":76561199225708271,"connected_time":1954000000000,"state":"active","ping":58},{"user_id":792,"name":"ivory","steam_id":76561198107213976,"connected_time":142000000000,"state":"active","ping":62},{"user_id":779,"name":"⤣RASCAL","steam_id":76561198269038647,"connected_time":1705000000000,"state":"active","ping":70},{"user_id":798,"name":"Stev the Prurient Oxymoron","steam_id":76561197999442625,"connected_time":95000000000,"state":"active","ping":57},{"user_id":730,"name":"The King of Piss World","steam_id":76561198082806956,"connected_time":4687000000000,"state":"active","ping":115},{"user_id":760,"name":"mub","steam_id":76561197961943948,"connected_time":2907000000000,"state":"active","ping":45},{"user_id":778,"name":"Sierra Foxtrot","steam_id":76561197996667382,"connected_time":1716000000000,"state":"active","ping":94},{"user_id":750,"name":"DaBetes","steam_id":76561198255941081,"connected_time":3173000000000,"state":"active","ping":44},{"user_id":712,"name":"Asphodel","steam_id":76561198750101819,"connected_time":5943000000000,"state":"active","ping":102},{"user_id":752,"name":"Thexx ❤","steam_id":76561198113823050,"connected_time":3113000000000,"state":"active","ping":57},{"user_id":753,"name":"ferby","steam_id":76561198028229594,"connected_time":3108000000000,"state":"active","ping":55},{"user_id":780,"name":"Pastaroni","steam_id":76561199114277354,"connected_time":1702000000000,"state":"active","ping":87},{"user_id":776,"name":"PossumInASock","steam_id":76561198057138795,"connected_time":1859000000000,"state":"active","ping":111},{"user_id":795,"name":"The Population of Sweden","steam_id":76561198202201644,"connected_time":108000000000,"state":"active","ping":37},{"user_id":758,"name":"Arsonist Goose","steam_id":76561198147441830,"connected_time":2941000000000,"state":"active","ping":75},{"user_id":782,"name":"AttackCommander","steam_id":76561198111522679,"connected_time":1679000000000,"state":"active","ping":118},{"user_id":786,"name":"least liberal horse in oregon","steam_id":76561198104679689,"connected_time":1399000000000,"state":"active","ping":50},{"user_id":796,"name":"Gooner Witch","steam_id":76561198305488625,"connected_time":108000000000,"state":"active","ping":67},{"user_id":797,"name":"fragadelphia","steam_id":76561198066116363,"connected_time":107000000000,"state":"active","ping":47},{"user_id":799,"name":"kodynotcody","steam_id":76561198340685758,"connected_time":26000000000,"state":"active","ping":64},{"user_id":763,"name":"Robogineer","steam_id":76561198026994739,"connected_time":2865000000000,"state":"active","ping":77},{"user_id":793,"name":"Henchie!","steam_id":76561198047567464,"connected_time":124000000000,"state":"active","ping":94}]},{"server_id":119,"name":"Uncletopia | Seattle | 2 | All Maps","name_short":"sea-2","host":"sea-1.us.uncletopia.com","port":27025,"enabled":true,"region":"us-west","cc":"us","latitude":47.608013,"longitude":-122.33517,"reserved":0,"last_update":"0001-01-01T00:00:00Z","name_a2s":"Uncletopia | Seattle | 2 | All Maps","protocol":17,"map":"cp_steel","folder":"tf","game":"Team Fortress","app_id":440,"player_count":19,"max_players":24,"Bots":0,"server_type":"Dedicated","server_os":"Linux","password":true,"vac":true,"version":"7757534","steam_id":85568392924469998,"keywords":["cp","nocrits","nodmgspread","uncletopia"],"game_id":440,"stv_port":27026,"stv_name":"Uncletopia | Seattle | 2 | All Maps | STV","players":[{"user_id":599,"name":"Cardboardcoin","steam_id":76561199421284163,"connected_time":752000000000,"state":"active","ping":64},{"user_id":571,"name":"El Gato Paranoico","steam_id":76561198116567116,"connected_time":3013000000000,"state":"active","ping":117},{"user_id":566,"name":"THAT CAT","steam_id":76561198010828625,"connected_time":3148000000000,"state":"active","ping":38},{"user_id":575,"name":"krootonitron","steam_id":76561198114113037,"connected_time":2859000000000,"state":"active","ping":56},{"user_id":609,"name":"Gay Bowser","steam_id":76561198131631865,"connected_time":9000000000,"state":"spawning","ping":74},{"user_id":559,"name":"who is doug","steam_id":76561198858328080,"connected_time":4203000000000,"state":"active","ping":63},{"user_id":511,"name":"pookus","steam_id":76561198114239912,"connected_time":8395000000000,"state":"active","ping":44},{"user_id":602,"name":"tristan","steam_id":76561198188754881,"connected_time":586000000000,"state":"active","ping":38},{"user_id":568,"name":"Cuno Doesn't Care!","steam_id":76561198007372782,"connected_time":3099000000000,"state":"active","ping":69},{"user_id":604,"name":"Nekomata","steam_id":76561198191536489,"connected_time":561000000000,"state":"active","ping":91},{"user_id":607,"name":"ShiftShock01","steam_id":76561199049488870,"connected_time":244000000000,"state":"active","ping":47},{"user_id":606,"name":"SvicidalBug","steam_id":76561198221390504,"connected_time":300000000000,"state":"active","ping":61},{"user_id":603,"name":"Eggs","steam_id":76561199094378158,"connected_time":584000000000,"state":"active","ping":100},{"user_id":605,"name":"Greskrendtregk","steam_id":76561197969553142,"connected_time":551000000000,"state":"active","ping":47},{"user_id":589,"name":"Eris","steam_id":76561199471434875,"connected_time":2070000000000,"state":"active","ping":41},{"user_id":567,"name":"S Q U I S H E  T H A T  C A T","steam_id":76561198293865429,"connected_time":3126000000000,"state":"active","ping":40},{"user_id":564,"name":"trinqette","steam_id":76561198119543621,"connected_time":4005000000000,"state":"active","ping":92},{"user_id":549,"name":"toes","steam_id":76561198221151676,"connected_time":5230000000000,"state":"active","ping":60},{"user_id":547,"name":"A B1 Battle Droid","steam_id":76561198050678984,"connected_time":5272000000000,"state":"active","ping":88}]},{"server_id":406,"name":"Uncletopia | Seattle | 3 | Stopwatch Beta","name_short":"sea-3","host":"sea-1.us.uncletopia.com","port":27035,"enabled":true,"region":"us-west","cc":"us","latitude":47.608013,"longitude":-122.33517,"reserved":0,"last_update":"0001-01-01T00:00:00Z","name_a2s":"Uncletopia | Seattle | 3 | Stopwatch Beta","protocol":17,"map":"workshop/koth_ramjam_rc1.ugc459778887","folder":"tf","game":"Team Fortress","app_id":440,"player_count":0,"max_players":24,"Bots":0,"server_type":"Dedicated","server_os":"Linux","password":true,"vac":true,"version":"7757534","steam_id":85568392924515217,"keywords":["cp","nocrits","nodmgspread","uncletopia"],"game_id":440,"stv_port":27036,"stv_name":"Uncletopia | Seattle | 3 | Stopwatch Beta | STV","players":null},{"server_id":17,"name":"Uncletopia | San Francisco | 1 | All Maps","name_short":"sfo-1","host":"sfo-1.us.uncletopia.com","port":27015,"enabled":true,"region":"us-west","cc":"us","latitude":37.77397,"longitude":-122.4313,"reserved":0,"last_update":"0001-01-01T00:00:00Z","name_a2s":"Uncletopia | San Francisco | 1 | All Maps","protocol":17,"map":"pl_borneo","folder":"tf","game":"Team Fortress","app_id":440,"player_count":24,"max_players":24,"Bots":0,"server_type":"Dedicated","server_os":"Linux","password":true,"vac":true,"version":"7757534","steam_id":85568392924469999,"keywords":["nocrits","nodmgspread","payload","uncletopia"],"game_id":440,"stv_port":27016,"stv_name":"Uncletopia | San Francisco | 1 | All Maps | STV","players":[{"user_id":758,"name":"nosieman","steam_id":76561198068307876,"connected_time":5121000000000,"state":"active","ping":75},{"user_id":809,"name":"oh","steam_id":76561198094126723,"connected_time":768000000000,"state":"active","ping":100},{"user_id":797,"name":"bonus rattler","steam_id":76561198236353186,"connected_time":1684000000000,"state":"active","ping":49},{"user_id":798,"name":"TED KACZYNSKI","steam_id":76561199267612120,"connected_time":1598000000000,"state":"active","ping":83},{"user_id":796,"name":"bash","steam_id":76561199161649534,"connected_time":1696000000000,"state":"active","ping":51},{"user_id":783,"name":"Doctor Bad Dragon","steam_id":76561198058773212,"connected_time":3321000000000,"state":"active","ping":62},{"user_id":799,"name":"Thermo","steam_id":76561198978967412,"connected_time":1593000000000,"state":"active","ping":50},{"user_id":815,"name":"☁Chaoscist","steam_id":76561198133707355,"connected_time":203000000000,"state":"active","ping":55},{"user_id":814,"name":"Joshzu","steam_id":76561198200521137,"connected_time":443000000000,"state":"active","ping":68},{"user_id":816,"name":"Inadequate","steam_id":76561198108263810,"connected_time":180000000000,"state":"active","ping":99},{"user_id":805,"name":"Real Racist","steam_id":76561198299724611,"connected_time":1419000000000,"state":"active","ping":99},{"user_id":811,"name":"Rusty","steam_id":76561198055585129,"connected_time":667000000000,"state":"active","ping":73},{"user_id":817,"name":"TheBrocklobster","steam_id":76561198039682984,"connected_time":161000000000,"state":"active","ping":70},{"user_id":775,"name":"Chucklenuts Mcfucklebutts","steam_id":76561198103382044,"connected_time":3743000000000,"state":"active","ping":95},{"user_id":802,"name":"sewar","steam_id":76561198803732690,"connected_time":1517000000000,"state":"active","ping":55},{"user_id":810,"name":"crankshaft","steam_id":76561197992798282,"connected_time":752000000000,"state":"active","ping":51},{"user_id":818,"name":"h™","steam_id":76561198154365729,"connected_time":104000000000,"state":"active","ping":70},{"user_id":812,"name":"vardank","steam_id":76561198430387474,"connected_time":644000000000,"state":"active","ping":67},{"user_id":803,"name":"Frosted Lighted Ornament","steam_id":76561197971250619,"connected_time":1516000000000,"state":"active","ping":54},{"user_id":808,"name":"Carte","steam_id":76561198077424488,"connected_time":803000000000,"state":"active","ping":49},{"user_id":785,"name":"Lambchop","steam_id":76561198043900363,"connected_time":2910000000000,"state":"active","ping":60},{"user_id":782,"name":"postgres","steam_id":76561198011204750,"connected_time":3612000000000,"state":"active","ping":87},{"user_id":789,"name":"Banzailizard","steam_id":76561197986785469,"connected_time":2523000000000,"state":"active","ping":98},{"user_id":806,"name":"Callahan","steam_id":76561197976928457,"connected_time":1157000000000,"state":"active","ping":68}]},{"server_id":18,"name":"Uncletopia | San Francisco | 2 | All Maps","name_short":"sfo-2","host":"sfo-1.us.uncletopia.com","port":27025,"enabled":true,"region":"us-west","cc":"us","latitude":37.77397,"longitude":-122.4313,"reserved":0,"last_update":"0001-01-01T00:00:00Z","name_a2s":"Uncletopia | San Francisco | 2 | All Maps","protocol":17,"map":"koth_harvest_final","folder":"tf","game":"Team Fortress","app_id":440,"player_count":18,"max_players":24,"Bots":0,"server_type":"Dedicated","server_os":"Linux","password":true,"vac":true,"version":"7757534","steam_id":85568392924470000,"keywords":["cp","nocrits","nodmgspread","uncletopia"],"game_id":440,"stv_port":27026,"stv_name":"Uncletopia | San Francisco | 2 | All Maps | STV","players":[{"user_id":394,"name":"Professor Sex","steam_id":76561198396414319,"connected_time":337000000000,"state":"active","ping":61},{"user_id":363,"name":"McDoreson McFloreson","steam_id":76561198272049926,"connected_time":2402000000000,"state":"active","ping":85},{"user_id":238,"name":"tanner","steam_id":76561198137381904,"connected_time":11559000000000,"state":"active","ping":94},{"user_id":397,"name":"Huzoop","steam_id":76561199249278873,"connected_time":162000000000,"state":"active","ping":74},{"user_id":391,"name":"omgitisme321","steam_id":76561198437173029,"connected_time":444000000000,"state":"active","ping":63},{"user_id":398,"name":"flop","steam_id":76561199230528008,"connected_time":161000000000,"state":"active","ping":70},{"user_id":232,"name":"earthbound393","steam_id":76561199444276547,"connected_time":11906000000000,"state":"active","ping":115},{"user_id":389,"name":"momb","steam_id":76561198142234038,"connected_time":503000000000,"state":"active","ping":85},{"user_id":380,"name":"Kathy Loves You","steam_id":76561199274669797,"connected_time":660000000000,"state":"active","ping":133},{"user_id":387,"name":"fish","steam_id":76561199072142013,"connected_time":520000000000,"state":"active","ping":72},{"user_id":368,"name":"Brutus","steam_id":76561198213163211,"connected_time":2012000000000,"state":"active","ping":129},{"user_id":345,"name":"Krunch","steam_id":76561198425714292,"connected_time":3334000000000,"state":"active","ping":79},{"user_id":359,"name":"Apostel_Of_Bread","steam_id":76561198383338578,"connected_time":2516000000000,"state":"active","ping":94},{"user_id":399,"name":"ronald","steam_id":76561197960691622,"connected_time":157000000000,"state":"active","ping":51},{"user_id":366,"name":"Buswolley","steam_id":76561197995205571,"connected_time":2288000000000,"state":"active","ping":48},{"user_id":349,"name":"Resident Thrussy Lender","steam_id":76561198071790583,"connected_time":3254000000000,"state":"active","ping":95},{"user_id":372,"name":"Drive-By-Fish-Guy","steam_id":76561198105513652,"connected_time":1564000000000,"state":"active","ping":67},{"user_id":400,"name":"white obama","steam_id":76561199465040669,"connected_time":154000000000,"state":"active","ping":66}]},{"server_id":19,"name":"Uncletopia | San Francisco | 3 | Stopwatch Beta","name_short":"sfo-3","host":"sfo-1.us.uncletopia.com","port":27035,"enabled":true,"region":"us-west","cc":"us","latitude":37.77397,"longitude":-122.4313,"reserved":0,"last_update":"0001-01-01T00:00:00Z","name_a2s":"Uncletopia | San Francisco | 3 | Stopwatch Beta","protocol":17,"map":"cp_sunshine","folder":"tf","game":"Team Fortress","app_id":440,"player_count":0,"max_players":24,"Bots":0,"server_type":"Dedicated","server_os":"Linux","password":true,"vac":true,"version":"7757534","steam_id":85568392924742824,"keywords":["cp","nocrits","nodmgspread","uncletopia"],"game_id":440,"stv_port":27036,"stv_name":"Uncletopia | San Francisco | 3 | Stopwatch Beta | STV","players":null},{"server_id":20,"name":"Uncletopia | San Francisco | 4 | Community","name_short":"sfo-4","host":"sfo-1.us.uncletopia.com","port":27045,"enabled":true,"region":"us-west","cc":"us","latitude":37.77397,"longitude":-122.4313,"reserved":0,"last_update":"0001-01-01T00:00:00Z","name_a2s":"Uncletopia | San Francisco | 4 | Community","protocol":17,"map":"workshop/cp_snowbase_b18.ugc2081770490","folder":"tf","game":"Team Fortress","app_id":440,"player_count":0,"max_players":24,"Bots":0,"server_type":"Dedicated","server_os":"Linux","password":true,"vac":true,"version":"7757534","steam_id":85568392924742826,"keywords":["cp","nocrits","nodmgspread","uncletopia"],"game_id":440,"stv_port":27046,"stv_name":"Uncletopia | San Francisco | 4 | Community | STV","players":null},{"server_id":141,"name":"Uncletopia | Sydney | 1 | All Maps","name_short":"syd-1","host":"syd-1.au.uncletopia.com","port":27015,"enabled":true,"region":"au","cc":"au","latitude":-33.865143,"longitude":151.2099,"reserved":0,"last_update":"0001-01-01T00:00:00Z","name_a2s":"Uncletopia | Sydney | 1 | All Maps","protocol":17,"map":"pl_snowycoast","folder":"tf","game":"Team Fortress","app_id":440,"player_count":19,"max_players":24,"Bots":0,"server_type":"Dedicated","server_os":"Linux","password":true,"vac":true,"version":"7757534","steam_id":85568392924470001,"keywords":["nocrits","nodmgspread","payload","uncletopia"],"game_id":440,"stv_port":27016,"stv_name":"Uncletopia | Sydney | 1 | All Maps | STV","players":[{"user_id":384,"name":"tenten","steam_id":76561198402822072,"connected_time":422000000000,"state":"connecting","ping":91},{"user_id":266,"name":"FyreFeat","steam_id":76561198068428930,"connected_time":7485000000000,"state":"connecting","ping":53},{"user_id":241,"name":"Shadow Puppeteer","steam_id":76561198151121997,"connected_time":9818000000000,"state":"connecting","ping":71},{"user_id":350,"name":"Precipire","steam_id":76561198076159518,"connected_time":2559000000000,"state":"connecting","ping":49},{"user_id":380,"name":"calculusfish","steam_id":76561198067205959,"connected_time":614000000000,"state":"connecting","ping":75},{"user_id":387,"name":"Bork Pelly","steam_id":76561198157250318,"connected_time":229000000000,"state":"connecting","ping":61},{"user_id":389,"name":"Kiwoo","steam_id":76561198097429186,"connected_time":113000000000,"state":"connecting","ping":94},{"user_id":386,"name":"Stayfucking1.5metresaway","steam_id":76561198070569251,"connected_time":382000000000,"state":"connecting","ping":68},{"user_id":265,"name":"campbell","steam_id":76561197982503303,"connected_time":7576000000000,"state":"connecting","ping":54},{"user_id":373,"name":"Oysenberry","steam_id":76561198125443335,"connected_time":733000000000,"state":"connecting","ping":45},{"user_id":331,"name":"soupy","steam_id":76561198073734936,"connected_time":3577000000000,"state":"connecting","ping":84},{"user_id":382,"name":"Jersh","steam_id":76561198048641834,"connected_time":483000000000,"state":"connecting","ping":57},{"user_id":370,"name":"SIRROM12 (SIRR)","steam_id":76561198116738329,"connected_time":767000000000,"state":"connecting","ping":65},{"user_id":328,"name":"Finios","steam_id":76561198209013071,"connected_time":3847000000000,"state":"connecting","ping":56},{"user_id":325,"name":"Asl:3x","steam_id":76561198972095766,"connected_time":4400000000000,"state":"connecting","ping":44},{"user_id":333,"name":"Bob Ross","steam_id":76561198081686896,"connected_time":3342000000000,"state":"connecting","ping":61},{"user_id":355,"name":"Rebel Friend","steam_id":76561199262196710,"connected_time":2335000000000,"state":"connecting","ping":38},{"user_id":381,"name":"whiteshaq","steam_id":76561198131988811,"connected_time":559000000000,"state":"connecting","ping":73},{"user_id":376,"name":"CrazyGlobe","steam_id":76561198992451299,"connected_time":715000000000,"state":"connecting","ping":56}]},{"server_id":123,"name":"Uncletopia | Sydney | 2 | All Maps","name_short":"syd-2","host":"syd-1.au.uncletopia.com","port":27025,"enabled":true,"region":"au","cc":"au","latitude":-33.865143,"longitude":151.2099,"reserved":0,"last_update":"0001-01-01T00:00:00Z","name_a2s":"Uncletopia | Sydney | 2 | All Maps","protocol":17,"map":"pl_swiftwater_final1","folder":"tf","game":"Team Fortress","app_id":440,"player_count":0,"max_players":24,"Bots":0,"server_type":"Dedicated","server_os":"Linux","password":true,"vac":true,"version":"7757534","steam_id":85568392924470002,"keywords":["nocrits","nodmgspread","payload","uncletopia"],"game_id":440,"stv_port":27026,"stv_name":"Uncletopia | Sydney | 2 | All Maps | STV","players":null},{"server_id":395,"name":"Uncletopia | Sydney | 3 | All Maps","name_short":"syd-3","host":"syd-1.au.uncletopia.com","port":27035,"enabled":true,"region":"au","cc":"au","latitude":-33.865143,"longitude":151.2099,"reserved":0,"last_update":"0001-01-01T00:00:00Z","name_a2s":"Uncletopia | Sydney | 3 | All Maps","protocol":17,"map":"pl_badwater","folder":"tf","game":"Team Fortress","app_id":440,"player_count":0,"max_players":24,"Bots":0,"server_type":"Dedicated","server_os":"Linux","password":true,"vac":true,"version":"7757534","steam_id":85568392925194467,"keywords":["nocrits","nodmgspread","payload","uncletopia"],"game_id":440,"stv_port":27036,"stv_name":"Uncletopia | Sydney | 3 | All Maps | STV","players":null},{"server_id":396,"name":"Uncletopia | Sydney | 4 | All Maps","name_short":"syd-4","host":"syd-1.au.uncletopia.com","port":27045,"enabled":true,"region":"au","cc":"au","latitude":-33.865143,"longitude":151.2099,"reserved":0,"last_update":"0001-01-01T00:00:00Z","name_a2s":"Uncletopia | Sydney | 4 | All Maps","protocol":17,"map":"koth_viaduct","folder":"tf","game":"Team Fortress","app_id":440,"player_count":0,"max_players":24,"Bots":0,"server_type":"Dedicated","server_os":"Linux","password":true,"vac":true,"version":"7757534","steam_id":85568392925397958,"keywords":["cp","nocrits","nodmgspread","uncletopia"],"game_id":440,"stv_port":27046,"stv_name":"Uncletopia | Sydney | 4 | All Maps | STV","players":null},{"server_id":58,"name":"Uncletopia | Sydney | 5 | Stopwatch Beta","name_short":"syd-5","host":"syd-1.au.uncletopia.com","port":27055,"enabled":true,"region":"au","cc":"au","latitude":-33.865143,"longitude":151.2099,"reserved":0,"last_update":"0001-01-01T00:00:00Z","name_a2s":"Uncletopia | Sydney | 5 | Stopwatch Beta","protocol":17,"map":"koth_cascade","folder":"tf","game":"Team Fortress","app_id":440,"player_count":0,"max_players":24,"Bots":0,"server_type":"Dedicated","server_os":"Linux","password":true,"vac":true,"version":"7757534","steam_id":85568392925397959,"keywords":["cp","nocrits","nodmgspread","uncletopia"],"game_id":440,"stv_port":27056,"stv_name":"Uncletopia | Sydney | 5 | Stopwatch Beta | STV","players":null},{"server_id":59,"name":"Uncletopia | Sydney | 6 | Community","name_short":"syd-6","host":"syd-1.au.uncletopia.com","port":27065,"enabled":true,"region":"au","cc":"au","latitude":-33.865143,"longitude":151.2099,"reserved":0,"last_update":"0001-01-01T00:00:00Z","name_a2s":"Uncletopia | Sydney | 6 | Community","protocol":17,"map":"workshop/koth_trenchfoot_b1a.ugc731436616","folder":"tf","game":"Team Fortress","app_id":440,"player_count":0,"max_players":24,"Bots":0,"server_type":"Dedicated","server_os":"Linux","password":true,"vac":true,"version":"7757534","steam_id":85568392925397960,"keywords":["cp","nocrits","nodmgspread","uncletopia"],"game_id":440,"stv_port":27066,"stv_name":"Uncletopia | Sydney | 6 | Community | STV","players":null},{"server_id":49,"name":"Uncletopia | Warsaw | 1 | All Maps","name_short":"waw-1","host":"waw-1.pl.uncletopia.com","port":27015,"enabled":true,"region":"eu","cc":"pl","latitude":52.2297,"longitude":21.017532,"reserved":0,"last_update":"0001-01-01T00:00:00Z","name_a2s":"","protocol":0,"map":"","folder":"","game":"","app_id":0,"player_count":0,"max_players":0,"Bots":0,"server_type":"","server_os":"","password":false,"vac":false,"version":"","steam_id":0,"keywords":null,"game_id":0,"stv_port":0,"stv_name":"","players":null},{"server_id":50,"name":"Uncletopia | Warsaw | 2 | All Maps","name_short":"waw-2","host":"waw-1.pl.uncletopia.com","port":27025,"enabled":true,"region":"eu","cc":"pl","latitude":52.2297,"longitude":21.017532,"reserved":0,"last_update":"0001-01-01T00:00:00Z","name_a2s":"Uncletopia | Warsaw | 2 | All Maps","protocol":17,"map":"pl_upward","folder":"tf","game":"Team Fortress","app_id":440,"player_count":0,"max_players":24,"Bots":0,"server_type":"Dedicated","server_os":"Linux","password":true,"vac":true,"version":"7757534","steam_id":85568392925397851,"keywords":["nocrits","nodmgspread","payload","uncletopia"],"game_id":440,"stv_port":27026,"stv_name":"Uncletopia | Warsaw | 2 | All Maps | STV","players":null},{"server_id":51,"name":"Uncletopia | Warsaw | 3 | All Maps","name_short":"waw-3","host":"waw-1.pl.uncletopia.com","port":27035,"enabled":true,"region":"eu","cc":"pl","latitude":52.2297,"longitude":21.017532,"reserved":0,"last_update":"0001-01-01T00:00:00Z","name_a2s":"Uncletopia | Warsaw | 3 | All Maps","protocol":17,"map":"pl_barnblitz","folder":"tf","game":"Team Fortress","app_id":440,"player_count":0,"max_players":24,"Bots":0,"server_type":"Dedicated","server_os":"Linux","password":true,"vac":true,"version":"7757534","steam_id":85568392925397852,"keywords":["nocrits","nodmgspread","payload","uncletopia"],"game_id":440,"stv_port":27036,"stv_name":"Uncletopia | Warsaw | 3 | All Maps | STV","players":null},{"server_id":52,"name":"Uncletopia | Warsaw | 4 | All Maps","name_short":"waw-4","host":"waw-1.pl.uncletopia.com","port":27045,"enabled":true,"region":"eu","cc":"pl","latitude":52.2297,"longitude":21.017532,"reserved":0,"last_update":"0001-01-01T00:00:00Z","name_a2s":"Uncletopia | Warsaw | 4 | All Maps","protocol":17,"map":"cp_altitude","folder":"tf","game":"Team Fortress","app_id":440,"player_count":0,"max_players":24,"Bots":0,"server_type":"Dedicated","server_os":"Linux","password":true,"vac":true,"version":"7757534","steam_id":85568392925397853,"keywords":["cp","nocrits","nodmgspread","uncletopia"],"game_id":440,"stv_port":27046,"stv_name":"Uncletopia | Warsaw | 4 | All Maps | STV","players":null},{"server_id":53,"name":"Uncletopia | Warsaw | 5 | Stopwatch Beta","name_short":"waw-5","host":"waw-1.pl.uncletopia.com","port":27055,"enabled":true,"region":"eu","cc":"pl","latitude":52.2297,"longitude":21.017532,"reserved":0,"last_update":"0001-01-01T00:00:00Z","name_a2s":"Uncletopia | Warsaw | 5 | Stopwatch Beta","protocol":17,"map":"pl_pier","folder":"tf","game":"Team Fortress","app_id":440,"player_count":0,"max_players":24,"Bots":0,"server_type":"Dedicated","server_os":"Linux","password":true,"vac":true,"version":"7757534","steam_id":85568392925397854,"keywords":["nocrits","nodmgspread","payload","uncletopia"],"game_id":440,"stv_port":27056,"stv_name":"Uncletopia | Warsaw | 5 | Stopwatch Beta | STV","players":null},{"server_id":54,"name":"Uncletopia | Warsaw | 6 | Community","name_short":"waw-6","host":"waw-1.pl.uncletopia.com","port":27065,"enabled":true,"region":"eu","cc":"pl","latitude":52.2297,"longitude":21.017532,"reserved":0,"last_update":"0001-01-01T00:00:00Z","name_a2s":"Uncletopia | Warsaw | 6 | Community","protocol":17,"map":"koth_highpass","folder":"tf","game":"Team Fortress","app_id":440,"player_count":0,"max_players":24,"Bots":0,"server_type":"Dedicated","server_os":"Linux","password":true,"vac":true,"version":"7757534","steam_id":85568392925397856,"keywords":["cp","nocrits","nodmgspread","uncletopia"],"game_id":440,"stv_port":27066,"stv_name":"Uncletopia | Warsaw | 6 | Community | STV","players":null}]}