{"status":true,"message":"","result":[{"server_id":9,"name":"Uncletopia | Atlanta | 1 | All Maps","name_short":"atl-1","host":"atl-1.us.uncletopia.com","port":27015,"enabled":true,"region":"us-east","cc":"us","latitude":33.753746,"longitude":-84.38633,"reserved":0,"last_update":"0001-01-01T00:00:00Z","name_a2s":"Uncletopia | Atlanta | 1 | All Maps","protocol":17,"map":"koth_suijin","folder":"tf","game":"Team Fortress","app_id":440,"player_count":3,"max_players":24,"Bots":0,"server_type":"Dedicated","server_os":"Linux","password":true,"vac":true,"version":"7704440","steam_id":85568392924469982,"keywords":["cp","nocrits","nodmgspread","uncletopia"],"game_id":440,"stv_port":27016,"stv_name":"Uncletopia | Atlanta | 1 | All Maps | STV","players":[{"user_id":25,"name":"Wexer15","steam_id":76561199083941163,"connected_time":352000000000,"state":"active","ping":147},{"user_id":24,"name":"The spy who wanted to be a hoov","steam_id":76561199130142624,"connected_time":617000000000,"state":"active","ping":189},{"user_id":27,"name":"randomoneye","steam_id":76561199380157176,"connected_time":250000000000,"state":"active","ping":218}]},{"server_id":400,"name":"Uncletopia | Atlanta | 3 | All Maps","name_short":"atl-3","host":"atl-1.us.uncletopia.com","port":27035,"enabled":true,"region":"us-east","cc":"us","latitude":33.753746,"longitude":-84.38633,"reserved":0,"last_update":"0001-01-01T00:00:00Z","name_a2s":"Uncletopia | Atlanta | 3 | All Maps","protocol":17,"map":"koth_lakeside_final","folder":"tf","game":"Team Fortress","app_id":440,"player_count":0,"max_players":24,"Bots":0,"server_type":"Dedicated","server_os":"Linux","password":true,"vac":true,"version":"7704440","steam_id":85568392924515187,"keywords":["cp","nocrits","nodmgspread","uncletopia"],"game_id":440,"stv_port":27036,"stv_name":"Uncletopia | Atlanta | 3 | All Maps | STV","players":null},{"server_id":401,"name":"Uncletopia | Atlanta | 4 | No Payload","name_short":"atl-4","host":"atl-1.us.uncletopia.com","port":27045,"enabled":true,"region":"us-east","cc":"us","latitude":33.753746,"longitude":-84.38633,"reserved":0,"last_update":"0001-01-01T00:00:00Z","name_a2s":"Uncletopia | Atlanta | 4 | No Payload","protocol":17,"map":"pl_swiftwater_final1","folder":"tf","game":"Team Fortress","app_id":440,"player_count":0,"max_players":24,"Bots":0,"server_type":"Dedicated","server_os":"Linux","password":true,"vac":true,"version":"7704440","steam_id":85568392924515188,"keywords":["nocrits","nodmgspread","payload","uncletopia"],"game_id":440,"stv_port":0,"stv_name":"","players":null},{"server_id":2,"name":"Uncletopia | Chicago | 1 | All Maps","name_short":"chi-1","host":"chi-1.us.uncletopia.com","port":27015,"enabled":true,"region":"us-central","cc":"us","latitude":41.881832,"longitude":-87.62318,"reserved":0,"last_update":"0001-01-01T00:00:00Z","name_a2s":"Uncletopia | Chicago | 1 | All Maps","protocol":17,"map":"pl_barnblitz","folder":"tf","game":"Team Fortress","app_id":440,"player_count":24,"max_players":24,"Bots":0,"server_type":"Dedicated","server_os":"Linux","password":true,"vac":true,"version":"7704440","steam_id":85568392924469984,"keywords":["nocrits","nodmgspread","payload","uncletopia"],"game_id":440,"stv_port":27016,"stv_name":"Uncletopia | Chicago | 1 | All Maps | STV","players":[{"user_id":76,"name":"Odin","steam_id":76561199417970238,"connected_time":2237000000000,"state":"active","ping":162},{"user_id":77,"name":"Pelinal","steam_id":76561199061086990,"connected_time":2218000000000,"state":"active","ping":167},{"user_id":64,"name":"aisu","steam_id":76561198043768507,"connected_time":3332000000000,"state":"active","ping":69},{"user_id":87,"name":"silentpieceofbacon","steam_id":76561198869323351,"connected_time":682000000000,"state":"active","ping":66},{"user_id":88,"name":"floppy muppet","steam_id":76561198003076261,"connected_time":490000000000,"state":"active","ping":82},{"user_id":69,"name":"The Big","steam_id":76561198078572184,"connected_time":2662000000000,"state":"active","ping":83},{"user_id":83,"name":"SalemVHS™","steam_id":76561198073745981,"connected_time":1535000000000,"state":"active","ping":64},{"user_id":17,"name":"Chode Mode","steam_id":76561198353840477,"connected_time":5847000000000,"state":"active","ping":54},{"user_id":71,"name":"Female Gamer","steam_id":76561199366482682,"connected_time":2289000000000,"state":"active","ping":94},{"user_id":65,"name":"Rornir","steam_id":76561198081829615,"connected_time":3305000000000,"state":"active","ping":39},{"user_id":73,"name":"Guwahavel","steam_id":76561198246181902,"connected_time":2253000000000,"state":"active","ping":71},{"user_id":66,"name":"coffeeboy","steam_id":76561198049944251,"connected_time":3236000000000,"state":"active","ping":71},{"user_id":91,"name":"Capt.Swag","steam_id":76561198088340994,"connected_time":424000000000,"state":"active","ping":72},{"user_id":85,"name":"OrionKid","steam_id":76561198359094901,"connected_time":1084000000000,"state":"active","ping":81},{"user_id":31,"name":"Soap Man","steam_id":76561198000490235,"connected_time":5322000000000,"state":"active","ping":115},{"user_id":72,"name":"tj3002rocks","steam_id":76561199017921546,"connected_time":2257000000000,"state":"active","ping":79},{"user_id":89,"name":"John Darksoul","steam_id":76561198031675881,"connected_time":447000000000,"state":"active","ping":74},{"user_id":90,"name":"Chimpish","steam_id":76561199263493270,"connected_time":437000000000,"state":"active","ping":85},{"user_id":81,"name":"Coffeemelon","steam_id":76561198285891257,"connected_time":1901000000000,"state":"active","ping":98},{"user_id":84,"name":"Tyler\u0026Fingers","steam_id":76561198085154485,"connected_time":1387000000000,"state":"active","ping":76},{"user_id":92,"name":"Whoa","steam_id":76561197970353496,"connected_time":44000000000,"state":"active","ping":80},{"user_id":37,"name":"Airon","steam_id":76561197970481950,"connected_time":5283000000000,"state":"active","ping":162},{"user_id":60,"name":"Mori","steam_id":76561198355935693,"connected_time":3763000000000,"state":"active","ping":49},{"user_id":75,"name":"Void","steam_id":76561198308290211,"connected_time":2249000000000,"state":"active","ping":121}]},{"server_id":106,"name":"Uncletopia | Chicago | 2 | All Maps","name_short":"chi-2","host":"chi-1.us.uncletopia.com","port":27025,"enabled":true,"region":"us-central","cc":"us","latitude":41.881832,"longitude":-87.62318,"reserved":0,"last_update":"0001-01-01T00:00:00Z","name_a2s":"Uncletopia | Chicago | 2 | All Maps","protocol":17,"map":"koth_suijin","folder":"tf","game":"Team Fortress","app_id":440,"player_count":15,"max_players":24,"Bots":0,"server_type":"Dedicated","server_os":"Linux","password":true,"vac":true,"version":"7704440","steam_id":85568392924469985,"keywords":["cp","nocrits","nodmgspread","uncletopia"],"game_id":440,"stv_port":27026,"stv_name":"Uncletopia | Chicago | 2 | All Maps | STV","players":[{"user_id":167,"name":"FrostyEgo","steam_id":76561197998069472,"connected_time":2116000000000,"state":"active","ping":46},{"user_id":131,"name":"Eightyy  Fourr","steam_id":76561197960374225,"connected_time":5327000000000,"state":"active","ping":61},{"user_id":142,"name":"Spicy Duck","steam_id":76561198065905730,"connected_time":3820000000000,"state":"active","ping":68},{"user_id":185,"name":"TheQuantumMadness","steam_id":76561198088197281,"connected_time":690000000000,"state":"active","ping":92},{"user_id":172,"name":"Dr Kickass","steam_id":76561198069659186,"connected_time":1784000000000,"state":"active","ping":53},{"user_id":157,"name":"StickyWicket","steam_id":76561198000155177,"connected_time":2616000000000,"state":"active","ping":71},{"user_id":181,"name":"Nomad","steam_id":76561198170173062,"connected_time":732000000000,"state":"active","ping":90},{"user_id":82,"name":"Shockman","steam_id":76561197971281270,"connected_time":9726000000000,"state":"active","ping":70},{"user_id":183,"name":"tame","steam_id":76561198925005855,"connected_time":699000000000,"state":"active","ping":174},{"user_id":123,"name":"VerociousVee","steam_id":76561198289106015,"connected_time":6966000000000,"state":"active","ping":91},{"user_id":170,"name":"Wanderer","steam_id":76561197983989461,"connected_time":2002000000000,"state":"active","ping":82},{"user_id":100,"name":"frid","steam_id":76561198005806915,"connected_time":8273000000000,"state":"active","ping":58},{"user_id":186,"name":"WEEN | :0","steam_id":76561198073607799,"connected_time":148000000000,"state":"active","ping":155},{"user_id":171,"name":"Esau","steam_id":76561198110449520,"connected_time":1992000000000,"state":"active","ping":77},{"user_id":179,"name":"pootis spencer!!!!","steam_id":76561198202273263,"connected_time":882000000000,"state":"active","ping":41}]},{"server_id":402,"name":"Uncletopia | Chicago | 3 | All Maps","name_short":"chi-3","host":"chi-1.us.uncletopia.com","port":27035,"enabled":true,"region":"us-central","cc":"us","latitude":41.881832,"longitude":-87.62318,"reserved":0,"last_update":"0001-01-01T00:00:00Z","name_a2s":"Uncletopia | Chicago | 3 | All Maps","protocol":17,"map":"cp_altitude","folder":"tf","game":"Team Fortress","app_id":440,"player_count":22,"max_players":24,"Bots":0,"server_type":"Dedicated","server_os":"Linux","password":true,"vac":true,"version":"7704440","steam_id":85568392924515191,"keywords":["cp","nocrits","nodmgspread","uncletopia"],"game_id":440,"stv_port":27036,"stv_name":"Uncletopia | Chicago | 3 | All Maps | STV","players":[{"user_id":130,"name":"amazing","steam_id":76561198386233160,"connected_time":1106000000000,"state":"active","ping":90},{"user_id":120,"name":"Kaestal","steam_id":76561198033174157,"connected_time":1441000000000,"state":"active","ping":60},{"user_id":147,"name":"TÖZI","steam_id":76561198045268695,"connected_time":214000000000,"state":"active","ping":63},{"user_id":78,"name":"jae are (f2p)","steam_id":76561198027906463,"connected_time":4354000000000,"state":"active","ping":45},{"user_id":150,"name":"Lucid","steam_id":76561197998530400,"connected_time":121000000000,"state":"active","ping":85},{"user_id":74,"name":"kebo","steam_id":76561198237159430,"connected_time":4663000000000,"state":"active","ping":91},{"user_id":135,"name":"tillnexttime//besideyou","steam_id":76561198129682583,"connected_time":750000000000,"state":"active","ping":60},{"user_id":116,"name":"Doctor Sex","steam_id":76561198346664888,"connected_time":1657000000000,"state":"active","ping":93},{"user_id":151,"name":"Potato","steam_id":76561198989551964,"connected_time":113000000000,"state":"active","ping":393},{"user_id":118,"name":"Styil","steam_id":76561198075555802,"connected_time":1559000000000,"state":"active","ping":98},{"user_id":99,"name":"Rein","steam_id":76561198300340427,"connected_time":2872000000000,"state":"active","ping":60},{"user_id":139,"name":"majorbobfunction","steam_id":76561198042464632,"connected_time":562000000000,"state":"active","ping":56},{"user_id":145,"name":"Calo","steam_id":76561198364414012,"connected_time":286000000000,"state":"active","ping":58},{"user_id":152,"name":"Guwop","steam_id":76561197970425737,"connected_time":72000000000,"state":"active","ping":62},{"user_id":153,"name":"BigBoy","steam_id":76561198099017793,"connected_time":69000000000,"state":"active","ping":62},{"user_id":110,"name":"MasterIckolas","steam_id":76561198014826822,"connected_time":2076000000000,"state":"active","ping":92},{"user_id":126,"name":"Jocores","steam_id":76561198142139854,"connected_time":1245000000000,"state":"active","ping":87},{"user_id":142,"name":"Rectified","steam_id":76561198094425962,"connected_time":485000000000,"state":"active","ping":64},{"user_id":112,"name":"GayBowser125","steam_id":76561198163430099,"connected_time":2000000000000,"state":"active","ping":123},{"user_id":137,"name":"Sea4","steam_id":76561198846451551,"connected_time":696000000000,"state":"active","ping":95},{"user_id":129,"name":"toastman","steam_id":76561198207073088,"connected_time":1134000000000,"state":"active","ping":66},{"user_id":155,"name":"PP pump (water)","steam_id":76561198079462109,"connected_time":46000000000,"state":"spawning","ping":94}]},{"server_id":403,"name":"Uncletopia | Chicago | 4 | All Maps","name_short":"chi-4","host":"chi-1.us.uncletopia.com","port":27045,"enabled":true,"region":"us-central","cc":"us","latitude":41.881832,"longitude":-87.62318,"reserved":0,"last_update":"0001-01-01T00:00:00Z","name_a2s":"Uncletopia | Chicago | 4 | All Maps","protocol":17,"map":"koth_lakeside_final","folder":"tf","game":"Team Fortress","app_id":440,"player_count":0,"max_players":24,"Bots":0,"server_type":"Dedicated","server_os":"Linux","password":true,"vac":true,"version":"7704440","steam_id":85568392924515193,"keywords":["cp","nocrits","nodmgspread","uncletopia"],"game_id":440,"stv_port":0,"stv_name":"","players":null},{"server_id":36,"name":"Uncletopia | Chicago | 5 | All Maps","name_short":"chi-5","host":"chi-2.us.uncletopia.com","port":27015,"enabled":true,"region":"us-central","cc":"us","latitude":41.881832,"longitude":-87.62318,"reserved":0,"last_update":"0001-01-01T00:00:00Z","name_a2s":"Uncletopia | Chicago | 5 | All Maps","protocol":17,"map":"pl_borneo","folder":"tf","game":"Team Fortress","app_id":440,"player_count":0,"max_players":24,"Bots":0,"server_type":"Dedicated","server_os":"Linux","password":true,"vac":true,"version":"7704440","steam_id":85568392924866362,"keywords":["nocrits","nodmgspread","payload","uncletopia"],"game_id":440,"stv_port":0,"stv_name":"","players":null},{"server_id":37,"name":"Uncletopia | Chicago | 6 | All Maps","name_short":"chi-6","host":"chi-2.us.uncletopia.com","port":27025,"enabled":true,"region":"us-central","cc":"us","latitude":41.881832,"longitude":-87.62318,"reserved":0,"last_update":"0001-01-01T00:00:00Z","name_a2s":"Uncletopia | Chicago | 6 | All Maps","protocol":17,"map":"pl_upward","folder":"tf","game":"Team Fortress","app_id":440,"player_count":0,"max_players":24,"Bots":0,"server_type":"Dedicated","server_os":"Linux","password":true,"vac":true,"version":"7704440","steam_id":85568392924866363,"keywords":["nocrits","nodmgspread","payload","uncletopia"],"game_id":440,"stv_port":0,"stv_name":"","players":null},{"server_id":38,"name":"Uncletopia | Chicago | 7 | No Payload","name_short":"chi-7","host":"chi-2.us.uncletopia.com","port":27035,"enabled":true,"region":"us-central","cc":"us","latitude":41.881832,"longitude":-87.62318,"reserved":0,"last_update":"0001-01-01T00:00:00Z","name_a2s":"Uncletopia | Chicago | 7 | No Payload","protocol":17,"map":"pl_snowycoast","folder":"tf","game":"Team Fortress","app_id":440,"player_count":0,"max_players":24,"Bots":0,"server_type":"Dedicated","server_os":"Linux","password":true,"vac":true,"version":"7704440","steam_id":85568392924866364,"keywords":["nocrits","nodmgspread","payload","uncletopia"],"game_id":440,"stv_port":0,"stv_name":"","players":null},{"server_id":39,"name":"Uncletopia | Chicago | 8 | Community","name_short":"chi-8","host":"chi-2.us.uncletopia.com","port":27045,"enabled":true,"region":"us-central","cc":"us","latitude":41.881832,"longitude":-87.62318,"reserved":0,"last_update":"0001-01-01T00:00:00Z","name_a2s":"Uncletopia | Chicago | 8 | Community","protocol":17,"map":"pl_upward","folder":"tf","game":"Team Fortress","app_id":440,"player_count":0,"max_players":24,"Bots":0,"server_type":"Dedicated","server_os":"Linux","password":true,"vac":true,"version":"7704440","steam_id":85568392924866365,"keywords":["nocrits","nodmgspread","payload","uncletopia"],"game_id":440,"stv_port":0,"stv_name":"","players":null},{"server_id":8,"name":"Uncletopia | Dallas | 1 | All Maps","name_short":"dal-1","host":"dal-1.us.uncletopia.com","port":27015,"enabled":true,"region":"us-central","cc":"us","latitude":32.779167,"longitude":-96.80889,"reserved":0,"last_update":"0001-01-01T00:00:00Z","name_a2s":"Uncletopia | Dallas | 1 | All Maps","protocol":17,"map":"pl_barnblitz","folder":"tf","game":"Team Fortress","app_id":440,"player_count":0,"max_players":24,"Bots":0,"server_type":"Dedicated","server_os":"Linux","password":true,"vac":true,"version":"7704440","steam_id":85568392924469986,"keywords":["nocrits","nodmgspread","payload","uncletopia"],"game_id":440,"stv_port":27016,"stv_name":"Uncletopia | Dallas | 1 | All Maps | STV","players":null},{"server_id":108,"name":"Uncletopia | Dallas | 2 | All Maps","name_short":"dal-2","host":"dal-1.us.uncletopia.com","port":27025,"enabled":true,"region":"us-central","cc":"us","latitude":32.779167,"longitude":-96.80889,"reserved":0,"last_update":"0001-01-01T00:00:00Z","name_a2s":"Uncletopia | Dallas | 2 | All Maps","protocol":17,"map":"cp_mountainlab","folder":"tf","game":"Team Fortress","app_id":440,"player_count":0,"max_players":24,"Bots":0,"server_type":"Dedicated","server_os":"Linux","password":true,"vac":true,"version":"7704440","steam_id":85568392924469988,"keywords":["cp","nocrits","nodmgspread","uncletopia"],"game_id":440,"stv_port":27026,"stv_name":"Uncletopia | Dallas | 2 | All Maps | STV","players":null},{"server_id":5,"name":"Uncletopia | Frankfurt | 1 | All Maps","name_short":"frk-1","host":"frk-1.de.uncletopia.com","port":27015,"enabled":true,"region":"eu","cc":"de","latitude":50.110924,"longitude":8.682127,"reserved":0,"last_update":"0001-01-01T00:00:00Z","name_a2s":"Uncletopia | Frankfurt | 1 | All Maps","protocol":17,"map":"pl_upward","folder":"tf","game":"Team Fortress","app_id":440,"player_count":24,"max_players":24,"Bots":0,"server_type":"Dedicated","server_os":"Linux","password":true,"vac":true,"version":"7704440","steam_id":85568392924469989,"keywords":["nocrits","nodmgspread","payload","uncletopia"],"game_id":440,"stv_port":27016,"stv_name":"Uncletopia | Frankfurt | 1 | All Maps | STV","players":[{"user_id":537,"name":"Caliban","steam_id":76561197999696839,"connected_time":1501000000000,"state":"active","ping":98},{"user_id":535,"name":"Pestdoktor","steam_id":76561198058159271,"connected_time":1715000000000,"state":"active","ping":61},{"user_id":536,"name":"Professional Gibus Spy (F2P)","steam_id":76561199082683456,"connected_time":1636000000000,"state":"active","ping":114},{"user_id":506,"name":"Bob Sacamano","steam_id":76561198085610701,"connected_time":2980000000000,"state":"active","ping":94},{"user_id":533,"name":"pandeux","steam_id":76561198343527617,"connected_time":1859000000000,"state":"active","ping":49},{"user_id":553,"name":"Serton♝","steam_id":76561198011061126,"connected_time":959000000000,"state":"active","ping":94},{"user_id":538,"name":"Aoshi","steam_id":76561198043868358,"connected_time":1493000000000,"state":"active","ping":60},{"user_id":560,"name":"Meatballs","steam_id":76561198005948884,"connected_time":546000000000,"state":"active","ping":62},{"user_id":556,"name":"ender","steam_id":76561198840955715,"connected_time":692000000000,"state":"active","ping":51},{"user_id":559,"name":"Transgender E-girl","steam_id":76561198168589809,"connected_time":578000000000,"state":"active","ping":73},{"user_id":575,"name":"generic alias","steam_id":76561198271607226,"connected_time":14000000000,"state":"spawning","ping":1720},{"user_id":562,"name":"DEMURE","steam_id":76561198263299590,"connected_time":481000000000,"state":"active","ping":63},{"user_id":552,"name":"MrFumble","steam_id":76561198000555490,"connected_time":1019000000000,"state":"active","ping":83},{"user_id":566,"name":"Gunto","steam_id":76561199046992205,"connected_time":252000000000,"state":"active","ping":50},{"user_id":568,"name":"Bones","steam_id":76561198065081225,"connected_time":147000000000,"state":"active","ping":85},{"user_id":532,"name":"Menty","steam_id":76561198036748212,"connected_time":2066000000000,"state":"active","ping":41},{"user_id":569,"name":"COFFEE","steam_id":76561198869355986,"connected_time":132000000000,"state":"active","ping":62},{"user_id":558,"name":"Gabys","steam_id":76561198282892553,"connected_time":674000000000,"state":"active","ping":73},{"user_id":551,"name":"MrKampfCookie","steam_id":76561198085490175,"connected_time":1097000000000,"state":"active","ping":44},{"user_id":548,"name":"Birne","steam_id":76561198001335120,"connected_time":1192000000000,"state":"active","ping":60},{"user_id":572,"name":"outlaw","steam_id":76561198323805289,"connected_time":70000000000,"state":"active","ping":45},{"user_id":546,"name":"junior","steam_id":76561198869806001,"connected_time":1418000000000,"state":"active","ping":70},{"user_id":530,"name":"LarsInABox","steam_id":76561198028329262,"connected_time":2319000000000,"state":"active","ping":74},{"user_id":573,"name":"Joe","steam_id":76561198061717026,"connected_time":70000000000,"state":"active","ping":59}]},{"server_id":110,"name":"Uncletopia | Frankfurt | 2 | All Maps","name_short":"frk-2","host":"frk-1.de.uncletopia.com","port":27025,"enabled":true,"region":"eu","cc":"de","latitude":50.110924,"longitude":8.682127,"reserved":0,"last_update":"0001-01-01T00:00:00Z","name_a2s":"Uncletopia | Frankfurt | 2 | All Maps","protocol":17,"map":"cp_mountainlab","folder":"tf","game":"Team Fortress","app_id":440,"player_count":24,"max_players":24,"Bots":0,"server_type":"Dedicated","server_os":"Linux","password":true,"vac":true,"version":"7704440","steam_id":85568392924469990,"keywords":["cp","nocrits","nodmgspread","uncletopia"],"game_id":440,"stv_port":27026,"stv_name":"Uncletopia | Frankfurt | 2 | All Maps | STV","players":[{"user_id":219,"name":"magnolia","steam_id":76561199228865188,"connected_time":296000000000,"state":"active","ping":170},{"user_id":204,"name":"oser","steam_id":76561198153989118,"connected_time":1139000000000,"state":"active","ping":57},{"user_id":183,"name":"sprunkzz","steam_id":76561198032605997,"connected_time":2654000000000,"state":"active","ping":83},{"user_id":210,"name":"Bun","steam_id":76561197989239999,"connected_time":779000000000,"state":"active","ping":47},{"user_id":187,"name":"Kovalski","steam_id":76561199092689216,"connected_time":1758000000000,"state":"active","ping":76},{"user_id":229,"name":"Saltzpyre_Gaiming","steam_id":76561198295461185,"connected_time":56000000000,"state":"active","ping":96},{"user_id":226,"name":"Midoriaga","steam_id":76561198010699090,"connected_time":159000000000,"state":"active","ping":48},{"user_id":209,"name":"wickEd_","steam_id":76561198048068999,"connected_time":798000000000,"state":"active","ping":150},{"user_id":217,"name":"JustNoSkill","steam_id":76561198399115995,"connected_time":328000000000,"state":"active","ping":55},{"user_id":79,"name":"bigwish | bmod.tf","steam_id":76561197997859723,"connected_time":11911000000000,"state":"active","ping":66},{"user_id":211,"name":"nori","steam_id":76561198099077097,"connected_time":724000000000,"state":"active","ping":79},{"user_id":230,"name":"Slick","steam_id":76561197994232008,"connected_time":22000000000,"state":"spawning","ping":86},{"user_id":181,"name":"Gety0","steam_id":76561198044387185,"connected_time":2847000000000,"state":"active","ping":79},{"user_id":220,"name":"Sireena","steam_id":76561198262042305,"connected_time":286000000000,"state":"active","ping":75},{"user_id":166,"name":"walluu","steam_id":76561198121830870,"connected_time":4746000000000,"state":"active","ping":65},{"user_id":202,"name":"לו","steam_id":76561198170332885,"connected_time":1165000000000,"state":"active","ping":99},{"user_id":177,"name":"Greed","steam_id":76561198034264020,"connected_time":3744000000000,"state":"active","ping":119},{"user_id":215,"name":"3xample","steam_id":76561198805049375,"connected_time":356000000000,"state":"active","ping":66},{"user_id":192,"name":"Bell","steam_id":76561199413517335,"connected_time":1691000000000,"state":"active","ping":137},{"user_id":222,"name":"Fasse","steam_id":76561198321737359,"connected_time":267000000000,"state":"active","ping":65},{"user_id":232,"name":"barry from jetpack joyride","steam_id":76561198881575174,"connected_time":13000000000,"state":"spawning","ping":85},{"user_id":224,"name":"phntom","steam_id":76561198811143648,"connected_time":247000000000,"state":"active","ping":74},{"user_id":228,"name":"EaTtussy","steam_id":76561199235376543,"connected_time":109000000000,"state":"active","ping":66},{"user_id":206,"name":"PantsOnMyers","steam_id":76561198948552451,"connected_time":1058000000000,"state":"active","ping":66}]},{"server_id":308,"name":"Uncletopia | Frankfurt | 3 | All Maps","name_short":"frk-3","host":"frk-1.de.uncletopia.com","port":27035,"enabled":true,"region":"eu","cc":"de","latitude":50.110924,"longitude":8.682127,"reserved":0,"last_update":"0001-01-01T00:00:00Z","name_a2s":"Uncletopia | Frankfurt | 3 | All Maps","protocol":17,"map":"cp_dustbowl","folder":"tf","game":"Team Fortress","app_id":440,"player_count":12,"max_players":24,"Bots":0,"server_type":"Dedicated","server_os":"Linux","password":true,"vac":true,"version":"7704440","steam_id":85568392924504274,"keywords":["cp","nocrits","nodmgspread","uncletopia"],"game_id":440,"stv_port":27036,"stv_name":"Uncletopia | Frankfurt | 3 | All Maps | STV","players":[{"user_id":40,"name":"Aldiar17472","steam_id":76561199405519511,"connected_time":432000000000,"state":"active","ping":105},{"user_id":45,"name":"The Fire Pyro","steam_id":76561198300296457,"connected_time":210000000000,"state":"active","ping":68},{"user_id":46,"name":"TheRubberDuccy","steam_id":76561199023194086,"connected_time":193000000000,"state":"active","ping":82},{"user_id":30,"name":"SawdustixPQ","steam_id":76561198815127418,"connected_time":1587000000000,"state":"active","ping":76},{"user_id":34,"name":"cof","steam_id":76561199128417805,"connected_time":609000000000,"state":"active","ping":58},{"user_id":48,"name":"DeCypher","steam_id":76561198171992619,"connected_time":137000000000,"state":"active","ping":57},{"user_id":47,"name":"benifis163","steam_id":76561198420973492,"connected_time":184000000000,"state":"active","ping":95},{"user_id":37,"name":"SacralDeer","steam_id":76561198870674284,"connected_time":553000000000,"state":"active","ping":113},{"user_id":42,"name":"ScoutPilgrim","steam_id":76561198013007215,"connected_time":388000000000,"state":"active","ping":57},{"user_id":49,"name":"jama","steam_id":76561198058062331,"connected_time":117000000000,"state":"active","ping":79},{"user_id":43,"name":"presidentialAIDS","steam_id":76561199257284077,"connected_time":377000000000,"state":"active","ping":106},{"user_id":50,"name":"forthingthe","steam_id":76561199370089653,"connected_time":105000000000,"state":"active","ping":135}]},{"server_id":309,"name":"Uncletopia | Frankfurt | 4 | All Maps","name_short":"frk-4","host":"frk-1.de.uncletopia.com","port":27045,"enabled":true,"region":"eu","cc":"de","latitude":50.110924,"longitude":8.682127,"reserved":0,"last_update":"0001-01-01T00:00:00Z","name_a2s":"Uncletopia | Frankfurt | 4 | All Maps","protocol":17,"map":"cp_badlands","folder":"tf","game":"Team Fortress","app_id":440,"player_count":24,"max_players":24,"Bots":0,"server_type":"Dedicated","server_os":"Linux","password":true,"vac":true,"version":"7704440","steam_id":85568392924504275,"keywords":["cp","nocrits","nodmgspread","uncletopia"],"game_id":440,"stv_port":27046,"stv_name":"Uncletopia | Frankfurt | 4 | All Maps | STV","players":[{"user_id":320,"name":"woo","steam_id":76561198066799770,"connected_time":344000000000,"state":"active","ping":60},{"user_id":310,"name":"Aroo","steam_id":76561198132601368,"connected_time":739000000000,"state":"active","ping":65},{"user_id":317,"name":"sam","steam_id":76561198274236638,"connected_time":538000000000,"state":"active","ping":61},{"user_id":312,"name":"Dakkafex","steam_id":76561198020254869,"connected_time":702000000000,"state":"active","ping":46},{"user_id":282,"name":"sHIFTINGvORTEX","steam_id":76561198231648332,"connected_time":2349000000000,"state":"active","ping":67},{"user_id":300,"name":"Big Trader","steam_id":76561197992364667,"connected_time":1102000000000,"state":"active","ping":61},{"user_id":307,"name":"tealoverr.190","steam_id":76561199028497703,"connected_time":961000000000,"state":"active","ping":104},{"user_id":303,"name":"Breeze","steam_id":76561198892979594,"connected_time":1028000000000,"state":"active","ping":49},{"user_id":290,"name":"The Funny Cat 面白い猫","steam_id":76561198439978112,"connected_time":1813000000000,"state":"active","ping":160},{"user_id":298,"name":"Nex","steam_id":76561198060516242,"connected_time":1242000000000,"state":"active","ping":87},{"user_id":308,"name":"TheFlames","steam_id":76561198179314694,"connected_time":917000000000,"state":"active","ping":59},{"user_id":265,"name":"Mclovin567","steam_id":76561198799105302,"connected_time":3546000000000,"state":"active","ping":54},{"user_id":313,"name":"Burpman","steam_id":76561198022897937,"connected_time":701000000000,"state":"active","ping":61},{"user_id":321,"name":"Brinier","steam_id":76561199012604288,"connected_time":308000000000,"state":"active","ping":62},{"user_id":322,"name":"Empyrean","steam_id":76561198138552502,"connected_time":308000000000,"state":"active","ping":62},{"user_id":325,"name":"jaMie","steam_id":76561198170148783,"connected_time":124000000000,"state":"active","ping":53},{"user_id":285,"name":"Carry Krypl","steam_id":76561198136938121,"connected_time":2143000000000,"state":"active","ping":48},{"user_id":266,"name":"Creative","steam_id":76561198835034247,"connected_time":3285000000000,"state":"active","ping":88},{"user_id":297,"name":"restloud","steam_id":76561198265722644,"connected_time":1245000000000,"state":"active","ping":68},{"user_id":315,"name":"GabGame","steam_id":76561198105631808,"connected_time":662000000000,"state":"active","ping":63},{"user_id":326,"name":"Symbiosis","steam_id":76561198108094593,"connected_time":14000000000,"state":"spawning","ping":251},{"user_id":316,"name":"Breadcrab","steam_id":76561198015924039,"connected_time":662000000000,"state":"active","ping":76},{"user_id":281,"name":"Icarus300","steam_id":76561198015125766,"connected_time":2423000000000,"state":"active","ping":87},{"user_id":294,"name":"herobeni30","steam_id":76561199272782484,"connected_time":1614000000000,"state":"active","ping":55}]},{"server_id":310,"name":"Uncletopia | Frankfurt | 5 | All Maps","name_short":"frk-5","host":"frk-1.de.uncletopia.com","port":27055,"enabled":true,"region":"eu","cc":"de","latitude":50.110924,"longitude":8.682127,"reserved":0,"last_update":"0001-01-01T00:00:00Z","name_a2s":"Uncletopia | Frankfurt | 5 | All Maps","protocol":17,"map":"pl_borneo","folder":"tf","game":"Team Fortress","app_id":440,"player_count":24,"max_players":24,"Bots":0,"server_type":"Dedicated","server_os":"Linux","password":true,"vac":true,"version":"7704440","steam_id":85568392924504277,"keywords":["nocrits","nodmgspread","payload","uncletopia"],"game_id":440,"stv_port":27056,"stv_name":"Uncletopia | Frankfurt | 5 | All Maps | STV","players":[{"user_id":66,"name":"Devil hater","steam_id":76561198110470565,"connected_time":3373000000000,"state":"active","ping":112},{"user_id":67,"name":"carmin16","steam_id":76561198812935163,"connected_time":3212000000000,"state":"active","ping":150},{"user_id":68,"name":"dongus","steam_id":76561198042774930,"connected_time":3120000000000,"state":"active","ping":80},{"user_id":86,"name":"ToniGAM3S","steam_id":76561198128605351,"connected_time":1426000000000,"state":"active","ping":55},{"user_id":80,"name":"Snus aus Preußen","steam_id":76561197992185747,"connected_time":1748000000000,"state":"active","ping":57},{"user_id":95,"name":"El Gato Volador","steam_id":76561198021296882,"connected_time":304000000000,"state":"active","ping":65},{"user_id":83,"name":"RAPTRE","steam_id":76561198188861659,"connected_time":1610000000000,"state":"active","ping":88},{"user_id":91,"name":"Boobs rater","steam_id":76561198066977580,"connected_time":548000000000,"state":"active","ping":89},{"user_id":57,"name":"Tomamo","steam_id":76561198258031112,"connected_time":3707000000000,"state":"active","ping":75},{"user_id":48,"name":"Waffles","steam_id":76561199086942763,"connected_time":4127000000000,"state":"active","ping":83},{"user_id":78,"name":"MAKENTAKEN","steam_id":76561199127359587,"connected_time":1971000000000,"state":"active","ping":87},{"user_id":73,"name":"Edek","steam_id":76561197995835321,"connected_time":2670000000000,"state":"active","ping":62},{"user_id":47,"name":"[x_x]","steam_id":76561198067445084,"connected_time":4174000000000,"state":"active","ping":86},{"user_id":81,"name":"porridge","steam_id":76561198044585737,"connected_time":1653000000000,"state":"active","ping":61},{"user_id":94,"name":"Chocofrolik","steam_id":76561198454779847,"connected_time":381000000000,"state":"active","ping":59},{"user_id":49,"name":"Common Rock","steam_id":76561198138924868,"connected_time":4123000000000,"state":"active","ping":175},{"user_id":75,"name":"obi","steam_id":76561198040154461,"connected_time":2526000000000,"state":"active","ping":55},{"user_id":87,"name":"donk","steam_id":76561198162676648,"connected_time":1019000000000,"state":"active","ping":67},{"user_id":52,"name":"KarlRanzeier","steam_id":76561198066281337,"connected_time":3968000000000,"state":"active","ping":54},{"user_id":93,"name":"NøkkB1t","steam_id":76561198344572772,"connected_time":397000000000,"state":"active","ping":75},{"user_id":55,"name":"nya!","steam_id":76561198293309694,"connected_time":3825000000000,"state":"active","ping":65},{"user_id":90,"name":"Windows Vista Cruiser","steam_id":76561198064102233,"connected_time":618000000000,"state":"active","ping":66},{"user_id":85,"name":"SIGMA BALLS","steam_id":76561198302623594,"connected_time":1594000000000,"state":"active","ping":95},{"user_id":89,"name":"wray Song ***********","steam_id":76561199388914042,"connected_time":981000000000,"state":"active","ping":67}]},{"server_id":311,"name":"Uncletopia | Frankfurt | 6 | All Maps","name_short":"frk-6","host":"frk-1.de.uncletopia.com","port":27065,"enabled":true,"region":"eu","cc":"de","latitude":50.110924,"longitude":8.682127,"reserved":0,"last_update":"0001-01-01T00:00:00Z","name_a2s":"Uncletopia | Frankfurt | 6 | All Maps","protocol":17,"map":"koth_lakeside_final","folder":"tf","game":"Team Fortress","app_id":440,"player_count":0,"max_players":24,"Bots":0,"server_type":"Dedicated","server_os":"Linux","password":true,"vac":true,"version":"7704440","steam_id":85568392924504278,"keywords":["cp","nocrits","nodmgspread","uncletopia"],"game_id":440,"stv_port":0,"stv_name":"","players":null},{"server_id":23,"name":"Uncletopia | Frankfurt | 7 | No Payload","name_short":"frk-7","host":"frk-1.de.uncletopia.com","port":27075,"enabled":true,"region":"eu","cc":"de","latitude":50.110924,"longitude":8.682127,"reserved":0,"last_update":"0001-01-01T00:00:00Z","name_a2s":"Uncletopia | Frankfurt | 7 | No Payload","protocol":17,"map":"cp_steel","folder":"tf","game":"Team Fortress","app_id":440,"player_count":24,"max_players":24,"Bots":0,"server_type":"Dedicated","server_os":"Linux","password":true,"vac":true,"version":"7704440","steam_id":85568392924742827,"keywords":["cp","nocrits","nodmgspread","uncletopia"],"game_id":440,"stv_port":27076,"stv_name":"Uncletopia | Frankfurt | 7 | No Payload | STV","players":[{"user_id":125,"name":"Parus","steam_id":76561198131876996,"connected_time":1362000000000,"state":"active","ping":177},{"user_id":21,"name":"Him","steam_id":76561198086400484,"connected_time":6801000000000,"state":"active","ping":66},{"user_id":124,"name":"Siggi_05","steam_id":76561198137158476,"connected_time":1439000000000,"state":"active","ping":60},{"user_id":97,"name":"John Daly","steam_id":76561197993849325,"connected_time":2840000000000,"state":"active","ping":68},{"user_id":136,"name":"muppi","steam_id":76561198067765324,"connected_time":1067000000000,"state":"active","ping":69},{"user_id":85,"name":"Flex Finster","steam_id":76561198061632224,"connected_time":3424000000000,"state":"active","ping":47},{"user_id":139,"name":"mariodraghi","steam_id":76561198805093192,"connected_time":905000000000,"state":"active","ping":79},{"user_id":145,"name":"tacker11","steam_id":76561198886244287,"connected_time":608000000000,"state":"active","ping":63},{"user_id":40,"name":"I-I","steam_id":76561198267969436,"connected_time":5343000000000,"state":"active","ping":52},{"user_id":143,"name":"Cobra","steam_id":76561198148418531,"connected_time":757000000000,"state":"active","ping":184},{"user_id":149,"name":"htraB","steam_id":76561198043122677,"connected_time":145000000000,"state":"active","ping":63},{"user_id":144,"name":"LasagnaLarry22","steam_id":76561198089478290,"connected_time":730000000000,"state":"active","ping":54},{"user_id":128,"name":"The Common Riff Raff","steam_id":76561198996018265,"connected_time":1254000000000,"state":"active","ping":160},{"user_id":147,"name":"My left foot itches","steam_id":76561198078411001,"connected_time":537000000000,"state":"active","ping":98},{"user_id":146,"name":"Scrample","steam_id":76561198040422830,"connected_time":583000000000,"state":"active","ping":49},{"user_id":129,"name":"Ledze Shuns Dope","steam_id":76561198049945010,"connected_time":1229000000000,"state":"active","ping":58},{"user_id":112,"name":"calum92","steam_id":76561197992188760,"connected_time":2187000000000,"state":"active","ping":73},{"user_id":148,"name":"thomas the wank engine","steam_id":76561199013435970,"connected_time":433000000000,"state":"active","ping":97},{"user_id":84,"name":"Fat Pigeon","steam_id":76561198817940142,"connected_time":3510000000000,"state":"active","ping":57},{"user_id":114,"name":"tralalaOuiOui","steam_id":76561197963471507,"connected_time":2159000000000,"state":"active","ping":54},{"user_id":115,"name":"GoofBaller","steam_id":76561198997885594,"connected_time":2155000000000,"state":"active","ping":54},{"user_id":141,"name":"dafydd","steam_id":76561198052200325,"connected_time":877000000000,"state":"active","ping":78},{"user_id":133,"name":"dairy","steam_id":76561198117033273,"connected_time":1157000000000,"state":"active","ping":80},{"user_id":138,"name":"skitsvår att höra","steam_id":76561198216544293,"connected_time":1031000000000,"state":"active","ping":75}]},{"server_id":24,"name":"Uncletopia | Frankfurt | 8 | Community","name_short":"frk-8","host":"frk-1.de.uncletopia.com","port":27085,"enabled":true,"region":"eu","cc":"de","latitude":50.110924,"longitude":8.682127,"reserved":0,"last_update":"0001-01-01T00:00:00Z","name_a2s":"Uncletopia | Frankfurt | 8 | Community","protocol":17,"map":"cp_process_final","folder":"tf","game":"Team Fortress","app_id":440,"player_count":0,"max_players":24,"Bots":0,"server_type":"Dedicated","server_os":"Linux","password":true,"vac":true,"version":"7704440","steam_id":85568392924742828,"keywords":["cp","nocrits","nodmgspread","uncletopia"],"game_id":440,"stv_port":0,"stv_name":"","players":null},{"server_id":202,"name":"Uncletopia | Hong Kong | 1 | All Maps","name_short":"hgk-1","host":"hgk-1.hk.uncletopia.com","port":27015,"enabled":true,"region":"asia","cc":"hk","latitude":22.302711,"longitude":114.177216,"reserved":0,"last_update":"0001-01-01T00:00:00Z","name_a2s":"Uncletopia | Hong Kong | 1 | All Maps","protocol":17,"map":"koth_lakeside_final","folder":"tf","game":"Team Fortress","app_id":440,"player_count":0,"max_players":24,"Bots":0,"server_type":"Dedicated","server_os":"Linux","password":true,"vac":true,"version":"7704440","steam_id":85568392924494504,"keywords":["cp","nocrits","nodmgspread","uncletopia"],"game_id":440,"stv_port":27016,"stv_name":"Uncletopia | Hong Kong | 1 | All Maps | STV","players":null},{"server_id":1,"name":"Uncletopia | Los Angeles | 1 | All Maps","name_short":"lax-1","host":"lax-1.us.uncletopia.com","port":27015,"enabled":true,"region":"us-west","cc":"us","latitude":33.94279,"longitude":-118.41004,"reserved":0,"last_update":"0001-01-01T00:00:00Z","name_a2s":"Uncletopia | Los Angeles | 1 | All Maps","protocol":17,"map":"pl_barnblitz","folder":"tf","game":"Team Fortress","app_id":440,"player_count":0,"max_players":24,"Bots":0,"server_type":"Dedicated","server_os":"Linux","password":true,"vac":true,"version":"7704440","steam_id":85568392924469991,"keywords":["nocrits","nodmgspread","payload","uncletopia"],"game_id":440,"stv_port":0,"stv_name":"","players":null},{"server_id":112,"name":"Uncletopia | Los Angeles | 2 | All Maps","name_short":"lax-2","host":"lax-1.us.uncletopia.com","port":27025,"enabled":true,"region":"us-west","cc":"us","latitude":33.94279,"longitude":-118.41004,"reserved":0,"last_update":"0001-01-01T00:00:00Z","name_a2s":"Uncletopia | Los Angeles | 2 | All Maps","protocol":17,"map":"pl_pier","folder":"tf","game":"Team Fortress","app_id":440,"player_count":0,"max_players":24,"Bots":0,"server_type":"Dedicated","server_os":"Linux","password":true,"vac":true,"version":"7704440","steam_id":85568392924469992,"keywords":["nocrits","nodmgspread","payload","uncletopia"],"game_id":440,"stv_port":0,"stv_name":"","players":null},{"server_id":324,"name":"Uncletopia | Los Angeles | 3 | All Maps","name_short":"lax-3","host":"lax-1.us.uncletopia.com","port":27035,"enabled":true,"region":"us-west","cc":"us","latitude":33.94279,"longitude":-118.41004,"reserved":0,"last_update":"0001-01-01T00:00:00Z","name_a2s":"Uncletopia | Los Angeles | 3 | All Maps","protocol":17,"map":"cp_dustbowl","folder":"tf","game":"Team Fortress","app_id":440,"player_count":0,"max_players":24,"Bots":0,"server_type":"Dedicated","server_os":"Linux","password":true,"vac":true,"version":"7704440","steam_id":85568392924510198,"keywords":["cp","nocrits","nodmgspread","uncletopia"],"game_id":440,"stv_port":0,"stv_name":"","players":null},{"server_id":25,"name":"Uncletopia | Los Angeles | 4 | No Payload","name_short":"lax-4","host":"lax-1.us.uncletopia.com","port":27045,"enabled":true,"region":"us-west","cc":"us","latitude":33.94279,"longitude":-118.41004,"reserved":0,"last_update":"0001-01-01T00:00:00Z","name_a2s":"Uncletopia | Los Angeles | 4 | No Payload","protocol":17,"map":"ctf_doublecross","folder":"tf","game":"Team Fortress","app_id":440,"player_count":0,"max_players":24,"Bots":0,"server_type":"Dedicated","server_os":"Linux","password":true,"vac":true,"version":"7704440","steam_id":85568392924510199,"keywords":["ctf","nocrits","nodmgspread","uncletopia"],"game_id":440,"stv_port":27046,"stv_name":"Uncletopia | Los Angeles | 4 | No Payload | STV","players":null},{"server_id":11,"name":"Uncletopia | London | 1 | All Maps","name_short":"lon-1","host":"lon-1.uk.uncletopia.com","port":27015,"enabled":true,"region":"eu","cc":"gb","latitude":51.509865,"longitude":-0.118092,"reserved":0,"last_update":"0001-01-01T00:00:00Z","name_a2s":"Uncletopia | London | 1 | All Maps","protocol":17,"map":"pl_barnblitz","folder":"tf","game":"Team Fortress","app_id":440,"player_count":24,"max_players":24,"Bots":0,"server_type":"Dedicated","server_os":"Linux","password":true,"vac":true,"version":"7704440","steam_id":85568392924367362,"keywords":["nocrits","nodmgspread","payload","uncletopia"],"game_id":440,"stv_port":27016,"stv_name":"Uncletopia | London | 1 | All Maps | STV","players":[{"user_id":284,"name":"prod. hit-boy","steam_id":76561198059782462,"connected_time":6878000000000,"state":"active","ping":60},{"user_id":334,"name":"wootabs","steam_id":76561198831766743,"connected_time":4110000000000,"state":"active","ping":78},{"user_id":347,"name":"Revenge Ridden Scootz","steam_id":76561198018491455,"connected_time":2736000000000,"state":"active","ping":58},{"user_id":348,"name":"Megamain","steam_id":76561198923772036,"connected_time":2633000000000,"state":"active","ping":48},{"user_id":352,"name":"PReDatOR","steam_id":76561198031102953,"connected_time":2550000000000,"state":"active","ping":80},{"user_id":369,"name":"G6 sherlock","steam_id":76561198802967796,"connected_time":225000000000,"state":"active","ping":119},{"user_id":335,"name":"festive jones","steam_id":76561198073975078,"connected_time":4072000000000,"state":"active","ping":45},{"user_id":360,"name":"juJu","steam_id":76561198049343793,"connected_time":1303000000000,"state":"active","ping":73},{"user_id":331,"name":"Hexagon","steam_id":76561198151205758,"connected_time":4173000000000,"state":"active","ping":60},{"user_id":359,"name":"Davidoff","steam_id":76561199099163283,"connected_time":1441000000000,"state":"active","ping":67},{"user_id":365,"name":"Mor'du","steam_id":76561198274105878,"connected_time":1008000000000,"state":"active","ping":83},{"user_id":361,"name":"Florida Man","steam_id":76561198845255013,"connected_time":1291000000000,"state":"active","ping":74},{"user_id":338,"name":"lulu","steam_id":76561199147764133,"connected_time":3534000000000,"state":"active","ping":76},{"user_id":366,"name":"sigma female","steam_id":76561198298576765,"connected_time":964000000000,"state":"active","ping":62},{"user_id":358,"name":"Mango","steam_id":76561198139555709,"connected_time":1692000000000,"state":"active","ping":55},{"user_id":311,"name":"Cryo","steam_id":76561198324132940,"connected_time":5561000000000,"state":"active","ping":84},{"user_id":356,"name":"Wardruna96","steam_id":76561199057083828,"connected_time":2020000000000,"state":"active","ping":76},{"user_id":371,"name":"Nedge","steam_id":76561197963549701,"connected_time":169000000000,"state":"active","ping":50},{"user_id":342,"name":"ahh, eto... nya. :3","steam_id":76561198878171763,"connected_time":3335000000000,"state":"active","ping":48},{"user_id":372,"name":"kumar final horse","steam_id":76561197988085026,"connected_time":168000000000,"state":"active","ping":75},{"user_id":319,"name":"DrExplosive","steam_id":76561198063678579,"connected_time":4958000000000,"state":"active","ping":33},{"user_id":316,"name":"player","steam_id":76561198054474684,"connected_time":5204000000000,"state":"active","ping":80},{"user_id":344,"name":"Mr. Mundy","steam_id":76561198132008918,"connected_time":3309000000000,"state":"active","ping":84},{"user_id":351,"name":"Dolcelatte","steam_id":76561198038501770,"connected_time":2598000000000,"state":"active","ping":60}]},{"server_id":114,"name":"Uncletopia | London | 2 | All Maps","name_short":"lon-2","host":"lon-1.uk.uncletopia.com","port":27025,"enabled":true,"region":"eu","cc":"gb","latitude":51.509865,"longitude":-0.118092,"reserved":0,"last_update":"0001-01-01T00:00:00Z","name_a2s":"Uncletopia | London | 2 | All Maps","protocol":17,"map":"cp_sunshine","folder":"tf","game":"Team Fortress","app_id":440,"player_count":22,"max_players":24,"Bots":0,"server_type":"Dedicated","server_os":"Linux","password":true,"vac":true,"version":"7704440","steam_id":85568392924470941,"keywords":["cp","nocrits","nodmgspread","uncletopia"],"game_id":440,"stv_port":27026,"stv_name":"Uncletopia | London | 2 | All Maps | STV","players":[{"user_id":126,"name":"terrine de poisson","steam_id":76561198182874945,"connected_time":4842000000000,"state":"active","ping":46},{"user_id":199,"name":"Komki","steam_id":76561198155140035,"connected_time":87000000000,"state":"active","ping":74},{"user_id":155,"name":"Kylul_","steam_id":76561198042981061,"connected_time":3053000000000,"state":"active","ping":43},{"user_id":156,"name":"medick","steam_id":76561199380849468,"connected_time":3042000000000,"state":"active","ping":61},{"user_id":180,"name":"Kahvi","steam_id":76561198723244199,"connected_time":1245000000000,"state":"active","ping":77},{"user_id":200,"name":"Gnarville","steam_id":76561198006373329,"connected_time":85000000000,"state":"active","ping":46},{"user_id":190,"name":"LOBZIK","steam_id":76561198114830120,"connected_time":867000000000,"state":"active","ping":75},{"user_id":198,"name":"KiT","steam_id":76561198043770371,"connected_time":92000000000,"state":"active","ping":74},{"user_id":203,"name":"RedPyro2009","steam_id":76561198935824363,"connected_time":61000000000,"state":"active","ping":54},{"user_id":205,"name":"An alleged masochist","steam_id":76561198977420882,"connected_time":49000000000,"state":"active","ping":32},{"user_id":105,"name":"Classic gamer","steam_id":76561198125638711,"connected_time":6372000000000,"state":"active","ping":91},{"user_id":144,"name":"dochris.2","steam_id":76561198026478625,"connected_time":4132000000000,"state":"active","ping":45},{"user_id":173,"name":"Mr.McNuggets","steam_id":76561199205631497,"connected_time":2306000000000,"state":"active","ping":47},{"user_id":202,"name":"Dr. Cox","steam_id":76561198246629218,"connected_time":69000000000,"state":"spawning","ping":102},{"user_id":34,"name":"goofy goober","steam_id":76561198013237629,"connected_time":10816000000000,"state":"active","ping":95},{"user_id":185,"name":"heisenburger","steam_id":76561198284589853,"connected_time":1185000000000,"state":"active","ping":77},{"user_id":208,"name":"bruh.","steam_id":76561198144593115,"connected_time":15000000000,"state":"active","ping":241},{"user_id":194,"name":"burial","steam_id":76561198009115060,"connected_time":595000000000,"state":"active","ping":80},{"user_id":188,"name":"fénix","steam_id":76561198083199151,"connected_time":998000000000,"state":"active","ping":57},{"user_id":197,"name":"War Ren","steam_id":76561198301524251,"connected_time":161000000000,"state":"active","ping":51},{"user_id":145,"name":"sareena","steam_id":76561198810194062,"connected_time":4097000000000,"state":"active","ping":62}]},{"server_id":320,"name":"Uncletopia | London | 3 | All Maps","name_short":"lon-3","host":"lon-1.uk.uncletopia.com","port":27035,"enabled":true,"region":"eu","cc":"gb","latitude":51.509865,"longitude":-0.118092,"reserved":0,"last_update":"0001-01-01T00:00:00Z","name_a2s":"Uncletopia | London | 3 | All Maps","protocol":17,"map":"ctf_2fort","folder":"tf","game":"Team Fortress","app_id":440,"player_count":24,"max_players":24,"Bots":0,"server_type":"Dedicated","server_os":"Linux","password":true,"vac":true,"version":"7704440","steam_id":85568392924510192,"keywords":["ctf","nocrits","nodmgspread","uncletopia"],"game_id":440,"stv_port":27036,"stv_name":"Uncletopia | London | 3 | All Maps | STV","players":[{"user_id":144,"name":"Mex","steam_id":76561198108279631,"connected_time":1288000000000,"state":"active","ping":75},{"user_id":103,"name":"Yelowchy","steam_id":76561198199416121,"connected_time":2570000000000,"state":"active","ping":105},{"user_id":161,"name":"ТЯЖЕЛЫЕ ИГРЫ","steam_id":76561198413545609,"connected_time":354000000000,"state":"active","ping":58},{"user_id":91,"name":"hulluheppu1","steam_id":76561198093458326,"connected_time":3276000000000,"state":"active","ping":82},{"user_id":153,"name":"Bargon","steam_id":76561198964641940,"connected_time":779000000000,"state":"active","ping":76},{"user_id":146,"name":"fallingpencil","steam_id":76561199230233148,"connected_time":1158000000000,"state":"active","ping":56},{"user_id":111,"name":"Rouxls Kaard","steam_id":76561199439917592,"connected_time":2279000000000,"state":"active","ping":75},{"user_id":107,"name":"esheen","steam_id":76561198139376665,"connected_time":2393000000000,"state":"active","ping":62},{"user_id":100,"name":"TerriblePerson","steam_id":76561198045280510,"connected_time":2710000000000,"state":"active","ping":79},{"user_id":108,"name":"vpathy","steam_id":76561198078770942,"connected_time":2376000000000,"state":"active","ping":79},{"user_id":109,"name":"Threon","steam_id":76561198826783545,"connected_time":2360000000000,"state":"active","ping":96},{"user_id":124,"name":"Zm4j","steam_id":76561198259465946,"connected_time":2075000000000,"state":"active","ping":81},{"user_id":162,"name":"dip","steam_id":76561198187118434,"connected_time":340000000000,"state":"active","ping":45},{"user_id":150,"name":"100 IQ gaming","steam_id":76561198948719596,"connected_time":967000000000,"state":"active","ping":42},{"user_id":159,"name":"Sjenker","steam_id":76561199076368871,"connected_time":375000000000,"state":"active","ping":59},{"user_id":160,"name":"ralph62x","steam_id":76561198865294231,"connected_time":375000000000,"state":"active","ping":53},{"user_id":139,"name":"Marcus","steam_id":76561198205027963,"connected_time":1438000000000,"state":"active","ping":64},{"user_id":157,"name":"eMcP!","steam_id":76561198382509396,"connected_time":400000000000,"state":"active","ping":50},{"user_id":156,"name":"Lag","steam_id":76561198159360376,"connected_time":410000000000,"state":"active","ping":67},{"user_id":142,"name":"tngAlfie","steam_id":76561198001399616,"connected_time":1365000000000,"state":"active","ping":47},{"user_id":163,"name":"mmonkay","steam_id":76561198397360709,"connected_time":328000000000,"state":"active","ping":42},{"user_id":130,"name":"Marukuso","steam_id":76561198154229845,"connected_time":1842000000000,"state":"active","ping":62},{"user_id":125,"name":"Sham!","steam_id":76561198050434275,"connected_time":2025000000000,"state":"active","ping":59},{"user_id":126,"name":"El_Kommadante","steam_id":76561198079551685,"connected_time":2021000000000,"state":"active","ping":59}]},{"server_id":321,"name":"Uncletopia | London | 4 | All Maps","name_short":"lon-4","host":"lon-1.uk.uncletopia.com","port":27045,"enabled":true,"region":"eu","cc":"gb","latitude":51.509865,"longitude":-0.118092,"reserved":0,"last_update":"0001-01-01T00:00:00Z","name_a2s":"Uncletopia | London | 4 | All Maps","protocol":17,"map":"koth_viaduct","folder":"tf","game":"Team Fortress","app_id":440,"player_count":0,"max_players":24,"Bots":0,"server_type":"Dedicated","server_os":"Linux","password":true,"vac":true,"version":"7704440","steam_id":85568392924510193,"keywords":["cp","nocrits","nodmgspread","uncletopia"],"game_id":440,"stv_port":0,"stv_name":"","players":null},{"server_id":21,"name":"Uncletopia | London | 5 | All Maps","name_short":"lon-5","host":"lon-1.uk.uncletopia.com","port":27055,"enabled":true,"region":"eu","cc":"gb","latitude":51.509865,"longitude":-0.118092,"reserved":0,"last_update":"0001-01-01T00:00:00Z","name_a2s":"Uncletopia | London | 5 | All Maps","protocol":17,"map":"pl_snowycoast","folder":"tf","game":"Team Fortress","app_id":440,"player_count":18,"max_players":24,"Bots":0,"server_type":"Dedicated","server_os":"Linux","password":true,"vac":true,"version":"7704440","steam_id":85568392924742829,"keywords":["nocrits","nodmgspread","payload","uncletopia"],"game_id":440,"stv_port":27056,"stv_name":"Uncletopia | London | 5 | All Maps | STV","players":[{"user_id":436,"name":"somey","steam_id":76561198083366012,"connected_time":142000000000,"state":"active","ping":170},{"user_id":421,"name":"Fortezza","steam_id":76561198972539903,"connected_time":1460000000000,"state":"active","ping":63},{"user_id":435,"name":"03197427","steam_id":76561198363548450,"connected_time":175000000000,"state":"active","ping":52},{"user_id":414,"name":"pyromaniac","steam_id":76561198292781255,"connected_time":1958000000000,"state":"active","ping":66},{"user_id":437,"name":"Klik","steam_id":76561198891046692,"connected_time":85000000000,"state":"active","ping":75},{"user_id":438,"name":"Combat Wombat","steam_id":76561197994720068,"connected_time":79000000000,"state":"active","ping":55},{"user_id":439,"name":"jackchan37","steam_id":76561199084555750,"connected_time":17000000000,"state":"spawning","ping":59},{"user_id":440,"name":"cleaning spray","steam_id":76561198344800692,"connected_time":2000000000,"state":"spawning","ping":133},{"user_id":441,"name":"Coyote29","steam_id":76561198344502070,"connected_time":0,"state":"spawning","ping":0},{"user_id":406,"name":"Team Dim Sun Grunt","steam_id":76561198393596975,"connected_time":2875000000000,"state":"active","ping":54},{"user_id":405,"name":"ducks","steam_id":76561198166148685,"connected_time":2898000000000,"state":"active","ping":35},{"user_id":243,"name":"Plop_","steam_id":76561198112567921,"connected_time":15107000000000,"state":"active","ping":43},{"user_id":432,"name":"Fall from Grace!!","steam_id":76561198124695376,"connected_time":786000000000,"state":"active","ping":149},{"user_id":434,"name":"hello my name is devil may cry","steam_id":76561198115106008,"connected_time":206000000000,"state":"active","ping":48},{"user_id":427,"name":"Ashen","steam_id":76561198274631806,"connected_time":1240000000000,"state":"active","ping":46},{"user_id":428,"name":"bleizahn","steam_id":76561198095981061,"connected_time":1239000000000,"state":"active","ping":50},{"user_id":429,"name":"I LOVE BULGARIA:flag_bg::flag_b","steam_id":76561198281256009,"connected_time":1168000000000,"state":"active","ping":105},{"user_id":416,"name":"DEFENDOR62","steam_id":76561199386703896,"connected_time":1935000000000,"state":"active","ping":39}]},{"server_id":22,"name":"Uncletopia | London | 6 | All Maps","name_short":"lon-6","host":"lon-1.uk.uncletopia.com","port":27065,"enabled":true,"region":"eu","cc":"gb","latitude":51.509865,"longitude":-0.118092,"reserved":0,"last_update":"0001-01-01T00:00:00Z","name_a2s":"Uncletopia | London | 6 | All Maps","protocol":17,"map":"cp_sunshine","folder":"tf","game":"Team Fortress","app_id":440,"player_count":0,"max_players":24,"Bots":0,"server_type":"Dedicated","server_os":"Linux","password":true,"vac":true,"version":"7704440","steam_id":85568392924742830,"keywords":["cp","nocrits","nodmgspread","uncletopia"],"game_id":440,"stv_port":27066,"stv_name":"Uncletopia | London | 6 | All Maps | STV","players":null},{"server_id":40,"name":"Uncletopia | London | 7 | No Payload","name_short":"lon-7","host":"lon-1.uk.uncletopia.com","port":27075,"enabled":true,"region":"eu","cc":"gb","latitude":51.509865,"longitude":-0.118092,"reserved":0,"last_update":"0001-01-01T00:00:00Z","name_a2s":"Uncletopia | London | 7 | No Payload","protocol":17,"map":"plr_bananabay","folder":"tf","game":"Team Fortress","app_id":440,"player_count":0,"max_players":24,"Bots":0,"server_type":"Dedicated","server_os":"Linux","password":true,"vac":true,"version":"7704440","steam_id":85568392924964314,"keywords":["nocrits","nodmgspread","payload","uncletopia"],"game_id":440,"stv_port":27076,"stv_name":"Uncletopia | London | 7 | No Payload | STV","players":null},{"server_id":41,"name":"Uncletopia | London | 8 | Community","name_short":"lon-8","host":"lon-1.uk.uncletopia.com","port":27085,"enabled":true,"region":"eu","cc":"gb","latitude":51.509865,"longitude":-0.118092,"reserved":0,"last_update":"0001-01-01T00:00:00Z","name_a2s":"Uncletopia | London | 8 | Community","protocol":17,"map":"workshop/cp_caldera_rc2.ugc2834196889","folder":"tf","game":"Team Fortress","app_id":440,"player_count":0,"max_players":24,"Bots":0,"server_type":"Dedicated","server_os":"Linux","password":true,"vac":true,"version":"7704440","steam_id":85568392924964315,"keywords":["cp","nocrits","nodmgspread","uncletopia"],"game_id":440,"stv_port":27086,"stv_name":"Uncletopia | London | 8 | Community | STV","players":null},{"server_id":300,"name":"Uncletopia | Montréal | 1 | All Maps","name_short":"mtl-1","host":"mtl-1.ca.uncletopia.com","port":27015,"enabled":true,"region":"us-east","cc":"ca","latitude":45.50889,"longitude":-73.56167,"reserved":0,"last_update":"0001-01-01T00:00:00Z","name_a2s":"Uncletopia | Montréal | 1 | All Maps","protocol":17,"map":"pl_snowycoast","folder":"tf","game":"Team Fortress","app_id":440,"player_count":0,"max_players":24,"Bots":0,"server_type":"Dedicated","server_os":"Linux","password":true,"vac":true,"version":"7704440","steam_id":85568392924500087,"keywords":["nocrits","nodmgspread","payload","uncletopia"],"game_id":440,"stv_port":0,"stv_name":"","players":null},{"server_id":301,"name":"Uncletopia | Montréal | 2 | All Maps","name_short":"mtl-2","host":"mtl-1.ca.uncletopia.com","port":27025,"enabled":true,"region":"us-east","cc":"ca","latitude":45.50889,"longitude":-73.56167,"reserved":0,"last_update":"0001-01-01T00:00:00Z","name_a2s":"Uncletopia | Montréal | 2 | All Maps","protocol":17,"map":"cp_snakewater_final1","folder":"tf","game":"Team Fortress","app_id":440,"player_count":0,"max_players":24,"Bots":0,"server_type":"Dedicated","server_os":"Linux","password":true,"vac":true,"version":"7704440","steam_id":85568392924500088,"keywords":["cp","nocrits","nodmgspread","uncletopia"],"game_id":440,"stv_port":0,"stv_name":"","players":null},{"server_id":302,"name":"Uncletopia | Montréal | 3 | All Maps","name_short":"mtl-3","host":"mtl-1.ca.uncletopia.com","port":27035,"enabled":true,"region":"us-east","cc":"ca","latitude":45.50889,"longitude":-73.56167,"reserved":0,"last_update":"0001-01-01T00:00:00Z","name_a2s":"Uncletopia | Montréal | 3 | All Maps","protocol":17,"map":"pl_pier","folder":"tf","game":"Team Fortress","app_id":440,"player_count":0,"max_players":24,"Bots":0,"server_type":"Dedicated","server_os":"Linux","password":true,"vac":true,"version":"7704440","steam_id":85568392924500089,"keywords":["nocrits","nodmgspread","payload","uncletopia"],"game_id":440,"stv_port":0,"stv_name":"","players":null},{"server_id":303,"name":"Uncletopia | Montréal | 4 | No Payload","name_short":"mtl-4","host":"mtl-1.ca.uncletopia.com","port":27045,"enabled":true,"region":"us-east","cc":"ca","latitude":45.50889,"longitude":-73.56167,"reserved":0,"last_update":"0001-01-01T00:00:00Z","name_a2s":"Uncletopia | Montréal | 4 | No Payload","protocol":17,"map":"koth_brazil","folder":"tf","game":"Team Fortress","app_id":440,"player_count":0,"max_players":24,"Bots":0,"server_type":"Dedicated","server_os":"Linux","password":true,"vac":true,"version":"7704440","steam_id":85568392924500090,"keywords":["cp","nocrits","nodmgspread","uncletopia"],"game_id":440,"stv_port":27046,"stv_name":"Uncletopia | Montréal | 4 | No Payload | STV","players":null},{"server_id":13,"name":"Uncletopia | New York City | 1 | All Maps","name_short":"nyc-1","host":"nyc-1.us.uncletopia.com","port":27015,"enabled":true,"region":"us-east","cc":"us","latitude":40.73061,"longitude":-73.93524,"reserved":0,"last_update":"0001-01-01T00:00:00Z","name_a2s":"Uncletopia | New York City | 1 | All Maps","protocol":17,"map":"koth_lakeside_final","folder":"tf","game":"Team Fortress","app_id":440,"player_count":0,"max_players":24,"Bots":0,"server_type":"Dedicated","server_os":"Linux","password":true,"vac":true,"version":"7704440","steam_id":85568392924469993,"keywords":["cp","nocrits","nodmgspread","uncletopia"],"game_id":440,"stv_port":0,"stv_name":"","players":null},{"server_id":14,"name":"Uncletopia | New York City | 2 | All Maps","name_short":"nyc-2","host":"nyc-1.us.uncletopia.com","port":27025,"enabled":true,"region":"us-east","cc":"us","latitude":40.73061,"longitude":-73.93524,"reserved":0,"last_update":"0001-01-01T00:00:00Z","name_a2s":"Uncletopia | New York City | 2 | All Maps","protocol":17,"map":"pl_upward","folder":"tf","game":"Team Fortress","app_id":440,"player_count":0,"max_players":24,"Bots":0,"server_type":"Dedicated","server_os":"Linux","password":true,"vac":true,"version":"7704440","steam_id":85568392924469994,"keywords":["nocrits","nodmgspread","payload","uncletopia"],"game_id":440,"stv_port":27026,"stv_name":"Uncletopia | New York City | 2 | All Maps | STV","players":null},{"server_id":15,"name":"Uncletopia | New York City | 3 | All Maps","name_short":"nyc-3","host":"nyc-1.us.uncletopia.com","port":27035,"enabled":true,"region":"us-east","cc":"us","latitude":40.73061,"longitude":-73.93524,"reserved":0,"last_update":"0001-01-01T00:00:00Z","name_a2s":"Uncletopia | New York City | 3 | All Maps","protocol":17,"map":"pl_borneo","folder":"tf","game":"Team Fortress","app_id":440,"player_count":0,"max_players":24,"Bots":0,"server_type":"Dedicated","server_os":"Linux","password":true,"vac":true,"version":"7704440","steam_id":85568392924742820,"keywords":["nocrits","nodmgspread","payload","uncletopia"],"game_id":440,"stv_port":27036,"stv_name":"Uncletopia | New York City | 3 | All Maps | STV","players":null},{"server_id":16,"name":"Uncletopia | New York City | 4 | Community","name_short":"nyc-4","host":"nyc-1.us.uncletopia.com","port":27045,"enabled":true,"region":"us-east","cc":"us","latitude":40.73061,"longitude":-73.93524,"reserved":0,"last_update":"0001-01-01T00:00:00Z","name_a2s":"Uncletopia | New York City | 4 | Community","protocol":17,"map":"workshop/cp_villa_b19.ugc2113052569","folder":"tf","game":"Team Fortress","app_id":440,"player_count":0,"max_players":24,"Bots":0,"server_type":"Dedicated","server_os":"Linux","password":true,"vac":true,"version":"7704440","steam_id":85568392924742821,"keywords":["cp","nocrits","nodmgspread","uncletopia"],"game_id":440,"stv_port":27046,"stv_name":"Uncletopia | New York City | 4 | Community | STV","players":null},{"server_id":142,"name":"Uncletopia | São Paulo | 1 | All Maps","name_short":"sao-1","host":"sao-1.br.uncletopia.com","port":27015,"enabled":true,"region":"sa","cc":"br","latitude":-23.533773,"longitude":-46.62529,"reserved":0,"last_update":"0001-01-01T00:00:00Z","name_a2s":"Uncletopia | São Paulo | 1 | All Maps","protocol":17,"map":"cp_altitude","folder":"tf","game":"Team Fortress","app_id":440,"player_count":0,"max_players":24,"Bots":0,"server_type":"Dedicated","server_os":"Linux","password":true,"vac":true,"version":"7704440","steam_id":85568392924469996,"keywords":["cp","nocrits","nodmgspread","uncletopia"],"game_id":440,"stv_port":27016,"stv_name":"Uncletopia | São Paulo | 1 | All Maps | STV","players":null},{"server_id":143,"name":"Uncletopia | São Paulo | 2 | All Maps","name_short":"sao-2","host":"sao-2.br.uncletopia.com","port":27015,"enabled":true,"region":"sa","cc":"br","latitude":-23.533773,"longitude":-46.62529,"reserved":0,"last_update":"0001-01-01T00:00:00Z","name_a2s":"Uncletopia | São Paulo | 2 | All Maps","protocol":17,"map":"koth_cascade","folder":"tf","game":"Team Fortress","app_id":440,"player_count":0,"max_players":24,"Bots":0,"server_type":"Dedicated","server_os":"Linux","password":true,"vac":true,"version":"7704440","steam_id":85568392924485349,"keywords":["cp","nocrits","nodmgspread","uncletopia"],"game_id":440,"stv_port":27016,"stv_name":"Uncletopia | São Paulo | 2 | All Maps | STV","players":null},{"server_id":7,"name":"Uncletopia | Seattle | 1 | All Maps","name_short":"sea-1","host":"sea-1.us.uncletopia.com","port":27015,"enabled":true,"region":"us-west","cc":"us","latitude":47.608013,"longitude":-122.33517,"reserved":0,"last_update":"0001-01-01T00:00:00Z","name_a2s":"Uncletopia | Seattle | 1 | All Maps","protocol":17,"map":"cp_mountainlab","folder":"tf","game":"Team Fortress","app_id":440,"player_count":0,"max_players":24,"Bots":0,"server_type":"Dedicated","server_os":"Linux","password":true,"vac":true,"version":"7704440","steam_id":85568392924469997,"keywords":["cp","nocrits","nodmgspread","uncletopia"],"game_id":440,"stv_port":27016,"stv_name":"Uncletopia | Seattle | 1 | All Maps | STV","players":null},{"server_id":119,"name":"Uncletopia | Seattle | 2 | All Maps","name_short":"sea-2","host":"sea-1.us.uncletopia.com","port":27025,"enabled":true,"region":"us-west","cc":"us","latitude":47.608013,"longitude":-122.33517,"reserved":0,"last_update":"0001-01-01T00:00:00Z","name_a2s":"Uncletopia | Seattle | 2 | All Maps","protocol":17,"map":"cp_dustbowl","folder":"tf","game":"Team Fortress","app_id":440,"player_count":19,"max_players":24,"Bots":0,"server_type":"Dedicated","server_os":"Linux","password":true,"vac":true,"version":"7704440","steam_id":85568392924469998,"keywords":["cp","nocrits","nodmgspread","uncletopia"],"game_id":440,"stv_port":27026,"stv_name":"Uncletopia | Seattle | 2 | All Maps | STV","players":[{"user_id":60,"name":"Rocky","steam_id":76561198048158539,"connected_time":207000000000,"state":"active","ping":81},{"user_id":61,"name":"Brison","steam_id":76561197993377761,"connected_time":198000000000,"state":"active","ping":59},{"user_id":29,"name":"dust","steam_id":76561198045218909,"connected_time":3972000000000,"state":"active","ping":36},{"user_id":49,"name":"MuffinMan","steam_id":76561198272111654,"connected_time":1056000000000,"state":"active","ping":106},{"user_id":20,"name":"J O S H³²","steam_id":76561198122603779,"connected_time":5202000000000,"state":"active","ping":109},{"user_id":50,"name":"Shark Sandwich","steam_id":76561198025007938,"connected_time":1020000000000,"state":"active","ping":78},{"user_id":66,"name":"Goose Pyro","steam_id":76561198994984332,"connected_time":45000000000,"state":"active","ping":296},{"user_id":37,"name":"Teleporter Rat","steam_id":76561198017882021,"connected_time":2417000000000,"state":"active","ping":42},{"user_id":47,"name":"kirby7","steam_id":76561199167006749,"connected_time":1253000000000,"state":"active","ping":135},{"user_id":62,"name":"BayanTheBear","steam_id":76561198134537476,"connected_time":174000000000,"state":"active","ping":135},{"user_id":63,"name":"PleaseBeNiceToMe","steam_id":76561198079419701,"connected_time":170000000000,"state":"active","ping":149},{"user_id":67,"name":"peacekeeper","steam_id":76561199260462952,"connected_time":38000000000,"state":"active","ping":218},{"user_id":64,"name":"Fly Man","steam_id":76561198201036790,"connected_time":138000000000,"state":"active","ping":152},{"user_id":52,"name":"kid ichster","steam_id":76561198011675372,"connected_time":884000000000,"state":"active","ping":55},{"user_id":69,"name":"Little Pew","steam_id":76561198140341533,"connected_time":1000000000,"state":"spawning","ping":59},{"user_id":55,"name":"Compress Dong","steam_id":76561198018950826,"connected_time":629000000000,"state":"active","ping":62},{"user_id":57,"name":"Seru","steam_id":76561199219827214,"connected_time":568000000000,"state":"active","ping":147},{"user_id":58,"name":"Stag Beetle","steam_id":76561199086655413,"connected_time":524000000000,"state":"active","ping":153},{"user_id":68,"name":"whimmu","steam_id":76561198370839794,"connected_time":14000000000,"state":"spawning","ping":91}]},{"server_id":17,"name":"Uncletopia | San Francisco | 1 | All Maps","name_short":"sfo-1","host":"sfo-1.us.uncletopia.com","port":27015,"enabled":true,"region":"us-west","cc":"us","latitude":37.77397,"longitude":-122.4313,"reserved":0,"last_update":"0001-01-01T00:00:00Z","name_a2s":"Uncletopia | San Francisco | 1 | All Maps","protocol":17,"map":"cp_dustbowl","folder":"tf","game":"Team Fortress","app_id":440,"player_count":0,"max_players":24,"Bots":0,"server_type":"Dedicated","server_os":"Linux","password":true,"vac":true,"version":"7704440","steam_id":85568392924469999,"keywords":["cp","nocrits","nodmgspread","uncletopia"],"game_id":440,"stv_port":0,"stv_name":"","players":null},{"server_id":18,"name":"Uncletopia | San Francisco | 2 | All Maps","name_short":"sfo-2","host":"sfo-1.us.uncletopia.com","port":27025,"enabled":true,"region":"us-west","cc":"us","latitude":37.77397,"longitude":-122.4313,"reserved":0,"last_update":"0001-01-01T00:00:00Z","name_a2s":"Uncletopia | San Francisco | 2 | All Maps","protocol":17,"map":"koth_highpass","folder":"tf","game":"Team Fortress","app_id":440,"player_count":0,"max_players":24,"Bots":0,"server_type":"Dedicated","server_os":"Linux","password":true,"vac":true,"version":"7704440","steam_id":85568392924470000,"keywords":["cp","nocrits","nodmgspread","uncletopia"],"game_id":440,"stv_port":0,"stv_name":"","players":null},{"server_id":19,"name":"Uncletopia | San Francisco | 3 | No Payload","name_short":"sfo-3","host":"sfo-1.us.uncletopia.com","port":27035,"enabled":true,"region":"us-west","cc":"us","latitude":37.77397,"longitude":-122.4313,"reserved":0,"last_update":"0001-01-01T00:00:00Z","name_a2s":"Uncletopia | San Francisco | 3 | No Payload","protocol":17,"map":"cp_process_final","folder":"tf","game":"Team Fortress","app_id":440,"player_count":0,"max_players":24,"Bots":0,"server_type":"Dedicated","server_os":"Linux","password":true,"vac":true,"version":"7704440","steam_id":85568392924742824,"keywords":["cp","nocrits","nodmgspread","uncletopia"],"game_id":440,"stv_port":0,"stv_name":"","players":null},{"server_id":20,"name":"Uncletopia | San Francisco | 4 | Community","name_short":"sfo-4","host":"sfo-1.us.uncletopia.com","port":27045,"enabled":true,"region":"us-west","cc":"us","latitude":37.77397,"longitude":-122.4313,"reserved":0,"last_update":"0001-01-01T00:00:00Z","name_a2s":"Uncletopia | San Francisco | 4 | Community","protocol":17,"map":"koth_highpass","folder":"tf","game":"Team Fortress","app_id":440,"player_count":0,"max_players":24,"Bots":0,"server_type":"Dedicated","server_os":"Linux","password":true,"vac":true,"version":"7704440","steam_id":85568392924742826,"keywords":["cp","nocrits","nodmgspread","uncletopia"],"game_id":440,"stv_port":0,"stv_name":"","players":null},{"server_id":141,"name":"Uncletopia | Sydney | 1 | All Maps","name_short":"syd-1","host":"syd-1.au.uncletopia.com","port":27015,"enabled":true,"region":"au","cc":"au","latitude":-33.865143,"longitude":151.2099,"reserved":0,"last_update":"0001-01-01T00:00:00Z","name_a2s":"Uncletopia | Sydney | 1 | All Maps","protocol":17,"map":"cp_mountainlab","folder":"tf","game":"Team Fortress","app_id":440,"player_count":0,"max_players":24,"Bots":0,"server_type":"Dedicated","server_os":"Linux","password":true,"vac":true,"version":"7704440","steam_id":85568392924470001,"keywords":["cp","nocrits","nodmgspread","uncletopia"],"game_id":440,"stv_port":27016,"stv_name":"Uncletopia | Sydney | 1 | All Maps | STV","players":null},{"server_id":123,"name":"Uncletopia | Sydney | 2 | All Maps","name_short":"syd-2","host":"syd-1.au.uncletopia.com","port":27025,"enabled":true,"region":"au","cc":"au","latitude":-33.865143,"longitude":151.2099,"reserved":0,"last_update":"0001-01-01T00:00:00Z","name_a2s":"Uncletopia | Sydney | 2 | All Maps","protocol":17,"map":"koth_viaduct","folder":"tf","game":"Team Fortress","app_id":440,"player_count":0,"max_players":24,"Bots":0,"server_type":"Dedicated","server_os":"Linux","password":true,"vac":true,"version":"7704440","steam_id":85568392924470002,"keywords":["cp","nocrits","nodmgspread","uncletopia"],"game_id":440,"stv_port":27026,"stv_name":"Uncletopia | Sydney | 2 | All Maps | STV","players":null},{"server_id":395,"name":"Uncletopia | Sydney | 3 | All Maps","name_short":"syd-3","host":"syd-1.au.uncletopia.com","port":27035,"enabled":true,"region":"au","cc":"au","latitude":-33.865143,"longitude":151.2099,"reserved":0,"last_update":"0001-01-01T00:00:00Z","name_a2s":"Uncletopia | Sydney | 3 | All Maps","protocol":17,"map":"pl_pier","folder":"tf","game":"Team Fortress","app_id":440,"player_count":0,"max_players":24,"Bots":0,"server_type":"Dedicated","server_os":"Linux","password":true,"vac":true,"version":"7704440","steam_id":85568392925194467,"keywords":["nocrits","nodmgspread","payload","uncletopia"],"game_id":440,"stv_port":27036,"stv_name":"Uncletopia | Sydney | 3 | All Maps | STV","players":null},{"server_id":396,"name":"Uncletopia | Sydney | 4 | All Maps","name_short":"syd-4","host":"syd-1.au.uncletopia.com","port":27045,"enabled":true,"region":"au","cc":"au","latitude":-33.865143,"longitude":151.2099,"reserved":0,"last_update":"0001-01-01T00:00:00Z","name_a2s":"Uncletopia | Sydney | 4 | All Maps","protocol":17,"map":"koth_highpass","folder":"tf","game":"Team Fortress","app_id":440,"player_count":0,"max_players":24,"Bots":0,"server_type":"Dedicated","server_os":"Linux","password":true,"vac":true,"version":"7704440","steam_id":85568392925397958,"keywords":["cp","nocrits","nodmgspread","uncletopia"],"game_id":440,"stv_port":27046,"stv_name":"Uncletopia | Sydney | 4 | All Maps | STV","players":null},{"server_id":58,"name":"Uncletopia | Sydney | 5 | No Payload","name_short":"syd-5","host":"syd-1.au.uncletopia.com","port":27055,"enabled":true,"region":"au","cc":"au","latitude":-33.865143,"longitude":151.2099,"reserved":0,"last_update":"0001-01-01T00:00:00Z","name_a2s":"Uncletopia | Sydney | 5 | No Payload","protocol":17,"map":"pl_barnblitz","folder":"tf","game":"Team Fortress","app_id":440,"player_count":0,"max_players":24,"Bots":0,"server_type":"Dedicated","server_os":"Linux","password":true,"vac":true,"version":"7704440","steam_id":85568392925397959,"keywords":["nocrits","nodmgspread","payload","uncletopia"],"game_id":440,"stv_port":0,"stv_name":"","players":null},{"server_id":59,"name":"Uncletopia | Sydney | 6 | Community","name_short":"syd-6","host":"syd-1.au.uncletopia.com","port":27065,"enabled":true,"region":"au","cc":"au","latitude":-33.865143,"longitude":151.2099,"reserved":0,"last_update":"0001-01-01T00:00:00Z","name_a2s":"Uncletopia | Sydney | 6 | Community","protocol":17,"map":"workshop/rd_asteroid_redux_rc9.ugc2154902912","folder":"tf","game":"Team Fortress","app_id":440,"player_count":0,"max_players":24,"Bots":0,"server_type":"Dedicated","server_os":"Linux","password":true,"vac":true,"version":"7704440","steam_id":85568392925397960,"keywords":["beta","nocrits","nodmgspread","rd","uncletopia"],"game_id":440,"stv_port":27066,"stv_name":"Uncletopia | Sydney | 6 | Community | STV","players":null},{"server_id":49,"name":"Uncletopia | Warsaw | 1 | All Maps","name_short":"waw-1","host":"waw-1.pl.uncletopia.com","port":27015,"enabled":true,"region":"eu","cc":"pl","latitude":52.2297,"longitude":21.017532,"reserved":0,"last_update":"0001-01-01T00:00:00Z","name_a2s":"Uncletopia | Warsaw | 1 | All Maps","protocol":17,"map":"koth_cascade","folder":"tf","game":"Team Fortress","app_id":440,"player_count":0,"max_players":24,"Bots":0,"server_type":"Dedicated","server_os":"Linux","password":true,"vac":true,"version":"7704440","steam_id":85568392925397850,"keywords":["cp","nocrits","nodmgspread","uncletopia"],"game_id":440,"stv_port":27016,"stv_name":"Uncletopia | Warsaw | 1 | All Maps | STV","players":null},{"server_id":50,"name":"Uncletopia | Warsaw | 2 | All Maps","name_short":"waw-2","host":"waw-1.pl.uncletopia.com","port":27025,"enabled":true,"region":"eu","cc":"pl","latitude":52.2297,"longitude":21.017532,"reserved":0,"last_update":"0001-01-01T00:00:00Z","name_a2s":"Uncletopia | Warsaw | 2 | All Maps","protocol":17,"map":"koth_lakeside_final","folder":"tf","game":"Team Fortress","app_id":440,"player_count":0,"max_players":24,"Bots":0,"server_type":"Dedicated","server_os":"Linux","password":true,"vac":true,"version":"7704440","steam_id":85568392925397851,"keywords":["cp","nocrits","nodmgspread","uncletopia"],"game_id":440,"stv_port":27026,"stv_name":"Uncletopia | Warsaw | 2 | All Maps | STV","players":null},{"server_id":51,"name":"Uncletopia | Warsaw | 3 | All Maps","name_short":"waw-3","host":"waw-1.pl.uncletopia.com","port":27035,"enabled":true,"region":"eu","cc":"pl","latitude":52.2297,"longitude":21.017532,"reserved":0,"last_update":"0001-01-01T00:00:00Z","name_a2s":"Uncletopia | Warsaw | 3 | All Maps","protocol":17,"map":"pl_swiftwater_final1","folder":"tf","game":"Team Fortress","app_id":440,"player_count":0,"max_players":24,"Bots":0,"server_type":"Dedicated","server_os":"Linux","password":true,"vac":true,"version":"7704440","steam_id":85568392925397852,"keywords":["nocrits","nodmgspread","payload","uncletopia"],"game_id":440,"stv_port":27036,"stv_name":"Uncletopia | Warsaw | 3 | All Maps | STV","players":null},{"server_id":52,"name":"Uncletopia | Warsaw | 4 | All Maps","name_short":"waw-4","host":"waw-1.pl.uncletopia.com","port":27045,"enabled":true,"region":"eu","cc":"pl","latitude":52.2297,"longitude":21.017532,"reserved":0,"last_update":"0001-01-01T00:00:00Z","name_a2s":"Uncletopia | Warsaw | 4 | All Maps","protocol":17,"map":"koth_highpass","folder":"tf","game":"Team Fortress","app_id":440,"player_count":0,"max_players":24,"Bots":0,"server_type":"Dedicated","server_os":"Linux","password":true,"vac":true,"version":"7704440","steam_id":85568392925397853,"keywords":["cp","nocrits","nodmgspread","uncletopia"],"game_id":440,"stv_port":27046,"stv_name":"Uncletopia | Warsaw | 4 | All Maps | STV","players":null},{"server_id":53,"name":"Uncletopia | Warsaw | 5 | No Payload","name_short":"waw-5","host":"waw-1.pl.uncletopia.com","port":27055,"enabled":true,"region":"eu","cc":"pl","latitude":52.2297,"longitude":21.017532,"reserved":0,"last_update":"0001-01-01T00:00:00Z","name_a2s":"Uncletopia | Warsaw | 5 | No Payload","protocol":17,"map":"cp_process_final","folder":"tf","game":"Team Fortress","app_id":440,"player_count":0,"max_players":24,"Bots":0,"server_type":"Dedicated","server_os":"Linux","password":true,"vac":true,"version":"7704440","steam_id":85568392925397854,"keywords":["cp","nocrits","nodmgspread","uncletopia"],"game_id":440,"stv_port":27056,"stv_name":"Uncletopia | Warsaw | 5 | No Payload | STV","players":null},{"server_id":54,"name":"Uncletopia | Warsaw | 6 | Community","name_short":"waw-6","host":"waw-1.pl.uncletopia.com","port":27065,"enabled":true,"region":"eu","cc":"pl","latitude":52.2297,"longitude":21.017532,"reserved":0,"last_update":"0001-01-01T00:00:00Z","name_a2s":"Uncletopia | Warsaw | 6 | Community","protocol":17,"map":"workshop/cp_villa_b19.ugc2113052569","folder":"tf","game":"Team Fortress","app_id":440,"player_count":0,"max_players":24,"Bots":0,"server_type":"Dedicated","server_os":"Linux","password":true,"vac":true,"version":"7704440","steam_id":85568392925397856,"keywords":["cp","nocrits","nodmgspread","uncletopia"],"game_id":440,"stv_port":27066,"stv_name":"Uncletopia | Warsaw | 6 | Community | STV","players":null}]}