{"status":true,"message":"","result":[{"server_id":9,"name":"Uncletopia | Atlanta | 1 | All Maps","name_short":"atl-1","host":"atl-1.us.uncletopia.com","port":27015,"enabled":true,"region":"us-east","cc":"us","latitude":33.753746,"longitude":-84.38633,"reserved":0,"last_update":"0001-01-01T00:00:00Z","name_a2s":"Uncletopia | Atlanta | 1 | All Maps","protocol":17,"map":"koth_viaduct","folder":"tf","game":"Team Fortress","app_id":440,"player_count":24,"max_players":24,"Bots":0,"server_type":"Dedicated","server_os":"Linux","password":true,"vac":true,"version":"7961495","steam_id":85568392924469982,"keywords":["cp","nocrits","nodmgspread","uncletopia"],"game_id":440,"stv_port":27016,"stv_name":"Uncletopia | Atlanta | 1 | All Maps | STV","players":[{"user_id":480,"name":"Motreir","steam_id":76561198151717946,"connected_time":5179000000000,"state":"active","ping":78},{"user_id":528,"name":"Platypuspenguin","steam_id":76561198212228081,"connected_time":821000000000,"state":"active","ping":66},{"user_id":482,"name":"Boneless Blithen","steam_id":76561197989955619,"connected_time":5153000000000,"state":"active","ping":130},{"user_id":529,"name":"stall","steam_id":76561199152861652,"connected_time":776000000000,"state":"active","ping":57},{"user_id":500,"name":"--_Cook_--","steam_id":76561198080855748,"connected_time":4418000000000,"state":"active","ping":62},{"user_id":487,"name":"paetho YT","steam_id":76561198152690003,"connected_time":5038000000000,"state":"active","ping":44},{"user_id":507,"name":"row","steam_id":76561198040946044,"connected_time":3606000000000,"state":"active","ping":76},{"user_id":521,"name":"Skeebo","steam_id":76561198039320867,"connected_time":2408000000000,"state":"active","ping":60},{"user_id":460,"name":"Heathcliff","steam_id":76561198044288534,"connected_time":8753000000000,"state":"active","ping":73},{"user_id":519,"name":"king Crusty","steam_id":76561198843376034,"connected_time":2827000000000,"state":"active","ping":42},{"user_id":530,"name":"SamFec","steam_id":76561198414538682,"connected_time":772000000000,"state":"active","ping":123},{"user_id":514,"name":"ATL1 | on my hunting trip","steam_id":76561198315341646,"connected_time":3027000000000,"state":"active","ping":73},{"user_id":527,"name":"Neco Arc","steam_id":76561198836051950,"connected_time":1607000000000,"state":"active","ping":69},{"user_id":525,"name":"DysfunctionJunction","steam_id":76561198051815183,"connected_time":1738000000000,"state":"active","ping":79},{"user_id":451,"name":"FreshlyBrewed","steam_id":76561198181099881,"connected_time":9868000000000,"state":"active","ping":102},{"user_id":492,"name":"FEBLUCAXZ","steam_id":76561198355845884,"connected_time":4934000000000,"state":"active","ping":105},{"user_id":515,"name":"NovaSc6ut","steam_id":76561198277163301,"connected_time":3024000000000,"state":"active","ping":85},{"user_id":497,"name":"Ashes!","steam_id":76561197998475441,"connected_time":4560000000000,"state":"active","ping":74},{"user_id":505,"name":"com lag","steam_id":76561198019019392,"connected_time":3709000000000,"state":"active","ping":60},{"user_id":464,"name":"Lavender","steam_id":76561198142770666,"connected_time":8256000000000,"state":"active","ping":64},{"user_id":531,"name":"Satori Komeiji","steam_id":76561198158211423,"connected_time":755000000000,"state":"active","ping":97},{"user_id":523,"name":"Onyx","steam_id":76561198275349640,"connected_time":1961000000000,"state":"active","ping":77},{"user_id":524,"name":"Spiceitwithred","steam_id":76561198313150295,"connected_time":1961000000000,"state":"active","ping":120},{"user_id":504,"name":"Krissy","steam_id":76561197960848174,"connected_time":3753000000000,"state":"active","ping":61}]},{"server_id":104,"name":"Uncletopia | Atlanta | 2 | All Maps","name_short":"atl-2","host":"atl-1.us.uncletopia.com","port":27025,"enabled":true,"region":"us-east","cc":"us","latitude":33.753746,"longitude":-84.38633,"reserved":0,"last_update":"0001-01-01T00:00:00Z","name_a2s":"Uncletopia | Atlanta | 2 | All Maps","protocol":17,"map":"pl_upward","folder":"tf","game":"Team Fortress","app_id":440,"player_count":23,"max_players":24,"Bots":0,"server_type":"Dedicated","server_os":"Linux","password":true,"vac":true,"version":"7961495","steam_id":85568392924469983,"keywords":["nocrits","nodmgspread","payload","uncletopia"],"game_id":440,"stv_port":27026,"stv_name":"Uncletopia | Atlanta | 2 | All Maps | STV","players":[{"user_id":365,"name":"Puss-Destroyer The Virile","steam_id":76561198088298999,"connected_time":3382000000000,"state":"active","ping":69},{"user_id":392,"name":"Oopsie Daisy ‚ùã","steam_id":76561198042144492,"connected_time":1001000000000,"state":"active","ping":60},{"user_id":379,"name":"∆û√∏œÑ_«ù…Ø","steam_id":76561199063941100,"connected_time":1754000000000,"state":"active","ping":104},{"user_id":364,"name":"tac","steam_id":76561198408477421,"connected_time":3422000000000,"state":"active","ping":156},{"user_id":294,"name":"Woody","steam_id":76561198020308956,"connected_time":9843000000000,"state":"active","ping":48},{"user_id":373,"name":"Jango","steam_id":76561198084589742,"connected_time":2556000000000,"state":"active","ping":59},{"user_id":356,"name":"Azazellotl","steam_id":76561198824814392,"connected_time":3803000000000,"state":"active","ping":69},{"user_id":376,"name":"y'all hear sumthin'?","steam_id":76561199012662729,"connected_time":2002000000000,"state":"active","ping":74},{"user_id":368,"name":"Jolly #Murdererrights","steam_id":76561198064214000,"connected_time":3282000000000,"state":"active","ping":72},{"user_id":385,"name":"Agent Escoteiro","steam_id":76561198050994994,"connected_time":1525000000000,"state":"active","ping":112},{"user_id":399,"name":"Bladestorm, Hydro enthusiast","steam_id":76561198094852944,"connected_time":309000000000,"state":"active","ping":95},{"user_id":404,"name":"Bobby Ray","steam_id":76561198044131188,"connected_time":163000000000,"state":"active","ping":90},{"user_id":358,"name":"KASHI","steam_id":76561198045285049,"connected_time":3734000000000,"state":"active","ping":95},{"user_id":384,"name":"Sock","steam_id":76561198315420000,"connected_time":1590000000000,"state":"active","ping":64},{"user_id":400,"name":"Shystie","steam_id":76561198025371440,"connected_time":302000000000,"state":"active","ping":91},{"user_id":371,"name":"Monkey Mode","steam_id":76561197961267543,"connected_time":3088000000000,"state":"active","ping":58},{"user_id":396,"name":"Klepto","steam_id":76561199501643797,"connected_time":757000000000,"state":"active","ping":86},{"user_id":391,"name":"El G√ºey","steam_id":76561197970450546,"connected_time":1030000000000,"state":"active","ping":121},{"user_id":374,"name":"Dan","steam_id":76561199236719411,"connected_time":2502000000000,"state":"active","ping":78},{"user_id":402,"name":"OrangeIsRad","steam_id":76561198002020125,"connected_time":214000000000,"state":"active","ping":85},{"user_id":390,"name":"sfoster","steam_id":76561197993895857,"connected_time":1325000000000,"state":"active","ping":80},{"user_id":403,"name":"theWalrus","steam_id":76561198842991268,"connected_time":213000000000,"state":"active","ping":124},{"user_id":383,"name":"gabe","steam_id":76561198305796131,"connected_time":1717000000000,"state":"active","ping":60}]},{"server_id":400,"name":"Uncletopia | Atlanta | 3 | Stopwatch","name_short":"atl-3","host":"atl-1.us.uncletopia.com","port":27035,"enabled":true,"region":"us-east","cc":"us","latitude":33.753746,"longitude":-84.38633,"reserved":0,"last_update":"0001-01-01T00:00:00Z","name_a2s":"Uncletopia | Atlanta | 3 | Stopwatch","protocol":17,"map":"workshop/cp_reckoner_rc6.ugc674719999","folder":"tf","game":"Team Fortress","app_id":440,"player_count":0,"max_players":24,"Bots":0,"server_type":"Dedicated","server_os":"Linux","password":true,"vac":true,"version":"7961495","steam_id":85568392924515187,"keywords":["cp","nocrits","nodmgspread","uncletopia"],"game_id":440,"stv_port":27036,"stv_name":"Uncletopia | Atlanta | 3 | Stopwatch | STV","players":null},{"server_id":401,"name":"Uncletopia | Atlanta | 4 | Community","name_short":"atl-4","host":"atl-1.us.uncletopia.com","port":27045,"enabled":true,"region":"us-east","cc":"us","latitude":33.753746,"longitude":-84.38633,"reserved":0,"last_update":"0001-01-01T00:00:00Z","name_a2s":"Uncletopia | Atlanta | 4 | Community","protocol":17,"map":"workshop/pl_vigil_rc10.ugc1266210012","folder":"tf","game":"Team Fortress","app_id":440,"player_count":0,"max_players":24,"Bots":0,"server_type":"Dedicated","server_os":"Linux","password":true,"vac":true,"version":"7961495","steam_id":85568392924515188,"keywords":["nocrits","nodmgspread","payload","uncletopia"],"game_id":440,"stv_port":27046,"stv_name":"Uncletopia | Atlanta | 4 | Community | STV","players":null},{"server_id":2,"name":"Uncletopia | Chicago | 1 | All Maps","name_short":"chi-1","host":"chi-1.us.uncletopia.com","port":27015,"enabled":true,"region":"us-central","cc":"us","latitude":41.881832,"longitude":-87.62318,"reserved":0,"last_update":"0001-01-01T00:00:00Z","name_a2s":"Uncletopia | Chicago | 1 | All Maps","protocol":17,"map":"pl_upward","folder":"tf","game":"Team Fortress","app_id":440,"player_count":24,"max_players":24,"Bots":0,"server_type":"Dedicated","server_os":"Linux","password":true,"vac":true,"version":"7961495","steam_id":85568392924469984,"keywords":["nocrits","nodmgspread","payload","uncletopia"],"game_id":440,"stv_port":27016,"stv_name":"Uncletopia | Chicago | 1 | All Maps | STV","players":[{"user_id":718,"name":"loser","steam_id":76561198259380127,"connected_time":7212000000000,"state":"active","ping":53},{"user_id":766,"name":"Numenization","steam_id":76561198046357532,"connected_time":2175000000000,"state":"active","ping":49},{"user_id":768,"name":"Shakerbubble","steam_id":76561198063073969,"connected_time":1964000000000,"state":"active","ping":75},{"user_id":791,"name":"Pongallow","steam_id":76561198146876078,"connected_time":493000000000,"state":"active","ping":45},{"user_id":792,"name":"flamingcookies flamingcookies","steam_id":76561198280864779,"connected_time":467000000000,"state":"active","ping":72},{"user_id":802,"name":"gerf.","steam_id":76561198811706201,"connected_time":43000000000,"state":"active","ping":61},{"user_id":787,"name":"King Cotton","steam_id":76561198292444376,"connected_time":581000000000,"state":"active","ping":90},{"user_id":762,"name":"Broden622","steam_id":76561198256017495,"connected_time":2544000000000,"state":"active","ping":60},{"user_id":784,"name":"Pissless Pissmass Pissman","steam_id":76561198409907417,"connected_time":1074000000000,"state":"active","ping":109},{"user_id":798,"name":"bologna forklift 2012","steam_id":76561198199061206,"connected_time":247000000000,"state":"active","ping":40},{"user_id":619,"name":"Am I Good At The Video Game?","steam_id":76561198046053281,"connected_time":14999000000000,"state":"active","ping":74},{"user_id":779,"name":"Stew Eater","steam_id":76561198978307159,"connected_time":1148000000000,"state":"active","ping":68},{"user_id":801,"name":"tonic_tundra","steam_id":76561198081287723,"connected_time":72000000000,"state":"active","ping":71},{"user_id":767,"name":"Tito","steam_id":76561198041702529,"connected_time":2152000000000,"state":"active","ping":88},{"user_id":770,"name":"Pants","steam_id":76561197966222755,"connected_time":1643000000000,"state":"active","ping":46},{"user_id":795,"name":"marauder","steam_id":76561197993829288,"connected_time":276000000000,"state":"active","ping":90},{"user_id":799,"name":"Cliff Uppercut","steam_id":76561197999439391,"connected_time":165000000000,"state":"active","ping":77},{"user_id":790,"name":"0:-)","steam_id":76561198142056100,"connected_time":528000000000,"state":"active","ping":77},{"user_id":778,"name":"strctfsh","steam_id":76561198083619784,"connected_time":1216000000000,"state":"active","ping":58},{"user_id":783,"name":"2inch","steam_id":76561198082116747,"connected_time":1089000000000,"state":"active","ping":67},{"user_id":775,"name":"MechaSixVII","steam_id":76561198014927379,"connected_time":1415000000000,"state":"active","ping":69},{"user_id":741,"name":"Som Ting Wong","steam_id":76561198174985707,"connected_time":4881000000000,"state":"active","ping":69},{"user_id":765,"name":"Chiken","steam_id":76561198025570687,"connected_time":2261000000000,"state":"active","ping":64},{"user_id":794,"name":"Mr Struggle","steam_id":76561198320434551,"connected_time":398000000000,"state":"active","ping":94}]},{"server_id":106,"name":"Uncletopia | Chicago | 2 | All Maps","name_short":"chi-2","host":"chi-1.us.uncletopia.com","port":27025,"enabled":true,"region":"us-central","cc":"us","latitude":41.881832,"longitude":-87.62318,"reserved":0,"last_update":"0001-01-01T00:00:00Z","name_a2s":"Uncletopia | Chicago | 2 | All Maps","protocol":17,"map":"pl_thundermountain","folder":"tf","game":"Team Fortress","app_id":440,"player_count":24,"max_players":24,"Bots":0,"server_type":"Dedicated","server_os":"Linux","password":true,"vac":true,"version":"7961495","steam_id":85568392924469985,"keywords":["nocrits","nodmgspread","payload","uncletopia"],"game_id":440,"stv_port":27026,"stv_name":"Uncletopia | Chicago | 2 | All Maps | STV","players":[{"user_id":781,"name":"Liquid Oxycodone","steam_id":76561198154162664,"connected_time":139000000000,"state":"active","ping":72},{"user_id":700,"name":"MedRed‚Ñ¢ #IATAH","steam_id":76561198002962970,"connected_time":3785000000000,"state":"active","ping":93},{"user_id":706,"name":"julaa","steam_id":76561198060288611,"connected_time":2967000000000,"state":"active","ping":60},{"user_id":777,"name":"LVL","steam_id":76561198334403617,"connected_time":485000000000,"state":"active","ping":59},{"user_id":699,"name":"hej","steam_id":76561197996366940,"connected_time":3806000000000,"state":"active","ping":60},{"user_id":776,"name":"CEO, Co-Producer, Manager, Etc.","steam_id":76561197969386201,"connected_time":506000000000,"state":"active","ping":54},{"user_id":779,"name":"Achoo","steam_id":76561198009091066,"connected_time":208000000000,"state":"active","ping":98},{"user_id":665,"name":"momlovie","steam_id":76561198843933742,"connected_time":6975000000000,"state":"active","ping":70},{"user_id":722,"name":"NotSoNorth","steam_id":76561198447292053,"connected_time":2397000000000,"state":"active","ping":59},{"user_id":762,"name":"Acehay14","steam_id":76561198052373291,"connected_time":1311000000000,"state":"active","ping":60},{"user_id":707,"name":"canakblasteran","steam_id":76561199472518822,"connected_time":2961000000000,"state":"active","ping":107},{"user_id":763,"name":"austinsmith","steam_id":76561198167838540,"connected_time":1268000000000,"state":"active","ping":87},{"user_id":756,"name":"VirtueDivision","steam_id":76561199116184558,"connected_time":1589000000000,"state":"active","ping":109},{"user_id":767,"name":"bad spy player","steam_id":76561198873699671,"connected_time":1215000000000,"state":"active","ping":101},{"user_id":768,"name":"sithreis","steam_id":76561198000564263,"connected_time":1210000000000,"state":"active","ping":66},{"user_id":778,"name":"AlecTheNefarious","steam_id":76561198035291230,"connected_time":288000000000,"state":"active","ping":62},{"user_id":717,"name":"Jester","steam_id":76561199203898660,"connected_time":2642000000000,"state":"active","ping":68},{"user_id":780,"name":"Just washed","steam_id":76561199030160932,"connected_time":183000000000,"state":"active","ping":79},{"user_id":775,"name":"bofa ur parents dislike u","steam_id":76561198144766439,"connected_time":661000000000,"state":"active","ping":46},{"user_id":758,"name":"Rein","steam_id":76561198300340427,"connected_time":1555000000000,"state":"active","ping":62},{"user_id":701,"name":"Swash","steam_id":76561197969421355,"connected_time":3574000000000,"state":"active","ping":60},{"user_id":661,"name":"buccellb","steam_id":76561198344975466,"connected_time":7170000000000,"state":"active","ping":63},{"user_id":770,"name":"Infineable","steam_id":76561198358100698,"connected_time":1004000000000,"state":"active","ping":63},{"user_id":721,"name":"ùìïùìÆùì∂ùì´ùì∏ùîÇùì©\ufffd\ufffd\ufffd","steam_id":76561198220055885,"connected_time":2527000000000,"state":"active","ping":68}]},{"server_id":402,"name":"Uncletopia | Chicago | 3 | All Maps","name_short":"chi-3","host":"chi-1.us.uncletopia.com","port":27035,"enabled":true,"region":"us-central","cc":"us","latitude":41.881832,"longitude":-87.62318,"reserved":0,"last_update":"0001-01-01T00:00:00Z","name_a2s":"Uncletopia | Chicago | 3 | All Maps","protocol":17,"map":"ctf_doublecross","folder":"tf","game":"Team Fortress","app_id":440,"player_count":23,"max_players":24,"Bots":0,"server_type":"Dedicated","server_os":"Linux","password":true,"vac":true,"version":"7961495","steam_id":85568392924515191,"keywords":["ctf","nocrits","nodmgspread","uncletopia"],"game_id":440,"stv_port":27036,"stv_name":"Uncletopia | Chicago | 3 | All Maps | STV","players":[{"user_id":660,"name":"Wolfmeme","steam_id":76561198115713601,"connected_time":3000000000,"state":"spawning","ping":67},{"user_id":659,"name":"BurnN8or101","steam_id":76561198132668224,"connected_time":89000000000,"state":"active","ping":59},{"user_id":639,"name":"TheLingLingV1","steam_id":76561198968439604,"connected_time":592000000000,"state":"active","ping":64},{"user_id":636,"name":"Thequirka","steam_id":76561198968058652,"connected_time":676000000000,"state":"active","ping":95},{"user_id":597,"name":"Bizsnitch","steam_id":76561198017936794,"connected_time":3249000000000,"state":"active","ping":69},{"user_id":658,"name":"Fairlife Cow","steam_id":76561198242227952,"connected_time":122000000000,"state":"active","ping":69},{"user_id":654,"name":"Bimbonito","steam_id":76561198069676563,"connected_time":200000000000,"state":"active","ping":68},{"user_id":607,"name":"interloper","steam_id":76561198042518244,"connected_time":2207000000000,"state":"active","ping":90},{"user_id":630,"name":"Grand Theft Hobby Lobby","steam_id":76561198306384449,"connected_time":748000000000,"state":"active","ping":84},{"user_id":593,"name":"caption cool","steam_id":76561197990612056,"connected_time":3837000000000,"state":"active","ping":49},{"user_id":627,"name":"Ya_Boi_Clapitao","steam_id":76561198274969584,"connected_time":819000000000,"state":"active","ping":115},{"user_id":620,"name":"Jasper","steam_id":76561198352545606,"connected_time":1074000000000,"state":"active","ping":89},{"user_id":565,"name":"glue","steam_id":76561198003593070,"connected_time":5273000000000,"state":"active","ping":59},{"user_id":637,"name":"TheGerg","steam_id":76561198257099217,"connected_time":618000000000,"state":"active","ping":78},{"user_id":546,"name":"At","steam_id":76561198381841894,"connected_time":5760000000000,"state":"active","ping":55},{"user_id":646,"name":"Laura Palmer Gaming","steam_id":76561198282965733,"connected_time":423000000000,"state":"active","ping":71},{"user_id":584,"name":"Whiamy Aleeve","steam_id":76561199007736086,"connected_time":4478000000000,"state":"active","ping":100},{"user_id":651,"name":"Coffee Instant Type 2","steam_id":76561198307845869,"connected_time":343000000000,"state":"active","ping":70},{"user_id":596,"name":"Castroy","steam_id":76561198108160099,"connected_time":3541000000000,"state":"active","ping":46},{"user_id":604,"name":"CherriKat","steam_id":76561198821297512,"connected_time":2423000000000,"state":"active","ping":95},{"user_id":640,"name":"Crutch","steam_id":76561198079048965,"connected_time":588000000000,"state":"active","ping":60},{"user_id":642,"name":"Ulrich Stern","steam_id":76561198101739682,"connected_time":512000000000,"state":"active","ping":88},{"user_id":655,"name":"Jpxfred","steam_id":76561199414783749,"connected_time":189000000000,"state":"active","ping":95}]},{"server_id":403,"name":"Uncletopia | Chicago | 4 | All Maps","name_short":"chi-4","host":"chi-1.us.uncletopia.com","port":27045,"enabled":true,"region":"us-central","cc":"us","latitude":41.881832,"longitude":-87.62318,"reserved":0,"last_update":"0001-01-01T00:00:00Z","name_a2s":"Uncletopia | Chicago | 4 | All Maps","protocol":17,"map":"pl_snowycoast","folder":"tf","game":"Team Fortress","app_id":440,"player_count":24,"max_players":24,"Bots":0,"server_type":"Dedicated","server_os":"Linux","password":true,"vac":true,"version":"7961495","steam_id":85568392924515193,"keywords":["nocrits","nodmgspread","payload","uncletopia"],"game_id":440,"stv_port":27046,"stv_name":"Uncletopia | Chicago | 4 | All Maps | STV","players":[{"user_id":579,"name":"Enron Hubbard","steam_id":76561198012951411,"connected_time":715000000000,"state":"active","ping":59},{"user_id":566,"name":"SiltyStar85","steam_id":76561198309175923,"connected_time":1664000000000,"state":"active","ping":75},{"user_id":537,"name":"augs","steam_id":76561199120607417,"connected_time":3620000000000,"state":"active","ping":71},{"user_id":567,"name":"Amoxicilina","steam_id":76561198168486429,"connected_time":1663000000000,"state":"active","ping":121},{"user_id":575,"name":"chheesse","steam_id":76561198926982316,"connected_time":1284000000000,"state":"active","ping":77},{"user_id":568,"name":"bath","steam_id":76561197969993352,"connected_time":1589000000000,"state":"active","ping":64},{"user_id":593,"name":"idarmed","steam_id":76561198420064361,"connected_time":118000000000,"state":"active","ping":70},{"user_id":505,"name":"tim allen fanboy","steam_id":76561198167910869,"connected_time":5304000000000,"state":"active","ping":56},{"user_id":583,"name":"pigswill","steam_id":76561197999081865,"connected_time":514000000000,"state":"active","ping":89},{"user_id":578,"name":"Sgt. Pepper","steam_id":76561198063674627,"connected_time":779000000000,"state":"active","ping":88},{"user_id":563,"name":"barefoot fruitscato","steam_id":76561198094225038,"connected_time":1700000000000,"state":"active","ping":48},{"user_id":584,"name":"Meh","steam_id":76561198078187920,"connected_time":501000000000,"state":"active","ping":83},{"user_id":580,"name":"Tony Hawk Underground 2 for PSP","steam_id":76561197999901620,"connected_time":695000000000,"state":"active","ping":58},{"user_id":585,"name":"crankshaft","steam_id":76561197992798282,"connected_time":494000000000,"state":"active","ping":99},{"user_id":592,"name":"TacoMan4Life","steam_id":76561198832562728,"connected_time":303000000000,"state":"active","ping":114},{"user_id":586,"name":"thehookerslammer","steam_id":76561198050136796,"connected_time":492000000000,"state":"active","ping":86},{"user_id":576,"name":"joey","steam_id":76561198087010050,"connected_time":1068000000000,"state":"active","ping":48},{"user_id":590,"name":"ramrod","steam_id":76561197972297003,"connected_time":361000000000,"state":"active","ping":78},{"user_id":574,"name":"haxxorman","steam_id":76561199155156400,"connected_time":1412000000000,"state":"active","ping":56},{"user_id":471,"name":"Owls = Government Drones","steam_id":76561198439793697,"connected_time":8339000000000,"state":"active","ping":80},{"user_id":411,"name":"Young-OG","steam_id":76561198058800479,"connected_time":11175000000000,"state":"active","ping":76},{"user_id":553,"name":"Maxxycat","steam_id":76561198194062681,"connected_time":2160000000000,"state":"active","ping":58},{"user_id":588,"name":"yourlocalforecast","steam_id":76561198042243083,"connected_time":398000000000,"state":"active","ping":70},{"user_id":558,"name":"Robo","steam_id":76561198058317490,"connected_time":1902000000000,"state":"active","ping":60}]},{"server_id":36,"name":"Uncletopia | Chicago | 5 | All Maps","name_short":"chi-5","host":"chi-2.us.uncletopia.com","port":27015,"enabled":true,"region":"us-central","cc":"us","latitude":41.881832,"longitude":-87.62318,"reserved":0,"last_update":"0001-01-01T00:00:00Z","name_a2s":"Uncletopia | Chicago | 5 | All Maps","protocol":17,"map":"ctf_doublecross","folder":"tf","game":"Team Fortress","app_id":440,"player_count":20,"max_players":24,"Bots":0,"server_type":"Dedicated","server_os":"Linux","password":true,"vac":true,"version":"7961495","steam_id":85568392924866362,"keywords":["ctf","nocrits","nodmgspread","uncletopia"],"game_id":440,"stv_port":27016,"stv_name":"Uncletopia | Chicago | 5 | All Maps | STV","players":[{"user_id":718,"name":"i eat glue","steam_id":76561198827026673,"connected_time":2783000000000,"state":"active","ping":61},{"user_id":752,"name":"yerm","steam_id":76561198129982911,"connected_time":233000000000,"state":"active","ping":67},{"user_id":746,"name":"WilyBeast","steam_id":76561199487153609,"connected_time":753000000000,"state":"active","ping":62},{"user_id":741,"name":"I shovel mayonnaise in mouth","steam_id":76561199123118241,"connected_time":1025000000000,"state":"active","ping":102},{"user_id":753,"name":"Scribbles","steam_id":76561198285010535,"connected_time":182000000000,"state":"active","ping":78},{"user_id":707,"name":"Pixeled","steam_id":76561198088917077,"connected_time":3351000000000,"state":"active","ping":84},{"user_id":754,"name":"Alx","steam_id":76561198080854314,"connected_time":133000000000,"state":"active","ping":69},{"user_id":755,"name":"gabba gabba","steam_id":76561198031737033,"connected_time":128000000000,"state":"active","ping":54},{"user_id":729,"name":"hamilton","steam_id":76561198034096096,"connected_time":1846000000000,"state":"active","ping":81},{"user_id":744,"name":"merk","steam_id":76561198434609353,"connected_time":972000000000,"state":"active","ping":80},{"user_id":684,"name":"catfish from toontown","steam_id":76561198060070002,"connected_time":3878000000000,"state":"active","ping":73},{"user_id":708,"name":"Blue","steam_id":76561199093604072,"connected_time":3348000000000,"state":"active","ping":76},{"user_id":593,"name":"corntent","steam_id":76561198824847948,"connected_time":12458000000000,"state":"active","ping":55},{"user_id":742,"name":"Carl, Good to see you","steam_id":76561198070574075,"connected_time":1021000000000,"state":"active","ping":71},{"user_id":756,"name":"Big Bill Haywood","steam_id":76561198142290733,"connected_time":49000000000,"state":"spawning","ping":59},{"user_id":745,"name":"Sergeant Joker LFT","steam_id":76561198854616604,"connected_time":908000000000,"state":"active","ping":61},{"user_id":703,"name":"ShawnLmao","steam_id":76561198350691501,"connected_time":3422000000000,"state":"active","ping":85},{"user_id":699,"name":"Tri-Dot","steam_id":76561199075186597,"connected_time":3483000000000,"state":"active","ping":66},{"user_id":689,"name":"Grand Piano Tuna","steam_id":76561198135137213,"connected_time":3854000000000,"state":"active","ping":58},{"user_id":722,"name":"luckyÔºä","steam_id":76561199175972510,"connected_time":2059000000000,"state":"active","ping":83}]},{"server_id":37,"name":"Uncletopia | Chicago | 6 | All Maps","name_short":"chi-6","host":"chi-2.us.uncletopia.com","port":27025,"enabled":true,"region":"us-central","cc":"us","latitude":41.881832,"longitude":-87.62318,"reserved":0,"last_update":"0001-01-01T00:00:00Z","name_a2s":"Uncletopia | Chicago | 6 | All Maps","protocol":17,"map":"cp_sunshine","folder":"tf","game":"Team Fortress","app_id":440,"player_count":17,"max_players":24,"Bots":0,"server_type":"Dedicated","server_os":"Linux","password":true,"vac":true,"version":"7961495","steam_id":85568392924866363,"keywords":["cp","nocrits","nodmgspread","uncletopia"],"game_id":440,"stv_port":27026,"stv_name":"Uncletopia | Chicago | 6 | All Maps | STV","players":[{"user_id":461,"name":"[MRY] Sk-iLite","steam_id":76561198041797350,"connected_time":545000000000,"state":"active","ping":65},{"user_id":390,"name":"Thilo","steam_id":76561197987278784,"connected_time":4853000000000,"state":"active","ping":64},{"user_id":469,"name":"chungoose","steam_id":76561198215559840,"connected_time":374000000000,"state":"active","ping":60},{"user_id":466,"name":"goofbears","steam_id":76561199100831175,"connected_time":472000000000,"state":"active","ping":67},{"user_id":468,"name":"SIN K4RMA","steam_id":76561198869287223,"connected_time":426000000000,"state":"active","ping":79},{"user_id":467,"name":"cucumper","steam_id":76561198079504588,"connected_time":446000000000,"state":"active","ping":71},{"user_id":422,"name":"[dick retracted]","steam_id":76561198804113663,"connected_time":3025000000000,"state":"active","ping":56},{"user_id":470,"name":"Inevitable","steam_id":76561198210050169,"connected_time":306000000000,"state":"active","ping":72},{"user_id":474,"name":"Mr.Crusty","steam_id":76561199068473337,"connected_time":23000000000,"state":"active","ping":69},{"user_id":447,"name":"Loogus","steam_id":76561198811561721,"connected_time":1756000000000,"state":"active","ping":87},{"user_id":432,"name":"Dr Smeggman","steam_id":76561197966614845,"connected_time":2421000000000,"state":"active","ping":141},{"user_id":451,"name":"RogueShadow","steam_id":76561198149605648,"connected_time":1428000000000,"state":"active","ping":76},{"user_id":455,"name":"Magnus Rex","steam_id":76561197987091236,"connected_time":1389000000000,"state":"active","ping":74},{"user_id":437,"name":"Jack \"Hee Ho\" Frost","steam_id":76561198353395198,"connected_time":2387000000000,"state":"active","ping":58},{"user_id":473,"name":"j","steam_id":76561198353456379,"connected_time":161000000000,"state":"active","ping":65},{"user_id":445,"name":"AzTech72","steam_id":76561198352245829,"connected_time":1939000000000,"state":"active","ping":65},{"user_id":453,"name":"gavin was squished by the pigs","steam_id":76561198868986954,"connected_time":1413000000000,"state":"active","ping":89}]},{"server_id":38,"name":"Uncletopia | Chicago | 7 | Stopwatch","name_short":"chi-7","host":"chi-2.us.uncletopia.com","port":27035,"enabled":true,"region":"us-central","cc":"us","latitude":41.881832,"longitude":-87.62318,"reserved":0,"last_update":"0001-01-01T00:00:00Z","name_a2s":"Uncletopia | Chicago | 7 | Stopwatch","protocol":17,"map":"workshop/koth_ramjam_rc1.ugc459778887","folder":"tf","game":"Team Fortress","app_id":440,"player_count":0,"max_players":24,"Bots":0,"server_type":"Dedicated","server_os":"Linux","password":true,"vac":true,"version":"7961495","steam_id":85568392924866364,"keywords":["cp","nocrits","nodmgspread","uncletopia"],"game_id":440,"stv_port":27036,"stv_name":"Uncletopia | Chicago | 7 | Stopwatch | STV","players":null},{"server_id":39,"name":"Uncletopia | Chicago | 8 | Community","name_short":"chi-8","host":"chi-2.us.uncletopia.com","port":27045,"enabled":true,"region":"us-central","cc":"us","latitude":41.881832,"longitude":-87.62318,"reserved":0,"last_update":"0001-01-01T00:00:00Z","name_a2s":"Uncletopia | Chicago | 8 | Community","protocol":17,"map":"workshop/rd_asteroid_redux_b1.ugc2154902912","folder":"tf","game":"Team Fortress","app_id":440,"player_count":0,"max_players":24,"Bots":0,"server_type":"Dedicated","server_os":"Linux","password":true,"vac":true,"version":"7961495","steam_id":85568392924866365,"keywords":["beta","nocrits","nodmgspread","rd","uncletopia"],"game_id":440,"stv_port":27046,"stv_name":"Uncletopia | Chicago | 8 | Community | STV","players":null},{"server_id":8,"name":"Uncletopia | Dallas | 1 | All Maps","name_short":"dal-1","host":"dal-1.us.uncletopia.com","port":27015,"enabled":true,"region":"us-central","cc":"us","latitude":32.779167,"longitude":-96.80889,"reserved":0,"last_update":"0001-01-01T00:00:00Z","name_a2s":"Uncletopia | Dallas | 1 | All Maps","protocol":17,"map":"pl_pier","folder":"tf","game":"Team Fortress","app_id":440,"player_count":24,"max_players":24,"Bots":0,"server_type":"Dedicated","server_os":"Linux","password":true,"vac":true,"version":"7961495","steam_id":85568392924469986,"keywords":["nocrits","nodmgspread","payload","uncletopia"],"game_id":440,"stv_port":27016,"stv_name":"Uncletopia | Dallas | 1 | All Maps | STV","players":[{"user_id":753,"name":"Blippy","steam_id":76561198225904600,"connected_time":1821000000000,"state":"active","ping":56},{"user_id":766,"name":"PatrickJahomes","steam_id":76561198158837265,"connected_time":781000000000,"state":"active","ping":69},{"user_id":718,"name":"LordStubby","steam_id":76561198799291957,"connected_time":5024000000000,"state":"active","ping":73},{"user_id":755,"name":"iluvtoust","steam_id":76561198869269207,"connected_time":1279000000000,"state":"active","ping":55},{"user_id":522,"name":"Giselle","steam_id":76561198162593640,"connected_time":9229000000000,"state":"active","ping":106},{"user_id":769,"name":"Boomerang_Monkey","steam_id":76561198849970999,"connected_time":433000000000,"state":"active","ping":37},{"user_id":771,"name":"schnedwob","steam_id":76561197999146588,"connected_time":382000000000,"state":"active","ping":57},{"user_id":756,"name":"WoodySmith","steam_id":76561198069191123,"connected_time":1261000000000,"state":"active","ping":85},{"user_id":735,"name":"Spaceman","steam_id":76561198098025074,"connected_time":3184000000000,"state":"active","ping":88},{"user_id":653,"name":"Cat doin laundry","steam_id":76561198063895852,"connected_time":6391000000000,"state":"active","ping":46},{"user_id":754,"name":"1/10 dentists","steam_id":76561198132803810,"connected_time":1716000000000,"state":"active","ping":61},{"user_id":760,"name":"krebex","steam_id":76561198004660630,"connected_time":1076000000000,"state":"active","ping":58},{"user_id":768,"name":"GOD DID","steam_id":76561198404149126,"connected_time":452000000000,"state":"active","ping":93},{"user_id":773,"name":"The All-Seeing Tim","steam_id":76561198075510786,"connected_time":176000000000,"state":"active","ping":64},{"user_id":669,"name":"Dent","steam_id":76561198304978514,"connected_time":6178000000000,"state":"active","ping":89},{"user_id":761,"name":"JayRawgTV","steam_id":76561198044402840,"connected_time":1035000000000,"state":"active","ping":45},{"user_id":738,"name":"healing goblin (real)","steam_id":76561198411292601,"connected_time":2919000000000,"state":"active","ping":106},{"user_id":763,"name":"Butteryback","steam_id":76561198049642485,"connected_time":856000000000,"state":"active","ping":61},{"user_id":745,"name":"Zaid","steam_id":76561199142840666,"connected_time":2424000000000,"state":"active","ping":156},{"user_id":774,"name":"turnip","steam_id":76561197999375941,"connected_time":2000000000,"state":"spawning","ping":69},{"user_id":772,"name":"Bacon","steam_id":76561199078407152,"connected_time":351000000000,"state":"active","ping":76},{"user_id":736,"name":"Fake21","steam_id":76561198282065071,"connected_time":3139000000000,"state":"active","ping":54},{"user_id":759,"name":"[L33T] Roz257","steam_id":76561198842844532,"connected_time":1214000000000,"state":"active","ping":93},{"user_id":765,"name":"Cat in a fedora","steam_id":76561198187502875,"connected_time":799000000000,"state":"active","ping":60}]},{"server_id":108,"name":"Uncletopia | Dallas | 2 | All Maps","name_short":"dal-2","host":"dal-1.us.uncletopia.com","port":27025,"enabled":true,"region":"us-central","cc":"us","latitude":32.779167,"longitude":-96.80889,"reserved":0,"last_update":"0001-01-01T00:00:00Z","name_a2s":"Uncletopia | Dallas | 2 | All Maps","protocol":17,"map":"pl_barnblitz","folder":"tf","game":"Team Fortress","app_id":440,"player_count":24,"max_players":24,"Bots":0,"server_type":"Dedicated","server_os":"Linux","password":true,"vac":true,"version":"7961495","steam_id":85568392924469988,"keywords":["nocrits","nodmgspread","payload","uncletopia"],"game_id":440,"stv_port":27026,"stv_name":"Uncletopia | Dallas | 2 | All Maps | STV","players":[{"user_id":657,"name":"BeautifulDeer","steam_id":76561198119588300,"connected_time":527000000000,"state":"active","ping":57},{"user_id":659,"name":"Dr. Acula","steam_id":76561198062663321,"connected_time":254000000000,"state":"active","ping":45},{"user_id":652,"name":"Nickson1","steam_id":76561198175839309,"connected_time":648000000000,"state":"active","ping":89},{"user_id":654,"name":"Umbra","steam_id":76561198122650609,"connected_time":638000000000,"state":"active","ping":57},{"user_id":605,"name":"Anstorner","steam_id":76561198274026015,"connected_time":4197000000000,"state":"active","ping":73},{"user_id":633,"name":"ms. capgras","steam_id":76561199080209996,"connected_time":2160000000000,"state":"active","ping":60},{"user_id":596,"name":"what","steam_id":76561198082336619,"connected_time":5444000000000,"state":"active","ping":101},{"user_id":644,"name":"Pinetree w/ apples.","steam_id":76561198105411709,"connected_time":1356000000000,"state":"active","ping":111},{"user_id":655,"name":"rf","steam_id":76561199018207049,"connected_time":602000000000,"state":"active","ping":76},{"user_id":643,"name":"Christopher Cringle","steam_id":76561198958264068,"connected_time":1384000000000,"state":"active","ping":104},{"user_id":640,"name":"River259","steam_id":76561199092175631,"connected_time":1537000000000,"state":"active","ping":78},{"user_id":656,"name":"AzuriousAlex","steam_id":76561198158026405,"connected_time":599000000000,"state":"active","ping":72},{"user_id":627,"name":"Workmanabs","steam_id":76561198069649266,"connected_time":3241000000000,"state":"active","ping":61},{"user_id":649,"name":"Taco","steam_id":76561198158621392,"connected_time":983000000000,"state":"active","ping":78},{"user_id":658,"name":"woooflet","steam_id":76561199208387179,"connected_time":474000000000,"state":"active","ping":46},{"user_id":646,"name":"Jamsheed","steam_id":76561198215647215,"connected_time":1269000000000,"state":"active","ping":89},{"user_id":636,"name":"tf2 noob vs pro","steam_id":76561198120973162,"connected_time":1751000000000,"state":"active","ping":95},{"user_id":597,"name":"C4K3","steam_id":76561197996963285,"connected_time":5442000000000,"state":"active","ping":67},{"user_id":615,"name":"Hamuktakali","steam_id":76561198039625579,"connected_time":3917000000000,"state":"active","ping":74},{"user_id":634,"name":"soda popper enjoyer","steam_id":76561199044252053,"connected_time":2066000000000,"state":"active","ping":101},{"user_id":629,"name":"tf2 toddler","steam_id":76561198051310816,"connected_time":2938000000000,"state":"active","ping":44},{"user_id":632,"name":"Oviraptor Supreme","steam_id":76561198044262534,"connected_time":2191000000000,"state":"active","ping":53},{"user_id":626,"name":"f4rt01","steam_id":76561197987243470,"connected_time":3264000000000,"state":"active","ping":75},{"user_id":584,"name":"TheGreythreat","steam_id":76561198021995538,"connected_time":5817000000000,"state":"active","ping":88}]},{"server_id":404,"name":"Uncletopia | Dallas | 3 | All Maps","name_short":"dal-3","host":"dal-1.us.uncletopia.com","port":27035,"enabled":true,"region":"us-central","cc":"us","latitude":32.779167,"longitude":-96.80889,"reserved":0,"last_update":"0001-01-01T00:00:00Z","name_a2s":"Uncletopia | Dallas | 3 | All Maps","protocol":17,"map":"cp_sunshine","folder":"tf","game":"Team Fortress","app_id":440,"player_count":23,"max_players":24,"Bots":0,"server_type":"Dedicated","server_os":"Linux","password":true,"vac":true,"version":"7961495","steam_id":85568392924515219,"keywords":["cp","nocrits","nodmgspread","uncletopia"],"game_id":440,"stv_port":27036,"stv_name":"Uncletopia | Dallas | 3 | All Maps | STV","players":[{"user_id":293,"name":"‚ô° Cursed ‚ô°","steam_id":76561199161458959,"connected_time":2035000000000,"state":"active","ping":71},{"user_id":276,"name":"CampinCarl","steam_id":76561197997373624,"connected_time":3944000000000,"state":"active","ping":79},{"user_id":308,"name":"Boyz in heat","steam_id":76561198042327471,"connected_time":309000000000,"state":"active","ping":101},{"user_id":309,"name":"Sagertooth","steam_id":76561198060863894,"connected_time":305000000000,"state":"active","ping":46},{"user_id":312,"name":"Lain","steam_id":76561198029303534,"connected_time":164000000000,"state":"active","ping":67},{"user_id":298,"name":"Œ∏Œ¨ŒΩŒ±œÑŒøœÇ œáœâœÅŒØœÇ œåŒΩ","steam_id":76561198021308963,"connected_time":1359000000000,"state":"active","ping":60},{"user_id":310,"name":"Mattie","steam_id":76561199209580985,"connected_time":276000000000,"state":"active","ping":78},{"user_id":307,"name":"An Engineer","steam_id":76561198110381643,"connected_time":352000000000,"state":"active","ping":45},{"user_id":306,"name":"HalfDead","steam_id":76561198049700226,"connected_time":375000000000,"state":"active","ping":103},{"user_id":270,"name":"astrobob911","steam_id":76561199099110654,"connected_time":4242000000000,"state":"active","ping":98},{"user_id":81,"name":"R8 Me M8 8/8","steam_id":76561198025280917,"connected_time":16111000000000,"state":"active","ping":74},{"user_id":313,"name":"Garrus","steam_id":76561198035649276,"connected_time":129000000000,"state":"active","ping":96},{"user_id":230,"name":"Ewan303","steam_id":76561198246769118,"connected_time":7241000000000,"state":"active","ping":53},{"user_id":314,"name":"sunglasses","steam_id":76561198173747227,"connected_time":77000000000,"state":"active","ping":85},{"user_id":295,"name":"raya","steam_id":76561198051504581,"connected_time":1570000000000,"state":"active","ping":46},{"user_id":285,"name":"Madz","steam_id":76561197980025933,"connected_time":3126000000000,"state":"active","ping":75},{"user_id":315,"name":"Lobstyr","steam_id":76561198884406859,"connected_time":65000000000,"state":"active","ping":75},{"user_id":272,"name":"Coach McFish","steam_id":76561198210456405,"connected_time":4226000000000,"state":"active","ping":90},{"user_id":283,"name":"cake.","steam_id":76561198036167388,"connected_time":3190000000000,"state":"active","ping":66},{"user_id":294,"name":"Malinok","steam_id":76561198025681131,"connected_time":2002000000000,"state":"active","ping":63},{"user_id":302,"name":"Sam","steam_id":76561198079393512,"connected_time":1266000000000,"state":"active","ping":85},{"user_id":303,"name":"orion","steam_id":76561198042203338,"connected_time":1265000000000,"state":"active","ping":88},{"user_id":304,"name":"cajun thotsauce","steam_id":76561198101636066,"connected_time":1180000000000,"state":"active","ping":77}]},{"server_id":405,"name":"Uncletopia | Dallas | 4 | Community","name_short":"dal-4","host":"dal-1.us.uncletopia.com","port":27045,"enabled":true,"region":"us-central","cc":"us","latitude":32.779167,"longitude":-96.80889,"reserved":0,"last_update":"0001-01-01T00:00:00Z","name_a2s":"Uncletopia | Dallas | 4 | Community","protocol":17,"map":"workshop/pl_badwater_pro_v12.ugc2142942074","folder":"tf","game":"Team Fortress","app_id":440,"player_count":0,"max_players":24,"Bots":0,"server_type":"Dedicated","server_os":"Linux","password":true,"vac":true,"version":"7961495","steam_id":85568392924515220,"keywords":["nocrits","nodmgspread","payload","uncletopia"],"game_id":440,"stv_port":27046,"stv_name":"Uncletopia | Dallas | 4 | Community | STV","players":null},{"server_id":5,"name":"Uncletopia | Frankfurt | 1 | All Maps","name_short":"frk-1","host":"frk-1.de.uncletopia.com","port":27015,"enabled":true,"region":"eu","cc":"de","latitude":50.110924,"longitude":8.682127,"reserved":0,"last_update":"0001-01-01T00:00:00Z","name_a2s":"Uncletopia | Frankfurt | 1 | All Maps","protocol":17,"map":"koth_highpass","folder":"tf","game":"Team Fortress","app_id":440,"player_count":0,"max_players":24,"Bots":0,"server_type":"Dedicated","server_os":"Linux","password":true,"vac":true,"version":"7961495","steam_id":85568392924469989,"keywords":["cp","nocrits","nodmgspread","uncletopia"],"game_id":440,"stv_port":27016,"stv_name":"Uncletopia | Frankfurt | 1 | All Maps | STV","players":null},{"server_id":110,"name":"Uncletopia | Frankfurt | 2 | All Maps","name_short":"frk-2","host":"frk-1.de.uncletopia.com","port":27025,"enabled":true,"region":"eu","cc":"de","latitude":50.110924,"longitude":8.682127,"reserved":0,"last_update":"0001-01-01T00:00:00Z","name_a2s":"Uncletopia | Frankfurt | 2 | All Maps","protocol":17,"map":"cp_dustbowl","folder":"tf","game":"Team Fortress","app_id":440,"player_count":0,"max_players":24,"Bots":0,"server_type":"Dedicated","server_os":"Linux","password":true,"vac":true,"version":"7961495","steam_id":85568392924469990,"keywords":["cp","nocrits","nodmgspread","uncletopia"],"game_id":440,"stv_port":27026,"stv_name":"Uncletopia | Frankfurt | 2 | All Maps | STV","players":null},{"server_id":308,"name":"Uncletopia | Frankfurt | 3 | All Maps","name_short":"frk-3","host":"frk-1.de.uncletopia.com","port":27035,"enabled":true,"region":"eu","cc":"de","latitude":50.110924,"longitude":8.682127,"reserved":0,"last_update":"0001-01-01T00:00:00Z","name_a2s":"Uncletopia | Frankfurt | 3 | All Maps","protocol":17,"map":"pl_barnblitz","folder":"tf","game":"Team Fortress","app_id":440,"player_count":0,"max_players":24,"Bots":0,"server_type":"Dedicated","server_os":"Linux","password":true,"vac":true,"version":"7961495","steam_id":85568392924504274,"keywords":["nocrits","nodmgspread","payload","uncletopia"],"game_id":440,"stv_port":27036,"stv_name":"Uncletopia | Frankfurt | 3 | All Maps | STV","players":null},{"server_id":309,"name":"Uncletopia | Frankfurt | 4 | All Maps","name_short":"frk-4","host":"frk-1.de.uncletopia.com","port":27045,"enabled":true,"region":"eu","cc":"de","latitude":50.110924,"longitude":8.682127,"reserved":0,"last_update":"0001-01-01T00:00:00Z","name_a2s":"Uncletopia | Frankfurt | 4 | All Maps","protocol":17,"map":"koth_highpass","folder":"tf","game":"Team Fortress","app_id":440,"player_count":0,"max_players":24,"Bots":0,"server_type":"Dedicated","server_os":"Linux","password":true,"vac":true,"version":"7961495","steam_id":85568392924504275,"keywords":["cp","nocrits","nodmgspread","uncletopia"],"game_id":440,"stv_port":27046,"stv_name":"Uncletopia | Frankfurt | 4 | All Maps | STV","players":null},{"server_id":310,"name":"Uncletopia | Frankfurt | 5 | All Maps","name_short":"frk-5","host":"frk-1.de.uncletopia.com","port":27055,"enabled":true,"region":"eu","cc":"de","latitude":50.110924,"longitude":8.682127,"reserved":0,"last_update":"0001-01-01T00:00:00Z","name_a2s":"Uncletopia | Frankfurt | 5 | All Maps","protocol":17,"map":"pl_badwater","folder":"tf","game":"Team Fortress","app_id":440,"player_count":0,"max_players":24,"Bots":0,"server_type":"Dedicated","server_os":"Linux","password":true,"vac":true,"version":"7961495","steam_id":85568392924504277,"keywords":["nocrits","nodmgspread","payload","uncletopia"],"game_id":440,"stv_port":27056,"stv_name":"Uncletopia | Frankfurt | 5 | All Maps | STV","players":null},{"server_id":311,"name":"Uncletopia | Frankfurt | 6 | All Maps","name_short":"frk-6","host":"frk-1.de.uncletopia.com","port":27065,"enabled":true,"region":"eu","cc":"de","latitude":50.110924,"longitude":8.682127,"reserved":0,"last_update":"0001-01-01T00:00:00Z","name_a2s":"Uncletopia | Frankfurt | 6 | All Maps","protocol":17,"map":"cp_altitude","folder":"tf","game":"Team Fortress","app_id":440,"player_count":0,"max_players":24,"Bots":0,"server_type":"Dedicated","server_os":"Linux","password":true,"vac":true,"version":"7961495","steam_id":85568392924504278,"keywords":["cp","nocrits","nodmgspread","uncletopia"],"game_id":440,"stv_port":27066,"stv_name":"Uncletopia | Frankfurt | 6 | All Maps | STV","players":null},{"server_id":23,"name":"Uncletopia | Frankfurt | 7 | Stopwatch","name_short":"frk-7","host":"frk-1.de.uncletopia.com","port":27075,"enabled":true,"region":"eu","cc":"de","latitude":50.110924,"longitude":8.682127,"reserved":0,"last_update":"0001-01-01T00:00:00Z","name_a2s":"Uncletopia | Frankfurt | 7 | Stopwatch","protocol":17,"map":"pl_frontier_final","folder":"tf","game":"Team Fortress","app_id":440,"player_count":0,"max_players":24,"Bots":0,"server_type":"Dedicated","server_os":"Linux","password":true,"vac":true,"version":"7961495","steam_id":85568392924742827,"keywords":["nocrits","nodmgspread","payload","uncletopia"],"game_id":440,"stv_port":27076,"stv_name":"Uncletopia | Frankfurt | 7 | Stopwatch | STV","players":null},{"server_id":24,"name":"Uncletopia | Frankfurt | 8 | Community","name_short":"frk-8","host":"frk-1.de.uncletopia.com","port":27085,"enabled":true,"region":"eu","cc":"de","latitude":50.110924,"longitude":8.682127,"reserved":0,"last_update":"0001-01-01T00:00:00Z","name_a2s":"Uncletopia | Frankfurt | 8 | Community","protocol":17,"map":"cp_mountainlab","folder":"tf","game":"Team Fortress","app_id":440,"player_count":0,"max_players":24,"Bots":0,"server_type":"Dedicated","server_os":"Linux","password":true,"vac":true,"version":"7961495","steam_id":85568392924742828,"keywords":["cp","nocrits","nodmgspread","uncletopia"],"game_id":440,"stv_port":27086,"stv_name":"Uncletopia | Frankfurt | 8 | Community | STV","players":null},{"server_id":202,"name":"Uncletopia | Hong Kong | 1 | All Maps","name_short":"hgk-1","host":"hgk-1.hk.uncletopia.com","port":27015,"enabled":true,"region":"asia","cc":"hk","latitude":22.302711,"longitude":114.177216,"reserved":0,"last_update":"0001-01-01T00:00:00Z","name_a2s":"Uncletopia | Hong Kong | 1 | All Maps","protocol":17,"map":"cp_snakewater_final1","folder":"tf","game":"Team Fortress","app_id":440,"player_count":24,"max_players":24,"Bots":0,"server_type":"Dedicated","server_os":"Linux","password":true,"vac":true,"version":"7961495","steam_id":85568392924494504,"keywords":["cp","nocrits","nodmgspread","uncletopia"],"game_id":440,"stv_port":27016,"stv_name":"Uncletopia | Hong Kong | 1 | All Maps | STV","players":[{"user_id":95,"name":"Creaserg","steam_id":76561198827951097,"connected_time":1393000000000,"state":"active","ping":80},{"user_id":99,"name":"Doormann","steam_id":76561199219230108,"connected_time":715000000000,"state":"active","ping":97},{"user_id":67,"name":"Popolor","steam_id":76561198134861914,"connected_time":3369000000000,"state":"active","ping":75},{"user_id":65,"name":"piston","steam_id":76561198992723983,"connected_time":3479000000000,"state":"active","ping":96},{"user_id":52,"name":"vintage","steam_id":76561198230213828,"connected_time":4455000000000,"state":"active","ping":62},{"user_id":97,"name":"beet juice","steam_id":76561198055553140,"connected_time":1190000000000,"state":"active","ping":75},{"user_id":100,"name":"Ê∑±Â§úÈï∑ÈÜâÂ§¢Â§ö","steam_id":76561198882982887,"connected_time":708000000000,"state":"active","ping":89},{"user_id":105,"name":"corpse_cadaver","steam_id":76561199225360457,"connected_time":323000000000,"state":"active","ping":77},{"user_id":37,"name":"birdo","steam_id":76561199206075827,"connected_time":5011000000000,"state":"active","ping":79},{"user_id":68,"name":"ber","steam_id":76561198389068895,"connected_time":3359000000000,"state":"active","ping":75},{"user_id":102,"name":"Ë†¢CocoaËõã","steam_id":76561198972098557,"connected_time":619000000000,"state":"active","ping":57},{"user_id":98,"name":"Shotty 2 Hotty","steam_id":76561199174449723,"connected_time":1189000000000,"state":"active","ping":113},{"user_id":96,"name":"Hay","steam_id":76561199438952901,"connected_time":1344000000000,"state":"active","ping":51},{"user_id":106,"name":"Lu","steam_id":76561198320532821,"connected_time":318000000000,"state":"active","ping":76},{"user_id":84,"name":"ObscuroLucem","steam_id":76561198875037943,"connected_time":2281000000000,"state":"active","ping":78},{"user_id":33,"name":"protons","steam_id":76561198008307645,"connected_time":5163000000000,"state":"active","ping":113},{"user_id":73,"name":"xPhid","steam_id":76561199080808930,"connected_time":3087000000000,"state":"active","ping":68},{"user_id":91,"name":"avered (still sick)","steam_id":76561199480939609,"connected_time":1692000000000,"state":"active","ping":85},{"user_id":61,"name":"Xx_EpicTrickstabber_xX","steam_id":76561199024960087,"connected_time":3641000000000,"state":"active","ping":73},{"user_id":107,"name":"Juan.","steam_id":76561199017347636,"connected_time":277000000000,"state":"active","ping":46},{"user_id":64,"name":"noob pyro of all time","steam_id":76561198074339034,"connected_time":3542000000000,"state":"active","ping":76},{"user_id":103,"name":"TomCat","steam_id":76561198133744053,"connected_time":566000000000,"state":"active","ping":121},{"user_id":90,"name":"spinach (old mouse)","steam_id":76561198042539541,"connected_time":1779000000000,"state":"active","ping":81},{"user_id":108,"name":"Quebec\"PrettyBoy\"TengS","steam_id":76561198997678151,"connected_time":190000000000,"state":"active","ping":116}]},{"server_id":1,"name":"Uncletopia | Los Angeles | 1 | All Maps","name_short":"lax-1","host":"lax-1.us.uncletopia.com","port":27015,"enabled":true,"region":"us-west","cc":"us","latitude":33.94279,"longitude":-118.41004,"reserved":0,"last_update":"0001-01-01T00:00:00Z","name_a2s":"Uncletopia | Los Angeles | 1 | All Maps","protocol":17,"map":"ctf_turbine","folder":"tf","game":"Team Fortress","app_id":440,"player_count":12,"max_players":24,"Bots":0,"server_type":"Dedicated","server_os":"Linux","password":true,"vac":true,"version":"7961495","steam_id":85568392924469991,"keywords":["ctf","nocrits","nodmgspread","uncletopia"],"game_id":440,"stv_port":27016,"stv_name":"Uncletopia | Los Angeles | 1 | All Maps | STV","players":[{"user_id":480,"name":"Ok then","steam_id":76561198891914787,"connected_time":963000000000,"state":"active","ping":44},{"user_id":490,"name":"Shadow","steam_id":76561197992616319,"connected_time":472000000000,"state":"active","ping":54},{"user_id":476,"name":"Optimore","steam_id":76561198047662990,"connected_time":1521000000000,"state":"spawning","ping":47},{"user_id":497,"name":"full of pilk","steam_id":76561198092716651,"connected_time":175000000000,"state":"active","ping":82},{"user_id":489,"name":"Derpdude9898","steam_id":76561199013118632,"connected_time":542000000000,"state":"active","ping":91},{"user_id":462,"name":"shrigma","steam_id":76561198101301195,"connected_time":3161000000000,"state":"active","ping":31},{"user_id":415,"name":"Captain BOOF","steam_id":76561199017727056,"connected_time":5425000000000,"state":"active","ping":115},{"user_id":478,"name":"Code Sage NGC","steam_id":76561197973450860,"connected_time":1440000000000,"state":"spawning","ping":339},{"user_id":431,"name":"cielael","steam_id":76561198043971956,"connected_time":4722000000000,"state":"active","ping":41},{"user_id":493,"name":"kintsugi","steam_id":76561198014583939,"connected_time":452000000000,"state":"active","ping":43},{"user_id":495,"name":"Fish Lambert","steam_id":76561198098279668,"connected_time":369000000000,"state":"active","ping":57},{"user_id":496,"name":"Antwan","steam_id":76561198246200638,"connected_time":278000000000,"state":"spawning","ping":335}]},{"server_id":112,"name":"Uncletopia | Los Angeles | 2 | All Maps","name_short":"lax-2","host":"lax-1.us.uncletopia.com","port":27025,"enabled":true,"region":"us-west","cc":"us","latitude":33.94279,"longitude":-118.41004,"reserved":0,"last_update":"0001-01-01T00:00:00Z","name_a2s":"Uncletopia | Los Angeles | 2 | All Maps","protocol":17,"map":"pl_upward","folder":"tf","game":"Team Fortress","app_id":440,"player_count":24,"max_players":24,"Bots":0,"server_type":"Dedicated","server_os":"Linux","password":true,"vac":true,"version":"7961495","steam_id":85568392924469992,"keywords":["nocrits","nodmgspread","payload","uncletopia"],"game_id":440,"stv_port":27026,"stv_name":"Uncletopia | Los Angeles | 2 | All Maps | STV","players":[{"user_id":194,"name":"Tmiracle","steam_id":76561198052375275,"connected_time":1614000000000,"state":"active","ping":49},{"user_id":185,"name":"d4ngerd4n","steam_id":76561198043758735,"connected_time":2330000000000,"state":"active","ping":56},{"user_id":177,"name":"Cinnifox","steam_id":76561198068773971,"connected_time":2981000000000,"state":"active","ping":68},{"user_id":173,"name":"JOHN WICK","steam_id":76561198091877422,"connected_time":3459000000000,"state":"active","ping":90},{"user_id":184,"name":"kobold gaming","steam_id":76561198259650356,"connected_time":2751000000000,"state":"active","ping":69},{"user_id":195,"name":"Mainyx","steam_id":76561198811844438,"connected_time":1565000000000,"state":"active","ping":56},{"user_id":197,"name":"Retesaurus","steam_id":76561198045189319,"connected_time":1439000000000,"state":"active","ping":89},{"user_id":192,"name":"TheBeepMann","steam_id":76561198156230733,"connected_time":1939000000000,"state":"active","ping":43},{"user_id":193,"name":"dax","steam_id":76561198045335319,"connected_time":1766000000000,"state":"active","ping":110},{"user_id":201,"name":"puffer","steam_id":76561199049164456,"connected_time":770000000000,"state":"active","ping":69},{"user_id":203,"name":"HeroOfTime","steam_id":76561199096218001,"connected_time":603000000000,"state":"active","ping":54},{"user_id":172,"name":"Punished Jeff #NeverSimpAgain","steam_id":76561198304252584,"connected_time":3515000000000,"state":"active","ping":64},{"user_id":196,"name":"bendera","steam_id":76561197965486503,"connected_time":1496000000000,"state":"active","ping":117},{"user_id":182,"name":"giveit5","steam_id":76561198030815437,"connected_time":2881000000000,"state":"active","ping":46},{"user_id":200,"name":"moe","steam_id":76561198929586245,"connected_time":1099000000000,"state":"active","ping":43},{"user_id":202,"name":"grape","steam_id":76561198976352881,"connected_time":664000000000,"state":"active","ping":53},{"user_id":205,"name":"Grilled Jizo","steam_id":76561199250875340,"connected_time":581000000000,"state":"active","ping":96},{"user_id":199,"name":"Linksaver1","steam_id":76561198096312838,"connected_time":1144000000000,"state":"active","ping":61},{"user_id":167,"name":"weed lesbian","steam_id":76561198042263805,"connected_time":3648000000000,"state":"active","ping":84},{"user_id":190,"name":"luigiclub","steam_id":76561198180548194,"connected_time":2075000000000,"state":"active","ping":78},{"user_id":204,"name":"Jaydyn","steam_id":76561198140326797,"connected_time":592000000000,"state":"active","ping":120},{"user_id":69,"name":"S√°bado Gigante","steam_id":76561197994685971,"connected_time":10278000000000,"state":"active","ping":61},{"user_id":175,"name":"Igrium","steam_id":76561198119549811,"connected_time":3309000000000,"state":"active","ping":67},{"user_id":189,"name":"Loamy","steam_id":76561198064183674,"connected_time":2138000000000,"state":"active","ping":45}]},{"server_id":324,"name":"Uncletopia | Los Angeles | 3 | All Maps","name_short":"lax-3","host":"lax-1.us.uncletopia.com","port":27035,"enabled":true,"region":"us-west","cc":"us","latitude":33.94279,"longitude":-118.41004,"reserved":0,"last_update":"0001-01-01T00:00:00Z","name_a2s":"Uncletopia | Los Angeles | 3 | All Maps","protocol":17,"map":"cp_process_final","folder":"tf","game":"Team Fortress","app_id":440,"player_count":24,"max_players":24,"Bots":0,"server_type":"Dedicated","server_os":"Linux","password":true,"vac":true,"version":"7961495","steam_id":85568392924510198,"keywords":["cp","nocrits","nodmgspread","uncletopia"],"game_id":440,"stv_port":27036,"stv_name":"Uncletopia | Los Angeles | 3 | All Maps | STV","players":[{"user_id":160,"name":"Spread Joy, Not Hate","steam_id":76561198053117503,"connected_time":2061000000000,"state":"active","ping":89},{"user_id":174,"name":"0cho","steam_id":76561198014092640,"connected_time":991000000000,"state":"active","ping":84},{"user_id":166,"name":"Dreamzapp","steam_id":76561199084936632,"connected_time":1932000000000,"state":"active","ping":70},{"user_id":59,"name":"Eden","steam_id":76561198081284664,"connected_time":8335000000000,"state":"active","ping":48},{"user_id":169,"name":"Panzer Vor","steam_id":76561198435091099,"connected_time":1389000000000,"state":"active","ping":70},{"user_id":123,"name":"Quetzalcoatl","steam_id":76561198094826250,"connected_time":4134000000000,"state":"active","ping":45},{"user_id":53,"name":"Dongus","steam_id":76561197979056451,"connected_time":8825000000000,"state":"active","ping":77},{"user_id":71,"name":"self sufficient kitten","steam_id":76561197960592612,"connected_time":7752000000000,"state":"active","ping":75},{"user_id":171,"name":"MarioLuigi0404","steam_id":76561198252513650,"connected_time":1306000000000,"state":"active","ping":99},{"user_id":85,"name":"sadlaxx","steam_id":76561198061354919,"connected_time":6985000000000,"state":"active","ping":82},{"user_id":119,"name":"Szaint","steam_id":76561198165050614,"connected_time":4305000000000,"state":"active","ping":67},{"user_id":138,"name":"darren","steam_id":76561199050155136,"connected_time":3715000000000,"state":"active","ping":50},{"user_id":181,"name":"Stink Williams","steam_id":76561198205725733,"connected_time":728000000000,"state":"active","ping":98},{"user_id":176,"name":"Schmupp","steam_id":76561198150928115,"connected_time":965000000000,"state":"active","ping":49},{"user_id":38,"name":"Lee?","steam_id":76561199060892634,"connected_time":9230000000000,"state":"active","ping":100},{"user_id":179,"name":"thisisSteve","steam_id":76561198420882318,"connected_time":889000000000,"state":"active","ping":59},{"user_id":177,"name":"peoplesnacks","steam_id":76561198041061958,"connected_time":952000000000,"state":"active","ping":61},{"user_id":135,"name":"Copy","steam_id":76561198025031590,"connected_time":3763000000000,"state":"active","ping":77},{"user_id":143,"name":"High quality products87345","steam_id":76561198206506481,"connected_time":3408000000000,"state":"active","ping":49},{"user_id":170,"name":"roach :3","steam_id":76561198354811369,"connected_time":1374000000000,"state":"active","ping":53},{"user_id":134,"name":"Fungal","steam_id":76561198078973439,"connected_time":3809000000000,"state":"active","ping":55},{"user_id":172,"name":"Jazpy","steam_id":76561198036872545,"connected_time":1183000000000,"state":"active","ping":77},{"user_id":129,"name":"Ssamjang","steam_id":76561197966891870,"connected_time":3957000000000,"state":"active","ping":65},{"user_id":167,"name":"QWE123162","steam_id":76561199023128309,"connected_time":1871000000000,"state":"active","ping":50}]},{"server_id":25,"name":"Uncletopia | Los Angeles | 4 | Stopwatch","name_short":"lax-4","host":"lax-1.us.uncletopia.com","port":27045,"enabled":true,"region":"us-west","cc":"us","latitude":33.94279,"longitude":-118.41004,"reserved":0,"last_update":"0001-01-01T00:00:00Z","name_a2s":"Uncletopia | Los Angeles | 4 | Stopwatch","protocol":17,"map":"workshop/koth_product_final.ugc454272353","folder":"tf","game":"Team Fortress","app_id":440,"player_count":0,"max_players":24,"Bots":0,"server_type":"Dedicated","server_os":"Linux","password":true,"vac":true,"version":"7961495","steam_id":85568392924510199,"keywords":["cp","nocrits","nodmgspread","uncletopia"],"game_id":440,"stv_port":27046,"stv_name":"Uncletopia | Los Angeles | 4 | Stopwatch | STV","players":null},{"server_id":11,"name":"Uncletopia | London | 1 | All Maps","name_short":"lon-1","host":"lon-1.uk.uncletopia.com","port":27015,"enabled":true,"region":"eu","cc":"gb","latitude":51.509865,"longitude":-0.118092,"reserved":0,"last_update":"0001-01-01T00:00:00Z","name_a2s":"Uncletopia | London | 1 | All Maps","protocol":17,"map":"cp_sunshine","folder":"tf","game":"Team Fortress","app_id":440,"player_count":0,"max_players":24,"Bots":0,"server_type":"Dedicated","server_os":"Linux","password":true,"vac":true,"version":"7961495","steam_id":85568392924367362,"keywords":["cp","nocrits","nodmgspread","uncletopia"],"game_id":440,"stv_port":27016,"stv_name":"Uncletopia | London | 1 | All Maps | STV","players":null},{"server_id":114,"name":"Uncletopia | London | 2 | All Maps","name_short":"lon-2","host":"lon-1.uk.uncletopia.com","port":27025,"enabled":true,"region":"eu","cc":"gb","latitude":51.509865,"longitude":-0.118092,"reserved":0,"last_update":"0001-01-01T00:00:00Z","name_a2s":"Uncletopia | London | 2 | All Maps","protocol":17,"map":"cp_dustbowl","folder":"tf","game":"Team Fortress","app_id":440,"player_count":21,"max_players":24,"Bots":0,"server_type":"Dedicated","server_os":"Linux","password":true,"vac":true,"version":"7961495","steam_id":85568392924470941,"keywords":["cp","nocrits","nodmgspread","uncletopia"],"game_id":440,"stv_port":27026,"stv_name":"Uncletopia | London | 2 | All Maps | STV","players":[{"user_id":917,"name":"waffle toaster","steam_id":76561198799089628,"connected_time":4351000000000,"state":"active","ping":44},{"user_id":918,"name":"MONKE","steam_id":76561199211345801,"connected_time":4329000000000,"state":"active","ping":136},{"user_id":957,"name":"üá™üá¨ Pharaoh","steam_id":76561198974553024,"connected_time":1886000000000,"state":"active","ping":95},{"user_id":955,"name":"Economic crisis","steam_id":76561198063562843,"connected_time":2001000000000,"state":"active","ping":72},{"user_id":975,"name":"DDUUCCKK","steam_id":76561198141953050,"connected_time":312000000000,"state":"active","ping":52},{"user_id":973,"name":"Borat","steam_id":76561198122226417,"connected_time":474000000000,"state":"active","ping":35},{"user_id":969,"name":"‚ù§","steam_id":76561198304902462,"connected_time":671000000000,"state":"active","ping":46},{"user_id":876,"name":"C++ and Git Enjoyer","steam_id":76561198277310442,"connected_time":6929000000000,"state":"active","ping":69},{"user_id":970,"name":"Visphiric","steam_id":76561198071938027,"connected_time":653000000000,"state":"active","ping":38},{"user_id":843,"name":"Zamorocian","steam_id":76561198076604017,"connected_time":8885000000000,"state":"active","ping":42},{"user_id":866,"name":"Vanya2009@rambler.ru","steam_id":76561198798925603,"connected_time":7221000000000,"state":"active","ping":60},{"user_id":960,"name":"Hydroxianchaos","steam_id":76561198043786828,"connected_time":1739000000000,"state":"active","ping":130},{"user_id":967,"name":"Shallaska","steam_id":76561198019030896,"connected_time":771000000000,"state":"active","ping":51},{"user_id":977,"name":"BONK","steam_id":76561199120275042,"connected_time":37000000000,"state":"active","ping":64},{"user_id":953,"name":"Cam","steam_id":76561198321715958,"connected_time":2039000000000,"state":"active","ping":49},{"user_id":976,"name":"leadsquid","steam_id":76561198071544109,"connected_time":144000000000,"state":"active","ping":130},{"user_id":958,"name":"Aukmenfaru","steam_id":76561198277858041,"connected_time":1860000000000,"state":"active","ping":100},{"user_id":929,"name":"Shlongulator","steam_id":76561198149779201,"connected_time":3503000000000,"state":"active","ping":49},{"user_id":916,"name":"yuno appreciator","steam_id":76561198083286511,"connected_time":4428000000000,"state":"active","ping":34},{"user_id":943,"name":"TEACUPS AND KETTLES","steam_id":76561198083017384,"connected_time":2923000000000,"state":"active","ping":56},{"user_id":961,"name":"Taste","steam_id":76561197994506978,"connected_time":1708000000000,"state":"active","ping":57}]},{"server_id":320,"name":"Uncletopia | London | 3 | All Maps","name_short":"lon-3","host":"lon-1.uk.uncletopia.com","port":27035,"enabled":true,"region":"eu","cc":"gb","latitude":51.509865,"longitude":-0.118092,"reserved":0,"last_update":"0001-01-01T00:00:00Z","name_a2s":"Uncletopia | London | 3 | All Maps","protocol":17,"map":"koth_highpass","folder":"tf","game":"Team Fortress","app_id":440,"player_count":0,"max_players":24,"Bots":0,"server_type":"Dedicated","server_os":"Linux","password":true,"vac":true,"version":"7961495","steam_id":85568392924510192,"keywords":["cp","nocrits","nodmgspread","uncletopia"],"game_id":440,"stv_port":27036,"stv_name":"Uncletopia | London | 3 | All Maps | STV","players":null},{"server_id":321,"name":"Uncletopia | London | 4 | All Maps","name_short":"lon-4","host":"lon-1.uk.uncletopia.com","port":27045,"enabled":true,"region":"eu","cc":"gb","latitude":51.509865,"longitude":-0.118092,"reserved":0,"last_update":"0001-01-01T00:00:00Z","name_a2s":"Uncletopia | London | 4 | All Maps","protocol":17,"map":"koth_highpass","folder":"tf","game":"Team Fortress","app_id":440,"player_count":0,"max_players":24,"Bots":0,"server_type":"Dedicated","server_os":"Linux","password":true,"vac":true,"version":"7961495","steam_id":85568392924510193,"keywords":["cp","nocrits","nodmgspread","uncletopia"],"game_id":440,"stv_port":27046,"stv_name":"Uncletopia | London | 4 | All Maps | STV","players":null},{"server_id":21,"name":"Uncletopia | London | 5 | All Maps","name_short":"lon-5","host":"lon-1.uk.uncletopia.com","port":27055,"enabled":true,"region":"eu","cc":"gb","latitude":51.509865,"longitude":-0.118092,"reserved":0,"last_update":"0001-01-01T00:00:00Z","name_a2s":"Uncletopia | London | 5 | All Maps","protocol":17,"map":"koth_harvest_final","folder":"tf","game":"Team Fortress","app_id":440,"player_count":0,"max_players":24,"Bots":0,"server_type":"Dedicated","server_os":"Linux","password":true,"vac":true,"version":"7961495","steam_id":85568392924742829,"keywords":["cp","nocrits","nodmgspread","uncletopia"],"game_id":440,"stv_port":27056,"stv_name":"Uncletopia | London | 5 | All Maps | STV","players":null},{"server_id":22,"name":"Uncletopia | London | 6 | All Maps","name_short":"lon-6","host":"lon-1.uk.uncletopia.com","port":27065,"enabled":true,"region":"eu","cc":"gb","latitude":51.509865,"longitude":-0.118092,"reserved":0,"last_update":"0001-01-01T00:00:00Z","name_a2s":"Uncletopia | London | 6 | All Maps","protocol":17,"map":"koth_lakeside_final","folder":"tf","game":"Team Fortress","app_id":440,"player_count":0,"max_players":24,"Bots":0,"server_type":"Dedicated","server_os":"Linux","password":true,"vac":true,"version":"7961495","steam_id":85568392924742830,"keywords":["cp","nocrits","nodmgspread","uncletopia"],"game_id":440,"stv_port":27066,"stv_name":"Uncletopia | London | 6 | All Maps | STV","players":null},{"server_id":40,"name":"Uncletopia | London | 7 | Stopwatch","name_short":"lon-7","host":"lon-1.uk.uncletopia.com","port":27075,"enabled":true,"region":"eu","cc":"gb","latitude":51.509865,"longitude":-0.118092,"reserved":0,"last_update":"0001-01-01T00:00:00Z","name_a2s":"Uncletopia | London | 7 | Stopwatch","protocol":17,"map":"workshop/koth_product_final.ugc454272353","folder":"tf","game":"Team Fortress","app_id":440,"player_count":0,"max_players":24,"Bots":0,"server_type":"Dedicated","server_os":"Linux","password":true,"vac":true,"version":"7961495","steam_id":85568392924964314,"keywords":["cp","nocrits","nodmgspread","uncletopia"],"game_id":440,"stv_port":27076,"stv_name":"Uncletopia | London | 7 | Stopwatch | STV","players":null},{"server_id":41,"name":"Uncletopia | London | 8 | Community","name_short":"lon-8","host":"lon-1.uk.uncletopia.com","port":27085,"enabled":true,"region":"eu","cc":"gb","latitude":51.509865,"longitude":-0.118092,"reserved":0,"last_update":"0001-01-01T00:00:00Z","name_a2s":"Uncletopia | London | 8 | Community","protocol":17,"map":"workshop/koth_ramjam_rc1.ugc459778887","folder":"tf","game":"Team Fortress","app_id":440,"player_count":0,"max_players":24,"Bots":0,"server_type":"Dedicated","server_os":"Linux","password":true,"vac":true,"version":"7961495","steam_id":85568392924964315,"keywords":["cp","nocrits","nodmgspread","uncletopia"],"game_id":440,"stv_port":27086,"stv_name":"Uncletopia | London | 8 | Community | STV","players":null},{"server_id":300,"name":"Uncletopia | Montr√©al | 1 | One Thousand Uncles","name_short":"mtl-1","host":"mtl-1.ca.uncletopia.com","port":27015,"enabled":true,"region":"us-east","cc":"ca","latitude":45.50889,"longitude":-73.56167,"reserved":0,"last_update":"0001-01-01T00:00:00Z","name_a2s":"","protocol":0,"map":"","folder":"","game":"","app_id":0,"player_count":0,"max_players":0,"Bots":0,"server_type":"","server_os":"","password":false,"vac":false,"version":"","steam_id":0,"keywords":null,"game_id":0,"stv_port":0,"stv_name":"","players":null},{"server_id":301,"name":"Uncletopia | Montr√©al | 2 | One Thousand Uncles","name_short":"mtl-2","host":"mtl-1.ca.uncletopia.com","port":27025,"enabled":true,"region":"us-east","cc":"ca","latitude":45.50889,"longitude":-73.56167,"reserved":0,"last_update":"0001-01-01T00:00:00Z","name_a2s":"","protocol":0,"map":"","folder":"","game":"","app_id":0,"player_count":9,"max_players":0,"Bots":0,"server_type":"","server_os":"","password":false,"vac":false,"version":"","steam_id":0,"keywords":null,"game_id":0,"stv_port":0,"stv_name":"","players":[{"user_id":293,"name":"NightEmerald","steam_id":76561198878856805,"connected_time":7032000000000,"state":"active","ping":49},{"user_id":310,"name":"UNKNOWNGallery","steam_id":76561198051960557,"connected_time":6955000000000,"state":"active","ping":57},{"user_id":311,"name":"Brehmstorm","steam_id":76561198127975825,"connected_time":6953000000000,"state":"active","ping":106},{"user_id":312,"name":"Chairman Scorpion","steam_id":76561198059577999,"connected_time":6943000000000,"state":"active","ping":159},{"user_id":315,"name":"Holiday Fartcruise","steam_id":76561198043851584,"connected_time":5490000000000,"state":"active","ping":126},{"user_id":363,"name":"Mitzi","steam_id":76561198149907898,"connected_time":1150000000000,"state":"active","ping":140},{"user_id":366,"name":"Artificial Unintelligence","steam_id":76561199056745987,"connected_time":285000000000,"state":"active","ping":123},{"user_id":334,"name":"penis atomizer 9000 üè≥Ô∏è?","steam_id":76561198864841966,"connected_time":3312000000000,"state":"active","ping":111},{"user_id":324,"name":"Lots0","steam_id":76561198043143145,"connected_time":4166000000000,"state":"active","ping":98}]},{"server_id":302,"name":"Uncletopia | Montr√©al | 3 | One Thousand Uncles","name_short":"mtl-3","host":"mtl-1.ca.uncletopia.com","port":27035,"enabled":true,"region":"us-east","cc":"ca","latitude":45.50889,"longitude":-73.56167,"reserved":0,"last_update":"0001-01-01T00:00:00Z","name_a2s":"","protocol":0,"map":"","folder":"","game":"","app_id":0,"player_count":0,"max_players":0,"Bots":0,"server_type":"","server_os":"","password":false,"vac":false,"version":"","steam_id":0,"keywords":null,"game_id":0,"stv_port":0,"stv_name":"","players":null},{"server_id":13,"name":"Uncletopia | New York City | 1 | All Maps","name_short":"nyc-1","host":"nyc-1.us.uncletopia.com","port":27015,"enabled":true,"region":"us-east","cc":"us","latitude":40.73061,"longitude":-73.93524,"reserved":0,"last_update":"0001-01-01T00:00:00Z","name_a2s":"Uncletopia | New York City | 1 | All Maps","protocol":17,"map":"pl_badwater","folder":"tf","game":"Team Fortress","app_id":440,"player_count":23,"max_players":24,"Bots":0,"server_type":"Dedicated","server_os":"Linux","password":true,"vac":true,"version":"7961495","steam_id":85568392924469993,"keywords":["nocrits","nodmgspread","payload","uncletopia"],"game_id":440,"stv_port":27016,"stv_name":"Uncletopia | New York City | 1 | All Maps | STV","players":[{"user_id":858,"name":"Panchol√≠n","steam_id":76561198262777640,"connected_time":5168000000000,"state":"active","ping":143},{"user_id":912,"name":"stupid ass furry yakno","steam_id":76561198103496593,"connected_time":812000000000,"state":"active","ping":61},{"user_id":914,"name":"A Rope, for big pits","steam_id":76561198068044782,"connected_time":365000000000,"state":"active","ping":45},{"user_id":857,"name":"Shtumpy","steam_id":76561198116002030,"connected_time":5199000000000,"state":"active","ping":69},{"user_id":915,"name":"GooBer","steam_id":76561198402241505,"connected_time":309000000000,"state":"active","ping":94},{"user_id":851,"name":"Cat_Gaben","steam_id":76561198308094558,"connected_time":5932000000000,"state":"active","ping":73},{"user_id":905,"name":"Primitive","steam_id":76561198060500671,"connected_time":1529000000000,"state":"active","ping":39},{"user_id":916,"name":"speedy mozzarella","steam_id":76561198327703300,"connected_time":239000000000,"state":"active","ping":55},{"user_id":880,"name":"ùëëùëúùëôùëù‚Ñéùëñùëõ.","steam_id":76561198294013916,"connected_time":3526000000000,"state":"active","ping":44},{"user_id":917,"name":"Aristotle Voulton","steam_id":76561198100174923,"connected_time":219000000000,"state":"active","ping":77},{"user_id":891,"name":"NinjaLau95","steam_id":76561198001069938,"connected_time":2854000000000,"state":"active","ping":60},{"user_id":903,"name":"fda disapproved","steam_id":76561198025389851,"connected_time":1783000000000,"state":"active","ping":60},{"user_id":901,"name":"Beau","steam_id":76561198162587622,"connected_time":1887000000000,"state":"active","ping":82},{"user_id":910,"name":"FloydianSystem (girl)","steam_id":76561198081987191,"connected_time":834000000000,"state":"active","ping":84},{"user_id":864,"name":"The Deer Consumer","steam_id":76561198812026312,"connected_time":4890000000000,"state":"active","ping":60},{"user_id":865,"name":"Hideo Kojima","steam_id":76561198082582335,"connected_time":4889000000000,"state":"active","ping":55},{"user_id":911,"name":"awawa","steam_id":76561198406252824,"connected_time":829000000000,"state":"active","ping":124},{"user_id":898,"name":"FAKE TAXI PRANKS","steam_id":76561198136746987,"connected_time":2122000000000,"state":"active","ping":75},{"user_id":899,"name":"DolphiN | RGL.gg","steam_id":76561198048614515,"connected_time":2092000000000,"state":"active","ping":44},{"user_id":919,"name":"Squimbus","steam_id":76561198200183638,"connected_time":130000000000,"state":"spawning","ping":87},{"user_id":893,"name":"Unk","steam_id":76561198031717617,"connected_time":2258000000000,"state":"active","ping":44},{"user_id":900,"name":"eduard","steam_id":76561198136550093,"connected_time":2026000000000,"state":"active","ping":70},{"user_id":921,"name":"the keebler","steam_id":76561199486326945,"connected_time":106000000000,"state":"active","ping":73}]},{"server_id":14,"name":"Uncletopia | New York City | 2 | All Maps","name_short":"nyc-2","host":"nyc-1.us.uncletopia.com","port":27025,"enabled":true,"region":"us-east","cc":"us","latitude":40.73061,"longitude":-73.93524,"reserved":0,"last_update":"0001-01-01T00:00:00Z","name_a2s":"Uncletopia | New York City | 2 | All Maps","protocol":17,"map":"pl_badwater","folder":"tf","game":"Team Fortress","app_id":440,"player_count":24,"max_players":24,"Bots":0,"server_type":"Dedicated","server_os":"Linux","password":true,"vac":true,"version":"7961495","steam_id":85568392924469994,"keywords":["nocrits","nodmgspread","payload","uncletopia"],"game_id":440,"stv_port":27026,"stv_name":"Uncletopia | New York City | 2 | All Maps | STV","players":[{"user_id":829,"name":"Bucket","steam_id":76561199105084889,"connected_time":2799000000000,"state":"active","ping":129},{"user_id":839,"name":"Noise","steam_id":76561198075011424,"connected_time":1999000000000,"state":"active","ping":97},{"user_id":841,"name":"chiswola","steam_id":76561198046920142,"connected_time":1676000000000,"state":"active","ping":90},{"user_id":734,"name":"E4Estrogen","steam_id":76561198085813708,"connected_time":8717000000000,"state":"active","ping":70},{"user_id":830,"name":"CRAZY engineer","steam_id":76561198887937902,"connected_time":2684000000000,"state":"active","ping":70},{"user_id":832,"name":"V. G. Sunderland","steam_id":76561198161839980,"connected_time":2363000000000,"state":"active","ping":45},{"user_id":589,"name":"Smiley","steam_id":76561198056430811,"connected_time":16090000000000,"state":"active","ping":69},{"user_id":803,"name":"TheRatBoi","steam_id":76561199123032506,"connected_time":4450000000000,"state":"active","ping":80},{"user_id":786,"name":"Yoshimelon","steam_id":76561198253054325,"connected_time":5751000000000,"state":"active","ping":75},{"user_id":822,"name":"Bold Cherry Flavor","steam_id":76561198061512239,"connected_time":3057000000000,"state":"active","ping":62},{"user_id":823,"name":"Carolus Rex","steam_id":76561198116830955,"connected_time":3034000000000,"state":"active","ping":88},{"user_id":840,"name":"The_Pacific_gamer","steam_id":76561198089491446,"connected_time":1992000000000,"state":"active","ping":115},{"user_id":850,"name":"Weebmcgee","steam_id":76561198081231557,"connected_time":124000000000,"state":"active","ping":60},{"user_id":849,"name":"Yeowskii","steam_id":76561198161399724,"connected_time":209000000000,"state":"active","ping":58},{"user_id":835,"name":"ndvr","steam_id":76561199379200102,"connected_time":2027000000000,"state":"active","ping":46},{"user_id":758,"name":"Kerpal45","steam_id":76561198153340350,"connected_time":7426000000000,"state":"active","ping":84},{"user_id":846,"name":"EggDroop","steam_id":76561198129588301,"connected_time":616000000000,"state":"active","ping":69},{"user_id":794,"name":"he suckin on my rick til i mort","steam_id":76561198310711692,"connected_time":4864000000000,"state":"active","ping":165},{"user_id":843,"name":"S-pin","steam_id":76561198195599518,"connected_time":1469000000000,"state":"active","ping":85},{"user_id":827,"name":"Bunny B‚ù§tch","steam_id":76561198013286930,"connected_time":3017000000000,"state":"active","ping":62},{"user_id":847,"name":"Game Of Life","steam_id":76561198262361438,"connected_time":575000000000,"state":"active","ping":74},{"user_id":837,"name":"scrundlebundle","steam_id":76561199209883822,"connected_time":2011000000000,"state":"active","ping":90},{"user_id":848,"name":"yodel","steam_id":76561198138777659,"connected_time":541000000000,"state":"active","ping":122},{"user_id":833,"name":"Koishi","steam_id":76561198054541054,"connected_time":2347000000000,"state":"active","ping":61}]},{"server_id":15,"name":"Uncletopia | New York City | 3 | Stopwatch","name_short":"nyc-3","host":"nyc-1.us.uncletopia.com","port":27035,"enabled":true,"region":"us-east","cc":"us","latitude":40.73061,"longitude":-73.93524,"reserved":0,"last_update":"0001-01-01T00:00:00Z","name_a2s":"Uncletopia | New York City | 3 | Stopwatch","protocol":17,"map":"workshop/pl_badwater_pro_v12.ugc2142942074","folder":"tf","game":"Team Fortress","app_id":440,"player_count":19,"max_players":24,"Bots":0,"server_type":"Dedicated","server_os":"Linux","password":true,"vac":true,"version":"7961495","steam_id":85568392924742820,"keywords":["nocrits","nodmgspread","payload","uncletopia"],"game_id":440,"stv_port":27036,"stv_name":"Uncletopia | New York City | 3 | Stopwatch | STV","players":[{"user_id":311,"name":"Voltage","steam_id":76561199049626370,"connected_time":2362000000000,"state":"active","ping":58},{"user_id":349,"name":"ShaqtusHD(She/Her)","steam_id":76561199138286233,"connected_time":92000000000,"state":"active","ping":62},{"user_id":350,"name":"lol","steam_id":76561198072115209,"connected_time":16000000000,"state":"active","ping":47},{"user_id":314,"name":"DTReunion","steam_id":76561199325552369,"connected_time":2299000000000,"state":"active","ping":58},{"user_id":351,"name":"SSS GRADE MADNESS!!!!!","steam_id":76561199064456633,"connected_time":12000000000,"state":"spawning","ping":76},{"user_id":262,"name":"CreateADebate","steam_id":76561198115760035,"connected_time":4678000000000,"state":"active","ping":62},{"user_id":352,"name":"Rori","steam_id":76561198052582902,"connected_time":9000000000,"state":"spawning","ping":113},{"user_id":316,"name":"masterbeans","steam_id":76561199191529629,"connected_time":2284000000000,"state":"active","ping":62},{"user_id":317,"name":"\"LET'S GO JUAN!\"","steam_id":76561198978797171,"connected_time":2268000000000,"state":"active","ping":63},{"user_id":348,"name":"DerpyNate","steam_id":76561198100249037,"connected_time":293000000000,"state":"active","ping":62},{"user_id":346,"name":"Hazeyboi","steam_id":76561198130687838,"connected_time":374000000000,"state":"active","ping":86},{"user_id":291,"name":"George Holdin' W Bush","steam_id":76561198030066204,"connected_time":3761000000000,"state":"active","ping":34},{"user_id":339,"name":"Bee","steam_id":76561198074681324,"connected_time":1294000000000,"state":"active","ping":45},{"user_id":330,"name":"broon","steam_id":76561198104908870,"connected_time":1723000000000,"state":"active","ping":82},{"user_id":327,"name":"craven","steam_id":76561198088191503,"connected_time":1923000000000,"state":"active","ping":63},{"user_id":306,"name":"Aboxofjuice-jb","steam_id":76561198352129145,"connected_time":3129000000000,"state":"active","ping":59},{"user_id":328,"name":"TheWorstSpeedRunner","steam_id":76561199075273861,"connected_time":1917000000000,"state":"active","ping":62},{"user_id":347,"name":"Maximum Flame","steam_id":76561198073682529,"connected_time":369000000000,"state":"active","ping":61},{"user_id":299,"name":"PactsGornax","steam_id":76561198066256419,"connected_time":3635000000000,"state":"active","ping":79}]},{"server_id":16,"name":"Uncletopia | New York City | 4 | Community","name_short":"nyc-4","host":"nyc-1.us.uncletopia.com","port":27045,"enabled":true,"region":"us-east","cc":"us","latitude":40.73061,"longitude":-73.93524,"reserved":0,"last_update":"0001-01-01T00:00:00Z","name_a2s":"Uncletopia | New York City | 4 | Community","protocol":17,"map":"workshop/pl_emerge_rc2.ugc888027758","folder":"tf","game":"Team Fortress","app_id":440,"player_count":0,"max_players":24,"Bots":0,"server_type":"Dedicated","server_os":"Linux","password":true,"vac":true,"version":"7961495","steam_id":85568392924742821,"keywords":["nocrits","nodmgspread","payload","uncletopia"],"game_id":440,"stv_port":27046,"stv_name":"Uncletopia | New York City | 4 | Community | STV","players":null},{"server_id":142,"name":"Uncletopia | S√£o Paulo | 1 | All Maps","name_short":"sao-1","host":"sao-1.br.uncletopia.com","port":27015,"enabled":true,"region":"sa","cc":"br","latitude":-23.533773,"longitude":-46.62529,"reserved":0,"last_update":"0001-01-01T00:00:00Z","name_a2s":"Uncletopia | S√£o Paulo | 1 | All Maps","protocol":17,"map":"koth_lakeside_final","folder":"tf","game":"Team Fortress","app_id":440,"player_count":0,"max_players":24,"Bots":0,"server_type":"Dedicated","server_os":"Linux","password":true,"vac":true,"version":"7961495","steam_id":85568392924469996,"keywords":["cp","nocrits","nodmgspread","uncletopia"],"game_id":440,"stv_port":27016,"stv_name":"Uncletopia | S√£o Paulo | 1 | All Maps | STV","players":null},{"server_id":143,"name":"Uncletopia | S√£o Paulo | 2 | Community","name_short":"sao-2","host":"sao-2.br.uncletopia.com","port":27015,"enabled":true,"region":"sa","cc":"br","latitude":-23.533773,"longitude":-46.62529,"reserved":0,"last_update":"0001-01-01T00:00:00Z","name_a2s":"Uncletopia | S√£o Paulo | 2 | Community","protocol":17,"map":"workshop/koth_slaughter_rc1.ugc1712845210","folder":"tf","game":"Team Fortress","app_id":440,"player_count":4,"max_players":24,"Bots":0,"server_type":"Dedicated","server_os":"Linux","password":true,"vac":true,"version":"7961495","steam_id":85568392924485349,"keywords":["cp","nocrits","nodmgspread","uncletopia"],"game_id":440,"stv_port":27016,"stv_name":"Uncletopia | S√£o Paulo | 2 | Community | STV","players":[{"user_id":21,"name":"omrboo061","steam_id":76561199443653759,"connected_time":695000000000,"state":"active","ping":84},{"user_id":22,"name":"fernandohll59","steam_id":76561199120728007,"connected_time":681000000000,"state":"active","ping":140},{"user_id":23,"name":"CHABLAU","steam_id":76561198808436182,"connected_time":676000000000,"state":"active","ping":131},{"user_id":24,"name":"Seleste","steam_id":76561199099945745,"connected_time":672000000000,"state":"active","ping":96}]},{"server_id":7,"name":"Uncletopia | Seattle | 1 | All Maps","name_short":"sea-1","host":"sea-1.us.uncletopia.com","port":27015,"enabled":true,"region":"us-west","cc":"us","latitude":47.608013,"longitude":-122.33517,"reserved":0,"last_update":"0001-01-01T00:00:00Z","name_a2s":"Uncletopia | Seattle | 1 | All Maps","protocol":17,"map":"pl_rumford_event","folder":"tf","game":"Team Fortress","app_id":440,"player_count":23,"max_players":24,"Bots":0,"server_type":"Dedicated","server_os":"Linux","password":true,"vac":true,"version":"7961495","steam_id":85568392924469997,"keywords":["nocrits","nodmgspread","payload","uncletopia"],"game_id":440,"stv_port":27016,"stv_name":"Uncletopia | Seattle | 1 | All Maps | STV","players":[{"user_id":693,"name":"Sniff","steam_id":76561198010270922,"connected_time":168000000000,"state":"active","ping":73},{"user_id":697,"name":"dearender the burger fan","steam_id":76561199427644498,"connected_time":89000000000,"state":"active","ping":51},{"user_id":695,"name":"Gwuf","steam_id":76561198091503282,"connected_time":140000000000,"state":"active","ping":96},{"user_id":698,"name":"liamsinanan06","steam_id":76561199490420033,"connected_time":62000000000,"state":"active","ping":50},{"user_id":680,"name":"toasterturret5","steam_id":76561199406940732,"connected_time":1347000000000,"state":"active","ping":95},{"user_id":699,"name":"Luke The Duke","steam_id":76561197999895633,"connected_time":48000000000,"state":"active","ping":76},{"user_id":677,"name":"Strangest","steam_id":76561198076592068,"connected_time":2209000000000,"state":"active","ping":43},{"user_id":684,"name":"cerious","steam_id":76561197994365894,"connected_time":1018000000000,"state":"active","ping":35},{"user_id":689,"name":"Sir Severus","steam_id":76561198061295188,"connected_time":382000000000,"state":"active","ping":46},{"user_id":690,"name":"H.A.Z.E.Y \u003c3","steam_id":76561199247095754,"connected_time":236000000000,"state":"active","ping":60},{"user_id":618,"name":"Retroliar","steam_id":76561199004899484,"connected_time":7642000000000,"state":"active","ping":67},{"user_id":648,"name":"Sweets","steam_id":76561198998446307,"connected_time":5162000000000,"state":"active","ping":61},{"user_id":688,"name":"Tom","steam_id":76561198070630154,"connected_time":456000000000,"state":"active","ping":69},{"user_id":691,"name":"pjrock101","steam_id":76561198070616561,"connected_time":236000000000,"state":"active","ping":52},{"user_id":639,"name":"Haven","steam_id":76561198087584756,"connected_time":6063000000000,"state":"active","ping":49},{"user_id":644,"name":"Why does glass taste like blood","steam_id":76561198253922494,"connected_time":5465000000000,"state":"active","ping":76},{"user_id":700,"name":"Wedge Antilles","steam_id":76561198005023811,"connected_time":22000000000,"state":"active","ping":48},{"user_id":674,"name":"TeriyakiDynamite","steam_id":76561198050049346,"connected_time":2486000000000,"state":"active","ping":80},{"user_id":661,"name":"Gm_Sweet","steam_id":76561199445091548,"connected_time":3714000000000,"state":"active","ping":60},{"user_id":657,"name":"Petey0712","steam_id":76561199401008981,"connected_time":4549000000000,"state":"active","ping":53},{"user_id":658,"name":"Dog","steam_id":76561198041841128,"connected_time":4510000000000,"state":"active","ping":81},{"user_id":665,"name":"TheUrgeWithin","steam_id":76561198033385972,"connected_time":3657000000000,"state":"active","ping":88},{"user_id":676,"name":"Melly","steam_id":76561198045867175,"connected_time":2293000000000,"state":"active","ping":60}]},{"server_id":119,"name":"Uncletopia | Seattle | 2 | All Maps","name_short":"sea-2","host":"sea-1.us.uncletopia.com","port":27025,"enabled":true,"region":"us-west","cc":"us","latitude":47.608013,"longitude":-122.33517,"reserved":0,"last_update":"0001-01-01T00:00:00Z","name_a2s":"Uncletopia | Seattle | 2 | All Maps","protocol":17,"map":"pl_upward","folder":"tf","game":"Team Fortress","app_id":440,"player_count":24,"max_players":24,"Bots":0,"server_type":"Dedicated","server_os":"Linux","password":true,"vac":true,"version":"7961495","steam_id":85568392924469998,"keywords":["nocrits","nodmgspread","payload","uncletopia"],"game_id":440,"stv_port":27026,"stv_name":"Uncletopia | Seattle | 2 | All Maps | STV","players":[{"user_id":383,"name":"dree","steam_id":76561198079178866,"connected_time":75000000000,"state":"active","ping":113},{"user_id":368,"name":"Callie","steam_id":76561198131833567,"connected_time":1525000000000,"state":"active","ping":68},{"user_id":357,"name":"Tideflat","steam_id":76561198179850851,"connected_time":2699000000000,"state":"active","ping":49},{"user_id":359,"name":"Petrivus","steam_id":76561198202152453,"connected_time":2540000000000,"state":"active","ping":44},{"user_id":273,"name":"Mocha Josie","steam_id":76561198066452726,"connected_time":9199000000000,"state":"active","ping":70},{"user_id":333,"name":"rat gets the cheese","steam_id":76561198031234032,"connected_time":5400000000000,"state":"active","ping":96},{"user_id":360,"name":"rushy :))","steam_id":76561198065825165,"connected_time":2529000000000,"state":"active","ping":46},{"user_id":361,"name":"ben.","steam_id":76561198101657879,"connected_time":2528000000000,"state":"active","ping":53},{"user_id":362,"name":"mango sorbet","steam_id":76561198143371128,"connected_time":2521000000000,"state":"active","ping":73},{"user_id":375,"name":"Spicy Chicken","steam_id":76561198074209737,"connected_time":824000000000,"state":"active","ping":90},{"user_id":345,"name":"2 Point Tom","steam_id":76561198087617008,"connected_time":3908000000000,"state":"active","ping":54},{"user_id":314,"name":"Ockulus","steam_id":76561199069638460,"connected_time":6836000000000,"state":"active","ping":79},{"user_id":344,"name":"ed","steam_id":76561198080475712,"connected_time":4246000000000,"state":"active","ping":61},{"user_id":381,"name":"DroidFreak36","steam_id":76561198028681032,"connected_time":134000000000,"state":"active","ping":99},{"user_id":327,"name":"Coyote","steam_id":76561198082527009,"connected_time":5866000000000,"state":"active","ping":67},{"user_id":367,"name":"caca sniffer","steam_id":76561199099914725,"connected_time":1830000000000,"state":"active","ping":47},{"user_id":343,"name":"Captain Buggy","steam_id":76561198024444448,"connected_time":4519000000000,"state":"active","ping":33},{"user_id":369,"name":"Frenchy","steam_id":76561198064517370,"connected_time":1525000000000,"state":"active","ping":78},{"user_id":376,"name":"Sheep","steam_id":76561198122705864,"connected_time":816000000000,"state":"active","ping":88},{"user_id":377,"name":"Joseph","steam_id":76561199275830628,"connected_time":809000000000,"state":"active","ping":59},{"user_id":387,"name":"Bandit-x","steam_id":76561198880847876,"connected_time":10000000000,"state":"spawning","ping":47},{"user_id":378,"name":"fragadelphia","steam_id":76561198066116363,"connected_time":797000000000,"state":"active","ping":45},{"user_id":321,"name":"slushy :))","steam_id":76561198135281802,"connected_time":6252000000000,"state":"active","ping":44},{"user_id":373,"name":"josie","steam_id":76561198170848553,"connected_time":1085000000000,"state":"active","ping":45}]},{"server_id":406,"name":"Uncletopia | Seattle | 3 | Stopwatch","name_short":"sea-3","host":"sea-1.us.uncletopia.com","port":27035,"enabled":true,"region":"us-west","cc":"us","latitude":47.608013,"longitude":-122.33517,"reserved":0,"last_update":"0001-01-01T00:00:00Z","name_a2s":"Uncletopia | Seattle | 3 | Stopwatch","protocol":17,"map":"workshop/pl_summercoast_rc8e.ugc1761528829","folder":"tf","game":"Team Fortress","app_id":440,"player_count":0,"max_players":24,"Bots":0,"server_type":"Dedicated","server_os":"Linux","password":true,"vac":true,"version":"7961495","steam_id":85568392924515217,"keywords":["nocrits","nodmgspread","payload","uncletopia"],"game_id":440,"stv_port":27036,"stv_name":"Uncletopia | Seattle | 3 | Stopwatch | STV","players":null},{"server_id":17,"name":"Uncletopia | San Francisco | 1 | All Maps","name_short":"sfo-1","host":"sfo-1.us.uncletopia.com","port":27015,"enabled":true,"region":"us-west","cc":"us","latitude":37.77397,"longitude":-122.4313,"reserved":0,"last_update":"0001-01-01T00:00:00Z","name_a2s":"Uncletopia | San Francisco | 1 | All Maps","protocol":17,"map":"pl_upward","folder":"tf","game":"Team Fortress","app_id":440,"player_count":23,"max_players":24,"Bots":0,"server_type":"Dedicated","server_os":"Linux","password":true,"vac":true,"version":"7961495","steam_id":85568392924469999,"keywords":["nocrits","nodmgspread","payload","uncletopia"],"game_id":440,"stv_port":27016,"stv_name":"Uncletopia | San Francisco | 1 | All Maps | STV","players":[{"user_id":82,"name":"SonnyMarsh","steam_id":76561198188103746,"connected_time":1695000000000,"state":"active","ping":55},{"user_id":93,"name":"‚ò¢(XJ)","steam_id":76561198102189618,"connected_time":313000000000,"state":"active","ping":45},{"user_id":76,"name":"Muselk","steam_id":76561199289676387,"connected_time":1877000000000,"state":"active","ping":109},{"user_id":84,"name":"Densten","steam_id":76561198026091923,"connected_time":1368000000000,"state":"active","ping":73},{"user_id":44,"name":"[Industrial] A_HUMBLEBUMBLED","steam_id":76561198064771878,"connected_time":3258000000000,"state":"active","ping":44},{"user_id":56,"name":"Charles","steam_id":76561198155322277,"connected_time":2857000000000,"state":"active","ping":55},{"user_id":75,"name":"Steejans","steam_id":76561198053211279,"connected_time":1881000000000,"state":"active","ping":74},{"user_id":91,"name":"Pah-Wraith Gul Dukat","steam_id":76561198033918106,"connected_time":366000000000,"state":"active","ping":59},{"user_id":92,"name":"Lerp","steam_id":76561198045035297,"connected_time":346000000000,"state":"active","ping":74},{"user_id":51,"name":"Jovo","steam_id":76561197993265970,"connected_time":3011000000000,"state":"active","ping":54},{"user_id":77,"name":"type \"bad med\" to kick","steam_id":76561198076402476,"connected_time":1839000000000,"state":"active","ping":85},{"user_id":70,"name":"Pigeon, Scourge of Crumbs","steam_id":76561198416097618,"connected_time":2122000000000,"state":"active","ping":77},{"user_id":78,"name":"selling rice","steam_id":76561198063357023,"connected_time":1833000000000,"state":"active","ping":46},{"user_id":96,"name":"Diang0","steam_id":76561198117953095,"connected_time":195000000000,"state":"active","ping":89},{"user_id":94,"name":"TonesMcGroans","steam_id":76561197996691606,"connected_time":272000000000,"state":"active","ping":79},{"user_id":95,"name":"chanoc","steam_id":76561198026734746,"connected_time":241000000000,"state":"active","ping":45},{"user_id":85,"name":"Acuzik","steam_id":76561198045453400,"connected_time":982000000000,"state":"active","ping":94},{"user_id":97,"name":"Imitation Caucasian","steam_id":76561198320536166,"connected_time":119000000000,"state":"active","ping":80},{"user_id":64,"name":"Braingoo Hex","steam_id":76561198083094783,"connected_time":2672000000000,"state":"active","ping":118},{"user_id":87,"name":"8core","steam_id":76561198131163454,"connected_time":844000000000,"state":"active","ping":74},{"user_id":89,"name":"Quaalude","steam_id":76561198100177449,"connected_time":559000000000,"state":"active","ping":90},{"user_id":69,"name":"ExplosiveGamer21","steam_id":76561198132370955,"connected_time":2585000000000,"state":"active","ping":86},{"user_id":99,"name":"camp3r","steam_id":76561197992870439,"connected_time":72000000000,"state":"active","ping":56}]},{"server_id":18,"name":"Uncletopia | San Francisco | 2 | All Maps","name_short":"sfo-2","host":"sfo-1.us.uncletopia.com","port":27025,"enabled":true,"region":"us-west","cc":"us","latitude":37.77397,"longitude":-122.4313,"reserved":0,"last_update":"0001-01-01T00:00:00Z","name_a2s":"Uncletopia | San Francisco | 2 | All Maps","protocol":17,"map":"cp_mountainlab","folder":"tf","game":"Team Fortress","app_id":440,"player_count":23,"max_players":24,"Bots":0,"server_type":"Dedicated","server_os":"Linux","password":true,"vac":true,"version":"7961495","steam_id":85568392924470000,"keywords":["cp","nocrits","nodmgspread","uncletopia"],"game_id":440,"stv_port":27026,"stv_name":"Uncletopia | San Francisco | 2 | All Maps | STV","players":[{"user_id":46,"name":"Holo Jumpscare","steam_id":76561198153908250,"connected_time":507000000000,"state":"active","ping":59},{"user_id":13,"name":"The Coked Up Captain","steam_id":76561198163099102,"connected_time":2326000000000,"state":"active","ping":53},{"user_id":14,"name":"CreepyJazz","steam_id":76561198146870848,"connected_time":2323000000000,"state":"active","ping":66},{"user_id":15,"name":"Kritz","steam_id":76561198880665077,"connected_time":2250000000000,"state":"active","ping":69},{"user_id":16,"name":"mrthugpug1732","steam_id":76561198881200768,"connected_time":1984000000000,"state":"active","ping":68},{"user_id":55,"name":"Applesauce","steam_id":76561198047011689,"connected_time":217000000000,"state":"active","ping":71},{"user_id":28,"name":"Larry","steam_id":76561198189961581,"connected_time":1652000000000,"state":"active","ping":77},{"user_id":48,"name":"Dullahan","steam_id":76561198119668908,"connected_time":393000000000,"state":"active","ping":47},{"user_id":30,"name":"Hex4827","steam_id":76561198038790698,"connected_time":1501000000000,"state":"active","ping":76},{"user_id":57,"name":"shitass (Reaping and Sowing)","steam_id":76561198210572481,"connected_time":116000000000,"state":"active","ping":57},{"user_id":24,"name":"Galactic Yoshi","steam_id":76561198294135767,"connected_time":1752000000000,"state":"active","ping":69},{"user_id":29,"name":"Specific ocean","steam_id":76561198307563765,"connected_time":1574000000000,"state":"active","ping":84},{"user_id":26,"name":"Princess_Luciana","steam_id":76561198085157993,"connected_time":1687000000000,"state":"active","ping":83},{"user_id":58,"name":"Not a Can","steam_id":76561198064264767,"connected_time":8000000000,"state":"spawning","ping":60},{"user_id":56,"name":"CALsHero09","steam_id":76561198155881095,"connected_time":194000000000,"state":"active","ping":114},{"user_id":34,"name":"my b","steam_id":76561198007464245,"connected_time":1320000000000,"state":"active","ping":106},{"user_id":35,"name":"Archallis","steam_id":76561198310324554,"connected_time":1304000000000,"state":"active","ping":79},{"user_id":51,"name":"GreenApples","steam_id":76561198120559543,"connected_time":333000000000,"state":"active","ping":45},{"user_id":52,"name":"SMOKEY","steam_id":76561198066637625,"connected_time":328000000000,"state":"active","ping":129},{"user_id":50,"name":"Sir Latt√® of the coffee table","steam_id":76561198272403814,"connected_time":373000000000,"state":"active","ping":33},{"user_id":40,"name":"JohnnyGitGud","steam_id":76561198401455467,"connected_time":1248000000000,"state":"active","ping":57},{"user_id":42,"name":"shlommy","steam_id":76561198040767402,"connected_time":1170000000000,"state":"active","ping":129},{"user_id":44,"name":"gougar","steam_id":76561198061246566,"connected_time":881000000000,"state":"active","ping":75}]},{"server_id":19,"name":"Uncletopia | San Francisco | 3 | Stopwatch","name_short":"sfo-3","host":"sfo-1.us.uncletopia.com","port":27035,"enabled":true,"region":"us-west","cc":"us","latitude":37.77397,"longitude":-122.4313,"reserved":0,"last_update":"0001-01-01T00:00:00Z","name_a2s":"Uncletopia | San Francisco | 3 | Stopwatch","protocol":17,"map":"workshop/koth_ramjam_rc1.ugc459778887","folder":"tf","game":"Team Fortress","app_id":440,"player_count":0,"max_players":24,"Bots":0,"server_type":"Dedicated","server_os":"Linux","password":true,"vac":true,"version":"7961495","steam_id":85568392924742824,"keywords":["cp","nocrits","nodmgspread","uncletopia"],"game_id":440,"stv_port":27036,"stv_name":"Uncletopia | San Francisco | 3 | Stopwatch | STV","players":null},{"server_id":20,"name":"Uncletopia | San Francisco | 4 | Community","name_short":"sfo-4","host":"sfo-1.us.uncletopia.com","port":27045,"enabled":true,"region":"us-west","cc":"us","latitude":37.77397,"longitude":-122.4313,"reserved":0,"last_update":"0001-01-01T00:00:00Z","name_a2s":"Uncletopia | San Francisco | 4 | Community","protocol":17,"map":"workshop/cp_caldera_rc3.ugc2834196889","folder":"tf","game":"Team Fortress","app_id":440,"player_count":0,"max_players":24,"Bots":0,"server_type":"Dedicated","server_os":"Linux","password":true,"vac":true,"version":"7961495","steam_id":85568392924742826,"keywords":["cp","nocrits","nodmgspread","uncletopia"],"game_id":440,"stv_port":27046,"stv_name":"Uncletopia | San Francisco | 4 | Community | STV","players":null},{"server_id":141,"name":"Uncletopia | Sydney | 1 | All Maps","name_short":"syd-1","host":"syd-1.au.uncletopia.com","port":27015,"enabled":true,"region":"au","cc":"au","latitude":-33.865143,"longitude":151.2099,"reserved":0,"last_update":"0001-01-01T00:00:00Z","name_a2s":"Uncletopia | Sydney | 1 | All Maps","protocol":17,"map":"pl_upward","folder":"tf","game":"Team Fortress","app_id":440,"player_count":24,"max_players":24,"Bots":0,"server_type":"Dedicated","server_os":"Linux","password":true,"vac":true,"version":"7961495","steam_id":85568392924470001,"keywords":["nocrits","nodmgspread","payload","uncletopia"],"game_id":440,"stv_port":27016,"stv_name":"Uncletopia | Sydney | 1 | All Maps | STV","players":[{"user_id":93,"name":"stroob","steam_id":76561198045320644,"connected_time":2392000000000,"state":"active","ping":47},{"user_id":110,"name":"what_happy","steam_id":76561198971334734,"connected_time":685000000000,"state":"active","ping":71},{"user_id":97,"name":"voxii","steam_id":76561198099698281,"connected_time":1461000000000,"state":"active","ping":71},{"user_id":108,"name":"yoga","steam_id":76561199163801558,"connected_time":1007000000000,"state":"active","ping":45},{"user_id":22,"name":"boogalumpus snickelpuff","steam_id":76561198063481761,"connected_time":7996000000000,"state":"active","ping":42},{"user_id":36,"name":"KnowZero","steam_id":76561198095752015,"connected_time":5862000000000,"state":"active","ping":51},{"user_id":57,"name":"obama?","steam_id":76561198367756332,"connected_time":4955000000000,"state":"active","ping":40},{"user_id":94,"name":"lavender","steam_id":76561198081681647,"connected_time":2185000000000,"state":"active","ping":85},{"user_id":38,"name":"Chooka","steam_id":76561197992307814,"connected_time":5773000000000,"state":"active","ping":72},{"user_id":39,"name":"basement jatz","steam_id":76561198079351541,"connected_time":5770000000000,"state":"active","ping":51},{"user_id":44,"name":"I suspect... worms","steam_id":76561198060024585,"connected_time":5476000000000,"state":"active","ping":45},{"user_id":83,"name":"‚±£êåÑ≈§êåÑ“∞","steam_id":76561199140764838,"connected_time":3025000000000,"state":"active","ping":57},{"user_id":46,"name":"invert.","steam_id":76561198049619174,"connected_time":5428000000000,"state":"active","ping":67},{"user_id":96,"name":"MAYHEM","steam_id":76561199323730865,"connected_time":2072000000000,"state":"active","ping":40},{"user_id":103,"name":"Tofu","steam_id":76561198025637573,"connected_time":1450000000000,"state":"active","ping":36},{"user_id":111,"name":"kimmybob47","steam_id":76561198850317251,"connected_time":101000000000,"state":"active","ping":85},{"user_id":71,"name":"Malphas","steam_id":76561198011425371,"connected_time":4584000000000,"state":"active","ping":55},{"user_id":104,"name":"Sentry Gun (EpicGuy4227)","steam_id":76561198094132328,"connected_time":1444000000000,"state":"active","ping":52},{"user_id":102,"name":"Second Lieutenant Pisser","steam_id":76561198866538028,"connected_time":1453000000000,"state":"active","ping":80},{"user_id":112,"name":"webbadon, the horrid ·òõ‚ÅêÃ§\ufffd\ufffd","steam_id":76561198061998379,"connected_time":35000000000,"state":"active","ping":46},{"user_id":109,"name":"LOLLYGAG","steam_id":76561199085941614,"connected_time":690000000000,"state":"active","ping":59},{"user_id":80,"name":"Trap$tar movement","steam_id":76561198255527812,"connected_time":3036000000000,"state":"active","ping":73},{"user_id":81,"name":"GuyAwesome","steam_id":76561198042805792,"connected_time":3035000000000,"state":"active","ping":87},{"user_id":106,"name":"Blondie","steam_id":76561198046977058,"connected_time":1430000000000,"state":"active","ping":69}]},{"server_id":123,"name":"Uncletopia | Sydney | 2 | All Maps","name_short":"syd-2","host":"syd-1.au.uncletopia.com","port":27025,"enabled":true,"region":"au","cc":"au","latitude":-33.865143,"longitude":151.2099,"reserved":0,"last_update":"0001-01-01T00:00:00Z","name_a2s":"Uncletopia | Sydney | 2 | All Maps","protocol":17,"map":"koth_lakeside_final","folder":"tf","game":"Team Fortress","app_id":440,"player_count":0,"max_players":24,"Bots":0,"server_type":"Dedicated","server_os":"Linux","password":true,"vac":true,"version":"7961495","steam_id":85568392924470002,"keywords":["cp","nocrits","nodmgspread","uncletopia"],"game_id":440,"stv_port":27026,"stv_name":"Uncletopia | Sydney | 2 | All Maps | STV","players":null},{"server_id":395,"name":"Uncletopia | Sydney | 3 | All Maps","name_short":"syd-3","host":"syd-1.au.uncletopia.com","port":27035,"enabled":true,"region":"au","cc":"au","latitude":-33.865143,"longitude":151.2099,"reserved":0,"last_update":"0001-01-01T00:00:00Z","name_a2s":"Uncletopia | Sydney | 3 | All Maps","protocol":17,"map":"pl_upward","folder":"tf","game":"Team Fortress","app_id":440,"player_count":0,"max_players":24,"Bots":0,"server_type":"Dedicated","server_os":"Linux","password":true,"vac":true,"version":"7961495","steam_id":85568392925194467,"keywords":["nocrits","nodmgspread","payload","uncletopia"],"game_id":440,"stv_port":27036,"stv_name":"Uncletopia | Sydney | 3 | All Maps | STV","players":null},{"server_id":396,"name":"Uncletopia | Sydney | 4 | All Maps","name_short":"syd-4","host":"syd-1.au.uncletopia.com","port":27045,"enabled":true,"region":"au","cc":"au","latitude":-33.865143,"longitude":151.2099,"reserved":0,"last_update":"0001-01-01T00:00:00Z","name_a2s":"Uncletopia | Sydney | 4 | All Maps","protocol":17,"map":"cp_process_final","folder":"tf","game":"Team Fortress","app_id":440,"player_count":0,"max_players":24,"Bots":0,"server_type":"Dedicated","server_os":"Linux","password":true,"vac":true,"version":"7961495","steam_id":85568392925397958,"keywords":["cp","nocrits","nodmgspread","uncletopia"],"game_id":440,"stv_port":27046,"stv_name":"Uncletopia | Sydney | 4 | All Maps | STV","players":null},{"server_id":58,"name":"Uncletopia | Sydney | 5 | Stopwatch","name_short":"syd-5","host":"syd-1.au.uncletopia.com","port":27055,"enabled":true,"region":"au","cc":"au","latitude":-33.865143,"longitude":151.2099,"reserved":0,"last_update":"0001-01-01T00:00:00Z","name_a2s":"Uncletopia | Sydney | 5 | Stopwatch","protocol":17,"map":"pl_frontier_final","folder":"tf","game":"Team Fortress","app_id":440,"player_count":0,"max_players":24,"Bots":0,"server_type":"Dedicated","server_os":"Linux","password":true,"vac":true,"version":"7961495","steam_id":85568392925397959,"keywords":["nocrits","nodmgspread","payload","uncletopia"],"game_id":440,"stv_port":27056,"stv_name":"Uncletopia | Sydney | 5 | Stopwatch | STV","players":null},{"server_id":59,"name":"Uncletopia | Sydney | 6 | Community","name_short":"syd-6","host":"syd-1.au.uncletopia.com","port":27065,"enabled":true,"region":"au","cc":"au","latitude":-33.865143,"longitude":151.2099,"reserved":0,"last_update":"0001-01-01T00:00:00Z","name_a2s":"Uncletopia | Sydney | 6 | Community","protocol":17,"map":"workshop/cp_fulgur_rc2a.ugc2068252300","folder":"tf","game":"Team Fortress","app_id":440,"player_count":1,"max_players":24,"Bots":0,"server_type":"Dedicated","server_os":"Linux","password":true,"vac":true,"version":"7961495","steam_id":85568392925397960,"keywords":["cp","nocrits","nodmgspread","uncletopia"],"game_id":440,"stv_port":27066,"stv_name":"Uncletopia | Sydney | 6 | Community | STV","players":[{"user_id":5,"name":"touchem","steam_id":76561199082450690,"connected_time":192000000000,"state":"active","ping":56}]},{"server_id":49,"name":"Uncletopia | Warsaw | 1 | One Thousand Uncles","name_short":"waw-1","host":"waw-1.pl.uncletopia.com","port":27015,"enabled":true,"region":"eu","cc":"pl","latitude":52.2297,"longitude":21.017532,"reserved":0,"last_update":"0001-01-01T00:00:00Z","name_a2s":"Uncletopia | Warsaw | 1 | One Thousand Uncles","protocol":17,"map":"koth_highpass","folder":"tf","game":"Team Fortress","app_id":440,"player_count":0,"max_players":32,"Bots":0,"server_type":"Dedicated","server_os":"Linux","password":true,"vac":true,"version":"7961495","steam_id":85568392925397850,"keywords":["alltalk","cp","danepve","increased_maxplayers","nocrits","norespawntime","uncletopia"],"game_id":440,"stv_port":0,"stv_name":"","players":null},{"server_id":50,"name":"Uncletopia | Warsaw | 2 | One Thousand Uncles","name_short":"waw-2","host":"waw-1.pl.uncletopia.com","port":27025,"enabled":true,"region":"eu","cc":"pl","latitude":52.2297,"longitude":21.017532,"reserved":0,"last_update":"0001-01-01T00:00:00Z","name_a2s":"Uncletopia | Warsaw | 2 | One Thousand Uncles","protocol":17,"map":"pl_goldrush","folder":"tf","game":"Team Fortress","app_id":440,"player_count":0,"max_players":32,"Bots":0,"server_type":"Dedicated","server_os":"Linux","password":true,"vac":true,"version":"7961495","steam_id":85568392925397851,"keywords":["alltalk","danepve","increased_maxplayers","nocrits","norespawntime","payload","uncletopia"],"game_id":440,"stv_port":0,"stv_name":"","players":null},{"server_id":51,"name":"Uncletopia | Warsaw | 3 | All Maps","name_short":"waw-3","host":"waw-1.pl.uncletopia.com","port":27035,"enabled":true,"region":"eu","cc":"pl","latitude":52.2297,"longitude":21.017532,"reserved":0,"last_update":"0001-01-01T00:00:00Z","name_a2s":"Uncletopia | Warsaw | 3 | All Maps","protocol":17,"map":"plr_pipeline","folder":"tf","game":"Team Fortress","app_id":440,"player_count":0,"max_players":24,"Bots":0,"server_type":"Dedicated","server_os":"Linux","password":true,"vac":true,"version":"7961495","steam_id":85568392925397852,"keywords":["nocrits","nodmgspread","payload","uncletopia"],"game_id":440,"stv_port":27036,"stv_name":"Uncletopia | Warsaw | 3 | All Maps | STV","players":null},{"server_id":52,"name":"Uncletopia | Warsaw | 4 | All Maps","name_short":"waw-4","host":"waw-1.pl.uncletopia.com","port":27045,"enabled":true,"region":"eu","cc":"pl","latitude":52.2297,"longitude":21.017532,"reserved":0,"last_update":"0001-01-01T00:00:00Z","name_a2s":"Uncletopia | Warsaw | 4 | All Maps","protocol":17,"map":"cp_coldfront","folder":"tf","game":"Team Fortress","app_id":440,"player_count":0,"max_players":24,"Bots":0,"server_type":"Dedicated","server_os":"Linux","password":true,"vac":true,"version":"7961495","steam_id":85568392925397853,"keywords":["cp","nocrits","nodmgspread","uncletopia"],"game_id":440,"stv_port":27046,"stv_name":"Uncletopia | Warsaw | 4 | All Maps | STV","players":null},{"server_id":53,"name":"Uncletopia | Warsaw | 5 | Stopwatch","name_short":"waw-5","host":"waw-1.pl.uncletopia.com","port":27055,"enabled":true,"region":"eu","cc":"pl","latitude":52.2297,"longitude":21.017532,"reserved":0,"last_update":"0001-01-01T00:00:00Z","name_a2s":"Uncletopia | Warsaw | 5 | Stopwatch","protocol":17,"map":"workshop/koth_bagel_rc6.ugc2514036946","folder":"tf","game":"Team Fortress","app_id":440,"player_count":0,"max_players":24,"Bots":0,"server_type":"Dedicated","server_os":"Linux","password":true,"vac":true,"version":"7961495","steam_id":85568392925397854,"keywords":["cp","nocrits","nodmgspread","uncletopia"],"game_id":440,"stv_port":27056,"stv_name":"Uncletopia | Warsaw | 5 | Stopwatch | STV","players":null},{"server_id":54,"name":"Uncletopia | Warsaw | 6 | Community","name_short":"waw-6","host":"waw-1.pl.uncletopia.com","port":27065,"enabled":true,"region":"eu","cc":"pl","latitude":52.2297,"longitude":21.017532,"reserved":0,"last_update":"0001-01-01T00:00:00Z","name_a2s":"Uncletopia | Warsaw | 6 | Community","protocol":17,"map":"workshop/pl_badwater_pro_v12.ugc2142942074","folder":"tf","game":"Team Fortress","app_id":440,"player_count":0,"max_players":24,"Bots":0,"server_type":"Dedicated","server_os":"Linux","password":true,"vac":true,"version":"7961495","steam_id":85568392925397856,"keywords":["nocrits","nodmgspread","payload","uncletopia"],"game_id":440,"stv_port":27066,"stv_name":"Uncletopia | Warsaw | 6 | Community | STV","players":null}]}