{"status":true,"message":"","result":[{"server_id":9,"name":"Uncletopia | Atlanta | 1 | All Maps","name_short":"atl-1","host":"atl-1.us.uncletopia.com","port":27015,"enabled":true,"region":"us-east","cc":"us","latitude":33.753746,"longitude":-84.38633,"reserved":0,"last_update":"0001-01-01T00:00:00Z","name_a2s":"Uncletopia | Atlanta | 1 | All Maps","protocol":17,"map":"pl_upward","folder":"tf","game":"Team Fortress","app_id":440,"player_count":24,"max_players":24,"Bots":0,"server_type":"Dedicated","server_os":"Linux","password":true,"vac":true,"version":"7961495","steam_id":85568392924469982,"keywords":["nocrits","nodmgspread","payload","uncletopia"],"game_id":440,"stv_port":27016,"stv_name":"Uncletopia | Atlanta | 1 | All Maps | STV","players":[{"user_id":10,"name":"manburnot","steam_id":76561199078672605,"connected_time":3724000000000,"state":"active","ping":47},{"user_id":11,"name":"BLOW UP NEW JERSEY","steam_id":76561198364439575,"connected_time":3703000000000,"state":"active","ping":60},{"user_id":139,"name":"joe","steam_id":76561198045781320,"connected_time":120000000000,"state":"active","ping":63},{"user_id":123,"name":"Gato","steam_id":76561198271962143,"connected_time":809000000000,"state":"active","ping":78},{"user_id":43,"name":"The Grim Heaper","steam_id":76561197987759101,"connected_time":2060000000000,"state":"active","ping":116},{"user_id":138,"name":"WM1 PYRO","steam_id":76561198045893896,"connected_time":357000000000,"state":"active","ping":119},{"user_id":18,"name":"simply","steam_id":76561198215728721,"connected_time":2502000000000,"state":"active","ping":62},{"user_id":19,"name":"trianamarco780","steam_id":76561199084319677,"connected_time":2472000000000,"state":"active","ping":90},{"user_id":35,"name":"Clyde","steam_id":76561198158206236,"connected_time":2194000000000,"state":"active","ping":107},{"user_id":21,"name":"Doctor Bear ʕ •ᴥ•ʔ","steam_id":76561197968103161,"connected_time":2368000000000,"state":"active","ping":77},{"user_id":91,"name":"Dan","steam_id":76561198028954531,"connected_time":1205000000000,"state":"active","ping":81},{"user_id":23,"name":"Dreszerg","steam_id":76561198838757422,"connected_time":2343000000000,"state":"active","ping":77},{"user_id":24,"name":"leeroy","steam_id":76561198226418600,"connected_time":2339000000000,"state":"active","ping":91},{"user_id":137,"name":"Cirno","steam_id":76561198840984791,"connected_time":470000000000,"state":"active","ping":86},{"user_id":134,"name":"Pango","steam_id":76561198069811545,"connected_time":616000000000,"state":"active","ping":47},{"user_id":116,"name":"Scorpianswag","steam_id":76561198260651036,"connected_time":866000000000,"state":"active","ping":86},{"user_id":28,"name":"Waffle Wannabe","steam_id":76561198064510650,"connected_time":2248000000000,"state":"active","ping":63},{"user_id":29,"name":"Zesty Zucchini Ziti","steam_id":76561198092494136,"connected_time":2243000000000,"state":"active","ping":65},{"user_id":125,"name":"JtsRes","steam_id":76561197994809241,"connected_time":778000000000,"state":"active","ping":75},{"user_id":64,"name":"why","steam_id":76561199059732212,"connected_time":1648000000000,"state":"active","ping":57},{"user_id":129,"name":"HarryjusttHarry","steam_id":76561198982810452,"connected_time":672000000000,"state":"active","ping":83},{"user_id":70,"name":"edtoast_46","steam_id":76561198008932328,"connected_time":1462000000000,"state":"active","ping":68},{"user_id":122,"name":"call me bitch i go arf","steam_id":76561198975450630,"connected_time":814000000000,"state":"active","ping":105},{"user_id":84,"name":"M4N","steam_id":76561199021460632,"connected_time":1266000000000,"state":"active","ping":92}]},{"server_id":104,"name":"Uncletopia | Atlanta | 2 | All Maps","name_short":"atl-2","host":"atl-1.us.uncletopia.com","port":27025,"enabled":true,"region":"us-east","cc":"us","latitude":33.753746,"longitude":-84.38633,"reserved":0,"last_update":"0001-01-01T00:00:00Z","name_a2s":"Uncletopia | Atlanta | 2 | All Maps","protocol":17,"map":"cp_process_final","folder":"tf","game":"Team Fortress","app_id":440,"player_count":23,"max_players":24,"Bots":0,"server_type":"Dedicated","server_os":"Linux","password":true,"vac":true,"version":"7961495","steam_id":85568392924469983,"keywords":["cp","nocrits","nodmgspread","uncletopia"],"game_id":440,"stv_port":27026,"stv_name":"Uncletopia | Atlanta | 2 | All Maps | STV","players":[{"user_id":38,"name":"Kobicha","steam_id":76561198144970720,"connected_time":395000000000,"state":"active","ping":54},{"user_id":6,"name":"GH578","steam_id":76561199493262585,"connected_time":2149000000000,"state":"active","ping":110},{"user_id":28,"name":"bdkaine1","steam_id":76561198133545467,"connected_time":793000000000,"state":"active","ping":51},{"user_id":12,"name":"Chilithium","steam_id":76561198073081345,"connected_time":1502000000000,"state":"active","ping":56},{"user_id":13,"name":"CDBeans","steam_id":76561198046990367,"connected_time":1351000000000,"state":"active","ping":80},{"user_id":14,"name":"Boot Mcstink","steam_id":76561199226873917,"connected_time":1333000000000,"state":"active","ping":81},{"user_id":15,"name":"Tideflat","steam_id":76561198179850851,"connected_time":1303000000000,"state":"active","ping":130},{"user_id":45,"name":"Miner2495","steam_id":76561198445904523,"connected_time":109000000000,"state":"active","ping":85},{"user_id":43,"name":"craig","steam_id":76561199308869771,"connected_time":189000000000,"state":"active","ping":72},{"user_id":19,"name":"June","steam_id":76561198268826419,"connected_time":1190000000000,"state":"active","ping":60},{"user_id":20,"name":"caRat","steam_id":76561198859267372,"connected_time":1177000000000,"state":"active","ping":108},{"user_id":41,"name":"rf","steam_id":76561198195359229,"connected_time":255000000000,"state":"active","ping":104},{"user_id":44,"name":"Eins Shinigami","steam_id":76561199030343810,"connected_time":164000000000,"state":"active","ping":49},{"user_id":46,"name":"Walmart Employee","steam_id":76561198840373909,"connected_time":76000000000,"state":"active","ping":70},{"user_id":34,"name":"Spy:|","steam_id":76561199232156472,"connected_time":579000000000,"state":"active","ping":86},{"user_id":31,"name":"katashi","steam_id":76561198262582512,"connected_time":653000000000,"state":"active","ping":48},{"user_id":30,"name":"Varie","steam_id":76561199454930210,"connected_time":745000000000,"state":"active","ping":91},{"user_id":32,"name":"God (Real)","steam_id":76561198286936136,"connected_time":642000000000,"state":"active","ping":114},{"user_id":47,"name":"U Sux","steam_id":76561198016095410,"connected_time":62000000000,"state":"active","ping":68},{"user_id":50,"name":"brobo","steam_id":76561198848652498,"connected_time":42000000000,"state":"active","ping":94},{"user_id":49,"name":"Clownfucker","steam_id":76561198091713728,"connected_time":44000000000,"state":"active","ping":99},{"user_id":51,"name":"I bring my cock","steam_id":76561198044837761,"connected_time":39000000000,"state":"active","ping":135},{"user_id":52,"name":"Kiyo","steam_id":76561198358692893,"connected_time":10000000000,"state":"spawning","ping":91}]},{"server_id":400,"name":"Uncletopia | Atlanta | 3 | Stopwatch","name_short":"atl-3","host":"atl-1.us.uncletopia.com","port":27035,"enabled":true,"region":"us-east","cc":"us","latitude":33.753746,"longitude":-84.38633,"reserved":0,"last_update":"0001-01-01T00:00:00Z","name_a2s":"Uncletopia | Atlanta | 3 | Stopwatch","protocol":17,"map":"pl_swiftwater_final1","folder":"tf","game":"Team Fortress","app_id":440,"player_count":0,"max_players":24,"Bots":0,"server_type":"Dedicated","server_os":"Linux","password":true,"vac":true,"version":"7961495","steam_id":85568392924515187,"keywords":["nocrits","nodmgspread","payload","uncletopia"],"game_id":440,"stv_port":27036,"stv_name":"Uncletopia | Atlanta | 3 | Stopwatch | STV","players":null},{"server_id":401,"name":"Uncletopia | Atlanta | 4 | Community","name_short":"atl-4","host":"atl-1.us.uncletopia.com","port":27045,"enabled":true,"region":"us-east","cc":"us","latitude":33.753746,"longitude":-84.38633,"reserved":0,"last_update":"0001-01-01T00:00:00Z","name_a2s":"Uncletopia | Atlanta | 4 | Community","protocol":17,"map":"cp_sunshine","folder":"tf","game":"Team Fortress","app_id":440,"player_count":0,"max_players":24,"Bots":0,"server_type":"Dedicated","server_os":"Linux","password":true,"vac":true,"version":"7961495","steam_id":85568392924515188,"keywords":["cp","nocrits","nodmgspread","uncletopia"],"game_id":440,"stv_port":27046,"stv_name":"Uncletopia | Atlanta | 4 | Community | STV","players":null},{"server_id":2,"name":"Uncletopia | Chicago | 1 | All Maps","name_short":"chi-1","host":"chi-1.us.uncletopia.com","port":27015,"enabled":true,"region":"us-central","cc":"us","latitude":41.881832,"longitude":-87.62318,"reserved":0,"last_update":"0001-01-01T00:00:00Z","name_a2s":"Uncletopia | Chicago | 1 | All Maps","protocol":17,"map":"cp_sunshine","folder":"tf","game":"Team Fortress","app_id":440,"player_count":24,"max_players":24,"Bots":0,"server_type":"Dedicated","server_os":"Linux","password":true,"vac":true,"version":"7961495","steam_id":85568392924469984,"keywords":["cp","nocrits","nodmgspread","uncletopia"],"game_id":440,"stv_port":27016,"stv_name":"Uncletopia | Chicago | 1 | All Maps | STV","players":[{"user_id":183,"name":"Fredrick","steam_id":76561197981419964,"connected_time":6275000000000,"state":"active","ping":67},{"user_id":245,"name":"richard clock","steam_id":76561198048455671,"connected_time":686000000000,"state":"active","ping":51},{"user_id":248,"name":"GMFD! Juustin","steam_id":76561198121922413,"connected_time":456000000000,"state":"active","ping":98},{"user_id":232,"name":"thepokeyen","steam_id":76561198236847572,"connected_time":1451000000000,"state":"active","ping":105},{"user_id":246,"name":"Ssefseff","steam_id":76561198110495978,"connected_time":653000000000,"state":"active","ping":65},{"user_id":247,"name":"Hertz","steam_id":76561198245322982,"connected_time":548000000000,"state":"active","ping":45},{"user_id":229,"name":"ุ","steam_id":76561198170624701,"connected_time":1479000000000,"state":"active","ping":75},{"user_id":220,"name":"Amari","steam_id":76561198272446730,"connected_time":3649000000000,"state":"active","ping":55},{"user_id":230,"name":"yes daddy","steam_id":76561198166100997,"connected_time":1466000000000,"state":"active","ping":75},{"user_id":198,"name":"Hobo Shanker","steam_id":76561198001785187,"connected_time":5304000000000,"state":"active","ping":85},{"user_id":244,"name":"Notsnoog","steam_id":76561198123103931,"connected_time":730000000000,"state":"active","ping":77},{"user_id":210,"name":"Rivulet","steam_id":76561198897122890,"connected_time":4362000000000,"state":"active","ping":58},{"user_id":241,"name":"David De Bergerac","steam_id":76561198010306294,"connected_time":1048000000000,"state":"active","ping":90},{"user_id":233,"name":"SpongedSocks","steam_id":76561198374009086,"connected_time":1443000000000,"state":"active","ping":73},{"user_id":249,"name":"Jake_Spencer","steam_id":76561198025176750,"connected_time":425000000000,"state":"active","ping":78},{"user_id":234,"name":"SEWER RODENT","steam_id":76561198858984051,"connected_time":1442000000000,"state":"active","ping":70},{"user_id":206,"name":"hi","steam_id":76561198809577048,"connected_time":4442000000000,"state":"active","ping":107},{"user_id":231,"name":"Hylic","steam_id":76561199051314589,"connected_time":1466000000000,"state":"active","ping":64},{"user_id":250,"name":"Shame","steam_id":76561198100490994,"connected_time":393000000000,"state":"active","ping":75},{"user_id":251,"name":"All Tomorrow's Parties","steam_id":76561197995936212,"connected_time":375000000000,"state":"active","ping":58},{"user_id":252,"name":"Clean Lines","steam_id":76561197960691518,"connected_time":350000000000,"state":"active","ping":52},{"user_id":222,"name":"Melody","steam_id":76561198407789232,"connected_time":2798000000000,"state":"active","ping":119},{"user_id":228,"name":"Filthy Hobo","steam_id":76561198174373015,"connected_time":1491000000000,"state":"active","ping":131}]},{"server_id":106,"name":"Uncletopia | Chicago | 2 | All Maps","name_short":"chi-2","host":"chi-1.us.uncletopia.com","port":27025,"enabled":true,"region":"us-central","cc":"us","latitude":41.881832,"longitude":-87.62318,"reserved":0,"last_update":"0001-01-01T00:00:00Z","name_a2s":"Uncletopia | Chicago | 2 | All Maps","protocol":17,"map":"pl_barnblitz","folder":"tf","game":"Team Fortress","app_id":440,"player_count":24,"max_players":24,"Bots":0,"server_type":"Dedicated","server_os":"Linux","password":true,"vac":true,"version":"7961495","steam_id":85568392924469985,"keywords":["nocrits","nodmgspread","payload","uncletopia"],"game_id":440,"stv_port":27026,"stv_name":"Uncletopia | Chicago | 2 | All Maps | STV","players":[{"user_id":417,"name":"Captain","steam_id":76561198155723294,"connected_time":2002000000000,"state":"active","ping":54},{"user_id":422,"name":"AveMoSwag","steam_id":76561198261701911,"connected_time":1207000000000,"state":"active","ping":53},{"user_id":426,"name":"awesomedogo","steam_id":76561198960577746,"connected_time":437000000000,"state":"active","ping":67},{"user_id":412,"name":"gregoryhens","steam_id":76561199434318315,"connected_time":2127000000000,"state":"active","ping":187},{"user_id":431,"name":"Joft6","steam_id":76561198122100429,"connected_time":283000000000,"state":"active","ping":67},{"user_id":338,"name":"TheMinusKai","steam_id":76561198296103811,"connected_time":7074000000000,"state":"active","ping":105},{"user_id":423,"name":"Kirby.exe","steam_id":76561198242714582,"connected_time":843000000000,"state":"active","ping":82},{"user_id":432,"name":"Nobody121","steam_id":76561199227292137,"connected_time":117000000000,"state":"active","ping":117},{"user_id":424,"name":"rekt","steam_id":76561198072179483,"connected_time":490000000000,"state":"active","ping":95},{"user_id":410,"name":"H C N","steam_id":76561198106290021,"connected_time":2361000000000,"state":"active","ping":71},{"user_id":427,"name":"YINGBING43","steam_id":76561198166141576,"connected_time":433000000000,"state":"active","ping":89},{"user_id":397,"name":"shellaa","steam_id":76561198044124102,"connected_time":3886000000000,"state":"active","ping":74},{"user_id":385,"name":"DerpyNate","steam_id":76561198100249037,"connected_time":4381000000000,"state":"active","ping":45},{"user_id":409,"name":"ther","steam_id":76561199191376935,"connected_time":2477000000000,"state":"active","ping":89},{"user_id":413,"name":"Fresh Lychee","steam_id":76561198045399559,"connected_time":2122000000000,"state":"active","ping":59},{"user_id":400,"name":"Coffee Instant Type 2","steam_id":76561198307845869,"connected_time":3502000000000,"state":"active","ping":74},{"user_id":425,"name":"YouR dad","steam_id":76561198044013623,"connected_time":463000000000,"state":"active","ping":72},{"user_id":319,"name":"frid","steam_id":76561198005806915,"connected_time":8166000000000,"state":"active","ping":60},{"user_id":430,"name":"Sneed-poster","steam_id":76561198206198937,"connected_time":332000000000,"state":"active","ping":65},{"user_id":406,"name":"The Plant","steam_id":76561198061866495,"connected_time":2977000000000,"state":"active","ping":67},{"user_id":382,"name":"Hazeyboi","steam_id":76561198130687838,"connected_time":4656000000000,"state":"active","ping":45},{"user_id":395,"name":"DiscoTraveler","steam_id":76561199240168088,"connected_time":3954000000000,"state":"active","ping":77},{"user_id":345,"name":"Ahocchi","steam_id":76561198274742715,"connected_time":6955000000000,"state":"active","ping":59},{"user_id":408,"name":"Pillows","steam_id":76561198342571075,"connected_time":2565000000000,"state":"active","ping":93}]},{"server_id":402,"name":"Uncletopia | Chicago | 3 | All Maps","name_short":"chi-3","host":"chi-1.us.uncletopia.com","port":27035,"enabled":true,"region":"us-central","cc":"us","latitude":41.881832,"longitude":-87.62318,"reserved":0,"last_update":"0001-01-01T00:00:00Z","name_a2s":"Uncletopia | Chicago | 3 | All Maps","protocol":17,"map":"pl_snowycoast","folder":"tf","game":"Team Fortress","app_id":440,"player_count":24,"max_players":24,"Bots":0,"server_type":"Dedicated","server_os":"Linux","password":true,"vac":true,"version":"7961495","steam_id":85568392924515191,"keywords":["nocrits","nodmgspread","payload","uncletopia"],"game_id":440,"stv_port":27036,"stv_name":"Uncletopia | Chicago | 3 | All Maps | STV","players":[{"user_id":223,"name":"Joe Swanson","steam_id":76561198065327106,"connected_time":358000000000,"state":"active","ping":74},{"user_id":194,"name":"black tar estrogen","steam_id":76561198043911582,"connected_time":2509000000000,"state":"active","ping":60},{"user_id":200,"name":"☼ money sittin tall yao ming","steam_id":76561198074180953,"connected_time":2211000000000,"state":"active","ping":60},{"user_id":185,"name":"Scorpie Doodle","steam_id":76561198021845763,"connected_time":3155000000000,"state":"active","ping":58},{"user_id":182,"name":"teaf","steam_id":76561198406252824,"connected_time":3188000000000,"state":"active","ping":105},{"user_id":220,"name":"Lord Aben","steam_id":76561198135266770,"connected_time":849000000000,"state":"active","ping":37},{"user_id":208,"name":"Chezaus","steam_id":76561198317397837,"connected_time":1340000000000,"state":"active","ping":58},{"user_id":195,"name":"m4xzo","steam_id":76561198073176682,"connected_time":2310000000000,"state":"active","ping":63},{"user_id":214,"name":"The Caretaker","steam_id":76561198125241411,"connected_time":1129000000000,"state":"active","ping":113},{"user_id":198,"name":"Try Gardening","steam_id":76561198120311340,"connected_time":2226000000000,"state":"active","ping":47},{"user_id":225,"name":"penguin heister","steam_id":76561198384120999,"connected_time":88000000000,"state":"active","ping":70},{"user_id":183,"name":"RyInc","steam_id":76561198874261643,"connected_time":3182000000000,"state":"active","ping":45},{"user_id":218,"name":"Kiss Master","steam_id":76561198289572271,"connected_time":917000000000,"state":"active","ping":80},{"user_id":216,"name":"Shoeshocker","steam_id":76561198174302467,"connected_time":1105000000000,"state":"active","ping":70},{"user_id":222,"name":"Would You Make Me A Sandwich?","steam_id":76561198152332211,"connected_time":568000000000,"state":"active","ping":54},{"user_id":210,"name":"Gluestick","steam_id":76561199013430308,"connected_time":1301000000000,"state":"active","ping":87},{"user_id":211,"name":"Muscle Man","steam_id":76561198010460535,"connected_time":1300000000000,"state":"active","ping":98},{"user_id":204,"name":"roman","steam_id":76561198170066797,"connected_time":2053000000000,"state":"active","ping":63},{"user_id":168,"name":"creeeeeee","steam_id":76561198392539722,"connected_time":4269000000000,"state":"active","ping":76},{"user_id":224,"name":"Menachem","steam_id":76561198041226420,"connected_time":354000000000,"state":"active","ping":48},{"user_id":188,"name":"sadako","steam_id":76561198170642407,"connected_time":3150000000000,"state":"active","ping":75},{"user_id":226,"name":"Ayylmao","steam_id":76561198104780147,"connected_time":22000000000,"state":"active","ping":47},{"user_id":82,"name":"mkl","steam_id":76561197986401685,"connected_time":7946000000000,"state":"active","ping":84},{"user_id":126,"name":"freyja","steam_id":76561198249206656,"connected_time":5427000000000,"state":"active","ping":60}]},{"server_id":403,"name":"Uncletopia | Chicago | 4 | All Maps","name_short":"chi-4","host":"chi-1.us.uncletopia.com","port":27045,"enabled":true,"region":"us-central","cc":"us","latitude":41.881832,"longitude":-87.62318,"reserved":0,"last_update":"0001-01-01T00:00:00Z","name_a2s":"Uncletopia | Chicago | 4 | All Maps","protocol":17,"map":"koth_cascade","folder":"tf","game":"Team Fortress","app_id":440,"player_count":0,"max_players":24,"Bots":0,"server_type":"Dedicated","server_os":"Linux","password":true,"vac":true,"version":"7961495","steam_id":85568392924515193,"keywords":["cp","nocrits","nodmgspread","uncletopia"],"game_id":440,"stv_port":27046,"stv_name":"Uncletopia | Chicago | 4 | All Maps | STV","players":null},{"server_id":36,"name":"Uncletopia | Chicago | 5 | All Maps","name_short":"chi-5","host":"chi-2.us.uncletopia.com","port":27015,"enabled":true,"region":"us-central","cc":"us","latitude":41.881832,"longitude":-87.62318,"reserved":0,"last_update":"0001-01-01T00:00:00Z","name_a2s":"Uncletopia | Chicago | 5 | All Maps","protocol":17,"map":"koth_cascade","folder":"tf","game":"Team Fortress","app_id":440,"player_count":24,"max_players":24,"Bots":0,"server_type":"Dedicated","server_os":"Linux","password":true,"vac":true,"version":"7961495","steam_id":85568392924866362,"keywords":["cp","nocrits","nodmgspread","uncletopia"],"game_id":440,"stv_port":27016,"stv_name":"Uncletopia | Chicago | 5 | All Maps | STV","players":[{"user_id":62,"name":"Mr.Pan","steam_id":76561198069030613,"connected_time":3732000000000,"state":"active","ping":71},{"user_id":106,"name":"CatVideo_Number_130864601238641","steam_id":76561198386487208,"connected_time":183000000000,"state":"active","ping":53},{"user_id":69,"name":"Sunflower","steam_id":76561198081223793,"connected_time":2403000000000,"state":"active","ping":52},{"user_id":109,"name":"Konga","steam_id":76561199499263965,"connected_time":15000000000,"state":"active","ping":97},{"user_id":103,"name":"GoldGauntlet","steam_id":76561199022017655,"connected_time":368000000000,"state":"active","ping":76},{"user_id":105,"name":"MrPebbsGaming","steam_id":76561199075070296,"connected_time":268000000000,"state":"active","ping":83},{"user_id":94,"name":"Frog Finance Gutter Justice","steam_id":76561198067247951,"connected_time":1019000000000,"state":"active","ping":55},{"user_id":59,"name":"Sanic","steam_id":76561198083124962,"connected_time":4389000000000,"state":"active","ping":95},{"user_id":68,"name":"Alx","steam_id":76561198080854314,"connected_time":2419000000000,"state":"active","ping":63},{"user_id":85,"name":"stubbystubby","steam_id":76561198066034868,"connected_time":1449000000000,"state":"active","ping":46},{"user_id":102,"name":"Torensz64(But weezer)","steam_id":76561198239036482,"connected_time":503000000000,"state":"active","ping":57},{"user_id":79,"name":"☂Bliffenstimmers☂","steam_id":76561198059984896,"connected_time":1667000000000,"state":"active","ping":84},{"user_id":52,"name":"QuartzGeek","steam_id":76561199011674698,"connected_time":4630000000000,"state":"active","ping":76},{"user_id":100,"name":"twizted","steam_id":76561197960407274,"connected_time":624000000000,"state":"active","ping":74},{"user_id":108,"name":"cold","steam_id":76561198027963611,"connected_time":29000000000,"state":"active","ping":69},{"user_id":101,"name":"Elias","steam_id":76561198106431732,"connected_time":573000000000,"state":"active","ping":34},{"user_id":92,"name":"menonamed","steam_id":76561198199564382,"connected_time":1061000000000,"state":"active","ping":69},{"user_id":107,"name":"Semyr","steam_id":76561198125655939,"connected_time":167000000000,"state":"active","ping":61},{"user_id":86,"name":"Echolu","steam_id":76561198158613750,"connected_time":1442000000000,"state":"active","ping":108},{"user_id":64,"name":"Addy \u003c3","steam_id":76561198045819723,"connected_time":3316000000000,"state":"active","ping":69},{"user_id":48,"name":"kac b4rney","steam_id":76561198166433332,"connected_time":4673000000000,"state":"active","ping":97},{"user_id":49,"name":"autisthicc","steam_id":76561198003918928,"connected_time":4670000000000,"state":"active","ping":133},{"user_id":57,"name":"Californian (Derogatory)","steam_id":76561198077272494,"connected_time":4434000000000,"state":"active","ping":44},{"user_id":99,"name":"old sloth cheese","steam_id":76561198248696144,"connected_time":668000000000,"state":"active","ping":89}]},{"server_id":37,"name":"Uncletopia | Chicago | 6 | All Maps","name_short":"chi-6","host":"chi-2.us.uncletopia.com","port":27025,"enabled":true,"region":"us-central","cc":"us","latitude":41.881832,"longitude":-87.62318,"reserved":0,"last_update":"0001-01-01T00:00:00Z","name_a2s":"Uncletopia | Chicago | 6 | All Maps","protocol":17,"map":"koth_viaduct","folder":"tf","game":"Team Fortress","app_id":440,"player_count":0,"max_players":24,"Bots":0,"server_type":"Dedicated","server_os":"Linux","password":true,"vac":true,"version":"7961495","steam_id":85568392924866363,"keywords":["cp","nocrits","nodmgspread","uncletopia"],"game_id":440,"stv_port":27026,"stv_name":"Uncletopia | Chicago | 6 | All Maps | STV","players":null},{"server_id":38,"name":"Uncletopia | Chicago | 7 | Stopwatch","name_short":"chi-7","host":"chi-2.us.uncletopia.com","port":27035,"enabled":true,"region":"us-central","cc":"us","latitude":41.881832,"longitude":-87.62318,"reserved":0,"last_update":"0001-01-01T00:00:00Z","name_a2s":"Uncletopia | Chicago | 7 | Stopwatch","protocol":17,"map":"koth_highpass","folder":"tf","game":"Team Fortress","app_id":440,"player_count":0,"max_players":24,"Bots":0,"server_type":"Dedicated","server_os":"Linux","password":true,"vac":true,"version":"7961495","steam_id":85568392924866364,"keywords":["cp","nocrits","nodmgspread","uncletopia"],"game_id":440,"stv_port":27036,"stv_name":"Uncletopia | Chicago | 7 | Stopwatch | STV","players":null},{"server_id":39,"name":"Uncletopia | Chicago | 8 | Community","name_short":"chi-8","host":"chi-2.us.uncletopia.com","port":27045,"enabled":true,"region":"us-central","cc":"us","latitude":41.881832,"longitude":-87.62318,"reserved":0,"last_update":"0001-01-01T00:00:00Z","name_a2s":"Uncletopia | Chicago | 8 | Community","protocol":17,"map":"pl_pier","folder":"tf","game":"Team Fortress","app_id":440,"player_count":0,"max_players":24,"Bots":0,"server_type":"Dedicated","server_os":"Linux","password":true,"vac":true,"version":"7961495","steam_id":85568392924866365,"keywords":["nocrits","nodmgspread","payload","uncletopia"],"game_id":440,"stv_port":27046,"stv_name":"Uncletopia | Chicago | 8 | Community | STV","players":null},{"server_id":8,"name":"Uncletopia | Dallas | 1 | All Maps","name_short":"dal-1","host":"dal-1.us.uncletopia.com","port":27015,"enabled":true,"region":"us-central","cc":"us","latitude":32.779167,"longitude":-96.80889,"reserved":0,"last_update":"0001-01-01T00:00:00Z","name_a2s":"Uncletopia | Dallas | 1 | All Maps","protocol":17,"map":"pl_upward","folder":"tf","game":"Team Fortress","app_id":440,"player_count":21,"max_players":24,"Bots":0,"server_type":"Dedicated","server_os":"Linux","password":true,"vac":true,"version":"7961495","steam_id":85568392924469986,"keywords":["nocrits","nodmgspread","payload","uncletopia"],"game_id":440,"stv_port":27016,"stv_name":"Uncletopia | Dallas | 1 | All Maps | STV","players":[{"user_id":76,"name":"Moonflower ✦","steam_id":76561198191782483,"connected_time":261000000000,"state":"active","ping":52},{"user_id":81,"name":"Bean King","steam_id":76561198393621940,"connected_time":87000000000,"state":"active","ping":64},{"user_id":74,"name":"Blippy","steam_id":76561198225904600,"connected_time":388000000000,"state":"active","ping":54},{"user_id":48,"name":"Greasy Guavas","steam_id":76561198089650428,"connected_time":2433000000000,"state":"active","ping":68},{"user_id":69,"name":"1998 Volvo S70 T5","steam_id":76561198258615044,"connected_time":607000000000,"state":"active","ping":95},{"user_id":37,"name":"Burny Sanders","steam_id":76561197961879048,"connected_time":2551000000000,"state":"active","ping":35},{"user_id":70,"name":"♫Pilking Off♫","steam_id":76561198073660779,"connected_time":592000000000,"state":"active","ping":34},{"user_id":73,"name":"hforce11","steam_id":76561198087647130,"connected_time":445000000000,"state":"active","ping":62},{"user_id":82,"name":"SneakyJayMLP","steam_id":76561198969565685,"connected_time":35000000000,"state":"active","ping":75},{"user_id":78,"name":"dj khaled","steam_id":76561198380688967,"connected_time":125000000000,"state":"active","ping":62},{"user_id":79,"name":"femboy =＾● ⋏ ●＾=","steam_id":76561199052450127,"connected_time":113000000000,"state":"active","ping":451},{"user_id":61,"name":"Blue Banana","steam_id":76561198100077411,"connected_time":1599000000000,"state":"active","ping":75},{"user_id":31,"name":"Die-Sas","steam_id":76561198987794008,"connected_time":2683000000000,"state":"active","ping":78},{"user_id":52,"name":"cyborgjo2147","steam_id":76561199184761439,"connected_time":1908000000000,"state":"active","ping":77},{"user_id":84,"name":"i miss fauna","steam_id":76561198045144546,"connected_time":21000000000,"state":"active","ping":80},{"user_id":38,"name":"37 septillion tapeworms","steam_id":76561198186128723,"connected_time":2545000000000,"state":"active","ping":49},{"user_id":77,"name":"Dog","steam_id":76561198041841128,"connected_time":248000000000,"state":"active","ping":101},{"user_id":62,"name":"Xrath","steam_id":76561198220741860,"connected_time":1571000000000,"state":"active","ping":88},{"user_id":80,"name":"marty","steam_id":76561198032782746,"connected_time":112000000000,"state":"active","ping":83},{"user_id":57,"name":"Rob","steam_id":76561199187786660,"connected_time":1706000000000,"state":"active","ping":52},{"user_id":66,"name":"FROYO cina_red","steam_id":76561198070266530,"connected_time":950000000000,"state":"active","ping":62}]},{"server_id":108,"name":"Uncletopia | Dallas | 2 | All Maps","name_short":"dal-2","host":"dal-1.us.uncletopia.com","port":27025,"enabled":true,"region":"us-central","cc":"us","latitude":32.779167,"longitude":-96.80889,"reserved":0,"last_update":"0001-01-01T00:00:00Z","name_a2s":"Uncletopia | Dallas | 2 | All Maps","protocol":17,"map":"koth_lakeside_final","folder":"tf","game":"Team Fortress","app_id":440,"player_count":0,"max_players":24,"Bots":0,"server_type":"Dedicated","server_os":"Linux","password":true,"vac":true,"version":"7961495","steam_id":85568392924469988,"keywords":["cp","nocrits","nodmgspread","uncletopia"],"game_id":440,"stv_port":27026,"stv_name":"Uncletopia | Dallas | 2 | All Maps | STV","players":null},{"server_id":404,"name":"Uncletopia | Dallas | 3 | All Maps","name_short":"dal-3","host":"dal-1.us.uncletopia.com","port":27035,"enabled":true,"region":"us-central","cc":"us","latitude":32.779167,"longitude":-96.80889,"reserved":0,"last_update":"0001-01-01T00:00:00Z","name_a2s":"Uncletopia | Dallas | 3 | All Maps","protocol":17,"map":"pl_badwater","folder":"tf","game":"Team Fortress","app_id":440,"player_count":0,"max_players":24,"Bots":0,"server_type":"Dedicated","server_os":"Linux","password":true,"vac":true,"version":"7961495","steam_id":85568392924515219,"keywords":["nocrits","nodmgspread","payload","uncletopia"],"game_id":440,"stv_port":27036,"stv_name":"Uncletopia | Dallas | 3 | All Maps | STV","players":null},{"server_id":405,"name":"Uncletopia | Dallas | 4 | Community","name_short":"dal-4","host":"dal-1.us.uncletopia.com","port":27045,"enabled":true,"region":"us-central","cc":"us","latitude":32.779167,"longitude":-96.80889,"reserved":0,"last_update":"0001-01-01T00:00:00Z","name_a2s":"Uncletopia | Dallas | 4 | Community","protocol":17,"map":"workshop/rd_asteroid_redux_b1.ugc2154902912","folder":"tf","game":"Team Fortress","app_id":440,"player_count":0,"max_players":24,"Bots":0,"server_type":"Dedicated","server_os":"Linux","password":true,"vac":true,"version":"7961495","steam_id":85568392924515220,"keywords":["beta","nocrits","nodmgspread","rd","uncletopia"],"game_id":440,"stv_port":27046,"stv_name":"Uncletopia | Dallas | 4 | Community | STV","players":null},{"server_id":5,"name":"Uncletopia | Frankfurt | 1 | All Maps","name_short":"frk-1","host":"frk-1.de.uncletopia.com","port":27015,"enabled":true,"region":"eu","cc":"de","latitude":50.110924,"longitude":8.682127,"reserved":0,"last_update":"0001-01-01T00:00:00Z","name_a2s":"Uncletopia | Frankfurt | 1 | All Maps","protocol":17,"map":"cp_dustbowl","folder":"tf","game":"Team Fortress","app_id":440,"player_count":24,"max_players":24,"Bots":0,"server_type":"Dedicated","server_os":"Linux","password":true,"vac":true,"version":"7961495","steam_id":85568392924469989,"keywords":["cp","nocrits","nodmgspread","uncletopia"],"game_id":440,"stv_port":27016,"stv_name":"Uncletopia | Frankfurt | 1 | All Maps | STV","players":[{"user_id":728,"name":"aGryphoN","steam_id":76561198245175308,"connected_time":176000000000,"state":"active","ping":60},{"user_id":726,"name":"Der Herr Doktor","steam_id":76561198119476089,"connected_time":235000000000,"state":"active","ping":50},{"user_id":719,"name":"개새]키야","steam_id":76561198190451031,"connected_time":817000000000,"state":"active","ping":54},{"user_id":663,"name":"Waltism","steam_id":76561199447676489,"connected_time":2973000000000,"state":"active","ping":66},{"user_id":704,"name":"Did somebody say box kites?","steam_id":76561198007653168,"connected_time":1260000000000,"state":"active","ping":60},{"user_id":731,"name":"Xi Bingchilling","steam_id":76561198154310301,"connected_time":74000000000,"state":"active","ping":81},{"user_id":666,"name":"i hack smart refrigerators","steam_id":76561199265289808,"connected_time":2915000000000,"state":"active","ping":119},{"user_id":727,"name":"teddy","steam_id":76561199101571868,"connected_time":212000000000,"state":"active","ping":111},{"user_id":708,"name":"awful gaming","steam_id":76561198003193507,"connected_time":1166000000000,"state":"active","ping":65},{"user_id":673,"name":"Margarito_snake","steam_id":76561198132001394,"connected_time":2875000000000,"state":"active","ping":113},{"user_id":709,"name":"Kenny Savage","steam_id":76561199049383900,"connected_time":1164000000000,"state":"active","ping":75},{"user_id":676,"name":"Your Local Engineer","steam_id":76561198350757618,"connected_time":2827000000000,"state":"active","ping":92},{"user_id":722,"name":"endlesshills","steam_id":76561198081908373,"connected_time":557000000000,"state":"active","ping":54},{"user_id":692,"name":"Conan the Librarian","steam_id":76561198007224654,"connected_time":1980000000000,"state":"active","ping":57},{"user_id":679,"name":"Dommy","steam_id":76561197990864747,"connected_time":2785000000000,"state":"active","ping":52},{"user_id":691,"name":"Rigby","steam_id":76561198021552128,"connected_time":2335000000000,"state":"active","ping":101},{"user_id":711,"name":"Hungeryan","steam_id":76561198887299930,"connected_time":1140000000000,"state":"active","ping":93},{"user_id":723,"name":"Argdy","steam_id":76561198879906416,"connected_time":526000000000,"state":"active","ping":69},{"user_id":682,"name":"[O\u0026O]YaboiDucki","steam_id":76561198195976589,"connected_time":2775000000000,"state":"active","ping":87},{"user_id":689,"name":"BabyFoxoti","steam_id":76561198974666142,"connected_time":2656000000000,"state":"active","ping":54},{"user_id":693,"name":"Arti_Chokes","steam_id":76561199213835861,"connected_time":1890000000000,"state":"active","ping":67},{"user_id":713,"name":"Spotmonkey","steam_id":76561198003994092,"connected_time":1123000000000,"state":"active","ping":70},{"user_id":732,"name":"Duktigafred","steam_id":76561199211222396,"connected_time":60000000000,"state":"spawning","ping":55},{"user_id":688,"name":"Colonel Dimanche","steam_id":76561197994792632,"connected_time":2715000000000,"state":"active","ping":50}]},{"server_id":110,"name":"Uncletopia | Frankfurt | 2 | All Maps","name_short":"frk-2","host":"frk-1.de.uncletopia.com","port":27025,"enabled":true,"region":"eu","cc":"de","latitude":50.110924,"longitude":8.682127,"reserved":0,"last_update":"0001-01-01T00:00:00Z","name_a2s":"Uncletopia | Frankfurt | 2 | All Maps","protocol":17,"map":"pl_frontier_final","folder":"tf","game":"Team Fortress","app_id":440,"player_count":24,"max_players":24,"Bots":0,"server_type":"Dedicated","server_os":"Linux","password":true,"vac":true,"version":"7961495","steam_id":85568392924469990,"keywords":["nocrits","nodmgspread","payload","uncletopia"],"game_id":440,"stv_port":27026,"stv_name":"Uncletopia | Frankfurt | 2 | All Maps | STV","players":[{"user_id":526,"name":"Relic","steam_id":76561199499093258,"connected_time":43000000000,"state":"active","ping":60},{"user_id":477,"name":"Maske","steam_id":76561198078100812,"connected_time":3894000000000,"state":"active","ping":52},{"user_id":307,"name":"else1","steam_id":76561197996558319,"connected_time":13579000000000,"state":"active","ping":76},{"user_id":522,"name":"dunduu","steam_id":76561198875240717,"connected_time":193000000000,"state":"active","ping":57},{"user_id":520,"name":"cecko","steam_id":76561198798721254,"connected_time":690000000000,"state":"active","ping":71},{"user_id":521,"name":"Shaving cream","steam_id":76561199018053264,"connected_time":203000000000,"state":"active","ping":70},{"user_id":527,"name":"The Evil Taco","steam_id":76561198202674160,"connected_time":25000000000,"state":"active","ping":91},{"user_id":495,"name":"GigaСhad Pyro","steam_id":76561198140742485,"connected_time":1849000000000,"state":"active","ping":101},{"user_id":506,"name":"Thors","steam_id":76561197968739075,"connected_time":1541000000000,"state":"active","ping":44},{"user_id":497,"name":"M4R1O","steam_id":76561198050528464,"connected_time":1834000000000,"state":"active","ping":59},{"user_id":498,"name":"Pepegi","steam_id":76561198001230113,"connected_time":1833000000000,"state":"active","ping":73},{"user_id":466,"name":"finbar","steam_id":76561198056812396,"connected_time":4478000000000,"state":"active","ping":84},{"user_id":523,"name":"a monkey","steam_id":76561198131435940,"connected_time":170000000000,"state":"active","ping":81},{"user_id":524,"name":"minimurx","steam_id":76561198858102095,"connected_time":151000000000,"state":"active","ping":61},{"user_id":487,"name":"knees","steam_id":76561198005924647,"connected_time":2435000000000,"state":"active","ping":73},{"user_id":509,"name":"Largo","steam_id":76561198844368927,"connected_time":1136000000000,"state":"active","ping":74},{"user_id":516,"name":"Gangwolf","steam_id":76561198043868575,"connected_time":886000000000,"state":"active","ping":50},{"user_id":514,"name":"Para Bellum","steam_id":76561198375413446,"connected_time":937000000000,"state":"active","ping":50},{"user_id":511,"name":"Tusho","steam_id":76561198115447383,"connected_time":1042000000000,"state":"active","ping":66},{"user_id":525,"name":"Suro","steam_id":76561198161307772,"connected_time":140000000000,"state":"active","ping":69},{"user_id":517,"name":"VK2124 :D","steam_id":76561198111130688,"connected_time":865000000000,"state":"active","ping":42},{"user_id":437,"name":"YARrICk.«+»","steam_id":76561197990126485,"connected_time":5926000000000,"state":"active","ping":64},{"user_id":519,"name":"Lyncurion","steam_id":76561199260022725,"connected_time":757000000000,"state":"active","ping":71},{"user_id":513,"name":"Finem Belli","steam_id":76561198227177976,"connected_time":1041000000000,"state":"active","ping":49}]},{"server_id":308,"name":"Uncletopia | Frankfurt | 3 | All Maps","name_short":"frk-3","host":"frk-1.de.uncletopia.com","port":27035,"enabled":true,"region":"eu","cc":"de","latitude":50.110924,"longitude":8.682127,"reserved":0,"last_update":"0001-01-01T00:00:00Z","name_a2s":"Uncletopia | Frankfurt | 3 | All Maps","protocol":17,"map":"pl_pier","folder":"tf","game":"Team Fortress","app_id":440,"player_count":21,"max_players":24,"Bots":0,"server_type":"Dedicated","server_os":"Linux","password":true,"vac":true,"version":"7961495","steam_id":85568392924504274,"keywords":["nocrits","nodmgspread","payload","uncletopia"],"game_id":440,"stv_port":27036,"stv_name":"Uncletopia | Frankfurt | 3 | All Maps | STV","players":[{"user_id":262,"name":"Funny Man 625","steam_id":76561198256807474,"connected_time":275000000000,"state":"active","ping":49},{"user_id":225,"name":"Cap","steam_id":76561198258586329,"connected_time":2316000000000,"state":"active","ping":68},{"user_id":263,"name":"Rotini","steam_id":76561198858070429,"connected_time":263000000000,"state":"active","ping":63},{"user_id":250,"name":"tallen","steam_id":76561198061708595,"connected_time":1007000000000,"state":"active","ping":81},{"user_id":264,"name":"Galleren","steam_id":76561198347887402,"connected_time":261000000000,"state":"active","ping":80},{"user_id":265,"name":"Jonas","steam_id":76561198191572397,"connected_time":228000000000,"state":"active","ping":72},{"user_id":266,"name":"✠✠killer174hun✠✠","steam_id":76561198210135897,"connected_time":217000000000,"state":"active","ping":82},{"user_id":267,"name":"The Italian Blob","steam_id":76561198001218349,"connected_time":197000000000,"state":"active","ping":76},{"user_id":268,"name":":|","steam_id":76561198145232617,"connected_time":197000000000,"state":"active","ping":59},{"user_id":269,"name":"Mitt","steam_id":76561199011013919,"connected_time":137000000000,"state":"active","ping":65},{"user_id":270,"name":"mekaninja","steam_id":76561198131135876,"connected_time":129000000000,"state":"active","ping":69},{"user_id":271,"name":"Kori","steam_id":76561199173692275,"connected_time":71000000000,"state":"active","ping":57},{"user_id":272,"name":"brew","steam_id":76561198836246326,"connected_time":60000000000,"state":"active","ping":74},{"user_id":273,"name":"Ramzi","steam_id":76561198124445500,"connected_time":51000000000,"state":"active","ping":105},{"user_id":274,"name":"CornerPin","steam_id":76561198041202334,"connected_time":48000000000,"state":"active","ping":75},{"user_id":220,"name":"/hm/","steam_id":76561199213268288,"connected_time":3067000000000,"state":"active","ping":60},{"user_id":228,"name":"Balls","steam_id":76561198086400484,"connected_time":2289000000000,"state":"active","ping":71},{"user_id":275,"name":"alfus","steam_id":76561198071003109,"connected_time":44000000000,"state":"spawning","ping":100},{"user_id":276,"name":"i only heal furries","steam_id":76561199466642501,"connected_time":31000000000,"state":"active","ping":95},{"user_id":221,"name":"PUNK RECORDS","steam_id":76561197999954766,"connected_time":2867000000000,"state":"active","ping":45},{"user_id":219,"name":"Lopat","steam_id":76561198820264239,"connected_time":3146000000000,"state":"active","ping":107}]},{"server_id":309,"name":"Uncletopia | Frankfurt | 4 | All Maps","name_short":"frk-4","host":"frk-1.de.uncletopia.com","port":27045,"enabled":true,"region":"eu","cc":"de","latitude":50.110924,"longitude":8.682127,"reserved":0,"last_update":"0001-01-01T00:00:00Z","name_a2s":"Uncletopia | Frankfurt | 4 | All Maps","protocol":17,"map":"cp_metalworks","folder":"tf","game":"Team Fortress","app_id":440,"player_count":23,"max_players":24,"Bots":0,"server_type":"Dedicated","server_os":"Linux","password":true,"vac":true,"version":"7961495","steam_id":85568392924504275,"keywords":["cp","nocrits","nodmgspread","uncletopia"],"game_id":440,"stv_port":27046,"stv_name":"Uncletopia | Frankfurt | 4 | All Maps | STV","players":[{"user_id":268,"name":"Flint Atheno","steam_id":76561198000565196,"connected_time":1982000000000,"state":"active","ping":56},{"user_id":258,"name":"socker","steam_id":76561197995259559,"connected_time":2068000000000,"state":"active","ping":71},{"user_id":198,"name":"yush","steam_id":76561198121688934,"connected_time":7733000000000,"state":"active","ping":75},{"user_id":270,"name":"Murdoc The Great","steam_id":76561198006704542,"connected_time":1962000000000,"state":"active","ping":70},{"user_id":275,"name":"Artemis","steam_id":76561198199091801,"connected_time":1767000000000,"state":"active","ping":43},{"user_id":283,"name":"Uselss Joe","steam_id":76561198275853629,"connected_time":817000000000,"state":"active","ping":45},{"user_id":261,"name":"Zatzulu","steam_id":76561198101515624,"connected_time":2050000000000,"state":"active","ping":60},{"user_id":262,"name":"Sodsboy","steam_id":76561198030482006,"connected_time":2040000000000,"state":"active","ping":51},{"user_id":286,"name":"Infantryman","steam_id":76561198017751181,"connected_time":256000000000,"state":"active","ping":60},{"user_id":285,"name":"Gentle-Cat","steam_id":76561198014196672,"connected_time":352000000000,"state":"active","ping":84},{"user_id":293,"name":"donatofina","steam_id":76561198353497885,"connected_time":9000000000,"state":"spawning","ping":87},{"user_id":244,"name":"sloppy transgirl toppy","steam_id":76561198057092208,"connected_time":3836000000000,"state":"active","ping":60},{"user_id":284,"name":"brodie mon","steam_id":76561198001359683,"connected_time":756000000000,"state":"active","ping":77},{"user_id":287,"name":"olivia","steam_id":76561198288130849,"connected_time":240000000000,"state":"active","ping":146},{"user_id":278,"name":"Xenophon","steam_id":76561198158781327,"connected_time":1600000000000,"state":"active","ping":54},{"user_id":274,"name":"OrangeBeard(♥)","steam_id":76561198010474332,"connected_time":1870000000000,"state":"active","ping":84},{"user_id":288,"name":"Adushka","steam_id":76561198053095808,"connected_time":226000000000,"state":"active","ping":71},{"user_id":289,"name":"Yanniki","steam_id":76561197986058110,"connected_time":199000000000,"state":"active","ping":142},{"user_id":290,"name":"Industrial Revolution","steam_id":76561198230811124,"connected_time":197000000000,"state":"active","ping":48},{"user_id":292,"name":"useless windows applications","steam_id":76561198410066304,"connected_time":164000000000,"state":"active","ping":44},{"user_id":279,"name":"ShadowTwin","steam_id":76561198046658200,"connected_time":1545000000000,"state":"active","ping":71},{"user_id":167,"name":"Mister","steam_id":76561199049647854,"connected_time":9760000000000,"state":"active","ping":45}]},{"server_id":310,"name":"Uncletopia | Frankfurt | 5 | All Maps","name_short":"frk-5","host":"frk-1.de.uncletopia.com","port":27055,"enabled":true,"region":"eu","cc":"de","latitude":50.110924,"longitude":8.682127,"reserved":0,"last_update":"0001-01-01T00:00:00Z","name_a2s":"Uncletopia | Frankfurt | 5 | All Maps","protocol":17,"map":"koth_cascade","folder":"tf","game":"Team Fortress","app_id":440,"player_count":19,"max_players":24,"Bots":0,"server_type":"Dedicated","server_os":"Linux","password":true,"vac":true,"version":"7961495","steam_id":85568392924504277,"keywords":["cp","nocrits","nodmgspread","uncletopia"],"game_id":440,"stv_port":27056,"stv_name":"Uncletopia | Frankfurt | 5 | All Maps | STV","players":[{"user_id":522,"name":"Major Economic Crisis","steam_id":76561198339197295,"connected_time":899000000000,"state":"active","ping":62},{"user_id":516,"name":"Darkf065","steam_id":76561199029257202,"connected_time":1088000000000,"state":"active","ping":101},{"user_id":523,"name":"Ghozt","steam_id":76561198289838374,"connected_time":855000000000,"state":"active","ping":64},{"user_id":517,"name":"♥♥TGA♥♥","steam_id":76561198853016656,"connected_time":1086000000000,"state":"active","ping":56},{"user_id":519,"name":"TylowStar","steam_id":76561198357107806,"connected_time":961000000000,"state":"active","ping":52},{"user_id":527,"name":"Zenhard","steam_id":76561198099744014,"connected_time":749000000000,"state":"active","ping":77},{"user_id":520,"name":"SalCrabber deluxe","steam_id":76561198275942961,"connected_time":928000000000,"state":"active","ping":35},{"user_id":521,"name":"Lassie","steam_id":76561198131924713,"connected_time":919000000000,"state":"active","ping":59},{"user_id":505,"name":"Salamdar","steam_id":76561198061910407,"connected_time":1396000000000,"state":"active","ping":47},{"user_id":503,"name":"komodo dragon","steam_id":76561198075068529,"connected_time":1508000000000,"state":"active","ping":55},{"user_id":528,"name":"Demo #saveTF2","steam_id":76561198102850854,"connected_time":742000000000,"state":"active","ping":49},{"user_id":531,"name":"puncake4you","steam_id":76561198366512937,"connected_time":554000000000,"state":"active","ping":65},{"user_id":506,"name":"Reimu","steam_id":76561198101532240,"connected_time":1395000000000,"state":"active","ping":67},{"user_id":511,"name":"donuttt","steam_id":76561198063585003,"connected_time":1273000000000,"state":"active","ping":51},{"user_id":492,"name":"Koomikko John","steam_id":76561198350647057,"connected_time":2443000000000,"state":"active","ping":60},{"user_id":465,"name":"I I | #SaveTF2","steam_id":76561199101935057,"connected_time":4607000000000,"state":"active","ping":90},{"user_id":526,"name":"Bobo","steam_id":76561198052308399,"connected_time":827000000000,"state":"active","ping":55},{"user_id":529,"name":"Pedro Sanchez baloncesto","steam_id":76561198134192269,"connected_time":648000000000,"state":"active","ping":85},{"user_id":530,"name":"Ladi","steam_id":76561198047735194,"connected_time":594000000000,"state":"active","ping":61}]},{"server_id":311,"name":"Uncletopia | Frankfurt | 6 | All Maps","name_short":"frk-6","host":"frk-1.de.uncletopia.com","port":27065,"enabled":true,"region":"eu","cc":"de","latitude":50.110924,"longitude":8.682127,"reserved":0,"last_update":"0001-01-01T00:00:00Z","name_a2s":"Uncletopia | Frankfurt | 6 | All Maps","protocol":17,"map":"cp_snakewater_final1","folder":"tf","game":"Team Fortress","app_id":440,"player_count":14,"max_players":24,"Bots":0,"server_type":"Dedicated","server_os":"Linux","password":true,"vac":true,"version":"7961495","steam_id":85568392924504278,"keywords":["cp","nocrits","nodmgspread","uncletopia"],"game_id":440,"stv_port":27066,"stv_name":"Uncletopia | Frankfurt | 6 | All Maps | STV","players":[{"user_id":460,"name":"Misty","steam_id":76561198863357531,"connected_time":1055000000000,"state":"active","ping":115},{"user_id":457,"name":"Culy Kaugummie","steam_id":76561198863269150,"connected_time":1291000000000,"state":"active","ping":66},{"user_id":462,"name":"Citler","steam_id":76561199115241703,"connected_time":887000000000,"state":"active","ping":90},{"user_id":461,"name":"nero","steam_id":76561199104782664,"connected_time":987000000000,"state":"active","ping":65},{"user_id":463,"name":"CMRDGI","steam_id":76561198141356233,"connected_time":630000000000,"state":"active","ping":46},{"user_id":465,"name":"bongo","steam_id":76561198015489880,"connected_time":332000000000,"state":"active","ping":44},{"user_id":466,"name":"SimplyJarvis","steam_id":76561198000654287,"connected_time":328000000000,"state":"active","ping":72},{"user_id":467,"name":"Jackanackaknory","steam_id":76561198028044547,"connected_time":308000000000,"state":"active","ping":81},{"user_id":468,"name":"Burchtopia","steam_id":76561198063874546,"connected_time":305000000000,"state":"active","ping":64},{"user_id":469,"name":"Ryan Webb","steam_id":76561199266667550,"connected_time":257000000000,"state":"active","ping":129},{"user_id":472,"name":"Matbanan","steam_id":76561198228537672,"connected_time":129000000000,"state":"active","ping":80},{"user_id":471,"name":"echx","steam_id":76561198254844559,"connected_time":204000000000,"state":"active","ping":67},{"user_id":424,"name":"Джекет","steam_id":76561198327897125,"connected_time":3493000000000,"state":"active","ping":94},{"user_id":473,"name":"Need for Speedo","steam_id":76561198251466596,"connected_time":99000000000,"state":"active","ping":58}]},{"server_id":23,"name":"Uncletopia | Frankfurt | 7 | Stopwatch","name_short":"frk-7","host":"frk-1.de.uncletopia.com","port":27075,"enabled":true,"region":"eu","cc":"de","latitude":50.110924,"longitude":8.682127,"reserved":0,"last_update":"0001-01-01T00:00:00Z","name_a2s":"Uncletopia | Frankfurt | 7 | Stopwatch","protocol":17,"map":"workshop/pl_badwater_pro_v12.ugc2142942074","folder":"tf","game":"Team Fortress","app_id":440,"player_count":0,"max_players":24,"Bots":0,"server_type":"Dedicated","server_os":"Linux","password":true,"vac":true,"version":"7961495","steam_id":85568392924742827,"keywords":["nocrits","nodmgspread","payload","uncletopia"],"game_id":440,"stv_port":27076,"stv_name":"Uncletopia | Frankfurt | 7 | Stopwatch | STV","players":null},{"server_id":24,"name":"Uncletopia | Frankfurt | 8 | Community","name_short":"frk-8","host":"frk-1.de.uncletopia.com","port":27085,"enabled":true,"region":"eu","cc":"de","latitude":50.110924,"longitude":8.682127,"reserved":0,"last_update":"0001-01-01T00:00:00Z","name_a2s":"Uncletopia | Frankfurt | 8 | Community","protocol":17,"map":"workshop/cp_alloy_rc3.ugc592805587","folder":"tf","game":"Team Fortress","app_id":440,"player_count":0,"max_players":24,"Bots":0,"server_type":"Dedicated","server_os":"Linux","password":true,"vac":true,"version":"7961495","steam_id":85568392924742828,"keywords":["cp","nocrits","nodmgspread","uncletopia"],"game_id":440,"stv_port":27086,"stv_name":"Uncletopia | Frankfurt | 8 | Community | STV","players":null},{"server_id":202,"name":"Uncletopia | Hong Kong | 1 | All Maps","name_short":"hgk-1","host":"hgk-1.hk.uncletopia.com","port":27015,"enabled":true,"region":"asia","cc":"hk","latitude":22.302711,"longitude":114.177216,"reserved":0,"last_update":"0001-01-01T00:00:00Z","name_a2s":"Uncletopia | Hong Kong | 1 | All Maps","protocol":17,"map":"cp_mountainlab","folder":"tf","game":"Team Fortress","app_id":440,"player_count":0,"max_players":24,"Bots":0,"server_type":"Dedicated","server_os":"Linux","password":true,"vac":true,"version":"7961495","steam_id":85568392924494504,"keywords":["cp","nocrits","nodmgspread","uncletopia"],"game_id":440,"stv_port":27016,"stv_name":"Uncletopia | Hong Kong | 1 | All Maps | STV","players":null},{"server_id":1,"name":"Uncletopia | Los Angeles | 1 | All Maps","name_short":"lax-1","host":"lax-1.us.uncletopia.com","port":27015,"enabled":true,"region":"us-west","cc":"us","latitude":33.94279,"longitude":-118.41004,"reserved":0,"last_update":"0001-01-01T00:00:00Z","name_a2s":"Uncletopia | Los Angeles | 1 | All Maps","protocol":17,"map":"koth_king","folder":"tf","game":"Team Fortress","app_id":440,"player_count":21,"max_players":24,"Bots":0,"server_type":"Dedicated","server_os":"Linux","password":true,"vac":true,"version":"7961495","steam_id":85568392924469991,"keywords":["cp","nocrits","nodmgspread","uncletopia"],"game_id":440,"stv_port":27016,"stv_name":"Uncletopia | Los Angeles | 1 | All Maps | STV","players":[{"user_id":117,"name":"TacoMan","steam_id":76561198049405741,"connected_time":305000000000,"state":"active","ping":123},{"user_id":107,"name":"no vc no c","steam_id":76561197989503095,"connected_time":880000000000,"state":"active","ping":165},{"user_id":93,"name":"usedhalfcart","steam_id":76561198072621852,"connected_time":2530000000000,"state":"active","ping":69},{"user_id":116,"name":"devamar","steam_id":76561198069115467,"connected_time":321000000000,"state":"active","ping":34},{"user_id":110,"name":"JayDuh","steam_id":76561198396293109,"connected_time":632000000000,"state":"active","ping":86},{"user_id":118,"name":"fish (2:3)","steam_id":76561198134331073,"connected_time":270000000000,"state":"active","ping":85},{"user_id":119,"name":"Ulldric","steam_id":76561198045701371,"connected_time":251000000000,"state":"active","ping":70},{"user_id":111,"name":"Achoo","steam_id":76561198009091066,"connected_time":629000000000,"state":"active","ping":70},{"user_id":106,"name":"SanitysEdge","steam_id":76561198130732813,"connected_time":1305000000000,"state":"active","ping":45},{"user_id":94,"name":"4 life","steam_id":76561198175961598,"connected_time":2483000000000,"state":"active","ping":60},{"user_id":59,"name":"noceof","steam_id":76561198043656816,"connected_time":5199000000000,"state":"active","ping":173},{"user_id":120,"name":"Nurew","steam_id":76561198052589498,"connected_time":230000000000,"state":"active","ping":64},{"user_id":83,"name":"MineOpal","steam_id":76561198044716407,"connected_time":3130000000000,"state":"active","ping":42},{"user_id":113,"name":"the pizza he-man","steam_id":76561199166474769,"connected_time":470000000000,"state":"active","ping":68},{"user_id":102,"name":"t**** beheader","steam_id":76561199395351700,"connected_time":1563000000000,"state":"active","ping":46},{"user_id":122,"name":"krootonitron","steam_id":76561198114113037,"connected_time":174000000000,"state":"active","ping":55},{"user_id":114,"name":"Spy on cart","steam_id":76561198025466913,"connected_time":400000000000,"state":"active","ping":40},{"user_id":103,"name":"roach :3","steam_id":76561198354811369,"connected_time":1521000000000,"state":"active","ping":46},{"user_id":91,"name":"V_","steam_id":76561198147577835,"connected_time":2739000000000,"state":"active","ping":107},{"user_id":98,"name":"Jazpy","steam_id":76561198036872545,"connected_time":2085000000000,"state":"active","ping":77},{"user_id":63,"name":"rat","steam_id":76561198130412963,"connected_time":5095000000000,"state":"active","ping":82}]},{"server_id":112,"name":"Uncletopia | Los Angeles | 2 | All Maps","name_short":"lax-2","host":"lax-1.us.uncletopia.com","port":27025,"enabled":true,"region":"us-west","cc":"us","latitude":33.94279,"longitude":-118.41004,"reserved":0,"last_update":"0001-01-01T00:00:00Z","name_a2s":"Uncletopia | Los Angeles | 2 | All Maps","protocol":17,"map":"cp_snakewater_final1","folder":"tf","game":"Team Fortress","app_id":440,"player_count":0,"max_players":24,"Bots":0,"server_type":"Dedicated","server_os":"Linux","password":true,"vac":true,"version":"7961495","steam_id":85568392924469992,"keywords":["cp","nocrits","nodmgspread","uncletopia"],"game_id":440,"stv_port":27026,"stv_name":"Uncletopia | Los Angeles | 2 | All Maps | STV","players":null},{"server_id":324,"name":"Uncletopia | Los Angeles | 3 | All Maps","name_short":"lax-3","host":"lax-1.us.uncletopia.com","port":27035,"enabled":true,"region":"us-west","cc":"us","latitude":33.94279,"longitude":-118.41004,"reserved":0,"last_update":"0001-01-01T00:00:00Z","name_a2s":"Uncletopia | Los Angeles | 3 | All Maps","protocol":17,"map":"cp_process_final","folder":"tf","game":"Team Fortress","app_id":440,"player_count":0,"max_players":24,"Bots":0,"server_type":"Dedicated","server_os":"Linux","password":true,"vac":true,"version":"7961495","steam_id":85568392924510198,"keywords":["cp","nocrits","nodmgspread","uncletopia"],"game_id":440,"stv_port":27036,"stv_name":"Uncletopia | Los Angeles | 3 | All Maps | STV","players":null},{"server_id":25,"name":"Uncletopia | Los Angeles | 4 | Stopwatch","name_short":"lax-4","host":"lax-1.us.uncletopia.com","port":27045,"enabled":true,"region":"us-west","cc":"us","latitude":33.94279,"longitude":-118.41004,"reserved":0,"last_update":"0001-01-01T00:00:00Z","name_a2s":"Uncletopia | Los Angeles | 4 | Stopwatch","protocol":17,"map":"pl_barnblitz","folder":"tf","game":"Team Fortress","app_id":440,"player_count":0,"max_players":24,"Bots":0,"server_type":"Dedicated","server_os":"Linux","password":true,"vac":true,"version":"7961495","steam_id":85568392924510199,"keywords":["nocrits","nodmgspread","payload","uncletopia"],"game_id":440,"stv_port":27046,"stv_name":"Uncletopia | Los Angeles | 4 | Stopwatch | STV","players":null},{"server_id":11,"name":"Uncletopia | London | 1 | All Maps","name_short":"lon-1","host":"lon-1.uk.uncletopia.com","port":27015,"enabled":true,"region":"eu","cc":"gb","latitude":51.509865,"longitude":-0.118092,"reserved":0,"last_update":"0001-01-01T00:00:00Z","name_a2s":"Uncletopia | London | 1 | All Maps","protocol":17,"map":"pl_upward","folder":"tf","game":"Team Fortress","app_id":440,"player_count":25,"max_players":24,"Bots":0,"server_type":"Dedicated","server_os":"Linux","password":true,"vac":true,"version":"7961495","steam_id":85568392924367362,"keywords":["nocrits","nodmgspread","payload","uncletopia"],"game_id":440,"stv_port":27016,"stv_name":"Uncletopia | London | 1 | All Maps | STV","players":[{"user_id":604,"name":"yakubian snow ape","steam_id":76561198316059681,"connected_time":2503000000000,"state":"active","ping":59},{"user_id":621,"name":"AuwNina","steam_id":76561198128231464,"connected_time":1228000000000,"state":"active","ping":65},{"user_id":583,"name":"deadkep","steam_id":76561198097463968,"connected_time":4200000000000,"state":"active","ping":60},{"user_id":597,"name":"Yelowchy","steam_id":76561198199416121,"connected_time":2668000000000,"state":"active","ping":74},{"user_id":626,"name":"god's eepiest girl","steam_id":76561198128327529,"connected_time":821000000000,"state":"active","ping":59},{"user_id":630,"name":"Slifer the Sky Dragon","steam_id":76561198062255803,"connected_time":141000000000,"state":"active","ping":69},{"user_id":611,"name":"Minus-Abinus","steam_id":76561199383437138,"connected_time":1795000000000,"state":"active","ping":116},{"user_id":622,"name":"ExotiiC ☯","steam_id":76561198046149866,"connected_time":900000000000,"state":"active","ping":65},{"user_id":600,"name":"BurningJoke","steam_id":76561199014358707,"connected_time":2631000000000,"state":"active","ping":59},{"user_id":566,"name":"whimsy.","steam_id":76561198878171763,"connected_time":5861000000000,"state":"active","ping":50},{"user_id":631,"name":"Woman (Real)","steam_id":76561199151823932,"connected_time":25000000000,"state":"spawning","ping":74},{"user_id":582,"name":"Nutty Dark^^","steam_id":76561198036241064,"connected_time":4728000000000,"state":"active","ping":73},{"user_id":550,"name":"shooer!","steam_id":76561198110531281,"connected_time":7026000000000,"state":"active","ping":68},{"user_id":628,"name":"Accident","steam_id":76561198115160396,"connected_time":586000000000,"state":"active","ping":73},{"user_id":503,"name":"⸸aura⸸","steam_id":76561198066258544,"connected_time":9509000000000,"state":"active","ping":60},{"user_id":627,"name":"Kahvi","steam_id":76561198723244199,"connected_time":646000000000,"state":"active","ping":79},{"user_id":624,"name":"Bombilla","steam_id":76561198084281798,"connected_time":885000000000,"state":"active","ping":76},{"user_id":570,"name":"A Shoelace","steam_id":76561198126726364,"connected_time":5284000000000,"state":"active","ping":62},{"user_id":629,"name":"SKY_","steam_id":76561198080980508,"connected_time":585000000000,"state":"active","ping":66},{"user_id":609,"name":"Chippo","steam_id":76561198343198306,"connected_time":1967000000000,"state":"active","ping":67},{"user_id":613,"name":"Java_Siege_","steam_id":76561199090000728,"connected_time":1726000000000,"state":"active","ping":155},{"user_id":575,"name":"Max Andrew","steam_id":76561198158955194,"connected_time":5028000000000,"state":"active","ping":55},{"user_id":620,"name":"Rx07","steam_id":76561199013720618,"connected_time":1282000000000,"state":"active","ping":75},{"user_id":632,"name":"Losre","steam_id":76561198071393125,"connected_time":25000000000,"state":"spawning","ping":75},{"user_id":618,"name":"❤ Sparx ❤","steam_id":76561198095009261,"connected_time":1397000000000,"state":"active","ping":75}]},{"server_id":114,"name":"Uncletopia | London | 2 | All Maps","name_short":"lon-2","host":"lon-1.uk.uncletopia.com","port":27025,"enabled":true,"region":"eu","cc":"gb","latitude":51.509865,"longitude":-0.118092,"reserved":0,"last_update":"0001-01-01T00:00:00Z","name_a2s":"Uncletopia | London | 2 | All Maps","protocol":17,"map":"pl_barnblitz","folder":"tf","game":"Team Fortress","app_id":440,"player_count":24,"max_players":24,"Bots":0,"server_type":"Dedicated","server_os":"Linux","password":true,"vac":true,"version":"7961495","steam_id":85568392924470941,"keywords":["nocrits","nodmgspread","payload","uncletopia"],"game_id":440,"stv_port":27026,"stv_name":"Uncletopia | London | 2 | All Maps | STV","players":[{"user_id":373,"name":"Sir Sammie","steam_id":76561198329808137,"connected_time":3522000000000,"state":"active","ping":45},{"user_id":419,"name":"tete","steam_id":76561198045222850,"connected_time":445000000000,"state":"active","ping":66},{"user_id":420,"name":"NateHP","steam_id":76561198118574242,"connected_time":377000000000,"state":"active","ping":68},{"user_id":392,"name":"jjvthou(NOtdRuNkMeswEaRss)","steam_id":76561199403071554,"connected_time":3004000000000,"state":"active","ping":142},{"user_id":363,"name":"A.D.H.|Artem","steam_id":76561198041801369,"connected_time":3822000000000,"state":"active","ping":90},{"user_id":410,"name":"Maurdakar","steam_id":76561197983420976,"connected_time":981000000000,"state":"active","ping":146},{"user_id":421,"name":"milk.","steam_id":76561198475060900,"connected_time":332000000000,"state":"active","ping":160},{"user_id":413,"name":"leo","steam_id":76561198090848620,"connected_time":531000000000,"state":"active","ping":79},{"user_id":375,"name":"Albon","steam_id":76561198060378881,"connected_time":3464000000000,"state":"active","ping":61},{"user_id":402,"name":"PIMPrenelle","steam_id":76561198021366058,"connected_time":1896000000000,"state":"active","ping":59},{"user_id":409,"name":"Fish","steam_id":76561198811811405,"connected_time":1305000000000,"state":"active","ping":74},{"user_id":374,"name":"Delta Flowers ♡","steam_id":76561198434811706,"connected_time":3488000000000,"state":"active","ping":53},{"user_id":414,"name":"pihen","steam_id":76561198089598943,"connected_time":526000000000,"state":"active","ping":68},{"user_id":377,"name":"Musse","steam_id":76561198054731076,"connected_time":3410000000000,"state":"active","ping":70},{"user_id":407,"name":"hhhhhh","steam_id":76561198031982574,"connected_time":1631000000000,"state":"active","ping":68},{"user_id":415,"name":"Vins van Space","steam_id":76561198073054440,"connected_time":525000000000,"state":"active","ping":75},{"user_id":345,"name":"hbivnm","steam_id":76561197996468677,"connected_time":4907000000000,"state":"active","ping":60},{"user_id":403,"name":"LordTrap.exe","steam_id":76561198318089716,"connected_time":1881000000000,"state":"active","ping":59},{"user_id":380,"name":"wurlmon","steam_id":76561198113052745,"connected_time":3358000000000,"state":"active","ping":71},{"user_id":381,"name":"IDFFA","steam_id":76561199012434188,"connected_time":3357000000000,"state":"active","ping":74},{"user_id":405,"name":"child cruncher","steam_id":76561199376433147,"connected_time":1793000000000,"state":"active","ping":51},{"user_id":408,"name":"Weakest Brazilian Man","steam_id":76561198168840544,"connected_time":1629000000000,"state":"active","ping":71},{"user_id":417,"name":"kaiji_saleh","steam_id":76561199274325425,"connected_time":510000000000,"state":"active","ping":193},{"user_id":418,"name":"Tort","steam_id":76561198329646769,"connected_time":509000000000,"state":"active","ping":59}]},{"server_id":320,"name":"Uncletopia | London | 3 | All Maps","name_short":"lon-3","host":"lon-1.uk.uncletopia.com","port":27035,"enabled":true,"region":"eu","cc":"gb","latitude":51.509865,"longitude":-0.118092,"reserved":0,"last_update":"0001-01-01T00:00:00Z","name_a2s":"Uncletopia | London | 3 | All Maps","protocol":17,"map":"pl_upward","folder":"tf","game":"Team Fortress","app_id":440,"player_count":24,"max_players":24,"Bots":0,"server_type":"Dedicated","server_os":"Linux","password":true,"vac":true,"version":"7961495","steam_id":85568392924510192,"keywords":["nocrits","nodmgspread","payload","uncletopia"],"game_id":440,"stv_port":27036,"stv_name":"Uncletopia | London | 3 | All Maps | STV","players":[{"user_id":203,"name":"Margaret Thatcher","steam_id":76561198124463930,"connected_time":4571000000000,"state":"active","ping":42},{"user_id":276,"name":"jjkun786","steam_id":76561199438517484,"connected_time":165000000000,"state":"active","ping":71},{"user_id":265,"name":"Fidacha","steam_id":76561198003060881,"connected_time":1228000000000,"state":"active","ping":66},{"user_id":273,"name":"Jack","steam_id":76561198209102833,"connected_time":209000000000,"state":"active","ping":48},{"user_id":266,"name":"sCOOB","steam_id":76561198164142917,"connected_time":1076000000000,"state":"active","ping":79},{"user_id":270,"name":"spappy","steam_id":76561199106707541,"connected_time":387000000000,"state":"active","ping":55},{"user_id":227,"name":"Sippie","steam_id":76561198130393388,"connected_time":3593000000000,"state":"active","ping":67},{"user_id":272,"name":"corro","steam_id":76561197982510441,"connected_time":300000000000,"state":"active","ping":44},{"user_id":251,"name":"Raivop","steam_id":76561197980854307,"connected_time":2088000000000,"state":"active","ping":104},{"user_id":252,"name":"TheGreenWolf","steam_id":76561198170607033,"connected_time":2085000000000,"state":"active","ping":67},{"user_id":206,"name":"Lemmy","steam_id":76561199038870751,"connected_time":4550000000000,"state":"active","ping":64},{"user_id":260,"name":"Counter-Life","steam_id":76561197977875927,"connected_time":1919000000000,"state":"active","ping":59},{"user_id":267,"name":"cazador","steam_id":76561198123096922,"connected_time":877000000000,"state":"active","ping":105},{"user_id":240,"name":"gyurcsány egy cigány","steam_id":76561198988882521,"connected_time":3000000000000,"state":"active","ping":84},{"user_id":211,"name":"BardiBoi","steam_id":76561197985615971,"connected_time":4361000000000,"state":"active","ping":70},{"user_id":235,"name":"After8","steam_id":76561198090750865,"connected_time":3324000000000,"state":"active","ping":74},{"user_id":231,"name":"lexa","steam_id":76561198153381971,"connected_time":3504000000000,"state":"active","ping":88},{"user_id":279,"name":"Autisticlaat","steam_id":76561198154078133,"connected_time":125000000000,"state":"active","ping":33},{"user_id":277,"name":"Tre3","steam_id":76561198054795379,"connected_time":151000000000,"state":"active","ping":64},{"user_id":274,"name":"kupak","steam_id":76561198043078996,"connected_time":208000000000,"state":"active","ping":66},{"user_id":237,"name":"Locke","steam_id":76561198339408300,"connected_time":3307000000000,"state":"active","ping":60},{"user_id":278,"name":"Chocky","steam_id":76561198130558191,"connected_time":142000000000,"state":"active","ping":49},{"user_id":280,"name":"gaming (official)","steam_id":76561198106012909,"connected_time":97000000000,"state":"active","ping":79},{"user_id":281,"name":"THERE WILL BE BLOODSHED","steam_id":76561198173218318,"connected_time":67000000000,"state":"active","ping":51}]},{"server_id":321,"name":"Uncletopia | London | 4 | All Maps","name_short":"lon-4","host":"lon-1.uk.uncletopia.com","port":27045,"enabled":true,"region":"eu","cc":"gb","latitude":51.509865,"longitude":-0.118092,"reserved":0,"last_update":"0001-01-01T00:00:00Z","name_a2s":"Uncletopia | London | 4 | All Maps","protocol":17,"map":"cp_steel","folder":"tf","game":"Team Fortress","app_id":440,"player_count":19,"max_players":24,"Bots":0,"server_type":"Dedicated","server_os":"Linux","password":true,"vac":true,"version":"7961495","steam_id":85568392924510193,"keywords":["cp","nocrits","nodmgspread","uncletopia"],"game_id":440,"stv_port":27046,"stv_name":"Uncletopia | London | 4 | All Maps | STV","players":[{"user_id":598,"name":"[503. ]captain swiftfingers","steam_id":76561198043684517,"connected_time":518000000000,"state":"active","ping":49},{"user_id":558,"name":"Lozo","steam_id":76561198091866601,"connected_time":2669000000000,"state":"active","ping":55},{"user_id":587,"name":"Sotija","steam_id":76561198141712034,"connected_time":844000000000,"state":"active","ping":80},{"user_id":586,"name":"TheLuckyOneWhoCries","steam_id":76561199094488959,"connected_time":877000000000,"state":"active","ping":85},{"user_id":584,"name":"Andrea","steam_id":76561199487380678,"connected_time":971000000000,"state":"active","ping":111},{"user_id":592,"name":"Julio24pro","steam_id":76561199059773730,"connected_time":742000000000,"state":"active","ping":84},{"user_id":575,"name":"Chappi","steam_id":76561198075512843,"connected_time":1436000000000,"state":"active","ping":193},{"user_id":521,"name":"Weegad Wobus","steam_id":76561199429562693,"connected_time":4132000000000,"state":"active","ping":98},{"user_id":578,"name":"toomas2018(famous)","steam_id":76561199105796083,"connected_time":1172000000000,"state":"active","ping":81},{"user_id":589,"name":"Oak","steam_id":76561198067315672,"connected_time":830000000000,"state":"active","ping":49},{"user_id":602,"name":"The_nifler","steam_id":76561199090147254,"connected_time":356000000000,"state":"active","ping":56},{"user_id":569,"name":"Zerfesh","steam_id":76561198117534358,"connected_time":2220000000000,"state":"active","ping":109},{"user_id":581,"name":"bantershrimp","steam_id":76561198236332982,"connected_time":1063000000000,"state":"active","ping":62},{"user_id":566,"name":"snowball","steam_id":76561198026525289,"connected_time":2314000000000,"state":"active","ping":90},{"user_id":595,"name":"TemmZz","steam_id":76561199204183212,"connected_time":655000000000,"state":"active","ping":69},{"user_id":570,"name":"Jeffrey Harpen","steam_id":76561199073314677,"connected_time":2176000000000,"state":"active","ping":76},{"user_id":414,"name":"denimchicken","steam_id":76561197989061982,"connected_time":8409000000000,"state":"active","ping":89},{"user_id":560,"name":"Хуй сосну","steam_id":76561198280581001,"connected_time":2604000000000,"state":"active","ping":101},{"user_id":557,"name":"MistrzJaskier","steam_id":76561198069240119,"connected_time":2684000000000,"state":"active","ping":80}]},{"server_id":21,"name":"Uncletopia | London | 5 | All Maps","name_short":"lon-5","host":"lon-1.uk.uncletopia.com","port":27055,"enabled":true,"region":"eu","cc":"gb","latitude":51.509865,"longitude":-0.118092,"reserved":0,"last_update":"0001-01-01T00:00:00Z","name_a2s":"Uncletopia | London | 5 | All Maps","protocol":17,"map":"cp_process_final","folder":"tf","game":"Team Fortress","app_id":440,"player_count":24,"max_players":24,"Bots":0,"server_type":"Dedicated","server_os":"Linux","password":true,"vac":true,"version":"7961495","steam_id":85568392924742829,"keywords":["cp","nocrits","nodmgspread","uncletopia"],"game_id":440,"stv_port":27056,"stv_name":"Uncletopia | London | 5 | All Maps | STV","players":[{"user_id":353,"name":"Just Navlis","steam_id":76561198090479609,"connected_time":562000000000,"state":"active","ping":59},{"user_id":274,"name":"Ixsus\u003c3","steam_id":76561198094756869,"connected_time":4489000000000,"state":"active","ping":60},{"user_id":332,"name":"Nithle","steam_id":76561198025372740,"connected_time":1171000000000,"state":"active","ping":30},{"user_id":335,"name":"The_Jaystone","steam_id":76561198126280691,"connected_time":1058000000000,"state":"active","ping":44},{"user_id":347,"name":"KLAMA  ❤","steam_id":76561198351549661,"connected_time":827000000000,"state":"active","ping":76},{"user_id":337,"name":"SkiTzIe","steam_id":76561198010381798,"connected_time":1022000000000,"state":"active","ping":57},{"user_id":355,"name":"Proud Jojo Fan #TF2SP","steam_id":76561198847327216,"connected_time":325000000000,"state":"active","ping":75},{"user_id":356,"name":"Driana","steam_id":76561198017494777,"connected_time":295000000000,"state":"active","ping":38},{"user_id":338,"name":"Fofenho","steam_id":76561198436817109,"connected_time":1015000000000,"state":"active","ping":51},{"user_id":357,"name":"Bronchius Bonehead","steam_id":76561198133961416,"connected_time":279000000000,"state":"active","ping":63},{"user_id":331,"name":"Space Raccoon","steam_id":76561198038399662,"connected_time":1210000000000,"state":"active","ping":86},{"user_id":339,"name":"Hitotsume","steam_id":76561198129157178,"connected_time":1008000000000,"state":"active","ping":101},{"user_id":340,"name":"Happiness","steam_id":76561198273327711,"connected_time":1004000000000,"state":"active","ping":90},{"user_id":351,"name":"ₔkacper2010sₔ","steam_id":76561199074731477,"connected_time":704000000000,"state":"active","ping":100},{"user_id":360,"name":"Omyskull","steam_id":76561198131711758,"connected_time":28000000000,"state":"active","ping":67},{"user_id":344,"name":"Silver","steam_id":76561198175238807,"connected_time":937000000000,"state":"active","ping":53},{"user_id":342,"name":"Janner","steam_id":76561198127045282,"connected_time":985000000000,"state":"active","ping":47},{"user_id":186,"name":"jacio","steam_id":76561199491964000,"connected_time":10971000000000,"state":"active","ping":51},{"user_id":358,"name":"groyper_8814_bligger","steam_id":76561198276691164,"connected_time":267000000000,"state":"active","ping":61},{"user_id":359,"name":"Vallu","steam_id":76561197998153952,"connected_time":208000000000,"state":"active","ping":116},{"user_id":345,"name":"Vershal Smershal","steam_id":76561198116223995,"connected_time":928000000000,"state":"active","ping":56},{"user_id":346,"name":"MK-Ultra Violence","steam_id":76561198081328238,"connected_time":923000000000,"state":"active","ping":75},{"user_id":350,"name":"Rock..","steam_id":76561198004641963,"connected_time":768000000000,"state":"active","ping":85},{"user_id":352,"name":"虾扯蛋.Lonely","steam_id":76561198022989560,"connected_time":691000000000,"state":"active","ping":48}]},{"server_id":22,"name":"Uncletopia | London | 6 | All Maps","name_short":"lon-6","host":"lon-1.uk.uncletopia.com","port":27065,"enabled":true,"region":"eu","cc":"gb","latitude":51.509865,"longitude":-0.118092,"reserved":0,"last_update":"0001-01-01T00:00:00Z","name_a2s":"Uncletopia | London | 6 | All Maps","protocol":17,"map":"pl_upward","folder":"tf","game":"Team Fortress","app_id":440,"player_count":23,"max_players":24,"Bots":0,"server_type":"Dedicated","server_os":"Linux","password":true,"vac":true,"version":"7961495","steam_id":85568392924742830,"keywords":["nocrits","nodmgspread","payload","uncletopia"],"game_id":440,"stv_port":27066,"stv_name":"Uncletopia | London | 6 | All Maps | STV","players":[{"user_id":804,"name":"Fissure","steam_id":76561198272595481,"connected_time":1053000000000,"state":"active","ping":76},{"user_id":810,"name":"The Hat Fancier","steam_id":76561198004272825,"connected_time":611000000000,"state":"active","ping":70},{"user_id":817,"name":"1312Kinder","steam_id":76561198874529353,"connected_time":238000000000,"state":"active","ping":120},{"user_id":805,"name":"Apollo","steam_id":76561198866054007,"connected_time":1046000000000,"state":"active","ping":85},{"user_id":818,"name":"Basinox","steam_id":76561198019628384,"connected_time":110000000000,"state":"active","ping":62},{"user_id":775,"name":"jerkwaterberg","steam_id":76561198134165667,"connected_time":4359000000000,"state":"active","ping":47},{"user_id":795,"name":"padillacampos","steam_id":76561198161923970,"connected_time":2342000000000,"state":"active","ping":70},{"user_id":766,"name":"dartush","steam_id":76561198067506270,"connected_time":4819000000000,"state":"active","ping":83},{"user_id":803,"name":"lithiumsniffer","steam_id":76561198857126944,"connected_time":1103000000000,"state":"active","ping":63},{"user_id":819,"name":"Phillipo","steam_id":76561198105215143,"connected_time":100000000000,"state":"active","ping":52},{"user_id":738,"name":"Bouef","steam_id":76561198240814546,"connected_time":7179000000000,"state":"active","ping":55},{"user_id":754,"name":"Star Throne","steam_id":76561198132171027,"connected_time":6321000000000,"state":"active","ping":58},{"user_id":777,"name":"Zonddey","steam_id":76561198134885222,"connected_time":3956000000000,"state":"active","ping":57},{"user_id":794,"name":"Orangutank","steam_id":76561198827456047,"connected_time":2404000000000,"state":"active","ping":77},{"user_id":769,"name":"siriusplay116","steam_id":76561199403847433,"connected_time":4770000000000,"state":"active","ping":56},{"user_id":809,"name":"woodenpcwarlord","steam_id":76561198037938833,"connected_time":644000000000,"state":"active","ping":63},{"user_id":807,"name":"Chris","steam_id":76561198179791702,"connected_time":801000000000,"state":"active","ping":195},{"user_id":729,"name":"Jan Paweł Długi","steam_id":76561198002849717,"connected_time":8007000000000,"state":"active","ping":72},{"user_id":771,"name":"monikka","steam_id":76561198297003397,"connected_time":4766000000000,"state":"active","ping":61},{"user_id":798,"name":"3.5 Mefedron Plug","steam_id":76561198969473168,"connected_time":2038000000000,"state":"active","ping":97},{"user_id":788,"name":"niandits","steam_id":76561198419798900,"connected_time":2586000000000,"state":"active","ping":208},{"user_id":749,"name":"Cabanos","steam_id":76561198285337328,"connected_time":6528000000000,"state":"active","ping":65},{"user_id":821,"name":"Lewylow","steam_id":76561198005425686,"connected_time":65000000000,"state":"active","ping":49}]},{"server_id":40,"name":"Uncletopia | London | 7 | Stopwatch","name_short":"lon-7","host":"lon-1.uk.uncletopia.com","port":27075,"enabled":true,"region":"eu","cc":"gb","latitude":51.509865,"longitude":-0.118092,"reserved":0,"last_update":"0001-01-01T00:00:00Z","name_a2s":"Uncletopia | London | 7 | Stopwatch","protocol":17,"map":"koth_highpass","folder":"tf","game":"Team Fortress","app_id":440,"player_count":0,"max_players":24,"Bots":0,"server_type":"Dedicated","server_os":"Linux","password":true,"vac":true,"version":"7961495","steam_id":85568392924964314,"keywords":["cp","nocrits","nodmgspread","uncletopia"],"game_id":440,"stv_port":27076,"stv_name":"Uncletopia | London | 7 | Stopwatch | STV","players":null},{"server_id":41,"name":"Uncletopia | London | 8 | Community","name_short":"lon-8","host":"lon-1.uk.uncletopia.com","port":27085,"enabled":true,"region":"eu","cc":"gb","latitude":51.509865,"longitude":-0.118092,"reserved":0,"last_update":"0001-01-01T00:00:00Z","name_a2s":"Uncletopia | London | 8 | Community","protocol":17,"map":"workshop/koth_slaughter_rc1.ugc1712845210","folder":"tf","game":"Team Fortress","app_id":440,"player_count":0,"max_players":24,"Bots":0,"server_type":"Dedicated","server_os":"Linux","password":true,"vac":true,"version":"7961495","steam_id":85568392924964315,"keywords":["cp","nocrits","nodmgspread","uncletopia"],"game_id":440,"stv_port":27086,"stv_name":"Uncletopia | London | 8 | Community | STV","players":null},{"server_id":300,"name":"Uncletopia | Montréal | 1 | One Thousand Uncles","name_short":"mtl-1","host":"mtl-1.ca.uncletopia.com","port":27015,"enabled":true,"region":"us-east","cc":"ca","latitude":45.50889,"longitude":-73.56167,"reserved":0,"last_update":"0001-01-01T00:00:00Z","name_a2s":"","protocol":0,"map":"","folder":"","game":"","app_id":0,"player_count":0,"max_players":0,"Bots":0,"server_type":"","server_os":"","password":false,"vac":false,"version":"","steam_id":0,"keywords":null,"game_id":0,"stv_port":0,"stv_name":"","players":null},{"server_id":301,"name":"Uncletopia | Montréal | 2 | One Thousand Uncles","name_short":"mtl-2","host":"mtl-1.ca.uncletopia.com","port":27025,"enabled":true,"region":"us-east","cc":"ca","latitude":45.50889,"longitude":-73.56167,"reserved":0,"last_update":"0001-01-01T00:00:00Z","name_a2s":"","protocol":0,"map":"","folder":"","game":"","app_id":0,"player_count":0,"max_players":0,"Bots":0,"server_type":"","server_os":"","password":false,"vac":false,"version":"","steam_id":0,"keywords":null,"game_id":0,"stv_port":0,"stv_name":"","players":null},{"server_id":302,"name":"Uncletopia | Montréal | 3 | One Thousand Uncles","name_short":"mtl-3","host":"mtl-1.ca.uncletopia.com","port":27035,"enabled":true,"region":"us-east","cc":"ca","latitude":45.50889,"longitude":-73.56167,"reserved":0,"last_update":"0001-01-01T00:00:00Z","name_a2s":"","protocol":0,"map":"","folder":"","game":"","app_id":0,"player_count":5,"max_players":0,"Bots":0,"server_type":"","server_os":"","password":false,"vac":false,"version":"","steam_id":0,"keywords":null,"game_id":0,"stv_port":0,"stv_name":"","players":[{"user_id":127,"name":"bundykeats","steam_id":76561199214099646,"connected_time":974000000000,"state":"active","ping":73},{"user_id":128,"name":"LaChancla","steam_id":76561198971528917,"connected_time":853000000000,"state":"active","ping":127},{"user_id":98,"name":"Canuck","steam_id":76561197999152255,"connected_time":7506000000000,"state":"active","ping":119},{"user_id":125,"name":"iamtheSpicer","steam_id":76561198263557044,"connected_time":1492000000000,"state":"active","ping":60},{"user_id":126,"name":"Xyverle","steam_id":76561198799726415,"connected_time":1359000000000,"state":"active","ping":75}]},{"server_id":13,"name":"Uncletopia | New York City | 1 | All Maps","name_short":"nyc-1","host":"nyc-1.us.uncletopia.com","port":27015,"enabled":true,"region":"us-east","cc":"us","latitude":40.73061,"longitude":-73.93524,"reserved":0,"last_update":"0001-01-01T00:00:00Z","name_a2s":"Uncletopia | New York City | 1 | All Maps","protocol":17,"map":"pl_badwater","folder":"tf","game":"Team Fortress","app_id":440,"player_count":24,"max_players":24,"Bots":0,"server_type":"Dedicated","server_os":"Linux","password":true,"vac":true,"version":"7961495","steam_id":85568392924469993,"keywords":["nocrits","nodmgspread","payload","uncletopia"],"game_id":440,"stv_port":27016,"stv_name":"Uncletopia | New York City | 1 | All Maps | STV","players":[{"user_id":306,"name":"Ejaculation Zach","steam_id":76561198203765200,"connected_time":2393000000000,"state":"active","ping":72},{"user_id":325,"name":"FAKE TAXI PRANKS","steam_id":76561198136746987,"connected_time":312000000000,"state":"active","ping":78},{"user_id":319,"name":"Rozar","steam_id":76561197973921780,"connected_time":1032000000000,"state":"active","ping":87},{"user_id":305,"name":"Yeti","steam_id":76561198176049478,"connected_time":2442000000000,"state":"active","ping":67},{"user_id":323,"name":"fathead","steam_id":76561198150155615,"connected_time":713000000000,"state":"active","ping":117},{"user_id":308,"name":"toritora","steam_id":76561198023859737,"connected_time":2225000000000,"state":"active","ping":55},{"user_id":326,"name":"UwU","steam_id":76561198971629959,"connected_time":98000000000,"state":"active","ping":129},{"user_id":309,"name":"Primitive","steam_id":76561198060500671,"connected_time":2219000000000,"state":"active","ping":37},{"user_id":279,"name":"Bud Light","steam_id":76561198066904836,"connected_time":4843000000000,"state":"active","ping":74},{"user_id":320,"name":"Chris Hansen, Kell of Kells","steam_id":76561198986775156,"connected_time":1012000000000,"state":"active","ping":69},{"user_id":313,"name":"Humwrecker","steam_id":76561199003607331,"connected_time":1895000000000,"state":"active","ping":139},{"user_id":293,"name":"M249 | Spectre","steam_id":76561198118334485,"connected_time":3581000000000,"state":"active","ping":69},{"user_id":328,"name":"taigaxx","steam_id":76561198202669250,"connected_time":76000000000,"state":"active","ping":61},{"user_id":289,"name":"bobbymcbobington","steam_id":76561199089411172,"connected_time":3826000000000,"state":"active","ping":115},{"user_id":300,"name":"ndvr","steam_id":76561199379200102,"connected_time":2584000000000,"state":"active","ping":47},{"user_id":314,"name":"Rated_C","steam_id":76561199226478414,"connected_time":1815000000000,"state":"active","ping":95},{"user_id":29,"name":"Minister of God","steam_id":76561198044278802,"connected_time":24396000000000,"state":"active","ping":57},{"user_id":315,"name":"CornDog","steam_id":76561198249446918,"connected_time":1210000000000,"state":"active","ping":38},{"user_id":321,"name":"CheeseCake488","steam_id":76561199407617942,"connected_time":897000000000,"state":"active","ping":150},{"user_id":280,"name":"wool","steam_id":76561198869689933,"connected_time":4550000000000,"state":"active","ping":56},{"user_id":282,"name":"Two-Teste Tommy","steam_id":76561198064308936,"connected_time":4263000000000,"state":"active","ping":59},{"user_id":322,"name":"SoapDictator","steam_id":76561198010540358,"connected_time":865000000000,"state":"active","ping":150},{"user_id":324,"name":"GOTTA CLOBBAH DAT KIRBEH","steam_id":76561198153348162,"connected_time":693000000000,"state":"active","ping":56},{"user_id":263,"name":"Chilledr","steam_id":76561198799250315,"connected_time":6179000000000,"state":"active","ping":69}]},{"server_id":14,"name":"Uncletopia | New York City | 2 | All Maps","name_short":"nyc-2","host":"nyc-1.us.uncletopia.com","port":27025,"enabled":true,"region":"us-east","cc":"us","latitude":40.73061,"longitude":-73.93524,"reserved":0,"last_update":"0001-01-01T00:00:00Z","name_a2s":"Uncletopia | New York City | 2 | All Maps","protocol":17,"map":"koth_harvest_final","folder":"tf","game":"Team Fortress","app_id":440,"player_count":0,"max_players":24,"Bots":0,"server_type":"Dedicated","server_os":"Linux","password":true,"vac":true,"version":"7961495","steam_id":85568392924469994,"keywords":["cp","nocrits","nodmgspread","uncletopia"],"game_id":440,"stv_port":27026,"stv_name":"Uncletopia | New York City | 2 | All Maps | STV","players":null},{"server_id":15,"name":"Uncletopia | New York City | 3 | Stopwatch","name_short":"nyc-3","host":"nyc-1.us.uncletopia.com","port":27035,"enabled":true,"region":"us-east","cc":"us","latitude":40.73061,"longitude":-73.93524,"reserved":0,"last_update":"0001-01-01T00:00:00Z","name_a2s":"Uncletopia | New York City | 3 | Stopwatch","protocol":17,"map":"workshop/koth_ashville_final.ugc2130459942","folder":"tf","game":"Team Fortress","app_id":440,"player_count":0,"max_players":24,"Bots":0,"server_type":"Dedicated","server_os":"Linux","password":true,"vac":true,"version":"7961495","steam_id":85568392924742820,"keywords":["cp","nocrits","nodmgspread","uncletopia"],"game_id":440,"stv_port":27036,"stv_name":"Uncletopia | New York City | 3 | Stopwatch | STV","players":null},{"server_id":16,"name":"Uncletopia | New York City | 4 | Community","name_short":"nyc-4","host":"nyc-1.us.uncletopia.com","port":27045,"enabled":true,"region":"us-east","cc":"us","latitude":40.73061,"longitude":-73.93524,"reserved":0,"last_update":"0001-01-01T00:00:00Z","name_a2s":"Uncletopia | New York City | 4 | Community","protocol":17,"map":"workshop/koth_kemptown_rc1.ugc767410655","folder":"tf","game":"Team Fortress","app_id":440,"player_count":0,"max_players":24,"Bots":0,"server_type":"Dedicated","server_os":"Linux","password":true,"vac":true,"version":"7961495","steam_id":85568392924742821,"keywords":["cp","nocrits","nodmgspread","uncletopia"],"game_id":440,"stv_port":27046,"stv_name":"Uncletopia | New York City | 4 | Community | STV","players":null},{"server_id":142,"name":"Uncletopia | São Paulo | 1 | All Maps","name_short":"sao-1","host":"sao-1.br.uncletopia.com","port":27015,"enabled":true,"region":"sa","cc":"br","latitude":-23.533773,"longitude":-46.62529,"reserved":0,"last_update":"0001-01-01T00:00:00Z","name_a2s":"Uncletopia | São Paulo | 1 | All Maps","protocol":17,"map":"pl_upward","folder":"tf","game":"Team Fortress","app_id":440,"player_count":4,"max_players":24,"Bots":0,"server_type":"Dedicated","server_os":"Linux","password":true,"vac":true,"version":"7961495","steam_id":85568392924469996,"keywords":["nocrits","nodmgspread","payload","uncletopia"],"game_id":440,"stv_port":27016,"stv_name":"Uncletopia | São Paulo | 1 | All Maps | STV","players":[{"user_id":25,"name":"Luficavo","steam_id":76561198882533112,"connected_time":560000000000,"state":"active","ping":71},{"user_id":26,"name":"SneaK","steam_id":76561198280344773,"connected_time":471000000000,"state":"active","ping":293},{"user_id":27,"name":"Snow","steam_id":76561198054935353,"connected_time":451000000000,"state":"active","ping":54},{"user_id":28,"name":"0","steam_id":76561198317090330,"connected_time":441000000000,"state":"active","ping":46}]},{"server_id":143,"name":"Uncletopia | São Paulo | 2 | Community","name_short":"sao-2","host":"sao-2.br.uncletopia.com","port":27015,"enabled":true,"region":"sa","cc":"br","latitude":-23.533773,"longitude":-46.62529,"reserved":0,"last_update":"0001-01-01T00:00:00Z","name_a2s":"Uncletopia | São Paulo | 2 | Community","protocol":17,"map":"workshop/koth_trenchfoot_ab1.ugc731436616","folder":"tf","game":"Team Fortress","app_id":440,"player_count":0,"max_players":24,"Bots":0,"server_type":"Dedicated","server_os":"Linux","password":true,"vac":true,"version":"7961495","steam_id":85568392924485349,"keywords":["cp","nocrits","nodmgspread","uncletopia"],"game_id":440,"stv_port":27016,"stv_name":"Uncletopia | São Paulo | 2 | Community | STV","players":null},{"server_id":7,"name":"Uncletopia | Seattle | 1 | All Maps","name_short":"sea-1","host":"sea-1.us.uncletopia.com","port":27015,"enabled":true,"region":"us-west","cc":"us","latitude":47.608013,"longitude":-122.33517,"reserved":0,"last_update":"0001-01-01T00:00:00Z","name_a2s":"Uncletopia | Seattle | 1 | All Maps","protocol":17,"map":"koth_viaduct","folder":"tf","game":"Team Fortress","app_id":440,"player_count":24,"max_players":24,"Bots":0,"server_type":"Dedicated","server_os":"Linux","password":true,"vac":true,"version":"7961495","steam_id":85568392924469997,"keywords":["cp","nocrits","nodmgspread","uncletopia"],"game_id":440,"stv_port":27016,"stv_name":"Uncletopia | Seattle | 1 | All Maps | STV","players":[{"user_id":351,"name":"w a o w","steam_id":76561198060769385,"connected_time":1859000000000,"state":"active","ping":76},{"user_id":345,"name":"MarioLuigi0404","steam_id":76561198252513650,"connected_time":2559000000000,"state":"active","ping":64},{"user_id":347,"name":"box","steam_id":76561198049531483,"connected_time":2113000000000,"state":"active","ping":135},{"user_id":359,"name":"miguelrodriguez2013","steam_id":76561198269253587,"connected_time":1290000000000,"state":"active","ping":61},{"user_id":377,"name":"John Calibur","steam_id":76561197999986606,"connected_time":149000000000,"state":"active","ping":70},{"user_id":374,"name":"jayeskae","steam_id":76561198144220801,"connected_time":289000000000,"state":"active","ping":45},{"user_id":372,"name":"NEBULA","steam_id":76561198086878595,"connected_time":419000000000,"state":"active","ping":68},{"user_id":368,"name":"Mr. Luggy","steam_id":76561198072723392,"connected_time":849000000000,"state":"active","ping":84},{"user_id":375,"name":"evilOlive","steam_id":76561198106222025,"connected_time":205000000000,"state":"active","ping":82},{"user_id":367,"name":"Bankito","steam_id":76561198972260865,"connected_time":863000000000,"state":"active","ping":89},{"user_id":327,"name":"Emmy Kat","steam_id":76561198185115417,"connected_time":3678000000000,"state":"active","ping":56},{"user_id":356,"name":"P.C. Baby","steam_id":76561198067011379,"connected_time":1638000000000,"state":"active","ping":67},{"user_id":296,"name":"Dimple","steam_id":76561198980324190,"connected_time":5726000000000,"state":"active","ping":50},{"user_id":378,"name":"FlamingManiac","steam_id":76561198361996837,"connected_time":46000000000,"state":"active","ping":106},{"user_id":376,"name":"pepe warlord","steam_id":76561198080819197,"connected_time":194000000000,"state":"active","ping":86},{"user_id":323,"name":"TheMagicMrWaffle","steam_id":76561198104357256,"connected_time":4259000000000,"state":"active","ping":63},{"user_id":320,"name":"the keebler","steam_id":76561199486326945,"connected_time":4511000000000,"state":"active","ping":124},{"user_id":371,"name":"2 Point Tom","steam_id":76561198087617008,"connected_time":571000000000,"state":"active","ping":53},{"user_id":370,"name":"Rhymloh","steam_id":76561198056788413,"connected_time":598000000000,"state":"active","ping":44},{"user_id":373,"name":"H.A.Z.E","steam_id":76561199247095754,"connected_time":375000000000,"state":"active","ping":62},{"user_id":335,"name":"Gwuf","steam_id":76561198091503282,"connected_time":3356000000000,"state":"active","ping":88},{"user_id":366,"name":"slushy :))","steam_id":76561198135281802,"connected_time":1027000000000,"state":"active","ping":34},{"user_id":344,"name":"FightingFire","steam_id":76561198058016812,"connected_time":2560000000000,"state":"active","ping":46},{"user_id":325,"name":"Whyamidoingthisaaaa","steam_id":76561199168837342,"connected_time":4105000000000,"state":"active","ping":106}]},{"server_id":119,"name":"Uncletopia | Seattle | 2 | All Maps","name_short":"sea-2","host":"sea-1.us.uncletopia.com","port":27025,"enabled":true,"region":"us-west","cc":"us","latitude":47.608013,"longitude":-122.33517,"reserved":0,"last_update":"0001-01-01T00:00:00Z","name_a2s":"Uncletopia | Seattle | 2 | All Maps","protocol":17,"map":"koth_lakeside_final","folder":"tf","game":"Team Fortress","app_id":440,"player_count":0,"max_players":24,"Bots":0,"server_type":"Dedicated","server_os":"Linux","password":true,"vac":true,"version":"7961495","steam_id":85568392924469998,"keywords":["cp","nocrits","nodmgspread","uncletopia"],"game_id":440,"stv_port":27026,"stv_name":"Uncletopia | Seattle | 2 | All Maps | STV","players":null},{"server_id":406,"name":"Uncletopia | Seattle | 3 | Stopwatch","name_short":"sea-3","host":"sea-1.us.uncletopia.com","port":27035,"enabled":true,"region":"us-west","cc":"us","latitude":47.608013,"longitude":-122.33517,"reserved":0,"last_update":"0001-01-01T00:00:00Z","name_a2s":"Uncletopia | Seattle | 3 | Stopwatch","protocol":17,"map":"workshop/pl_badwater_pro_v12.ugc2142942074","folder":"tf","game":"Team Fortress","app_id":440,"player_count":0,"max_players":24,"Bots":0,"server_type":"Dedicated","server_os":"Linux","password":true,"vac":true,"version":"7961495","steam_id":85568392924515217,"keywords":["nocrits","nodmgspread","payload","uncletopia"],"game_id":440,"stv_port":27036,"stv_name":"Uncletopia | Seattle | 3 | Stopwatch | STV","players":null},{"server_id":17,"name":"Uncletopia | San Francisco | 1 | All Maps","name_short":"sfo-1","host":"sfo-1.us.uncletopia.com","port":27015,"enabled":true,"region":"us-west","cc":"us","latitude":37.77397,"longitude":-122.4313,"reserved":0,"last_update":"0001-01-01T00:00:00Z","name_a2s":"Uncletopia | San Francisco | 1 | All Maps","protocol":17,"map":"koth_cascade","folder":"tf","game":"Team Fortress","app_id":440,"player_count":0,"max_players":24,"Bots":0,"server_type":"Dedicated","server_os":"Linux","password":true,"vac":true,"version":"7961495","steam_id":85568392924469999,"keywords":["cp","nocrits","nodmgspread","uncletopia"],"game_id":440,"stv_port":27016,"stv_name":"Uncletopia | San Francisco | 1 | All Maps | STV","players":null},{"server_id":18,"name":"Uncletopia | San Francisco | 2 | All Maps","name_short":"sfo-2","host":"sfo-1.us.uncletopia.com","port":27025,"enabled":true,"region":"us-west","cc":"us","latitude":37.77397,"longitude":-122.4313,"reserved":0,"last_update":"0001-01-01T00:00:00Z","name_a2s":"Uncletopia | San Francisco | 2 | All Maps","protocol":17,"map":"pl_frontier_final","folder":"tf","game":"Team Fortress","app_id":440,"player_count":0,"max_players":24,"Bots":0,"server_type":"Dedicated","server_os":"Linux","password":true,"vac":true,"version":"7961495","steam_id":85568392924470000,"keywords":["nocrits","nodmgspread","payload","uncletopia"],"game_id":440,"stv_port":27026,"stv_name":"Uncletopia | San Francisco | 2 | All Maps | STV","players":null},{"server_id":19,"name":"Uncletopia | San Francisco | 3 | Stopwatch","name_short":"sfo-3","host":"sfo-1.us.uncletopia.com","port":27035,"enabled":true,"region":"us-west","cc":"us","latitude":37.77397,"longitude":-122.4313,"reserved":0,"last_update":"0001-01-01T00:00:00Z","name_a2s":"Uncletopia | San Francisco | 3 | Stopwatch","protocol":17,"map":"workshop/cp_process_f12.ugc2302948105","folder":"tf","game":"Team Fortress","app_id":440,"player_count":0,"max_players":24,"Bots":0,"server_type":"Dedicated","server_os":"Linux","password":true,"vac":true,"version":"7961495","steam_id":85568392924742824,"keywords":["cp","nocrits","nodmgspread","uncletopia"],"game_id":440,"stv_port":27036,"stv_name":"Uncletopia | San Francisco | 3 | Stopwatch | STV","players":null},{"server_id":20,"name":"Uncletopia | San Francisco | 4 | Community","name_short":"sfo-4","host":"sfo-1.us.uncletopia.com","port":27045,"enabled":true,"region":"us-west","cc":"us","latitude":37.77397,"longitude":-122.4313,"reserved":0,"last_update":"0001-01-01T00:00:00Z","name_a2s":"Uncletopia | San Francisco | 4 | Community","protocol":17,"map":"workshop/pl_badwater_pro_v12.ugc2142942074","folder":"tf","game":"Team Fortress","app_id":440,"player_count":0,"max_players":24,"Bots":0,"server_type":"Dedicated","server_os":"Linux","password":true,"vac":true,"version":"7961495","steam_id":85568392924742826,"keywords":["nocrits","nodmgspread","payload","uncletopia"],"game_id":440,"stv_port":27046,"stv_name":"Uncletopia | San Francisco | 4 | Community | STV","players":null},{"server_id":141,"name":"Uncletopia | Sydney | 1 | All Maps","name_short":"syd-1","host":"syd-1.au.uncletopia.com","port":27015,"enabled":true,"region":"au","cc":"au","latitude":-33.865143,"longitude":151.2099,"reserved":0,"last_update":"0001-01-01T00:00:00Z","name_a2s":"Uncletopia | Sydney | 1 | All Maps","protocol":17,"map":"koth_viaduct","folder":"tf","game":"Team Fortress","app_id":440,"player_count":0,"max_players":24,"Bots":0,"server_type":"Dedicated","server_os":"Linux","password":true,"vac":true,"version":"7961495","steam_id":85568392924470001,"keywords":["cp","nocrits","nodmgspread","uncletopia"],"game_id":440,"stv_port":27016,"stv_name":"Uncletopia | Sydney | 1 | All Maps | STV","players":null},{"server_id":123,"name":"Uncletopia | Sydney | 2 | All Maps","name_short":"syd-2","host":"syd-1.au.uncletopia.com","port":27025,"enabled":true,"region":"au","cc":"au","latitude":-33.865143,"longitude":151.2099,"reserved":0,"last_update":"0001-01-01T00:00:00Z","name_a2s":"Uncletopia | Sydney | 2 | All Maps","protocol":17,"map":"koth_lakeside_final","folder":"tf","game":"Team Fortress","app_id":440,"player_count":0,"max_players":24,"Bots":0,"server_type":"Dedicated","server_os":"Linux","password":true,"vac":true,"version":"7961495","steam_id":85568392924470002,"keywords":["cp","nocrits","nodmgspread","uncletopia"],"game_id":440,"stv_port":27026,"stv_name":"Uncletopia | Sydney | 2 | All Maps | STV","players":null},{"server_id":395,"name":"Uncletopia | Sydney | 3 | All Maps","name_short":"syd-3","host":"syd-1.au.uncletopia.com","port":27035,"enabled":true,"region":"au","cc":"au","latitude":-33.865143,"longitude":151.2099,"reserved":0,"last_update":"0001-01-01T00:00:00Z","name_a2s":"Uncletopia | Sydney | 3 | All Maps","protocol":17,"map":"pl_frontier_final","folder":"tf","game":"Team Fortress","app_id":440,"player_count":0,"max_players":24,"Bots":0,"server_type":"Dedicated","server_os":"Linux","password":true,"vac":true,"version":"7961495","steam_id":85568392925194467,"keywords":["nocrits","nodmgspread","payload","uncletopia"],"game_id":440,"stv_port":27036,"stv_name":"Uncletopia | Sydney | 3 | All Maps | STV","players":null},{"server_id":396,"name":"Uncletopia | Sydney | 4 | All Maps","name_short":"syd-4","host":"syd-1.au.uncletopia.com","port":27045,"enabled":true,"region":"au","cc":"au","latitude":-33.865143,"longitude":151.2099,"reserved":0,"last_update":"0001-01-01T00:00:00Z","name_a2s":"Uncletopia | Sydney | 4 | All Maps","protocol":17,"map":"cp_process_final","folder":"tf","game":"Team Fortress","app_id":440,"player_count":0,"max_players":24,"Bots":0,"server_type":"Dedicated","server_os":"Linux","password":true,"vac":true,"version":"7961495","steam_id":85568392925397958,"keywords":["cp","nocrits","nodmgspread","uncletopia"],"game_id":440,"stv_port":27046,"stv_name":"Uncletopia | Sydney | 4 | All Maps | STV","players":null},{"server_id":58,"name":"Uncletopia | Sydney | 5 | Stopwatch","name_short":"syd-5","host":"syd-1.au.uncletopia.com","port":27055,"enabled":true,"region":"au","cc":"au","latitude":-33.865143,"longitude":151.2099,"reserved":0,"last_update":"0001-01-01T00:00:00Z","name_a2s":"Uncletopia | Sydney | 5 | Stopwatch","protocol":17,"map":"pl_frontier_final","folder":"tf","game":"Team Fortress","app_id":440,"player_count":0,"max_players":24,"Bots":0,"server_type":"Dedicated","server_os":"Linux","password":true,"vac":true,"version":"7961495","steam_id":85568392925397959,"keywords":["nocrits","nodmgspread","payload","uncletopia"],"game_id":440,"stv_port":27056,"stv_name":"Uncletopia | Sydney | 5 | Stopwatch | STV","players":null},{"server_id":59,"name":"Uncletopia | Sydney | 6 | Community","name_short":"syd-6","host":"syd-1.au.uncletopia.com","port":27065,"enabled":true,"region":"au","cc":"au","latitude":-33.865143,"longitude":151.2099,"reserved":0,"last_update":"0001-01-01T00:00:00Z","name_a2s":"Uncletopia | Sydney | 6 | Community","protocol":17,"map":"cp_sunshine","folder":"tf","game":"Team Fortress","app_id":440,"player_count":0,"max_players":24,"Bots":0,"server_type":"Dedicated","server_os":"Linux","password":true,"vac":true,"version":"7961495","steam_id":85568392925397960,"keywords":["cp","nocrits","nodmgspread","uncletopia"],"game_id":440,"stv_port":27066,"stv_name":"Uncletopia | Sydney | 6 | Community | STV","players":null},{"server_id":49,"name":"Uncletopia | Warsaw | 1 | One Thousand Uncles","name_short":"waw-1","host":"waw-1.pl.uncletopia.com","port":27015,"enabled":true,"region":"eu","cc":"pl","latitude":52.2297,"longitude":21.017532,"reserved":0,"last_update":"0001-01-01T00:00:00Z","name_a2s":"Uncletopia | Warsaw | 1 | One Thousand Uncles","protocol":17,"map":"cp_dustbowl","folder":"tf","game":"Team Fortress","app_id":440,"player_count":29,"max_players":32,"Bots":16,"server_type":"Dedicated","server_os":"Linux","password":true,"vac":true,"version":"7961495","steam_id":85568392925397850,"keywords":["alltalk","bots","cp","danepve","increased_maxplayers","nocrits","norespawntime","uncletopia"],"game_id":440,"stv_port":0,"stv_name":"","players":[{"user_id":443,"name":"vurtun","steam_id":76561198857395274,"connected_time":3851000000000,"state":"active","ping":58},{"user_id":486,"name":"𝒯𝓇𝓊𝓈𝓁𝒶𝓋228","steam_id":76561199229195988,"connected_time":1811000000000,"state":"active","ping":101},{"user_id":490,"name":"Soya Suki","steam_id":76561197998106435,"connected_time":947000000000,"state":"active","ping":63},{"user_id":449,"name":"Frying Pan gaming","steam_id":76561199230315253,"connected_time":3319000000000,"state":"active","ping":47},{"user_id":495,"name":"Jazzman","steam_id":76561198060638643,"connected_time":29000000000,"state":"active","ping":89},{"user_id":451,"name":"kakash","steam_id":76561199420637314,"connected_time":3045000000000,"state":"active","ping":77},{"user_id":476,"name":"aolkdi","steam_id":76561198025479415,"connected_time":2479000000000,"state":"active","ping":137},{"user_id":416,"name":"Max Power","steam_id":76561198019269089,"connected_time":4945000000000,"state":"active","ping":61},{"user_id":489,"name":"blachu #SafeTF2","steam_id":76561199409774861,"connected_time":1599000000000,"state":"active","ping":87},{"user_id":492,"name":"Berdly","steam_id":76561199029872533,"connected_time":681000000000,"state":"active","ping":74},{"user_id":396,"name":"Djingis Khan","steam_id":76561197967864460,"connected_time":6406000000000,"state":"active","ping":55},{"user_id":483,"name":"Scout","steam_id":76561198992898803,"connected_time":2101000000000,"state":"active","ping":78},{"user_id":482,"name":"DRIP ENGINEER GAMING","steam_id":76561199043691209,"connected_time":2107000000000,"state":"active","ping":165}]},{"server_id":50,"name":"Uncletopia | Warsaw | 2 | One Thousand Uncles","name_short":"waw-2","host":"waw-1.pl.uncletopia.com","port":27025,"enabled":true,"region":"eu","cc":"pl","latitude":52.2297,"longitude":21.017532,"reserved":0,"last_update":"0001-01-01T00:00:00Z","name_a2s":"Uncletopia | Warsaw | 2 | One Thousand Uncles","protocol":17,"map":"cp_dustbowl","folder":"tf","game":"Team Fortress","app_id":440,"player_count":1,"max_players":32,"Bots":0,"server_type":"Dedicated","server_os":"Linux","password":true,"vac":true,"version":"7961495","steam_id":85568392925397851,"keywords":["alltalk","cp","danepve","increased_maxplayers","nocrits","norespawntime","uncletopia"],"game_id":440,"stv_port":0,"stv_name":"","players":[{"user_id":461,"name":"C.E.O. of stab industry","steam_id":76561198242840202,"connected_time":606000000000,"state":"spawning","ping":72}]},{"server_id":51,"name":"Uncletopia | Warsaw | 3 | All Maps","name_short":"waw-3","host":"waw-1.pl.uncletopia.com","port":27035,"enabled":true,"region":"eu","cc":"pl","latitude":52.2297,"longitude":21.017532,"reserved":0,"last_update":"0001-01-01T00:00:00Z","name_a2s":"Uncletopia | Warsaw | 3 | All Maps","protocol":17,"map":"pl_upward","folder":"tf","game":"Team Fortress","app_id":440,"player_count":23,"max_players":24,"Bots":0,"server_type":"Dedicated","server_os":"Linux","password":true,"vac":true,"version":"7961495","steam_id":85568392925397852,"keywords":["nocrits","nodmgspread","payload","uncletopia"],"game_id":440,"stv_port":27036,"stv_name":"Uncletopia | Warsaw | 3 | All Maps | STV","players":[{"user_id":21,"name":"Piesel","steam_id":76561198985453063,"connected_time":6146000000000,"state":"active","ping":35},{"user_id":94,"name":"Gety0","steam_id":76561198044387185,"connected_time":1020000000000,"state":"active","ping":60},{"user_id":93,"name":"tylko dobry towar.","steam_id":76561197995655159,"connected_time":1028000000000,"state":"active","ping":31},{"user_id":107,"name":"thia","steam_id":76561198186366599,"connected_time":156000000000,"state":"active","ping":105},{"user_id":95,"name":"bob","steam_id":76561199379221929,"connected_time":992000000000,"state":"active","ping":61},{"user_id":96,"name":"lore","steam_id":76561198120984188,"connected_time":992000000000,"state":"active","ping":68},{"user_id":25,"name":"smosh gaming","steam_id":76561198821743257,"connected_time":5622000000000,"state":"active","ping":92},{"user_id":26,"name":"Jemixz","steam_id":76561198075766516,"connected_time":5586000000000,"state":"active","ping":73},{"user_id":27,"name":"mexswall","steam_id":76561198075748245,"connected_time":5568000000000,"state":"active","ping":61},{"user_id":28,"name":"Gameing","steam_id":76561198199687607,"connected_time":5427000000000,"state":"active","ping":78},{"user_id":103,"name":"60hz laptop","steam_id":76561198111229919,"connected_time":546000000000,"state":"active","ping":77},{"user_id":72,"name":"Erdogames","steam_id":76561198959564055,"connected_time":1991000000000,"state":"active","ping":96},{"user_id":32,"name":"M2rtRa","steam_id":76561198111036466,"connected_time":5212000000000,"state":"active","ping":91},{"user_id":77,"name":"The Bucket","steam_id":76561199131973613,"connected_time":1672000000000,"state":"active","ping":121},{"user_id":104,"name":"GoatLord1","steam_id":76561198157964544,"connected_time":496000000000,"state":"active","ping":85},{"user_id":105,"name":"Duke Fishlord","steam_id":76561198079928327,"connected_time":485000000000,"state":"active","ping":61},{"user_id":101,"name":"Frostlight","steam_id":76561198016360449,"connected_time":901000000000,"state":"active","ping":59},{"user_id":79,"name":"Hobbes","steam_id":76561198082685310,"connected_time":1643000000000,"state":"active","ping":87},{"user_id":80,"name":"Basfol","steam_id":76561198086584060,"connected_time":1616000000000,"state":"active","ping":115},{"user_id":98,"name":"Groucho","steam_id":76561198042888918,"connected_time":964000000000,"state":"active","ping":76},{"user_id":86,"name":"dima_gorgon","steam_id":76561198205824409,"connected_time":1406000000000,"state":"active","ping":77},{"user_id":87,"name":"[T]aKer","steam_id":76561198001778013,"connected_time":1400000000000,"state":"active","ping":70},{"user_id":92,"name":"Kenny","steam_id":76561198994898206,"connected_time":1215000000000,"state":"active","ping":67}]},{"server_id":52,"name":"Uncletopia | Warsaw | 4 | All Maps","name_short":"waw-4","host":"waw-1.pl.uncletopia.com","port":27045,"enabled":true,"region":"eu","cc":"pl","latitude":52.2297,"longitude":21.017532,"reserved":0,"last_update":"0001-01-01T00:00:00Z","name_a2s":"Uncletopia | Warsaw | 4 | All Maps","protocol":17,"map":"pl_swiftwater_final1","folder":"tf","game":"Team Fortress","app_id":440,"player_count":0,"max_players":24,"Bots":0,"server_type":"Dedicated","server_os":"Linux","password":true,"vac":true,"version":"7961495","steam_id":85568392925397853,"keywords":["nocrits","nodmgspread","payload","uncletopia"],"game_id":440,"stv_port":27046,"stv_name":"Uncletopia | Warsaw | 4 | All Maps | STV","players":null},{"server_id":53,"name":"Uncletopia | Warsaw | 5 | Stopwatch","name_short":"waw-5","host":"waw-1.pl.uncletopia.com","port":27055,"enabled":true,"region":"eu","cc":"pl","latitude":52.2297,"longitude":21.017532,"reserved":0,"last_update":"0001-01-01T00:00:00Z","name_a2s":"Uncletopia | Warsaw | 5 | Stopwatch","protocol":17,"map":"workshop/pl_vigil_rc10.ugc1266210012","folder":"tf","game":"Team Fortress","app_id":440,"player_count":0,"max_players":24,"Bots":0,"server_type":"Dedicated","server_os":"Linux","password":true,"vac":true,"version":"7961495","steam_id":85568392925397854,"keywords":["nocrits","nodmgspread","payload","uncletopia"],"game_id":440,"stv_port":27056,"stv_name":"Uncletopia | Warsaw | 5 | Stopwatch | STV","players":null},{"server_id":54,"name":"Uncletopia | Warsaw | 6 | Community","name_short":"waw-6","host":"waw-1.pl.uncletopia.com","port":27065,"enabled":true,"region":"eu","cc":"pl","latitude":52.2297,"longitude":21.017532,"reserved":0,"last_update":"0001-01-01T00:00:00Z","name_a2s":"Uncletopia | Warsaw | 6 | Community","protocol":17,"map":"workshop/koth_ramjam_rc1.ugc459778887","folder":"tf","game":"Team Fortress","app_id":440,"player_count":0,"max_players":24,"Bots":0,"server_type":"Dedicated","server_os":"Linux","password":true,"vac":true,"version":"7961495","steam_id":85568392925397856,"keywords":["cp","nocrits","nodmgspread","uncletopia"],"game_id":440,"stv_port":27066,"stv_name":"Uncletopia | Warsaw | 6 | Community | STV","players":null}]}