{"status":true,"message":"","result":[{"server_id":9,"name":"Uncletopia | Atlanta | 1 | All Maps","name_short":"atl-1","host":"atl-1.us.uncletopia.com","port":27015,"enabled":true,"region":"us-east","cc":"us","latitude":33.753746,"longitude":-84.38633,"reserved":0,"last_update":"0001-01-01T00:00:00Z","name_a2s":"Uncletopia | Atlanta | 1 | All Maps","protocol":17,"map":"koth_cascade","folder":"tf","game":"Team Fortress","app_id":440,"player_count":0,"max_players":24,"Bots":0,"server_type":"Dedicated","server_os":"Linux","password":true,"vac":true,"version":"7695204","steam_id":85568392924469982,"keywords":["cp","nocrits","nodmgspread","uncletopia"],"game_id":440,"stv_port":0,"stv_name":"","players":null},{"server_id":400,"name":"Uncletopia | Atlanta | 3 | All Maps","name_short":"atl-3","host":"atl-1.us.uncletopia.com","port":27035,"enabled":true,"region":"us-east","cc":"us","latitude":33.753746,"longitude":-84.38633,"reserved":0,"last_update":"0001-01-01T00:00:00Z","name_a2s":"Uncletopia | Atlanta | 3 | All Maps","protocol":17,"map":"pl_frontier_final","folder":"tf","game":"Team Fortress","app_id":440,"player_count":0,"max_players":24,"Bots":0,"server_type":"Dedicated","server_os":"Linux","password":true,"vac":true,"version":"7695204","steam_id":85568392924515187,"keywords":["nocrits","nodmgspread","payload","uncletopia"],"game_id":440,"stv_port":0,"stv_name":"","players":null},{"server_id":401,"name":"Uncletopia | Atlanta | 4 | No Payload","name_short":"atl-4","host":"atl-1.us.uncletopia.com","port":27045,"enabled":true,"region":"us-east","cc":"us","latitude":33.753746,"longitude":-84.38633,"reserved":0,"last_update":"0001-01-01T00:00:00Z","name_a2s":"Uncletopia | Atlanta | 4 | No Payload","protocol":17,"map":"cp_snakewater_final1","folder":"tf","game":"Team Fortress","app_id":440,"player_count":0,"max_players":24,"Bots":0,"server_type":"Dedicated","server_os":"Linux","password":true,"vac":true,"version":"7695204","steam_id":85568392924515188,"keywords":["cp","nocrits","nodmgspread","uncletopia"],"game_id":440,"stv_port":0,"stv_name":"","players":null},{"server_id":2,"name":"Uncletopia | Chicago | 1 | All Maps","name_short":"chi-1","host":"chi-1.us.uncletopia.com","port":27015,"enabled":true,"region":"us-central","cc":"us","latitude":41.881832,"longitude":-87.62318,"reserved":0,"last_update":"0001-01-01T00:00:00Z","name_a2s":"Uncletopia | Chicago | 1 | All Maps","protocol":17,"map":"cp_sunshine","folder":"tf","game":"Team Fortress","app_id":440,"player_count":24,"max_players":24,"Bots":0,"server_type":"Dedicated","server_os":"Linux","password":true,"vac":true,"version":"7695204","steam_id":85568392924469984,"keywords":["cp","nocrits","nodmgspread","uncletopia"],"game_id":440,"stv_port":27016,"stv_name":"Uncletopia | Chicago | 1 | All Maps | STV","players":[{"user_id":999,"name":"Troglodyte","steam_id":76561198093926643,"connected_time":8563000000000,"state":"active","ping":66},{"user_id":1062,"name":"OBESE? NAH, A BEAST","steam_id":76561198144766439,"connected_time":3069000000000,"state":"active","ping":40},{"user_id":1088,"name":"Chiaki Nanami","steam_id":76561198164782653,"connected_time":16000000000,"state":"active","ping":106},{"user_id":1082,"name":"Michiru Kagemori","steam_id":76561198257241799,"connected_time":1338000000000,"state":"active","ping":65},{"user_id":1083,"name":"yomokha","steam_id":76561198063175935,"connected_time":1335000000000,"state":"active","ping":71},{"user_id":1079,"name":"ÒwÓ","steam_id":76561197997304387,"connected_time":1368000000000,"state":"active","ping":70},{"user_id":1054,"name":"twitch.tv/rurrrr","steam_id":76561198039758987,"connected_time":4295000000000,"state":"active","ping":96},{"user_id":1084,"name":"Sigiferd","steam_id":76561198148788110,"connected_time":1325000000000,"state":"active","ping":125},{"user_id":1085,"name":"Kritzburgh","steam_id":76561198149466938,"connected_time":1325000000000,"state":"active","ping":69},{"user_id":1061,"name":"badboy6996 #4Pelt #4TRUMP","steam_id":76561197969386201,"connected_time":3324000000000,"state":"active","ping":52},{"user_id":1068,"name":"Ayayahuasca","steam_id":76561199002906056,"connected_time":2957000000000,"state":"active","ping":91},{"user_id":1080,"name":"BIG HOG","steam_id":76561198079923652,"connected_time":1362000000000,"state":"active","ping":86},{"user_id":1078,"name":"Red","steam_id":76561198051557567,"connected_time":1370000000000,"state":"active","ping":74},{"user_id":1069,"name":"Beef Wellington","steam_id":76561197995635241,"connected_time":2902000000000,"state":"active","ping":78},{"user_id":1070,"name":"puppy","steam_id":76561197964635660,"connected_time":2788000000000,"state":"active","ping":90},{"user_id":1086,"name":"dys","steam_id":76561198076067588,"connected_time":1325000000000,"state":"active","ping":123},{"user_id":1039,"name":"Hudbus","steam_id":76561198193921543,"connected_time":5218000000000,"state":"active","ping":79},{"user_id":1071,"name":"Elena Manetta","steam_id":76561197998344054,"connected_time":2785000000000,"state":"active","ping":60},{"user_id":1066,"name":"dumbass","steam_id":76561198410957728,"connected_time":3052000000000,"state":"active","ping":44},{"user_id":1072,"name":"Goofball","steam_id":76561198074189084,"connected_time":2783000000000,"state":"active","ping":58},{"user_id":1060,"name":"GayBowser125","steam_id":76561198163430099,"connected_time":3949000000000,"state":"active","ping":148},{"user_id":1087,"name":"DSM-IVCE","steam_id":76561199438515797,"connected_time":1039000000000,"state":"active","ping":116},{"user_id":1058,"name":"KingToaster","steam_id":76561198007903802,"connected_time":4094000000000,"state":"active","ping":75},{"user_id":1076,"name":"_","steam_id":76561198149536267,"connected_time":1986000000000,"state":"active","ping":75}]},{"server_id":106,"name":"Uncletopia | Chicago | 2 | All Maps","name_short":"chi-2","host":"chi-1.us.uncletopia.com","port":27025,"enabled":true,"region":"us-central","cc":"us","latitude":41.881832,"longitude":-87.62318,"reserved":0,"last_update":"0001-01-01T00:00:00Z","name_a2s":"Uncletopia | Chicago | 2 | All Maps","protocol":17,"map":"cp_sunshine","folder":"tf","game":"Team Fortress","app_id":440,"player_count":0,"max_players":24,"Bots":0,"server_type":"Dedicated","server_os":"Linux","password":true,"vac":true,"version":"7695204","steam_id":85568392924469985,"keywords":["cp","nocrits","nodmgspread","uncletopia"],"game_id":440,"stv_port":27026,"stv_name":"Uncletopia | Chicago | 2 | All Maps | STV","players":null},{"server_id":402,"name":"Uncletopia | Chicago | 3 | All Maps","name_short":"chi-3","host":"chi-1.us.uncletopia.com","port":27035,"enabled":true,"region":"us-central","cc":"us","latitude":41.881832,"longitude":-87.62318,"reserved":0,"last_update":"0001-01-01T00:00:00Z","name_a2s":"Uncletopia | Chicago | 3 | All Maps","protocol":17,"map":"cp_mountainlab","folder":"tf","game":"Team Fortress","app_id":440,"player_count":0,"max_players":24,"Bots":0,"server_type":"Dedicated","server_os":"Linux","password":true,"vac":true,"version":"7695204","steam_id":85568392924515191,"keywords":["cp","nocrits","nodmgspread","uncletopia"],"game_id":440,"stv_port":27036,"stv_name":"Uncletopia | Chicago | 3 | All Maps | STV","players":null},{"server_id":403,"name":"Uncletopia | Chicago | 4 | All Maps","name_short":"chi-4","host":"chi-1.us.uncletopia.com","port":27045,"enabled":true,"region":"us-central","cc":"us","latitude":41.881832,"longitude":-87.62318,"reserved":0,"last_update":"0001-01-01T00:00:00Z","name_a2s":"Uncletopia | Chicago | 4 | All Maps","protocol":17,"map":"koth_lakeside_final","folder":"tf","game":"Team Fortress","app_id":440,"player_count":0,"max_players":24,"Bots":0,"server_type":"Dedicated","server_os":"Linux","password":true,"vac":true,"version":"7695204","steam_id":85568392924515193,"keywords":["cp","nocrits","nodmgspread","uncletopia"],"game_id":440,"stv_port":27046,"stv_name":"Uncletopia | Chicago | 4 | All Maps | STV","players":null},{"server_id":36,"name":"Uncletopia | Chicago | 5 | All Maps","name_short":"chi-5","host":"chi-2.us.uncletopia.com","port":27015,"enabled":true,"region":"us-central","cc":"us","latitude":41.881832,"longitude":-87.62318,"reserved":0,"last_update":"0001-01-01T00:00:00Z","name_a2s":"Uncletopia | Chicago | 5 | All Maps","protocol":17,"map":"cp_snakewater_final1","folder":"tf","game":"Team Fortress","app_id":440,"player_count":0,"max_players":24,"Bots":0,"server_type":"Dedicated","server_os":"Linux","password":true,"vac":true,"version":"7695204","steam_id":85568392924866362,"keywords":["cp","nocrits","nodmgspread","uncletopia"],"game_id":440,"stv_port":27016,"stv_name":"Uncletopia | Chicago | 5 | All Maps | STV","players":null},{"server_id":37,"name":"Uncletopia | Chicago | 6 | All Maps","name_short":"chi-6","host":"chi-2.us.uncletopia.com","port":27025,"enabled":true,"region":"us-central","cc":"us","latitude":41.881832,"longitude":-87.62318,"reserved":0,"last_update":"0001-01-01T00:00:00Z","name_a2s":"Uncletopia | Chicago | 6 | All Maps","protocol":17,"map":"koth_highpass","folder":"tf","game":"Team Fortress","app_id":440,"player_count":0,"max_players":24,"Bots":0,"server_type":"Dedicated","server_os":"Linux","password":true,"vac":true,"version":"7695204","steam_id":85568392924866363,"keywords":["cp","nocrits","nodmgspread","uncletopia"],"game_id":440,"stv_port":27026,"stv_name":"Uncletopia | Chicago | 6 | All Maps | STV","players":null},{"server_id":38,"name":"Uncletopia | Chicago | 7 | No Payload","name_short":"chi-7","host":"chi-2.us.uncletopia.com","port":27035,"enabled":true,"region":"us-central","cc":"us","latitude":41.881832,"longitude":-87.62318,"reserved":0,"last_update":"0001-01-01T00:00:00Z","name_a2s":"Uncletopia | Chicago | 7 | No Payload","protocol":17,"map":"koth_harvest_final","folder":"tf","game":"Team Fortress","app_id":440,"player_count":0,"max_players":24,"Bots":0,"server_type":"Dedicated","server_os":"Linux","password":true,"vac":true,"version":"7695204","steam_id":85568392924866364,"keywords":["cp","nocrits","nodmgspread","uncletopia"],"game_id":440,"stv_port":27036,"stv_name":"Uncletopia | Chicago | 7 | No Payload | STV","players":null},{"server_id":39,"name":"Uncletopia | Chicago | 8 | Community","name_short":"chi-8","host":"chi-2.us.uncletopia.com","port":27045,"enabled":true,"region":"us-central","cc":"us","latitude":41.881832,"longitude":-87.62318,"reserved":0,"last_update":"0001-01-01T00:00:00Z","name_a2s":"Uncletopia | Chicago | 8 | Community","protocol":17,"map":"workshop/cp_sulfur_rc2.ugc619869471","folder":"tf","game":"Team Fortress","app_id":440,"player_count":0,"max_players":24,"Bots":0,"server_type":"Dedicated","server_os":"Linux","password":true,"vac":true,"version":"7695204","steam_id":85568392924866365,"keywords":["cp","nocrits","nodmgspread","uncletopia"],"game_id":440,"stv_port":27046,"stv_name":"Uncletopia | Chicago | 8 | Community | STV","players":null},{"server_id":8,"name":"Uncletopia | Dallas | 1 | All Maps","name_short":"dal-1","host":"dal-1.us.uncletopia.com","port":27015,"enabled":true,"region":"us-central","cc":"us","latitude":32.779167,"longitude":-96.80889,"reserved":0,"last_update":"0001-01-01T00:00:00Z","name_a2s":"Uncletopia | Dallas | 1 | All Maps","protocol":17,"map":"pl_upward","folder":"tf","game":"Team Fortress","app_id":440,"player_count":0,"max_players":24,"Bots":0,"server_type":"Dedicated","server_os":"Linux","password":true,"vac":true,"version":"7695204","steam_id":85568392924469986,"keywords":["nocrits","nodmgspread","payload","uncletopia"],"game_id":440,"stv_port":27016,"stv_name":"Uncletopia | Dallas | 1 | All Maps | STV","players":null},{"server_id":108,"name":"Uncletopia | Dallas | 2 | All Maps","name_short":"dal-2","host":"dal-1.us.uncletopia.com","port":27025,"enabled":true,"region":"us-central","cc":"us","latitude":32.779167,"longitude":-96.80889,"reserved":0,"last_update":"0001-01-01T00:00:00Z","name_a2s":"Uncletopia | Dallas | 2 | All Maps","protocol":17,"map":"koth_lakeside_final","folder":"tf","game":"Team Fortress","app_id":440,"player_count":0,"max_players":24,"Bots":0,"server_type":"Dedicated","server_os":"Linux","password":true,"vac":true,"version":"7695204","steam_id":85568392924469988,"keywords":["cp","nocrits","nodmgspread","uncletopia"],"game_id":440,"stv_port":27026,"stv_name":"Uncletopia | Dallas | 2 | All Maps | STV","players":null},{"server_id":5,"name":"Uncletopia | Frankfurt | 1 | All Maps","name_short":"frk-1","host":"frk-1.de.uncletopia.com","port":27015,"enabled":true,"region":"eu","cc":"de","latitude":50.110924,"longitude":8.682127,"reserved":0,"last_update":"0001-01-01T00:00:00Z","name_a2s":"Uncletopia | Frankfurt | 1 | All Maps","protocol":17,"map":"pl_frontier_final","folder":"tf","game":"Team Fortress","app_id":440,"player_count":24,"max_players":24,"Bots":0,"server_type":"Dedicated","server_os":"Linux","password":true,"vac":true,"version":"7695204","steam_id":85568392924469989,"keywords":["nocrits","nodmgspread","payload","uncletopia"],"game_id":440,"stv_port":27016,"stv_name":"Uncletopia | Frankfurt | 1 | All Maps | STV","players":[{"user_id":200,"name":"PhantomStriker","steam_id":76561199116689935,"connected_time":1105000000000,"state":"active","ping":64},{"user_id":205,"name":"Radegast the Brown","steam_id":76561198075489505,"connected_time":373000000000,"state":"active","ping":50},{"user_id":185,"name":"J4n1X","steam_id":76561198816352147,"connected_time":1796000000000,"state":"active","ping":45},{"user_id":202,"name":"Futaba","steam_id":76561199000012281,"connected_time":785000000000,"state":"active","ping":86},{"user_id":207,"name":"Sylbar","steam_id":76561198065379590,"connected_time":263000000000,"state":"active","ping":57},{"user_id":199,"name":"Beb","steam_id":76561198106119248,"connected_time":1158000000000,"state":"active","ping":62},{"user_id":203,"name":"muza♥","steam_id":76561198220183377,"connected_time":575000000000,"state":"active","ping":94},{"user_id":133,"name":"dankerghost","steam_id":76561198838761959,"connected_time":4842000000000,"state":"active","ping":114},{"user_id":196,"name":"big potato #savetf2","steam_id":76561199009525001,"connected_time":1363000000000,"state":"active","ping":56},{"user_id":188,"name":"lvl. 50 honkler","steam_id":76561198061688660,"connected_time":1744000000000,"state":"active","ping":105},{"user_id":189,"name":"DoraTheExplora","steam_id":76561198059319529,"connected_time":1726000000000,"state":"active","ping":72},{"user_id":206,"name":"Joe Fishington","steam_id":76561198261250961,"connected_time":342000000000,"state":"active","ping":94},{"user_id":167,"name":"CouT1nho","steam_id":76561198203926376,"connected_time":2760000000000,"state":"active","ping":45},{"user_id":160,"name":"Vitamin Weee","steam_id":76561199183937747,"connected_time":3273000000000,"state":"active","ping":78},{"user_id":190,"name":"Scyrup","steam_id":76561198841748356,"connected_time":1715000000000,"state":"active","ping":79},{"user_id":194,"name":"mhn2","steam_id":76561199084811841,"connected_time":1538000000000,"state":"active","ping":131},{"user_id":195,"name":"actually polish","steam_id":76561198267579078,"connected_time":1409000000000,"state":"active","ping":60},{"user_id":171,"name":"Marukuso","steam_id":76561198154229845,"connected_time":2688000000000,"state":"active","ping":58},{"user_id":198,"name":"jorj3821","steam_id":76561198844794367,"connected_time":1197000000000,"state":"active","ping":70},{"user_id":204,"name":"1","steam_id":76561199259135692,"connected_time":547000000000,"state":"active","ping":89},{"user_id":130,"name":"jaime8D","steam_id":76561197980590671,"connected_time":4864000000000,"state":"active","ping":89},{"user_id":173,"name":"Sham!","steam_id":76561198050434275,"connected_time":2669000000000,"state":"active","ping":45},{"user_id":162,"name":"SugipuLaur","steam_id":76561199138556623,"connected_time":3019000000000,"state":"active","ping":66},{"user_id":180,"name":"Autistic Anon","steam_id":76561198439454376,"connected_time":2262000000000,"state":"active","ping":83}]},{"server_id":110,"name":"Uncletopia | Frankfurt | 2 | All Maps","name_short":"frk-2","host":"frk-1.de.uncletopia.com","port":27025,"enabled":true,"region":"eu","cc":"de","latitude":50.110924,"longitude":8.682127,"reserved":0,"last_update":"0001-01-01T00:00:00Z","name_a2s":"Uncletopia | Frankfurt | 2 | All Maps","protocol":17,"map":"cp_altitude","folder":"tf","game":"Team Fortress","app_id":440,"player_count":0,"max_players":24,"Bots":0,"server_type":"Dedicated","server_os":"Linux","password":true,"vac":true,"version":"7695204","steam_id":85568392924469990,"keywords":["cp","nocrits","nodmgspread","uncletopia"],"game_id":440,"stv_port":0,"stv_name":"","players":null},{"server_id":308,"name":"Uncletopia | Frankfurt | 3 | All Maps","name_short":"frk-3","host":"frk-1.de.uncletopia.com","port":27035,"enabled":true,"region":"eu","cc":"de","latitude":50.110924,"longitude":8.682127,"reserved":0,"last_update":"0001-01-01T00:00:00Z","name_a2s":"Uncletopia | Frankfurt | 3 | All Maps","protocol":17,"map":"pl_pier","folder":"tf","game":"Team Fortress","app_id":440,"player_count":24,"max_players":24,"Bots":0,"server_type":"Dedicated","server_os":"Linux","password":true,"vac":true,"version":"7695204","steam_id":85568392924504274,"keywords":["nocrits","nodmgspread","payload","uncletopia"],"game_id":440,"stv_port":27036,"stv_name":"Uncletopia | Frankfurt | 3 | All Maps | STV","players":[{"user_id":79,"name":"Hussain_144","steam_id":76561198346029208,"connected_time":16000000000,"state":"spawning","ping":180},{"user_id":71,"name":"ViktorYoshi","steam_id":76561199157555246,"connected_time":337000000000,"state":"active","ping":62},{"user_id":74,"name":"MoltioN","steam_id":76561198092747292,"connected_time":108000000000,"state":"active","ping":101},{"user_id":51,"name":"Ixsus\u003c3","steam_id":76561198094756869,"connected_time":2004000000000,"state":"active","ping":57},{"user_id":55,"name":"Stoneley","steam_id":76561199182443625,"connected_time":1951000000000,"state":"active","ping":57},{"user_id":50,"name":"NPC (Goblin)","steam_id":76561198970762992,"connected_time":2077000000000,"state":"active","ping":63},{"user_id":54,"name":"Fbafroguy","steam_id":76561199113010473,"connected_time":1953000000000,"state":"active","ping":60},{"user_id":66,"name":"Meem","steam_id":76561199088570961,"connected_time":906000000000,"state":"active","ping":99},{"user_id":43,"name":"Mokie","steam_id":76561199360783914,"connected_time":3000000000000,"state":"active","ping":102},{"user_id":32,"name":"Grenelef","steam_id":76561198047617144,"connected_time":3486000000000,"state":"active","ping":68},{"user_id":65,"name":"LazerMaster","steam_id":76561198880611571,"connected_time":919000000000,"state":"active","ping":61},{"user_id":21,"name":"Nick","steam_id":76561198036109469,"connected_time":3949000000000,"state":"active","ping":80},{"user_id":23,"name":"cosmetical","steam_id":76561198444036574,"connected_time":3843000000000,"state":"active","ping":60},{"user_id":75,"name":"Carrot","steam_id":76561198119340863,"connected_time":106000000000,"state":"active","ping":60},{"user_id":68,"name":"Saint","steam_id":76561198003296382,"connected_time":785000000000,"state":"active","ping":65},{"user_id":28,"name":"cum","steam_id":76561199394052715,"connected_time":3662000000000,"state":"active","ping":74},{"user_id":29,"name":"h e r t e l e k i","steam_id":76561198974861983,"connected_time":3634000000000,"state":"active","ping":75},{"user_id":76,"name":"Rex","steam_id":76561199032874487,"connected_time":105000000000,"state":"active","ping":170},{"user_id":62,"name":"wyromas","steam_id":76561199176835169,"connected_time":1505000000000,"state":"active","ping":70},{"user_id":73,"name":"society","steam_id":76561198214848887,"connected_time":333000000000,"state":"active","ping":73},{"user_id":56,"name":"Нечуй-Левицький","steam_id":76561198870926865,"connected_time":1936000000000,"state":"active","ping":53},{"user_id":77,"name":"One-Tap Man","steam_id":76561198260285179,"connected_time":91000000000,"state":"active","ping":99},{"user_id":57,"name":"Professional Gibus Spy (F2P)","steam_id":76561199082683456,"connected_time":1744000000000,"state":"active","ping":105},{"user_id":60,"name":"Gustavo Frytka","steam_id":76561198998530078,"connected_time":1519000000000,"state":"active","ping":66}]},{"server_id":309,"name":"Uncletopia | Frankfurt | 4 | All Maps","name_short":"frk-4","host":"frk-1.de.uncletopia.com","port":27045,"enabled":true,"region":"eu","cc":"de","latitude":50.110924,"longitude":8.682127,"reserved":0,"last_update":"0001-01-01T00:00:00Z","name_a2s":"Uncletopia | Frankfurt | 4 | All Maps","protocol":17,"map":"koth_highpass","folder":"tf","game":"Team Fortress","app_id":440,"player_count":0,"max_players":24,"Bots":0,"server_type":"Dedicated","server_os":"Linux","password":true,"vac":true,"version":"7695204","steam_id":85568392924504275,"keywords":["cp","nocrits","nodmgspread","uncletopia"],"game_id":440,"stv_port":0,"stv_name":"","players":null},{"server_id":310,"name":"Uncletopia | Frankfurt | 5 | All Maps","name_short":"frk-5","host":"frk-1.de.uncletopia.com","port":27055,"enabled":true,"region":"eu","cc":"de","latitude":50.110924,"longitude":8.682127,"reserved":0,"last_update":"0001-01-01T00:00:00Z","name_a2s":"Uncletopia | Frankfurt | 5 | All Maps","protocol":17,"map":"pl_borneo","folder":"tf","game":"Team Fortress","app_id":440,"player_count":0,"max_players":24,"Bots":0,"server_type":"Dedicated","server_os":"Linux","password":true,"vac":true,"version":"7695204","steam_id":85568392924504277,"keywords":["nocrits","nodmgspread","payload","uncletopia"],"game_id":440,"stv_port":27056,"stv_name":"Uncletopia | Frankfurt | 5 | All Maps | STV","players":null},{"server_id":311,"name":"Uncletopia | Frankfurt | 6 | All Maps","name_short":"frk-6","host":"frk-1.de.uncletopia.com","port":27065,"enabled":true,"region":"eu","cc":"de","latitude":50.110924,"longitude":8.682127,"reserved":0,"last_update":"0001-01-01T00:00:00Z","name_a2s":"Uncletopia | Frankfurt | 6 | All Maps","protocol":17,"map":"koth_viaduct","folder":"tf","game":"Team Fortress","app_id":440,"player_count":24,"max_players":24,"Bots":0,"server_type":"Dedicated","server_os":"Linux","password":true,"vac":true,"version":"7695204","steam_id":85568392924504278,"keywords":["cp","nocrits","nodmgspread","uncletopia"],"game_id":440,"stv_port":27066,"stv_name":"Uncletopia | Frankfurt | 6 | All Maps | STV","players":[{"user_id":80,"name":"Largo","steam_id":76561198844368927,"connected_time":3993000000000,"state":"active","ping":65},{"user_id":101,"name":"terrine de poisson","steam_id":76561198182874945,"connected_time":2062000000000,"state":"active","ping":58},{"user_id":4,"name":"Empyrean","steam_id":76561198138552502,"connected_time":10031000000000,"state":"active","ping":63},{"user_id":107,"name":"Swayer","steam_id":76561198056192460,"connected_time":1414000000000,"state":"active","ping":69},{"user_id":111,"name":"Sp-","steam_id":76561198400657925,"connected_time":1181000000000,"state":"active","ping":88},{"user_id":119,"name":"\"Dominus.\"","steam_id":76561199065917088,"connected_time":576000000000,"state":"active","ping":68},{"user_id":76,"name":"XfarisGamerX","steam_id":76561198367579380,"connected_time":5013000000000,"state":"active","ping":124},{"user_id":97,"name":"nynon","steam_id":76561197998432126,"connected_time":2099000000000,"state":"active","ping":122},{"user_id":92,"name":"Clamor_","steam_id":76561198104368295,"connected_time":2338000000000,"state":"active","ping":75},{"user_id":117,"name":"Scientific Idiocy","steam_id":76561198951206047,"connected_time":796000000000,"state":"active","ping":78},{"user_id":115,"name":"El Gato Volador","steam_id":76561198021296882,"connected_time":957000000000,"state":"active","ping":63},{"user_id":120,"name":"Bobo","steam_id":76561198052308399,"connected_time":550000000000,"state":"active","ping":52},{"user_id":102,"name":"Jonkheervanflep","steam_id":76561198006853101,"connected_time":2046000000000,"state":"active","ping":78},{"user_id":94,"name":"War Ren","steam_id":76561198301524251,"connected_time":2206000000000,"state":"active","ping":67},{"user_id":99,"name":"mishka.*","steam_id":76561198040003628,"connected_time":2096000000000,"state":"active","ping":73},{"user_id":109,"name":"TSx* Osa__PL","steam_id":76561198027016799,"connected_time":1311000000000,"state":"active","ping":71},{"user_id":86,"name":"tortellini in brodo","steam_id":76561198066071855,"connected_time":3353000000000,"state":"active","ping":66},{"user_id":95,"name":"GMsU | Rebikas","steam_id":76561198077053764,"connected_time":2202000000000,"state":"active","ping":45},{"user_id":110,"name":"TSx* Naxer","steam_id":76561198011986779,"connected_time":1305000000000,"state":"active","ping":71},{"user_id":106,"name":"Jerry the clam","steam_id":76561198202990635,"connected_time":1877000000000,"state":"active","ping":58},{"user_id":88,"name":"Anti_Dragon","steam_id":76561198969060607,"connected_time":2905000000000,"state":"active","ping":95},{"user_id":35,"name":"Stepoface","steam_id":76561198091569863,"connected_time":8825000000000,"state":"active","ping":59},{"user_id":116,"name":"MajorKlebstoff","steam_id":76561198035489363,"connected_time":942000000000,"state":"active","ping":52},{"user_id":96,"name":"bananen pizza","steam_id":76561199212990079,"connected_time":2202000000000,"state":"active","ping":62}]},{"server_id":23,"name":"Uncletopia | Frankfurt | 7 | No Payload","name_short":"frk-7","host":"frk-1.de.uncletopia.com","port":27075,"enabled":true,"region":"eu","cc":"de","latitude":50.110924,"longitude":8.682127,"reserved":0,"last_update":"0001-01-01T00:00:00Z","name_a2s":"Uncletopia | Frankfurt | 7 | No Payload","protocol":17,"map":"koth_lazarus","folder":"tf","game":"Team Fortress","app_id":440,"player_count":23,"max_players":24,"Bots":0,"server_type":"Dedicated","server_os":"Linux","password":true,"vac":true,"version":"7695204","steam_id":85568392924742827,"keywords":["cp","nocrits","nodmgspread","uncletopia"],"game_id":440,"stv_port":27076,"stv_name":"Uncletopia | Frankfurt | 7 | No Payload | STV","players":[{"user_id":142,"name":"DVD i want a life","steam_id":76561198338129578,"connected_time":303000000000,"state":"active","ping":49},{"user_id":145,"name":"Mega Fish","steam_id":76561198147779392,"connected_time":171000000000,"state":"active","ping":52},{"user_id":144,"name":"°^°","steam_id":76561198033813057,"connected_time":198000000000,"state":"active","ping":67},{"user_id":97,"name":"ribs","steam_id":76561198354735240,"connected_time":2621000000000,"state":"active","ping":65},{"user_id":76,"name":"brokenphilip","steam_id":76561198080960604,"connected_time":3784000000000,"state":"active","ping":76},{"user_id":147,"name":"Botoxel","steam_id":76561198321048738,"connected_time":26000000000,"state":"spawning","ping":58},{"user_id":120,"name":"Szeretemtej","steam_id":76561198112145288,"connected_time":1597000000000,"state":"active","ping":67},{"user_id":112,"name":"Hoks","steam_id":76561198126442242,"connected_time":2193000000000,"state":"active","ping":120},{"user_id":139,"name":"hinkeczg","steam_id":76561198202007378,"connected_time":500000000000,"state":"active","ping":71},{"user_id":122,"name":"PerskuleBenener","steam_id":76561198156899375,"connected_time":1144000000000,"state":"active","ping":104},{"user_id":132,"name":"Feelin' Supersonic","steam_id":76561198005738407,"connected_time":807000000000,"state":"active","ping":76},{"user_id":125,"name":"Far ∞","steam_id":76561199166149359,"connected_time":930000000000,"state":"active","ping":76},{"user_id":143,"name":"End_Captain","steam_id":76561198984965056,"connected_time":248000000000,"state":"active","ping":81},{"user_id":136,"name":"volodimir2005v","steam_id":76561198844259042,"connected_time":627000000000,"state":"active","ping":67},{"user_id":134,"name":"LasagnaLarry22","steam_id":76561198089478290,"connected_time":731000000000,"state":"active","ping":53},{"user_id":102,"name":"Shrimpeee","steam_id":76561199012689768,"connected_time":2499000000000,"state":"active","ping":74},{"user_id":117,"name":"glögi connoisseur","steam_id":76561198188647690,"connected_time":1674000000000,"state":"active","ping":71},{"user_id":104,"name":"zooom132","steam_id":76561198314426404,"connected_time":2466000000000,"state":"active","ping":146},{"user_id":137,"name":"diamondmerc","steam_id":76561198315299418,"connected_time":622000000000,"state":"active","ping":60},{"user_id":54,"name":"Him","steam_id":76561198086400484,"connected_time":5661000000000,"state":"active","ping":84},{"user_id":108,"name":"sergiazo","steam_id":76561199081954697,"connected_time":2330000000000,"state":"active","ping":71},{"user_id":121,"name":"WIZVRD","steam_id":76561198048042437,"connected_time":1510000000000,"state":"active","ping":81},{"user_id":123,"name":"Janne Yarrak","steam_id":76561197993849325,"connected_time":1133000000000,"state":"active","ping":74}]},{"server_id":24,"name":"Uncletopia | Frankfurt | 8 | Community","name_short":"frk-8","host":"frk-1.de.uncletopia.com","port":27085,"enabled":true,"region":"eu","cc":"de","latitude":50.110924,"longitude":8.682127,"reserved":0,"last_update":"0001-01-01T00:00:00Z","name_a2s":"Uncletopia | Frankfurt | 8 | Community","protocol":17,"map":"koth_lakeside_final","folder":"tf","game":"Team Fortress","app_id":440,"player_count":0,"max_players":24,"Bots":0,"server_type":"Dedicated","server_os":"Linux","password":true,"vac":true,"version":"7695204","steam_id":85568392924742828,"keywords":["cp","nocrits","nodmgspread","uncletopia"],"game_id":440,"stv_port":0,"stv_name":"","players":null},{"server_id":202,"name":"Uncletopia | Hong Kong | 1 | All Maps","name_short":"hgk-1","host":"hgk-1.hk.uncletopia.com","port":27015,"enabled":true,"region":"asia","cc":"hk","latitude":22.302711,"longitude":114.177216,"reserved":0,"last_update":"0001-01-01T00:00:00Z","name_a2s":"Uncletopia | Hong Kong | 1 | All Maps","protocol":17,"map":"pl_barnblitz","folder":"tf","game":"Team Fortress","app_id":440,"player_count":21,"max_players":24,"Bots":0,"server_type":"Dedicated","server_os":"Linux","password":true,"vac":true,"version":"7695204","steam_id":85568392924494504,"keywords":["nocrits","nodmgspread","payload","uncletopia"],"game_id":440,"stv_port":27016,"stv_name":"Uncletopia | Hong Kong | 1 | All Maps | STV","players":[{"user_id":642,"name":"D O N E","steam_id":76561198988918828,"connected_time":1867000000000,"state":"active","ping":86},{"user_id":663,"name":"Lym0n","steam_id":76561199192420260,"connected_time":1015000000000,"state":"active","ping":120},{"user_id":677,"name":"godhood","steam_id":76561198412329672,"connected_time":82000000000,"state":"active","ping":91},{"user_id":643,"name":"subaru 2009","steam_id":76561197994194946,"connected_time":1859000000000,"state":"active","ping":101},{"user_id":644,"name":"duck1e","steam_id":76561198422098581,"connected_time":1858000000000,"state":"active","ping":85},{"user_id":669,"name":"singsongup777","steam_id":76561199426431630,"connected_time":483000000000,"state":"active","ping":102},{"user_id":612,"name":"Sketchy","steam_id":76561198383530268,"connected_time":6777000000000,"state":"active","ping":75},{"user_id":676,"name":"Tanımam","steam_id":76561198051926965,"connected_time":95000000000,"state":"active","ping":290},{"user_id":678,"name":"Marika","steam_id":76561198212649929,"connected_time":38000000000,"state":"active","ping":65},{"user_id":661,"name":"AzureWares","steam_id":76561199439340850,"connected_time":1030000000000,"state":"active","ping":75},{"user_id":672,"name":"bookman","steam_id":76561198989168133,"connected_time":327000000000,"state":"active","ping":85},{"user_id":660,"name":"tuxy","steam_id":76561198996816684,"connected_time":1362000000000,"state":"active","ping":60},{"user_id":666,"name":"Wx","steam_id":76561199217780897,"connected_time":656000000000,"state":"active","ping":131},{"user_id":675,"name":"Lúd","steam_id":76561198828840546,"connected_time":174000000000,"state":"active","ping":95},{"user_id":633,"name":"Cheesey","steam_id":76561198975684137,"connected_time":3977000000000,"state":"active","ping":76},{"user_id":651,"name":"r/leroy","steam_id":76561199137927625,"connected_time":1826000000000,"state":"active","ping":94},{"user_id":668,"name":"TechMaster12(F2P) #savetf2","steam_id":76561199244754236,"connected_time":588000000000,"state":"active","ping":98},{"user_id":655,"name":"Kobeni","steam_id":76561198203073201,"connected_time":1627000000000,"state":"active","ping":59},{"user_id":641,"name":"screaming sniper","steam_id":76561199085568674,"connected_time":2064000000000,"state":"active","ping":59},{"user_id":667,"name":"c","steam_id":76561199099271055,"connected_time":633000000000,"state":"active","ping":76},{"user_id":640,"name":"e","steam_id":76561199068229379,"connected_time":2323000000000,"state":"active","ping":53}]},{"server_id":1,"name":"Uncletopia | Los Angeles | 1 | All Maps","name_short":"lax-1","host":"lax-1.us.uncletopia.com","port":27015,"enabled":true,"region":"us-west","cc":"us","latitude":33.94279,"longitude":-118.41004,"reserved":0,"last_update":"0001-01-01T00:00:00Z","name_a2s":"Uncletopia | Los Angeles | 1 | All Maps","protocol":17,"map":"pl_frontier_final","folder":"tf","game":"Team Fortress","app_id":440,"player_count":0,"max_players":24,"Bots":0,"server_type":"Dedicated","server_os":"Linux","password":true,"vac":true,"version":"7695204","steam_id":85568392924469991,"keywords":["nocrits","nodmgspread","payload","uncletopia"],"game_id":440,"stv_port":27016,"stv_name":"Uncletopia | Los Angeles | 1 | All Maps | STV","players":null},{"server_id":112,"name":"Uncletopia | Los Angeles | 2 | All Maps","name_short":"lax-2","host":"lax-1.us.uncletopia.com","port":27025,"enabled":true,"region":"us-west","cc":"us","latitude":33.94279,"longitude":-118.41004,"reserved":0,"last_update":"0001-01-01T00:00:00Z","name_a2s":"Uncletopia | Los Angeles | 2 | All Maps","protocol":17,"map":"koth_highpass","folder":"tf","game":"Team Fortress","app_id":440,"player_count":0,"max_players":24,"Bots":0,"server_type":"Dedicated","server_os":"Linux","password":true,"vac":true,"version":"7695204","steam_id":85568392924469992,"keywords":["cp","nocrits","nodmgspread","uncletopia"],"game_id":440,"stv_port":27026,"stv_name":"Uncletopia | Los Angeles | 2 | All Maps | STV","players":null},{"server_id":324,"name":"Uncletopia | Los Angeles | 3 | All Maps","name_short":"lax-3","host":"lax-1.us.uncletopia.com","port":27035,"enabled":true,"region":"us-west","cc":"us","latitude":33.94279,"longitude":-118.41004,"reserved":0,"last_update":"0001-01-01T00:00:00Z","name_a2s":"Uncletopia | Los Angeles | 3 | All Maps","protocol":17,"map":"pl_snowycoast","folder":"tf","game":"Team Fortress","app_id":440,"player_count":0,"max_players":24,"Bots":0,"server_type":"Dedicated","server_os":"Linux","password":true,"vac":true,"version":"7695204","steam_id":85568392924510198,"keywords":["nocrits","nodmgspread","payload","uncletopia"],"game_id":440,"stv_port":27036,"stv_name":"Uncletopia | Los Angeles | 3 | All Maps | STV","players":null},{"server_id":25,"name":"Uncletopia | Los Angeles | 4 | No Payload","name_short":"lax-4","host":"lax-1.us.uncletopia.com","port":27045,"enabled":true,"region":"us-west","cc":"us","latitude":33.94279,"longitude":-118.41004,"reserved":0,"last_update":"0001-01-01T00:00:00Z","name_a2s":"Uncletopia | Los Angeles | 4 | No Payload","protocol":17,"map":"cp_standin_final","folder":"tf","game":"Team Fortress","app_id":440,"player_count":0,"max_players":24,"Bots":0,"server_type":"Dedicated","server_os":"Linux","password":true,"vac":true,"version":"7695204","steam_id":85568392924510199,"keywords":["cp","nocrits","nodmgspread","uncletopia"],"game_id":440,"stv_port":27046,"stv_name":"Uncletopia | Los Angeles | 4 | No Payload | STV","players":null},{"server_id":11,"name":"Uncletopia | London | 1 | All Maps","name_short":"lon-1","host":"lon-1.uk.uncletopia.com","port":27015,"enabled":true,"region":"eu","cc":"gb","latitude":51.509865,"longitude":-0.118092,"reserved":0,"last_update":"0001-01-01T00:00:00Z","name_a2s":"Uncletopia | London | 1 | All Maps","protocol":17,"map":"koth_cascade","folder":"tf","game":"Team Fortress","app_id":440,"player_count":0,"max_players":24,"Bots":0,"server_type":"Dedicated","server_os":"Linux","password":true,"vac":true,"version":"7695204","steam_id":85568392924367362,"keywords":["cp","nocrits","nodmgspread","uncletopia"],"game_id":440,"stv_port":27016,"stv_name":"Uncletopia | London | 1 | All Maps | STV","players":null},{"server_id":114,"name":"Uncletopia | London | 2 | All Maps","name_short":"lon-2","host":"lon-1.uk.uncletopia.com","port":27025,"enabled":true,"region":"eu","cc":"gb","latitude":51.509865,"longitude":-0.118092,"reserved":0,"last_update":"0001-01-01T00:00:00Z","name_a2s":"Uncletopia | London | 2 | All Maps","protocol":17,"map":"pl_upward","folder":"tf","game":"Team Fortress","app_id":440,"player_count":24,"max_players":24,"Bots":0,"server_type":"Dedicated","server_os":"Linux","password":true,"vac":true,"version":"7695204","steam_id":85568392924470941,"keywords":["nocrits","nodmgspread","payload","uncletopia"],"game_id":440,"stv_port":27026,"stv_name":"Uncletopia | London | 2 | All Maps | STV","players":[{"user_id":12,"name":"GlobalPotato","steam_id":76561198070636347,"connected_time":605000000000,"state":"active","ping":66},{"user_id":13,"name":"NERO2k","steam_id":76561198070703762,"connected_time":602000000000,"state":"active","ping":76},{"user_id":14,"name":"biggie cheese","steam_id":76561198018976176,"connected_time":598000000000,"state":"active","ping":58},{"user_id":15,"name":"petr.kadera","steam_id":76561198310852145,"connected_time":589000000000,"state":"active","ping":79},{"user_id":16,"name":"meratrof","steam_id":76561198181841702,"connected_time":557000000000,"state":"active","ping":67},{"user_id":9,"name":"RocketBoy08","steam_id":76561198833978944,"connected_time":1092000000000,"state":"active","ping":94},{"user_id":10,"name":"Salih","steam_id":76561198287934839,"connected_time":1081000000000,"state":"active","ping":57},{"user_id":17,"name":"Hkitchen","steam_id":76561198194779526,"connected_time":547000000000,"state":"active","ping":26},{"user_id":18,"name":"VK2124 :D","steam_id":76561198111130688,"connected_time":480000000000,"state":"active","ping":57},{"user_id":19,"name":"I Love Coffee","steam_id":76561199028651017,"connected_time":453000000000,"state":"active","ping":64},{"user_id":20,"name":":3","steam_id":76561198117784431,"connected_time":429000000000,"state":"active","ping":65},{"user_id":27,"name":"Oak ♥","steam_id":76561198248567360,"connected_time":331000000000,"state":"active","ping":33},{"user_id":22,"name":"♥ Cirno ♥","steam_id":76561198834982738,"connected_time":421000000000,"state":"active","ping":58},{"user_id":25,"name":"Rex Z'Beq","steam_id":76561199300590000,"connected_time":367000000000,"state":"active","ping":82},{"user_id":24,"name":"partizan","steam_id":76561198440837262,"connected_time":409000000000,"state":"active","ping":47},{"user_id":26,"name":"pubagu","steam_id":76561198811873583,"connected_time":362000000000,"state":"active","ping":55},{"user_id":28,"name":"swagmire","steam_id":76561198171232419,"connected_time":294000000000,"state":"active","ping":60},{"user_id":30,"name":"French kissing hot lizard men","steam_id":76561198060638325,"connected_time":269000000000,"state":"active","ping":54},{"user_id":37,"name":"MarsCream","steam_id":76561198069037449,"connected_time":76000000000,"state":"active","ping":48},{"user_id":32,"name":"Kokas","steam_id":76561197996786353,"connected_time":251000000000,"state":"active","ping":72},{"user_id":33,"name":"Onneli","steam_id":76561198073569522,"connected_time":228000000000,"state":"active","ping":106},{"user_id":34,"name":"Vertebrate","steam_id":76561198147205843,"connected_time":226000000000,"state":"active","ping":85},{"user_id":35,"name":"PootMan","steam_id":76561199058511479,"connected_time":215000000000,"state":"active","ping":91},{"user_id":36,"name":"Rbata","steam_id":76561198214079909,"connected_time":201000000000,"state":"active","ping":80}]},{"server_id":320,"name":"Uncletopia | London | 3 | All Maps","name_short":"lon-3","host":"lon-1.uk.uncletopia.com","port":27035,"enabled":true,"region":"eu","cc":"gb","latitude":51.509865,"longitude":-0.118092,"reserved":0,"last_update":"0001-01-01T00:00:00Z","name_a2s":"Uncletopia | London | 3 | All Maps","protocol":17,"map":"pl_borneo","folder":"tf","game":"Team Fortress","app_id":440,"player_count":24,"max_players":24,"Bots":0,"server_type":"Dedicated","server_os":"Linux","password":true,"vac":true,"version":"7695204","steam_id":85568392924510192,"keywords":["nocrits","nodmgspread","payload","uncletopia"],"game_id":440,"stv_port":27036,"stv_name":"Uncletopia | London | 3 | All Maps | STV","players":[{"user_id":268,"name":"Mayor Wank from Wanker Town","steam_id":76561197998253588,"connected_time":1679000000000,"state":"active","ping":52},{"user_id":267,"name":"a bee","steam_id":76561198051828515,"connected_time":1713000000000,"state":"active","ping":41},{"user_id":284,"name":"misha","steam_id":76561198018424951,"connected_time":151000000000,"state":"active","ping":80},{"user_id":276,"name":"BEAST MODE 24/7","steam_id":76561198089227864,"connected_time":1218000000000,"state":"active","ping":44},{"user_id":158,"name":"Rin-Nakaret","steam_id":76561197971051188,"connected_time":8978000000000,"state":"active","ping":62},{"user_id":244,"name":"gorrian","steam_id":76561198278199225,"connected_time":3524000000000,"state":"active","ping":66},{"user_id":285,"name":"K.V. #RemoveRandomCrits","steam_id":76561197994832993,"connected_time":140000000000,"state":"active","ping":71},{"user_id":270,"name":"aGreedGryphon","steam_id":76561198245175308,"connected_time":1579000000000,"state":"active","ping":50},{"user_id":238,"name":"45 mg","steam_id":76561198864329072,"connected_time":4125000000000,"state":"active","ping":99},{"user_id":255,"name":"Qwertuss","steam_id":76561198026305366,"connected_time":3127000000000,"state":"active","ping":52},{"user_id":247,"name":"downtown boy","steam_id":76561197983094802,"connected_time":3412000000000,"state":"active","ping":90},{"user_id":283,"name":"JoghurtTheKiller","steam_id":76561198063647918,"connected_time":259000000000,"state":"active","ping":62},{"user_id":266,"name":"vfrc","steam_id":76561198430631575,"connected_time":1720000000000,"state":"active","ping":82},{"user_id":282,"name":"Him","steam_id":76561198155314925,"connected_time":406000000000,"state":"active","ping":57},{"user_id":203,"name":"LOBZIK","steam_id":76561198114830120,"connected_time":6063000000000,"state":"active","ping":77},{"user_id":280,"name":"clean carp","steam_id":76561198127053294,"connected_time":757000000000,"state":"active","ping":74},{"user_id":286,"name":"SkyNet-","steam_id":76561199048059547,"connected_time":132000000000,"state":"active","ping":61},{"user_id":235,"name":"ciliorkun18","steam_id":76561198228942500,"connected_time":4266000000000,"state":"active","ping":90},{"user_id":278,"name":"silicon based life form","steam_id":76561199127121346,"connected_time":955000000000,"state":"active","ping":48},{"user_id":281,"name":"AWildTamim","steam_id":76561198048060652,"connected_time":486000000000,"state":"active","ping":40},{"user_id":243,"name":"player","steam_id":76561198054474684,"connected_time":3828000000000,"state":"active","ping":82},{"user_id":261,"name":"Blazmobins","steam_id":76561198082899401,"connected_time":2829000000000,"state":"active","ping":43},{"user_id":262,"name":"Anarch","steam_id":76561198342216547,"connected_time":2358000000000,"state":"active","ping":109},{"user_id":265,"name":"squib","steam_id":76561198049170360,"connected_time":1774000000000,"state":"active","ping":42}]},{"server_id":321,"name":"Uncletopia | London | 4 | All Maps","name_short":"lon-4","host":"lon-1.uk.uncletopia.com","port":27045,"enabled":true,"region":"eu","cc":"gb","latitude":51.509865,"longitude":-0.118092,"reserved":0,"last_update":"0001-01-01T00:00:00Z","name_a2s":"Uncletopia | London | 4 | All Maps","protocol":17,"map":"koth_viaduct","folder":"tf","game":"Team Fortress","app_id":440,"player_count":0,"max_players":24,"Bots":0,"server_type":"Dedicated","server_os":"Linux","password":true,"vac":true,"version":"7695204","steam_id":85568392924510193,"keywords":["cp","nocrits","nodmgspread","uncletopia"],"game_id":440,"stv_port":0,"stv_name":"","players":null},{"server_id":21,"name":"Uncletopia | London | 5 | All Maps","name_short":"lon-5","host":"lon-1.uk.uncletopia.com","port":27055,"enabled":true,"region":"eu","cc":"gb","latitude":51.509865,"longitude":-0.118092,"reserved":0,"last_update":"0001-01-01T00:00:00Z","name_a2s":"Uncletopia | London | 5 | All Maps","protocol":17,"map":"koth_cascade","folder":"tf","game":"Team Fortress","app_id":440,"player_count":0,"max_players":24,"Bots":0,"server_type":"Dedicated","server_os":"Linux","password":true,"vac":true,"version":"7695204","steam_id":85568392924742829,"keywords":["cp","nocrits","nodmgspread","uncletopia"],"game_id":440,"stv_port":0,"stv_name":"","players":null},{"server_id":22,"name":"Uncletopia | London | 6 | All Maps","name_short":"lon-6","host":"lon-1.uk.uncletopia.com","port":27065,"enabled":true,"region":"eu","cc":"gb","latitude":51.509865,"longitude":-0.118092,"reserved":0,"last_update":"0001-01-01T00:00:00Z","name_a2s":"Uncletopia | London | 6 | All Maps","protocol":17,"map":"pl_pier","folder":"tf","game":"Team Fortress","app_id":440,"player_count":0,"max_players":24,"Bots":0,"server_type":"Dedicated","server_os":"Linux","password":true,"vac":true,"version":"7695204","steam_id":85568392924742830,"keywords":["nocrits","nodmgspread","payload","uncletopia"],"game_id":440,"stv_port":0,"stv_name":"","players":null},{"server_id":40,"name":"Uncletopia | London | 7 | No Payload","name_short":"lon-7","host":"lon-1.uk.uncletopia.com","port":27075,"enabled":true,"region":"eu","cc":"gb","latitude":51.509865,"longitude":-0.118092,"reserved":0,"last_update":"0001-01-01T00:00:00Z","name_a2s":"Uncletopia | London | 7 | No Payload","protocol":17,"map":"cp_snakewater_final1","folder":"tf","game":"Team Fortress","app_id":440,"player_count":0,"max_players":24,"Bots":0,"server_type":"Dedicated","server_os":"Linux","password":true,"vac":true,"version":"7695204","steam_id":85568392924964314,"keywords":["cp","nocrits","nodmgspread","uncletopia"],"game_id":440,"stv_port":0,"stv_name":"","players":null},{"server_id":41,"name":"Uncletopia | London | 8 | Community","name_short":"lon-8","host":"lon-1.uk.uncletopia.com","port":27085,"enabled":true,"region":"eu","cc":"gb","latitude":51.509865,"longitude":-0.118092,"reserved":0,"last_update":"0001-01-01T00:00:00Z","name_a2s":"Uncletopia | London | 8 | Community","protocol":17,"map":"cp_dustbowl","folder":"tf","game":"Team Fortress","app_id":440,"player_count":0,"max_players":24,"Bots":0,"server_type":"Dedicated","server_os":"Linux","password":true,"vac":true,"version":"7695204","steam_id":85568392924964315,"keywords":["cp","nocrits","nodmgspread","uncletopia"],"game_id":440,"stv_port":0,"stv_name":"","players":null},{"server_id":300,"name":"Uncletopia | Montréal | 1 | All Maps","name_short":"mtl-1","host":"mtl-1.ca.uncletopia.com","port":27015,"enabled":true,"region":"us-east","cc":"ca","latitude":45.50889,"longitude":-73.56167,"reserved":0,"last_update":"0001-01-01T00:00:00Z","name_a2s":"Uncletopia | Montréal | 1 | All Maps","protocol":17,"map":"cp_dustbowl","folder":"tf","game":"Team Fortress","app_id":440,"player_count":0,"max_players":24,"Bots":0,"server_type":"Dedicated","server_os":"Linux","password":true,"vac":true,"version":"7695204","steam_id":85568392924500087,"keywords":["cp","nocrits","nodmgspread","uncletopia"],"game_id":440,"stv_port":0,"stv_name":"","players":null},{"server_id":301,"name":"Uncletopia | Montréal | 2 | All Maps","name_short":"mtl-2","host":"mtl-1.ca.uncletopia.com","port":27025,"enabled":true,"region":"us-east","cc":"ca","latitude":45.50889,"longitude":-73.56167,"reserved":0,"last_update":"0001-01-01T00:00:00Z","name_a2s":"Uncletopia | Montréal | 2 | All Maps","protocol":17,"map":"pl_snowycoast","folder":"tf","game":"Team Fortress","app_id":440,"player_count":0,"max_players":24,"Bots":0,"server_type":"Dedicated","server_os":"Linux","password":true,"vac":true,"version":"7695204","steam_id":85568392924500088,"keywords":["nocrits","nodmgspread","payload","uncletopia"],"game_id":440,"stv_port":0,"stv_name":"","players":null},{"server_id":302,"name":"Uncletopia | Montréal | 3 | All Maps","name_short":"mtl-3","host":"mtl-1.ca.uncletopia.com","port":27035,"enabled":true,"region":"us-east","cc":"ca","latitude":45.50889,"longitude":-73.56167,"reserved":0,"last_update":"0001-01-01T00:00:00Z","name_a2s":"Uncletopia | Montréal | 3 | All Maps","protocol":17,"map":"koth_viaduct","folder":"tf","game":"Team Fortress","app_id":440,"player_count":0,"max_players":24,"Bots":0,"server_type":"Dedicated","server_os":"Linux","password":true,"vac":true,"version":"7695204","steam_id":85568392924500089,"keywords":["cp","nocrits","nodmgspread","uncletopia"],"game_id":440,"stv_port":0,"stv_name":"","players":null},{"server_id":303,"name":"Uncletopia | Montréal | 4 | No Payload","name_short":"mtl-4","host":"mtl-1.ca.uncletopia.com","port":27045,"enabled":true,"region":"us-east","cc":"ca","latitude":45.50889,"longitude":-73.56167,"reserved":0,"last_update":"0001-01-01T00:00:00Z","name_a2s":"Uncletopia | Montréal | 4 | No Payload","protocol":17,"map":"cp_dustbowl","folder":"tf","game":"Team Fortress","app_id":440,"player_count":0,"max_players":24,"Bots":0,"server_type":"Dedicated","server_os":"Linux","password":true,"vac":true,"version":"7695204","steam_id":85568392924500090,"keywords":["cp","nocrits","nodmgspread","uncletopia"],"game_id":440,"stv_port":0,"stv_name":"","players":null},{"server_id":13,"name":"Uncletopia | New York City | 1 | All Maps","name_short":"nyc-1","host":"nyc-1.us.uncletopia.com","port":27015,"enabled":true,"region":"us-east","cc":"us","latitude":40.73061,"longitude":-73.93524,"reserved":0,"last_update":"0001-01-01T00:00:00Z","name_a2s":"Uncletopia | New York City | 1 | All Maps","protocol":17,"map":"cp_snakewater_final1","folder":"tf","game":"Team Fortress","app_id":440,"player_count":0,"max_players":24,"Bots":0,"server_type":"Dedicated","server_os":"Linux","password":true,"vac":true,"version":"7695204","steam_id":85568392924469993,"keywords":["cp","nocrits","nodmgspread","uncletopia"],"game_id":440,"stv_port":0,"stv_name":"","players":null},{"server_id":14,"name":"Uncletopia | New York City | 2 | All Maps","name_short":"nyc-2","host":"nyc-1.us.uncletopia.com","port":27025,"enabled":true,"region":"us-east","cc":"us","latitude":40.73061,"longitude":-73.93524,"reserved":0,"last_update":"0001-01-01T00:00:00Z","name_a2s":"Uncletopia | New York City | 2 | All Maps","protocol":17,"map":"pl_borneo","folder":"tf","game":"Team Fortress","app_id":440,"player_count":0,"max_players":24,"Bots":0,"server_type":"Dedicated","server_os":"Linux","password":true,"vac":true,"version":"7695204","steam_id":85568392924469994,"keywords":["nocrits","nodmgspread","payload","uncletopia"],"game_id":440,"stv_port":0,"stv_name":"","players":null},{"server_id":15,"name":"Uncletopia | New York City | 3 | All Maps","name_short":"nyc-3","host":"nyc-1.us.uncletopia.com","port":27035,"enabled":true,"region":"us-east","cc":"us","latitude":40.73061,"longitude":-73.93524,"reserved":0,"last_update":"0001-01-01T00:00:00Z","name_a2s":"Uncletopia | New York City | 3 | All Maps","protocol":17,"map":"pl_snowycoast","folder":"tf","game":"Team Fortress","app_id":440,"player_count":0,"max_players":24,"Bots":0,"server_type":"Dedicated","server_os":"Linux","password":true,"vac":true,"version":"7695204","steam_id":85568392924742820,"keywords":["nocrits","nodmgspread","payload","uncletopia"],"game_id":440,"stv_port":0,"stv_name":"","players":null},{"server_id":16,"name":"Uncletopia | New York City | 4 | Community","name_short":"nyc-4","host":"nyc-1.us.uncletopia.com","port":27045,"enabled":true,"region":"us-east","cc":"us","latitude":40.73061,"longitude":-73.93524,"reserved":0,"last_update":"0001-01-01T00:00:00Z","name_a2s":"Uncletopia | New York City | 4 | Community","protocol":17,"map":"pl_barnblitz","folder":"tf","game":"Team Fortress","app_id":440,"player_count":0,"max_players":24,"Bots":0,"server_type":"Dedicated","server_os":"Linux","password":true,"vac":true,"version":"7695204","steam_id":85568392924742821,"keywords":["nocrits","nodmgspread","payload","uncletopia"],"game_id":440,"stv_port":0,"stv_name":"","players":null},{"server_id":142,"name":"Uncletopia | São Paulo | 1 | All Maps","name_short":"sao-1","host":"sao-1.br.uncletopia.com","port":27015,"enabled":true,"region":"sa","cc":"br","latitude":-23.533773,"longitude":-46.62529,"reserved":0,"last_update":"0001-01-01T00:00:00Z","name_a2s":"Uncletopia | São Paulo | 1 | All Maps","protocol":17,"map":"koth_cascade","folder":"tf","game":"Team Fortress","app_id":440,"player_count":0,"max_players":24,"Bots":0,"server_type":"Dedicated","server_os":"Linux","password":true,"vac":true,"version":"7695204","steam_id":85568392924469996,"keywords":["cp","nocrits","nodmgspread","uncletopia"],"game_id":440,"stv_port":0,"stv_name":"","players":null},{"server_id":143,"name":"Uncletopia | São Paulo | 2 | All Maps","name_short":"sao-2","host":"sao-2.br.uncletopia.com","port":27015,"enabled":true,"region":"sa","cc":"br","latitude":-23.533773,"longitude":-46.62529,"reserved":0,"last_update":"0001-01-01T00:00:00Z","name_a2s":"Uncletopia | São Paulo | 2 | All Maps","protocol":17,"map":"cp_snakewater_final1","folder":"tf","game":"Team Fortress","app_id":440,"player_count":0,"max_players":24,"Bots":0,"server_type":"Dedicated","server_os":"Linux","password":true,"vac":true,"version":"7695204","steam_id":85568392924485349,"keywords":["cp","nocrits","nodmgspread","uncletopia"],"game_id":440,"stv_port":0,"stv_name":"","players":null},{"server_id":7,"name":"Uncletopia | Seattle | 1 | All Maps","name_short":"sea-1","host":"sea-1.us.uncletopia.com","port":27015,"enabled":true,"region":"us-west","cc":"us","latitude":47.608013,"longitude":-122.33517,"reserved":0,"last_update":"0001-01-01T00:00:00Z","name_a2s":"Uncletopia | Seattle | 1 | All Maps","protocol":17,"map":"koth_cascade","folder":"tf","game":"Team Fortress","app_id":440,"player_count":0,"max_players":24,"Bots":0,"server_type":"Dedicated","server_os":"Linux","password":true,"vac":true,"version":"7695204","steam_id":85568392924469997,"keywords":["cp","nocrits","nodmgspread","uncletopia"],"game_id":440,"stv_port":27016,"stv_name":"Uncletopia | Seattle | 1 | All Maps | STV","players":null},{"server_id":119,"name":"Uncletopia | Seattle | 2 | All Maps","name_short":"sea-2","host":"sea-1.us.uncletopia.com","port":27025,"enabled":true,"region":"us-west","cc":"us","latitude":47.608013,"longitude":-122.33517,"reserved":0,"last_update":"0001-01-01T00:00:00Z","name_a2s":"Uncletopia | Seattle | 2 | All Maps","protocol":17,"map":"koth_cascade","folder":"tf","game":"Team Fortress","app_id":440,"player_count":0,"max_players":24,"Bots":0,"server_type":"Dedicated","server_os":"Linux","password":true,"vac":true,"version":"7695204","steam_id":85568392924469998,"keywords":["cp","nocrits","nodmgspread","uncletopia"],"game_id":440,"stv_port":27026,"stv_name":"Uncletopia | Seattle | 2 | All Maps | STV","players":null},{"server_id":17,"name":"Uncletopia | San Francisco | 1 | All Maps","name_short":"sfo-1","host":"sfo-1.us.uncletopia.com","port":27015,"enabled":true,"region":"us-west","cc":"us","latitude":37.77397,"longitude":-122.4313,"reserved":0,"last_update":"0001-01-01T00:00:00Z","name_a2s":"Uncletopia | San Francisco | 1 | All Maps","protocol":17,"map":"pl_swiftwater_final1","folder":"tf","game":"Team Fortress","app_id":440,"player_count":22,"max_players":24,"Bots":0,"server_type":"Dedicated","server_os":"Linux","password":true,"vac":true,"version":"7695204","steam_id":85568392924469999,"keywords":["nocrits","nodmgspread","payload","uncletopia"],"game_id":440,"stv_port":27016,"stv_name":"Uncletopia | San Francisco | 1 | All Maps | STV","players":[{"user_id":495,"name":"pcplace","steam_id":76561198097987387,"connected_time":2933000000000,"state":"active","ping":62},{"user_id":522,"name":"(pansmack.mp4)","steam_id":76561198811511278,"connected_time":839000000000,"state":"active","ping":121},{"user_id":501,"name":"Shmurda","steam_id":76561198284566282,"connected_time":2262000000000,"state":"active","ping":68},{"user_id":502,"name":"amagicowl","steam_id":76561199060487814,"connected_time":2260000000000,"state":"active","ping":77},{"user_id":468,"name":"Flyingcat9000","steam_id":76561198179561797,"connected_time":4354000000000,"state":"active","ping":36},{"user_id":520,"name":"King Teeth","steam_id":76561198045554683,"connected_time":1045000000000,"state":"active","ping":79},{"user_id":530,"name":"Grammer","steam_id":76561197977007845,"connected_time":284000000000,"state":"active","ping":51},{"user_id":523,"name":"Tyco","steam_id":76561197978414167,"connected_time":697000000000,"state":"active","ping":107},{"user_id":437,"name":"Dr_Minty","steam_id":76561199043644449,"connected_time":5554000000000,"state":"active","ping":60},{"user_id":524,"name":"Saggle","steam_id":76561198056075147,"connected_time":611000000000,"state":"active","ping":180},{"user_id":525,"name":"brimstone","steam_id":76561198066619792,"connected_time":602000000000,"state":"active","ping":72},{"user_id":515,"name":"TheOneTrueDev","steam_id":76561198107400823,"connected_time":1613000000000,"state":"active","ping":92},{"user_id":528,"name":"Patrick_Star","steam_id":76561198194381963,"connected_time":422000000000,"state":"active","ping":48},{"user_id":529,"name":"duck","steam_id":76561198828470191,"connected_time":377000000000,"state":"active","ping":46},{"user_id":518,"name":"AOTFB | Vox Vulpera","steam_id":76561198796227041,"connected_time":1290000000000,"state":"active","ping":127},{"user_id":393,"name":"super autism girl","steam_id":76561198008908085,"connected_time":9178000000000,"state":"active","ping":47},{"user_id":531,"name":"twitch.tv/HelloAnon_","steam_id":76561198109740776,"connected_time":127000000000,"state":"active","ping":67},{"user_id":532,"name":"Twisted4000","steam_id":76561198031237102,"connected_time":116000000000,"state":"active","ping":80},{"user_id":533,"name":"D2nni","steam_id":76561198979457556,"connected_time":65000000000,"state":"active","ping":219},{"user_id":511,"name":"Mrluigi1111111","steam_id":76561198284677119,"connected_time":1911000000000,"state":"active","ping":122},{"user_id":516,"name":"Chucho997","steam_id":76561198069645340,"connected_time":1481000000000,"state":"active","ping":143},{"user_id":514,"name":"$k8DEMON666","steam_id":76561198212993755,"connected_time":1667000000000,"state":"active","ping":78}]},{"server_id":18,"name":"Uncletopia | San Francisco | 2 | All Maps","name_short":"sfo-2","host":"sfo-1.us.uncletopia.com","port":27025,"enabled":true,"region":"us-west","cc":"us","latitude":37.77397,"longitude":-122.4313,"reserved":0,"last_update":"0001-01-01T00:00:00Z","name_a2s":"Uncletopia | San Francisco | 2 | All Maps","protocol":17,"map":"cp_sunshine","folder":"tf","game":"Team Fortress","app_id":440,"player_count":0,"max_players":24,"Bots":0,"server_type":"Dedicated","server_os":"Linux","password":true,"vac":true,"version":"7695204","steam_id":85568392924470000,"keywords":["cp","nocrits","nodmgspread","uncletopia"],"game_id":440,"stv_port":27026,"stv_name":"Uncletopia | San Francisco | 2 | All Maps | STV","players":null},{"server_id":19,"name":"Uncletopia | San Francisco | 3 | No Payload","name_short":"sfo-3","host":"sfo-1.us.uncletopia.com","port":27035,"enabled":true,"region":"us-west","cc":"us","latitude":37.77397,"longitude":-122.4313,"reserved":0,"last_update":"0001-01-01T00:00:00Z","name_a2s":"Uncletopia | San Francisco | 3 | No Payload","protocol":17,"map":"cp_freight_final1","folder":"tf","game":"Team Fortress","app_id":440,"player_count":0,"max_players":24,"Bots":0,"server_type":"Dedicated","server_os":"Linux","password":true,"vac":true,"version":"7695204","steam_id":85568392924742824,"keywords":["cp","nocrits","nodmgspread","uncletopia"],"game_id":440,"stv_port":27036,"stv_name":"Uncletopia | San Francisco | 3 | No Payload | STV","players":null},{"server_id":20,"name":"Uncletopia | San Francisco | 4 | Community","name_short":"sfo-4","host":"sfo-1.us.uncletopia.com","port":27045,"enabled":true,"region":"us-west","cc":"us","latitude":37.77397,"longitude":-122.4313,"reserved":0,"last_update":"0001-01-01T00:00:00Z","name_a2s":"Uncletopia | San Francisco | 4 | Community","protocol":17,"map":"koth_highpass","folder":"tf","game":"Team Fortress","app_id":440,"player_count":0,"max_players":24,"Bots":0,"server_type":"Dedicated","server_os":"Linux","password":true,"vac":true,"version":"7695204","steam_id":85568392924742826,"keywords":["cp","nocrits","nodmgspread","uncletopia"],"game_id":440,"stv_port":0,"stv_name":"","players":null},{"server_id":141,"name":"Uncletopia | Sydney | 1 | All Maps","name_short":"syd-1","host":"syd-1.au.uncletopia.com","port":27015,"enabled":true,"region":"au","cc":"au","latitude":-33.865143,"longitude":151.2099,"reserved":0,"last_update":"0001-01-01T00:00:00Z","name_a2s":"Uncletopia | Sydney | 1 | All Maps","protocol":17,"map":"koth_lakeside_final","folder":"tf","game":"Team Fortress","app_id":440,"player_count":7,"max_players":24,"Bots":0,"server_type":"Dedicated","server_os":"Linux","password":true,"vac":true,"version":"7695204","steam_id":85568392924470001,"keywords":["cp","nocrits","nodmgspread","uncletopia"],"game_id":440,"stv_port":27016,"stv_name":"Uncletopia | Sydney | 1 | All Maps | STV","players":[{"user_id":705,"name":"Jizfellow","steam_id":76561198067993108,"connected_time":405000000000,"state":"active","ping":33},{"user_id":704,"name":"kada","steam_id":76561199001188678,"connected_time":472000000000,"state":"active","ping":46},{"user_id":706,"name":"frawg","steam_id":76561197963763869,"connected_time":273000000000,"state":"active","ping":72},{"user_id":693,"name":"stub","steam_id":76561198237014504,"connected_time":1435000000000,"state":"active","ping":60},{"user_id":707,"name":"TooLongName","steam_id":76561198082203205,"connected_time":255000000000,"state":"active","ping":65},{"user_id":708,"name":"The Crust","steam_id":76561198029406708,"connected_time":226000000000,"state":"active","ping":61},{"user_id":709,"name":"AlEx MaSOn","steam_id":76561198809736508,"connected_time":215000000000,"state":"active","ping":46}]},{"server_id":123,"name":"Uncletopia | Sydney | 2 | All Maps","name_short":"syd-2","host":"syd-1.au.uncletopia.com","port":27025,"enabled":true,"region":"au","cc":"au","latitude":-33.865143,"longitude":151.2099,"reserved":0,"last_update":"0001-01-01T00:00:00Z","name_a2s":"Uncletopia | Sydney | 2 | All Maps","protocol":17,"map":"pl_pier","folder":"tf","game":"Team Fortress","app_id":440,"player_count":24,"max_players":24,"Bots":0,"server_type":"Dedicated","server_os":"Linux","password":true,"vac":true,"version":"7695204","steam_id":85568392924470002,"keywords":["nocrits","nodmgspread","payload","uncletopia"],"game_id":440,"stv_port":27026,"stv_name":"Uncletopia | Sydney | 2 | All Maps | STV","players":[{"user_id":299,"name":"CosmicKitty","steam_id":76561198286043637,"connected_time":623000000000,"state":"active","ping":100},{"user_id":288,"name":"TheDoctor30","steam_id":76561198433686866,"connected_time":882000000000,"state":"active","ping":94},{"user_id":281,"name":"Whoopass_voice","steam_id":76561198003965423,"connected_time":1179000000000,"state":"active","ping":46},{"user_id":305,"name":"Doctor Estonia","steam_id":76561198057365089,"connected_time":263000000000,"state":"active","ping":68},{"user_id":306,"name":"Azzy","steam_id":76561198096245286,"connected_time":259000000000,"state":"active","ping":56},{"user_id":269,"name":"Empr","steam_id":76561198024387396,"connected_time":1851000000000,"state":"active","ping":95},{"user_id":289,"name":"dc","steam_id":76561198040993425,"connected_time":862000000000,"state":"active","ping":81},{"user_id":280,"name":"RoverTw0","steam_id":76561198025416071,"connected_time":1306000000000,"state":"active","ping":40},{"user_id":267,"name":"scuba cat... my beloved","steam_id":76561198203917953,"connected_time":2071000000000,"state":"active","ping":65},{"user_id":290,"name":"EpicGuy4227","steam_id":76561198094132328,"connected_time":849000000000,"state":"active","ping":52},{"user_id":284,"name":"toots","steam_id":76561198094589768,"connected_time":977000000000,"state":"active","ping":70},{"user_id":275,"name":"ex0dia","steam_id":76561198048349719,"connected_time":1505000000000,"state":"active","ping":56},{"user_id":285,"name":"Selling Anti-Matter for $543","steam_id":76561198070708382,"connected_time":940000000000,"state":"active","ping":49},{"user_id":286,"name":"rainbo(road)","steam_id":76561198202882166,"connected_time":912000000000,"state":"active","ping":49},{"user_id":259,"name":"Comedy Mode","steam_id":76561198293250088,"connected_time":2890000000000,"state":"active","ping":100},{"user_id":291,"name":"Thyme","steam_id":76561198086751156,"connected_time":849000000000,"state":"active","ping":60},{"user_id":292,"name":"Treggles","steam_id":76561198042806226,"connected_time":848000000000,"state":"active","ping":79},{"user_id":268,"name":"Madison Ivy","steam_id":76561198074674290,"connected_time":2023000000000,"state":"active","ping":62},{"user_id":307,"name":"timboe","steam_id":76561198003442007,"connected_time":112000000000,"state":"active","ping":68},{"user_id":295,"name":"J''''","steam_id":76561198047565137,"connected_time":796000000000,"state":"active","ping":56},{"user_id":297,"name":"It's muffin time!","steam_id":76561198219928769,"connected_time":746000000000,"state":"active","ping":50},{"user_id":300,"name":"gave my love to a shooting star","steam_id":76561197990537324,"connected_time":608000000000,"state":"active","ping":105},{"user_id":304,"name":"R3ginald","steam_id":76561198094630138,"connected_time":506000000000,"state":"active","ping":65},{"user_id":278,"name":"NastySauce","steam_id":76561198824978577,"connected_time":1461000000000,"state":"active","ping":76}]},{"server_id":395,"name":"Uncletopia | Sydney | 3 | All Maps","name_short":"syd-3","host":"syd-1.au.uncletopia.com","port":27035,"enabled":true,"region":"au","cc":"au","latitude":-33.865143,"longitude":151.2099,"reserved":0,"last_update":"0001-01-01T00:00:00Z","name_a2s":"Uncletopia | Sydney | 3 | All Maps","protocol":17,"map":"pl_borneo","folder":"tf","game":"Team Fortress","app_id":440,"player_count":4,"max_players":24,"Bots":0,"server_type":"Dedicated","server_os":"Linux","password":true,"vac":true,"version":"7695204","steam_id":85568392925194467,"keywords":["nocrits","nodmgspread","payload","uncletopia"],"game_id":440,"stv_port":27036,"stv_name":"Uncletopia | Sydney | 3 | All Maps | STV","players":[{"user_id":330,"name":"Scetaril","steam_id":76561199232961168,"connected_time":619000000000,"state":"active","ping":57},{"user_id":331,"name":"Wrainbow","steam_id":76561199039385168,"connected_time":436000000000,"state":"active","ping":69},{"user_id":332,"name":"Saul Goodman","steam_id":76561199018221880,"connected_time":127000000000,"state":"active","ping":354},{"user_id":316,"name":"SilverPenguin","steam_id":76561199025744213,"connected_time":1845000000000,"state":"active","ping":96}]},{"server_id":396,"name":"Uncletopia | Sydney | 4 | All Maps","name_short":"syd-4","host":"syd-1.au.uncletopia.com","port":27045,"enabled":true,"region":"au","cc":"au","latitude":-33.865143,"longitude":151.2099,"reserved":0,"last_update":"0001-01-01T00:00:00Z","name_a2s":"Uncletopia | Sydney | 4 | All Maps","protocol":17,"map":"koth_highpass","folder":"tf","game":"Team Fortress","app_id":440,"player_count":0,"max_players":24,"Bots":0,"server_type":"Dedicated","server_os":"Linux","password":true,"vac":true,"version":"7695204","steam_id":85568392925397958,"keywords":["cp","nocrits","nodmgspread","uncletopia"],"game_id":440,"stv_port":27046,"stv_name":"Uncletopia | Sydney | 4 | All Maps | STV","players":null},{"server_id":58,"name":"Uncletopia | Sydney | 5 | No Payload","name_short":"syd-5","host":"syd-1.au.uncletopia.com","port":27055,"enabled":true,"region":"au","cc":"au","latitude":-33.865143,"longitude":151.2099,"reserved":0,"last_update":"0001-01-01T00:00:00Z","name_a2s":"Uncletopia | Sydney | 5 | No Payload","protocol":17,"map":"koth_viaduct","folder":"tf","game":"Team Fortress","app_id":440,"player_count":0,"max_players":24,"Bots":0,"server_type":"Dedicated","server_os":"Linux","password":true,"vac":true,"version":"7695204","steam_id":85568392925397959,"keywords":["cp","nocrits","nodmgspread","uncletopia"],"game_id":440,"stv_port":0,"stv_name":"","players":null},{"server_id":59,"name":"Uncletopia | Sydney | 6 | Community","name_short":"syd-6","host":"syd-1.au.uncletopia.com","port":27065,"enabled":true,"region":"au","cc":"au","latitude":-33.865143,"longitude":151.2099,"reserved":0,"last_update":"0001-01-01T00:00:00Z","name_a2s":"Uncletopia | Sydney | 6 | Community","protocol":17,"map":"workshop/koth_bagel_rc5.ugc2514036946","folder":"tf","game":"Team Fortress","app_id":440,"player_count":0,"max_players":24,"Bots":0,"server_type":"Dedicated","server_os":"Linux","password":true,"vac":true,"version":"7695204","steam_id":85568392925397960,"keywords":["cp","nocrits","nodmgspread","uncletopia"],"game_id":440,"stv_port":27066,"stv_name":"Uncletopia | Sydney | 6 | Community | STV","players":null},{"server_id":49,"name":"Uncletopia | Warsaw | 1 | All Maps","name_short":"waw-1","host":"waw-1.pl.uncletopia.com","port":27015,"enabled":true,"region":"eu","cc":"pl","latitude":52.2297,"longitude":21.017532,"reserved":0,"last_update":"0001-01-01T00:00:00Z","name_a2s":"Uncletopia | Warsaw | 1 | All Maps","protocol":17,"map":"pl_frontier_final","folder":"tf","game":"Team Fortress","app_id":440,"player_count":0,"max_players":24,"Bots":0,"server_type":"Dedicated","server_os":"Linux","password":true,"vac":true,"version":"7695204","steam_id":85568392925397850,"keywords":["nocrits","nodmgspread","payload","uncletopia"],"game_id":440,"stv_port":0,"stv_name":"","players":null},{"server_id":50,"name":"Uncletopia | Warsaw | 2 | All Maps","name_short":"waw-2","host":"waw-1.pl.uncletopia.com","port":27025,"enabled":true,"region":"eu","cc":"pl","latitude":52.2297,"longitude":21.017532,"reserved":0,"last_update":"0001-01-01T00:00:00Z","name_a2s":"Uncletopia | Warsaw | 2 | All Maps","protocol":17,"map":"cp_process_final","folder":"tf","game":"Team Fortress","app_id":440,"player_count":0,"max_players":24,"Bots":0,"server_type":"Dedicated","server_os":"Linux","password":true,"vac":true,"version":"7695204","steam_id":85568392925397851,"keywords":["cp","nocrits","nodmgspread","uncletopia"],"game_id":440,"stv_port":27026,"stv_name":"Uncletopia | Warsaw | 2 | All Maps | STV","players":null},{"server_id":51,"name":"Uncletopia | Warsaw | 3 | All Maps","name_short":"waw-3","host":"waw-1.pl.uncletopia.com","port":27035,"enabled":true,"region":"eu","cc":"pl","latitude":52.2297,"longitude":21.017532,"reserved":0,"last_update":"0001-01-01T00:00:00Z","name_a2s":"Uncletopia | Warsaw | 3 | All Maps","protocol":17,"map":"pl_barnblitz","folder":"tf","game":"Team Fortress","app_id":440,"player_count":0,"max_players":24,"Bots":0,"server_type":"Dedicated","server_os":"Linux","password":true,"vac":true,"version":"7695204","steam_id":85568392925397852,"keywords":["nocrits","nodmgspread","payload","uncletopia"],"game_id":440,"stv_port":0,"stv_name":"","players":null},{"server_id":52,"name":"Uncletopia | Warsaw | 4 | All Maps","name_short":"waw-4","host":"waw-1.pl.uncletopia.com","port":27045,"enabled":true,"region":"eu","cc":"pl","latitude":52.2297,"longitude":21.017532,"reserved":0,"last_update":"0001-01-01T00:00:00Z","name_a2s":"Uncletopia | Warsaw | 4 | All Maps","protocol":17,"map":"cp_altitude","folder":"tf","game":"Team Fortress","app_id":440,"player_count":0,"max_players":24,"Bots":0,"server_type":"Dedicated","server_os":"Linux","password":true,"vac":true,"version":"7695204","steam_id":85568392925397853,"keywords":["cp","nocrits","nodmgspread","uncletopia"],"game_id":440,"stv_port":0,"stv_name":"","players":null},{"server_id":53,"name":"Uncletopia | Warsaw | 5 | No Payload","name_short":"waw-5","host":"waw-1.pl.uncletopia.com","port":27055,"enabled":true,"region":"eu","cc":"pl","latitude":52.2297,"longitude":21.017532,"reserved":0,"last_update":"0001-01-01T00:00:00Z","name_a2s":"Uncletopia | Warsaw | 5 | No Payload","protocol":17,"map":"cp_altitude","folder":"tf","game":"Team Fortress","app_id":440,"player_count":19,"max_players":24,"Bots":0,"server_type":"Dedicated","server_os":"Linux","password":true,"vac":true,"version":"7695204","steam_id":85568392925397854,"keywords":["cp","nocrits","nodmgspread","uncletopia"],"game_id":440,"stv_port":27056,"stv_name":"Uncletopia | Warsaw | 5 | No Payload | STV","players":[{"user_id":17,"name":"sigmer","steam_id":76561198880427555,"connected_time":1316000000000,"state":"active","ping":33},{"user_id":27,"name":"Winter","steam_id":76561198311381234,"connected_time":815000000000,"state":"active","ping":121},{"user_id":40,"name":"Perämiehenä","steam_id":76561197968945306,"connected_time":118000000000,"state":"active","ping":90},{"user_id":42,"name":"Viperense","steam_id":76561198036206811,"connected_time":49000000000,"state":"active","ping":76},{"user_id":28,"name":"sheytain01","steam_id":76561198120738825,"connected_time":804000000000,"state":"active","ping":124},{"user_id":19,"name":"MeoW:3","steam_id":76561198111141919,"connected_time":1227000000000,"state":"active","ping":55},{"user_id":34,"name":"HorrorSniper :_) ❤ 7777","steam_id":76561199409875578,"connected_time":493000000000,"state":"active","ping":123},{"user_id":35,"name":"hymiel","steam_id":76561198218442957,"connected_time":464000000000,"state":"active","ping":64},{"user_id":14,"name":"Pan W","steam_id":76561198384111099,"connected_time":1995000000000,"state":"active","ping":44},{"user_id":23,"name":"Boobs rater","steam_id":76561198066977580,"connected_time":1008000000000,"state":"active","ping":62},{"user_id":24,"name":"Galaxy skeleton","steam_id":76561198883756275,"connected_time":979000000000,"state":"active","ping":74},{"user_id":29,"name":"Drunk Stormtrooper","steam_id":76561198263075743,"connected_time":728000000000,"state":"active","ping":55},{"user_id":45,"name":"Joff-tchoff-tchoffo-tchoffo-tch","steam_id":76561198044167743,"connected_time":0,"state":"spawning","ping":18},{"user_id":41,"name":"Drommar","steam_id":76561199219654706,"connected_time":111000000000,"state":"active","ping":90},{"user_id":32,"name":"Ghozt","steam_id":76561198289838374,"connected_time":609000000000,"state":"active","ping":77},{"user_id":36,"name":"Faith (S.T.U/U.T.F)","steam_id":76561198447968668,"connected_time":426000000000,"state":"active","ping":76},{"user_id":38,"name":"Rasmusson [29th ID]","steam_id":76561198191451713,"connected_time":392000000000,"state":"active","ping":63},{"user_id":43,"name":"Lyell","steam_id":76561198350329389,"connected_time":19000000000,"state":"active","ping":99},{"user_id":44,"name":"Pain","steam_id":76561198106997949,"connected_time":15000000000,"state":"spawning","ping":60}]},{"server_id":54,"name":"Uncletopia | Warsaw | 6 | Community","name_short":"waw-6","host":"waw-1.pl.uncletopia.com","port":27065,"enabled":true,"region":"eu","cc":"pl","latitude":52.2297,"longitude":21.017532,"reserved":0,"last_update":"0001-01-01T00:00:00Z","name_a2s":"Uncletopia | Warsaw | 6 | Community","protocol":17,"map":"pl_barnblitz","folder":"tf","game":"Team Fortress","app_id":440,"player_count":0,"max_players":24,"Bots":0,"server_type":"Dedicated","server_os":"Linux","password":true,"vac":true,"version":"7695204","steam_id":85568392925397856,"keywords":["nocrits","nodmgspread","payload","uncletopia"],"game_id":440,"stv_port":0,"stv_name":"","players":null}]}