{"status":true,"message":"","result":[{"server_id":9,"name":"Uncletopia | Atlanta | 1 | All Maps","name_short":"atl-1","host":"atl-1.us.uncletopia.com","port":27015,"enabled":true,"region":"us-east","cc":"us","latitude":33.753746,"longitude":-84.38633,"reserved":0,"last_update":"0001-01-01T00:00:00Z","name_a2s":"Uncletopia | Atlanta | 1 | All Maps","protocol":17,"map":"cp_process_final","folder":"tf","game":"Team Fortress","app_id":440,"player_count":24,"max_players":24,"Bots":0,"server_type":"Dedicated","server_os":"Linux","password":true,"vac":true,"version":"7961495","steam_id":85568392924469982,"keywords":["cp","nocrits","nodmgspread","uncletopia"],"game_id":440,"stv_port":27016,"stv_name":"Uncletopia | Atlanta | 1 | All Maps | STV","players":[{"user_id":147,"name":"Bim","steam_id":76561198155979811,"connected_time":784000000000,"state":"active","ping":52},{"user_id":157,"name":"ACKnowledge","steam_id":76561198036189303,"connected_time":382000000000,"state":"active","ping":61},{"user_id":170,"name":"Silly-Brained Sh3ba","steam_id":76561198047412394,"connected_time":29000000000,"state":"spawning","ping":73},{"user_id":165,"name":"the pest","steam_id":76561198826298849,"connected_time":146000000000,"state":"active","ping":69},{"user_id":138,"name":"lil hog","steam_id":76561199230929836,"connected_time":1739000000000,"state":"active","ping":84},{"user_id":159,"name":"MinimanC","steam_id":76561198071475084,"connected_time":366000000000,"state":"active","ping":62},{"user_id":108,"name":"Obelisk","steam_id":76561198049416866,"connected_time":3503000000000,"state":"active","ping":52},{"user_id":167,"name":"All Tomorrow's Parties","steam_id":76561197995936212,"connected_time":109000000000,"state":"active","ping":60},{"user_id":111,"name":"FIJI","steam_id":76561198126087725,"connected_time":3335000000000,"state":"active","ping":61},{"user_id":171,"name":"leumas","steam_id":76561198240408540,"connected_time":26000000000,"state":"active","ping":47},{"user_id":151,"name":"DualiTea","steam_id":76561198081733870,"connected_time":724000000000,"state":"active","ping":74},{"user_id":90,"name":"Yeti (#SaveTF2)","steam_id":76561199151545966,"connected_time":4333000000000,"state":"active","ping":48},{"user_id":168,"name":"TacoMan4Life","steam_id":76561198832562728,"connected_time":106000000000,"state":"active","ping":108},{"user_id":154,"name":"Window Licker #pride","steam_id":76561198386717007,"connected_time":410000000000,"state":"active","ping":74},{"user_id":148,"name":"Plinko","steam_id":76561198884912425,"connected_time":782000000000,"state":"active","ping":56},{"user_id":156,"name":"joyeuxnoelle","steam_id":76561198062423120,"connected_time":392000000000,"state":"active","ping":57},{"user_id":144,"name":"Pango","steam_id":76561198069811545,"connected_time":1138000000000,"state":"active","ping":42},{"user_id":150,"name":"jxh300","steam_id":76561199196579894,"connected_time":767000000000,"state":"active","ping":60},{"user_id":155,"name":"mayor of cool person city","steam_id":76561198048882285,"connected_time":398000000000,"state":"active","ping":61},{"user_id":146,"name":"IGOR","steam_id":76561199128786637,"connected_time":992000000000,"state":"active","ping":88},{"user_id":152,"name":"THE MENACE","steam_id":76561198312055294,"connected_time":712000000000,"state":"active","ping":61},{"user_id":153,"name":"DA GOOFY MENACE ^_^ \u003c3","steam_id":76561198832230598,"connected_time":659000000000,"state":"active","ping":71},{"user_id":77,"name":"Ryoko","steam_id":76561198084725087,"connected_time":5703000000000,"state":"active","ping":73},{"user_id":169,"name":"tlm","steam_id":76561198178457461,"connected_time":74000000000,"state":"active","ping":66}]},{"server_id":104,"name":"Uncletopia | Atlanta | 2 | All Maps","name_short":"atl-2","host":"atl-1.us.uncletopia.com","port":27025,"enabled":true,"region":"us-east","cc":"us","latitude":33.753746,"longitude":-84.38633,"reserved":0,"last_update":"0001-01-01T00:00:00Z","name_a2s":"Uncletopia | Atlanta | 2 | All Maps","protocol":17,"map":"koth_lakeside_final","folder":"tf","game":"Team Fortress","app_id":440,"player_count":0,"max_players":24,"Bots":0,"server_type":"Dedicated","server_os":"Linux","password":true,"vac":true,"version":"7961495","steam_id":85568392924469983,"keywords":["cp","nocrits","nodmgspread","uncletopia"],"game_id":440,"stv_port":27026,"stv_name":"Uncletopia | Atlanta | 2 | All Maps | STV","players":null},{"server_id":400,"name":"Uncletopia | Atlanta | 3 | Stopwatch","name_short":"atl-3","host":"atl-1.us.uncletopia.com","port":27035,"enabled":true,"region":"us-east","cc":"us","latitude":33.753746,"longitude":-84.38633,"reserved":0,"last_update":"0001-01-01T00:00:00Z","name_a2s":"Uncletopia | Atlanta | 3 | Stopwatch","protocol":17,"map":"workshop/koth_jamram_rc1a.ugc2964065613","folder":"tf","game":"Team Fortress","app_id":440,"player_count":0,"max_players":24,"Bots":0,"server_type":"Dedicated","server_os":"Linux","password":true,"vac":true,"version":"7961495","steam_id":85568392924515187,"keywords":["cp","nocrits","nodmgspread","uncletopia"],"game_id":440,"stv_port":27036,"stv_name":"Uncletopia | Atlanta | 3 | Stopwatch | STV","players":null},{"server_id":401,"name":"Uncletopia | Atlanta | 4 | Community","name_short":"atl-4","host":"atl-1.us.uncletopia.com","port":27045,"enabled":true,"region":"us-east","cc":"us","latitude":33.753746,"longitude":-84.38633,"reserved":0,"last_update":"0001-01-01T00:00:00Z","name_a2s":"Uncletopia | Atlanta | 4 | Community","protocol":17,"map":"workshop/cp_reckoner_rc6.ugc674719999","folder":"tf","game":"Team Fortress","app_id":440,"player_count":0,"max_players":24,"Bots":0,"server_type":"Dedicated","server_os":"Linux","password":true,"vac":true,"version":"7961495","steam_id":85568392924515188,"keywords":["cp","nocrits","nodmgspread","uncletopia"],"game_id":440,"stv_port":27046,"stv_name":"Uncletopia | Atlanta | 4 | Community | STV","players":null},{"server_id":2,"name":"Uncletopia | Chicago | 1 | All Maps","name_short":"chi-1","host":"chi-1.us.uncletopia.com","port":27015,"enabled":true,"region":"us-central","cc":"us","latitude":41.881832,"longitude":-87.62318,"reserved":0,"last_update":"0001-01-01T00:00:00Z","name_a2s":"Uncletopia | Chicago | 1 | All Maps","protocol":17,"map":"koth_viaduct","folder":"tf","game":"Team Fortress","app_id":440,"player_count":0,"max_players":24,"Bots":0,"server_type":"Dedicated","server_os":"Linux","password":true,"vac":true,"version":"7961495","steam_id":85568392924469984,"keywords":["cp","nocrits","nodmgspread","uncletopia"],"game_id":440,"stv_port":27016,"stv_name":"Uncletopia | Chicago | 1 | All Maps | STV","players":null},{"server_id":106,"name":"Uncletopia | Chicago | 2 | All Maps","name_short":"chi-2","host":"chi-1.us.uncletopia.com","port":27025,"enabled":true,"region":"us-central","cc":"us","latitude":41.881832,"longitude":-87.62318,"reserved":0,"last_update":"0001-01-01T00:00:00Z","name_a2s":"Uncletopia | Chicago | 2 | All Maps","protocol":17,"map":"cp_gorge","folder":"tf","game":"Team Fortress","app_id":440,"player_count":25,"max_players":24,"Bots":0,"server_type":"Dedicated","server_os":"Linux","password":true,"vac":true,"version":"7961495","steam_id":85568392924469985,"keywords":["cp","nocrits","nodmgspread","uncletopia"],"game_id":440,"stv_port":27026,"stv_name":"Uncletopia | Chicago | 2 | All Maps | STV","players":[{"user_id":220,"name":"Don't Fuckle with Shuckle","steam_id":76561199020102367,"connected_time":851000000000,"state":"active","ping":65},{"user_id":214,"name":"Louis Litt","steam_id":76561198170859755,"connected_time":1989000000000,"state":"active","ping":69},{"user_id":202,"name":"Hovg9000","steam_id":76561199191556710,"connected_time":2300000000000,"state":"active","ping":75},{"user_id":206,"name":"irishladd778","steam_id":76561199281709499,"connected_time":2124000000000,"state":"active","ping":83},{"user_id":222,"name":"Cyclops_672","steam_id":76561198080169497,"connected_time":845000000000,"state":"active","ping":47},{"user_id":184,"name":"FiddyFoMike","steam_id":76561198057072581,"connected_time":3675000000000,"state":"active","ping":100},{"user_id":177,"name":"Sinister Sandwich","steam_id":76561198142327400,"connected_time":4002000000000,"state":"active","ping":59},{"user_id":228,"name":"crunchy obama","steam_id":76561198044485217,"connected_time":762000000000,"state":"active","ping":119},{"user_id":258,"name":"JOOOOOOOOOOOOO!!!!!!","steam_id":76561199101638460,"connected_time":0,"state":"spawning","ping":42},{"user_id":215,"name":"取名叫做忍","steam_id":76561198278282836,"connected_time":1720000000000,"state":"active","ping":55},{"user_id":216,"name":"Sultan","steam_id":76561198447852406,"connected_time":1533000000000,"state":"active","ping":75},{"user_id":229,"name":"Frosti","steam_id":76561199236298900,"connected_time":755000000000,"state":"active","ping":58},{"user_id":223,"name":"mkhcroy","steam_id":76561198125448762,"connected_time":836000000000,"state":"active","ping":48},{"user_id":225,"name":"Kilphax","steam_id":76561197993814144,"connected_time":813000000000,"state":"active","ping":61},{"user_id":209,"name":"Kyle","steam_id":76561198231846368,"connected_time":2099000000000,"state":"active","ping":74},{"user_id":221,"name":"Skiddy","steam_id":76561198125942665,"connected_time":851000000000,"state":"active","ping":71},{"user_id":200,"name":"That Darned Imp","steam_id":76561198854501307,"connected_time":2367000000000,"state":"active","ping":45},{"user_id":248,"name":"Poodwaddle","steam_id":76561198060384838,"connected_time":138000000000,"state":"active","ping":72},{"user_id":195,"name":"__Creed__","steam_id":76561198138564169,"connected_time":3170000000000,"state":"active","ping":70},{"user_id":246,"name":"Lmnop","steam_id":76561198038458838,"connected_time":247000000000,"state":"active","ping":59},{"user_id":208,"name":"tiananmensquare1989","steam_id":76561199076837870,"connected_time":2115000000000,"state":"active","ping":89},{"user_id":231,"name":"hogwart","steam_id":76561198093995793,"connected_time":600000000000,"state":"active","ping":84},{"user_id":197,"name":"Hermit_","steam_id":76561198013807290,"connected_time":2884000000000,"state":"active","ping":68},{"user_id":199,"name":"Lyathan","steam_id":76561198062773218,"connected_time":2415000000000,"state":"active","ping":57},{"user_id":218,"name":"Peepee","steam_id":76561198202438047,"connected_time":1259000000000,"state":"active","ping":59}]},{"server_id":402,"name":"Uncletopia | Chicago | 3 | All Maps","name_short":"chi-3","host":"chi-1.us.uncletopia.com","port":27035,"enabled":true,"region":"us-central","cc":"us","latitude":41.881832,"longitude":-87.62318,"reserved":0,"last_update":"0001-01-01T00:00:00Z","name_a2s":"Uncletopia | Chicago | 3 | All Maps","protocol":17,"map":"plr_pipeline","folder":"tf","game":"Team Fortress","app_id":440,"player_count":0,"max_players":24,"Bots":0,"server_type":"Dedicated","server_os":"Linux","password":true,"vac":true,"version":"7961495","steam_id":85568392924515191,"keywords":["nocrits","nodmgspread","payload","uncletopia"],"game_id":440,"stv_port":27036,"stv_name":"Uncletopia | Chicago | 3 | All Maps | STV","players":null},{"server_id":403,"name":"Uncletopia | Chicago | 4 | All Maps","name_short":"chi-4","host":"chi-1.us.uncletopia.com","port":27045,"enabled":true,"region":"us-central","cc":"us","latitude":41.881832,"longitude":-87.62318,"reserved":0,"last_update":"0001-01-01T00:00:00Z","name_a2s":"Uncletopia | Chicago | 4 | All Maps","protocol":17,"map":"pl_rumford_event","folder":"tf","game":"Team Fortress","app_id":440,"player_count":0,"max_players":24,"Bots":0,"server_type":"Dedicated","server_os":"Linux","password":true,"vac":true,"version":"7961495","steam_id":85568392924515193,"keywords":["nocrits","nodmgspread","payload","uncletopia"],"game_id":440,"stv_port":27046,"stv_name":"Uncletopia | Chicago | 4 | All Maps | STV","players":null},{"server_id":36,"name":"Uncletopia | Chicago | 5 | All Maps","name_short":"chi-5","host":"chi-2.us.uncletopia.com","port":27015,"enabled":true,"region":"us-central","cc":"us","latitude":41.881832,"longitude":-87.62318,"reserved":0,"last_update":"0001-01-01T00:00:00Z","name_a2s":"Uncletopia | Chicago | 5 | All Maps","protocol":17,"map":"pl_barnblitz","folder":"tf","game":"Team Fortress","app_id":440,"player_count":24,"max_players":24,"Bots":0,"server_type":"Dedicated","server_os":"Linux","password":true,"vac":true,"version":"7961495","steam_id":85568392924866362,"keywords":["nocrits","nodmgspread","payload","uncletopia"],"game_id":440,"stv_port":27016,"stv_name":"Uncletopia | Chicago | 5 | All Maps | STV","players":[{"user_id":177,"name":"big chalupa gaming","steam_id":76561198153504932,"connected_time":1404000000000,"state":"active","ping":61},{"user_id":158,"name":"Beef Wellington","steam_id":76561198049837377,"connected_time":2621000000000,"state":"active","ping":51},{"user_id":161,"name":"motherfucker 2.0","steam_id":76561198141189209,"connected_time":2564000000000,"state":"active","ping":66},{"user_id":159,"name":"Overduecat","steam_id":76561198092452824,"connected_time":2604000000000,"state":"active","ping":60},{"user_id":175,"name":"Novaya","steam_id":76561198263560946,"connected_time":1464000000000,"state":"active","ping":55},{"user_id":179,"name":"støłas","steam_id":76561198931208854,"connected_time":1372000000000,"state":"active","ping":77},{"user_id":185,"name":"St4pps","steam_id":76561198449842958,"connected_time":75000000000,"state":"active","ping":51},{"user_id":178,"name":"Guy in dark alley","steam_id":76561199431363288,"connected_time":1378000000000,"state":"active","ping":58},{"user_id":180,"name":"gem_turtle","steam_id":76561199488688123,"connected_time":1356000000000,"state":"active","ping":56},{"user_id":107,"name":"Cosmic Torgue","steam_id":76561198828724945,"connected_time":6477000000000,"state":"active","ping":74},{"user_id":168,"name":"Kartyac","steam_id":76561197991069005,"connected_time":1991000000000,"state":"active","ping":75},{"user_id":122,"name":"Papa Jone","steam_id":76561198036531366,"connected_time":5292000000000,"state":"active","ping":68},{"user_id":172,"name":"Tlaloc","steam_id":76561198375215983,"connected_time":1763000000000,"state":"active","ping":123},{"user_id":155,"name":"Daehypeels","steam_id":76561198268981599,"connected_time":3041000000000,"state":"active","ping":51},{"user_id":156,"name":"Coup de Grass","steam_id":76561198011643226,"connected_time":3023000000000,"state":"active","ping":66},{"user_id":171,"name":"guy","steam_id":76561198079925551,"connected_time":1777000000000,"state":"active","ping":69},{"user_id":181,"name":"ᴯᴱ Jarl Heegard","steam_id":76561198216100259,"connected_time":1355000000000,"state":"active","ping":60},{"user_id":109,"name":"Luci★Fer","steam_id":76561199030343810,"connected_time":6458000000000,"state":"active","ping":57},{"user_id":182,"name":"riverslug❤","steam_id":76561198040254656,"connected_time":1332000000000,"state":"active","ping":113},{"user_id":173,"name":"space man","steam_id":76561198066333670,"connected_time":1762000000000,"state":"active","ping":63},{"user_id":134,"name":"SomethingSloppy","steam_id":76561199227638790,"connected_time":5209000000000,"state":"active","ping":74},{"user_id":184,"name":"Mint Jelly","steam_id":76561197991286751,"connected_time":1318000000000,"state":"active","ping":53},{"user_id":145,"name":"Fancyassasin","steam_id":76561198331864258,"connected_time":4394000000000,"state":"active","ping":51},{"user_id":165,"name":"jras","steam_id":76561198159797901,"connected_time":2470000000000,"state":"active","ping":75}]},{"server_id":37,"name":"Uncletopia | Chicago | 6 | All Maps","name_short":"chi-6","host":"chi-2.us.uncletopia.com","port":27025,"enabled":true,"region":"us-central","cc":"us","latitude":41.881832,"longitude":-87.62318,"reserved":0,"last_update":"0001-01-01T00:00:00Z","name_a2s":"Uncletopia | Chicago | 6 | All Maps","protocol":17,"map":"pl_swiftwater_final1","folder":"tf","game":"Team Fortress","app_id":440,"player_count":23,"max_players":24,"Bots":0,"server_type":"Dedicated","server_os":"Linux","password":true,"vac":true,"version":"7961495","steam_id":85568392924866363,"keywords":["nocrits","nodmgspread","payload","uncletopia"],"game_id":440,"stv_port":27026,"stv_name":"Uncletopia | Chicago | 6 | All Maps | STV","players":[{"user_id":29,"name":"DiamondPug","steam_id":76561199197034266,"connected_time":2286000000000,"state":"active","ping":95},{"user_id":51,"name":"gulch","steam_id":76561199227946025,"connected_time":1568000000000,"state":"active","ping":60},{"user_id":22,"name":"fish jesus","steam_id":76561198316610724,"connected_time":2758000000000,"state":"active","ping":83},{"user_id":24,"name":"gametram","steam_id":76561199129180186,"connected_time":2428000000000,"state":"active","ping":136},{"user_id":35,"name":"AttenTat","steam_id":76561197973959824,"connected_time":1755000000000,"state":"active","ping":49},{"user_id":66,"name":"Prsm","steam_id":76561198053344995,"connected_time":482000000000,"state":"active","ping":57},{"user_id":67,"name":"katryna","steam_id":76561198023440304,"connected_time":43000000000,"state":"active","ping":60},{"user_id":31,"name":"Papa Smoke","steam_id":76561198181348206,"connected_time":2018000000000,"state":"active","ping":46},{"user_id":38,"name":"EvilStickGuy","steam_id":76561197985379320,"connected_time":1700000000000,"state":"active","ping":64},{"user_id":34,"name":"Hontom","steam_id":76561198345257122,"connected_time":1791000000000,"state":"active","ping":61},{"user_id":56,"name":"2006 Chevy Cobalt","steam_id":76561198211257547,"connected_time":1273000000000,"state":"active","ping":59},{"user_id":39,"name":"beats (16:38)","steam_id":76561199245717718,"connected_time":1697000000000,"state":"active","ping":49},{"user_id":40,"name":"isitpaths","steam_id":76561199407136830,"connected_time":1696000000000,"state":"active","ping":60},{"user_id":62,"name":"ClownTown","steam_id":76561199350870177,"connected_time":872000000000,"state":"active","ping":61},{"user_id":63,"name":"scot","steam_id":76561199097866312,"connected_time":866000000000,"state":"active","ping":114},{"user_id":46,"name":"Emerald_Knight","steam_id":76561198067372868,"connected_time":1636000000000,"state":"active","ping":45},{"user_id":47,"name":"General Sherman","steam_id":76561198044769376,"connected_time":1600000000000,"state":"active","ping":65},{"user_id":64,"name":"cool guy","steam_id":76561198204995668,"connected_time":829000000000,"state":"active","ping":83},{"user_id":49,"name":"Marco Pierre white","steam_id":76561198115714484,"connected_time":1587000000000,"state":"active","ping":134},{"user_id":59,"name":"kashroomski","steam_id":76561198057076267,"connected_time":1108000000000,"state":"active","ping":78},{"user_id":55,"name":"Deterrent","steam_id":76561198256763734,"connected_time":1445000000000,"state":"active","ping":87},{"user_id":60,"name":"dr. chungy","steam_id":76561198215559840,"connected_time":991000000000,"state":"active","ping":67},{"user_id":54,"name":"Milkman Superman","steam_id":76561199106218986,"connected_time":1495000000000,"state":"active","ping":77}]},{"server_id":38,"name":"Uncletopia | Chicago | 7 | Stopwatch","name_short":"chi-7","host":"chi-2.us.uncletopia.com","port":27035,"enabled":true,"region":"us-central","cc":"us","latitude":41.881832,"longitude":-87.62318,"reserved":0,"last_update":"0001-01-01T00:00:00Z","name_a2s":"Uncletopia | Chicago | 7 | Stopwatch","protocol":17,"map":"cp_granary","folder":"tf","game":"Team Fortress","app_id":440,"player_count":0,"max_players":24,"Bots":0,"server_type":"Dedicated","server_os":"Linux","password":true,"vac":true,"version":"7961495","steam_id":85568392924866364,"keywords":["cp","nocrits","nodmgspread","uncletopia"],"game_id":440,"stv_port":27036,"stv_name":"Uncletopia | Chicago | 7 | Stopwatch | STV","players":null},{"server_id":39,"name":"Uncletopia | Chicago | 8 | Community","name_short":"chi-8","host":"chi-2.us.uncletopia.com","port":27045,"enabled":true,"region":"us-central","cc":"us","latitude":41.881832,"longitude":-87.62318,"reserved":0,"last_update":"0001-01-01T00:00:00Z","name_a2s":"Uncletopia | Chicago | 8 | Community","protocol":17,"map":"workshop/koth_slaughter_rc1.ugc1712845210","folder":"tf","game":"Team Fortress","app_id":440,"player_count":0,"max_players":24,"Bots":0,"server_type":"Dedicated","server_os":"Linux","password":true,"vac":true,"version":"7961495","steam_id":85568392924866365,"keywords":["cp","nocrits","nodmgspread","uncletopia"],"game_id":440,"stv_port":27046,"stv_name":"Uncletopia | Chicago | 8 | Community | STV","players":null},{"server_id":8,"name":"Uncletopia | Dallas | 1 | All Maps","name_short":"dal-1","host":"dal-1.us.uncletopia.com","port":27015,"enabled":true,"region":"us-central","cc":"us","latitude":32.779167,"longitude":-96.80889,"reserved":0,"last_update":"0001-01-01T00:00:00Z","name_a2s":"Uncletopia | Dallas | 1 | All Maps","protocol":17,"map":"pl_thundermountain","folder":"tf","game":"Team Fortress","app_id":440,"player_count":24,"max_players":24,"Bots":0,"server_type":"Dedicated","server_os":"Linux","password":true,"vac":true,"version":"7961495","steam_id":85568392924469986,"keywords":["nocrits","nodmgspread","payload","uncletopia"],"game_id":440,"stv_port":27016,"stv_name":"Uncletopia | Dallas | 1 | All Maps | STV","players":[{"user_id":149,"name":"9/11 Airlines","steam_id":76561198096306325,"connected_time":3777000000000,"state":"active","ping":78},{"user_id":205,"name":"rodeoclown","steam_id":76561199499481580,"connected_time":223000000000,"state":"active","ping":99},{"user_id":206,"name":"LavenderSys","steam_id":76561198289106015,"connected_time":215000000000,"state":"active","ping":92},{"user_id":187,"name":"B.","steam_id":76561198040445907,"connected_time":1452000000000,"state":"active","ping":74},{"user_id":207,"name":"Charleston White","steam_id":76561198062867005,"connected_time":194000000000,"state":"active","ping":81},{"user_id":193,"name":"shakoiwa","steam_id":76561199059441773,"connected_time":704000000000,"state":"active","ping":72},{"user_id":185,"name":"Your cousin Throckmorton","steam_id":76561198055430804,"connected_time":1630000000000,"state":"active","ping":76},{"user_id":208,"name":"tadsandco","steam_id":76561198037266781,"connected_time":161000000000,"state":"active","ping":73},{"user_id":209,"name":"Riltreks","steam_id":76561198800482183,"connected_time":131000000000,"state":"active","ping":45},{"user_id":176,"name":"Kiwi","steam_id":76561198162162816,"connected_time":2239000000000,"state":"active","ping":162},{"user_id":153,"name":"Zero","steam_id":76561198033384990,"connected_time":3416000000000,"state":"active","ping":76},{"user_id":210,"name":"mudspaw","steam_id":76561198101327448,"connected_time":112000000000,"state":"active","ping":80},{"user_id":189,"name":"aisu","steam_id":76561198043768507,"connected_time":994000000000,"state":"active","ping":90},{"user_id":105,"name":"kermitcreeper(ZAZA)","steam_id":76561199222829972,"connected_time":6535000000000,"state":"active","ping":60},{"user_id":188,"name":"cloaker","steam_id":76561199453618642,"connected_time":1239000000000,"state":"active","ping":90},{"user_id":173,"name":"Weegee","steam_id":76561198140095755,"connected_time":2414000000000,"state":"active","ping":86},{"user_id":203,"name":"Mcfighter2","steam_id":76561198168073956,"connected_time":259000000000,"state":"active","ping":76},{"user_id":200,"name":"ThePriceIsRice","steam_id":76561198079069543,"connected_time":386000000000,"state":"active","ping":117},{"user_id":197,"name":"GreySweaterCat","steam_id":76561198351860293,"connected_time":465000000000,"state":"active","ping":75},{"user_id":195,"name":"JAKandBEL","steam_id":76561198213060931,"connected_time":653000000000,"state":"active","ping":69},{"user_id":175,"name":"DMM","steam_id":76561198065426171,"connected_time":2261000000000,"state":"active","ping":59},{"user_id":201,"name":"schmuck","steam_id":76561198143789773,"connected_time":360000000000,"state":"active","ping":60},{"user_id":204,"name":"Reginald the Deceased Gentleman","steam_id":76561198322068512,"connected_time":258000000000,"state":"active","ping":115},{"user_id":148,"name":"Woad","steam_id":76561198067570444,"connected_time":3888000000000,"state":"active","ping":98}]},{"server_id":108,"name":"Uncletopia | Dallas | 2 | All Maps","name_short":"dal-2","host":"dal-1.us.uncletopia.com","port":27025,"enabled":true,"region":"us-central","cc":"us","latitude":32.779167,"longitude":-96.80889,"reserved":0,"last_update":"0001-01-01T00:00:00Z","name_a2s":"Uncletopia | Dallas | 2 | All Maps","protocol":17,"map":"koth_lakeside_final","folder":"tf","game":"Team Fortress","app_id":440,"player_count":0,"max_players":24,"Bots":0,"server_type":"Dedicated","server_os":"Linux","password":true,"vac":true,"version":"7961495","steam_id":85568392924469988,"keywords":["cp","nocrits","nodmgspread","uncletopia"],"game_id":440,"stv_port":27026,"stv_name":"Uncletopia | Dallas | 2 | All Maps | STV","players":null},{"server_id":404,"name":"Uncletopia | Dallas | 3 | All Maps","name_short":"dal-3","host":"dal-1.us.uncletopia.com","port":27035,"enabled":true,"region":"us-central","cc":"us","latitude":32.779167,"longitude":-96.80889,"reserved":0,"last_update":"0001-01-01T00:00:00Z","name_a2s":"Uncletopia | Dallas | 3 | All Maps","protocol":17,"map":"koth_cascade","folder":"tf","game":"Team Fortress","app_id":440,"player_count":0,"max_players":24,"Bots":0,"server_type":"Dedicated","server_os":"Linux","password":true,"vac":true,"version":"7961495","steam_id":85568392924515219,"keywords":["cp","nocrits","nodmgspread","uncletopia"],"game_id":440,"stv_port":27036,"stv_name":"Uncletopia | Dallas | 3 | All Maps | STV","players":null},{"server_id":405,"name":"Uncletopia | Dallas | 4 | Community","name_short":"dal-4","host":"dal-1.us.uncletopia.com","port":27045,"enabled":true,"region":"us-central","cc":"us","latitude":32.779167,"longitude":-96.80889,"reserved":0,"last_update":"0001-01-01T00:00:00Z","name_a2s":"Uncletopia | Dallas | 4 | Community","protocol":17,"map":"workshop/koth_synthetic_rc6a.ugc1549817316","folder":"tf","game":"Team Fortress","app_id":440,"player_count":0,"max_players":24,"Bots":0,"server_type":"Dedicated","server_os":"Linux","password":true,"vac":true,"version":"7961495","steam_id":85568392924515220,"keywords":["cp","nocrits","nodmgspread","uncletopia"],"game_id":440,"stv_port":27046,"stv_name":"Uncletopia | Dallas | 4 | Community | STV","players":null},{"server_id":5,"name":"Uncletopia | Frankfurt | 1 | All Maps","name_short":"frk-1","host":"frk-1.de.uncletopia.com","port":27015,"enabled":true,"region":"eu","cc":"de","latitude":50.110924,"longitude":8.682127,"reserved":0,"last_update":"0001-01-01T00:00:00Z","name_a2s":"Uncletopia | Frankfurt | 1 | All Maps","protocol":17,"map":"koth_highpass","folder":"tf","game":"Team Fortress","app_id":440,"player_count":24,"max_players":24,"Bots":0,"server_type":"Dedicated","server_os":"Linux","password":true,"vac":true,"version":"7961495","steam_id":85568392924469989,"keywords":["cp","nocrits","nodmgspread","uncletopia"],"game_id":440,"stv_port":27016,"stv_name":"Uncletopia | Frankfurt | 1 | All Maps | STV","players":[{"user_id":308,"name":"THE SPIRIT","steam_id":76561198170744597,"connected_time":507000000000,"state":"active","ping":64},{"user_id":273,"name":"Vitamin Weee","steam_id":76561199183937747,"connected_time":2398000000000,"state":"active","ping":67},{"user_id":307,"name":"Palex","steam_id":76561198093219465,"connected_time":525000000000,"state":"active","ping":52},{"user_id":271,"name":"luisar02","steam_id":76561198254259783,"connected_time":2454000000000,"state":"active","ping":75},{"user_id":300,"name":"noticed","steam_id":76561198205976029,"connected_time":702000000000,"state":"active","ping":78},{"user_id":259,"name":"jonesy","steam_id":76561198075068529,"connected_time":3298000000000,"state":"active","ping":57},{"user_id":301,"name":"bora colhao para fora","steam_id":76561198109462631,"connected_time":699000000000,"state":"active","ping":67},{"user_id":311,"name":"P3rsErkki","steam_id":76561198063093495,"connected_time":450000000000,"state":"active","ping":60},{"user_id":298,"name":"Carlo","steam_id":76561198276491098,"connected_time":738000000000,"state":"active","ping":56},{"user_id":223,"name":"t0ksi","steam_id":76561198107240798,"connected_time":5219000000000,"state":"active","ping":65},{"user_id":316,"name":"rts","steam_id":76561199090876980,"connected_time":56000000000,"state":"spawning","ping":110},{"user_id":299,"name":"Arsonist","steam_id":76561199087953833,"connected_time":729000000000,"state":"active","ping":91},{"user_id":302,"name":"GMsU | Rebikas","steam_id":76561198077053764,"connected_time":690000000000,"state":"active","ping":43},{"user_id":287,"name":"MoistMomMauler","steam_id":76561198069359049,"connected_time":1487000000000,"state":"active","ping":85},{"user_id":312,"name":"Dr. Le Quack","steam_id":76561197995711176,"connected_time":447000000000,"state":"active","ping":61},{"user_id":303,"name":"GMsU | Acoul","steam_id":76561198229222992,"connected_time":678000000000,"state":"active","ping":49},{"user_id":247,"name":"Finnish Farmer","steam_id":76561198205366043,"connected_time":3832000000000,"state":"active","ping":74},{"user_id":304,"name":"smell_my_cheese","steam_id":76561198008517427,"connected_time":637000000000,"state":"active","ping":58},{"user_id":305,"name":"Cosmic Gamer","steam_id":76561198027357981,"connected_time":591000000000,"state":"active","ping":77},{"user_id":280,"name":"s3rg_","steam_id":76561198024043213,"connected_time":2158000000000,"state":"active","ping":61},{"user_id":314,"name":"6bIK_0CeMEHuTEJIb","steam_id":76561198992528373,"connected_time":268000000000,"state":"active","ping":112},{"user_id":313,"name":"Pikdy","steam_id":76561199492395972,"connected_time":437000000000,"state":"active","ping":46},{"user_id":226,"name":"sAmasam","steam_id":76561198114953928,"connected_time":4985000000000,"state":"active","ping":59},{"user_id":230,"name":"Conan the Librarian","steam_id":76561198007224654,"connected_time":4408000000000,"state":"active","ping":58}]},{"server_id":110,"name":"Uncletopia | Frankfurt | 2 | All Maps","name_short":"frk-2","host":"frk-1.de.uncletopia.com","port":27025,"enabled":true,"region":"eu","cc":"de","latitude":50.110924,"longitude":8.682127,"reserved":0,"last_update":"0001-01-01T00:00:00Z","name_a2s":"Uncletopia | Frankfurt | 2 | All Maps","protocol":17,"map":"pl_upward","folder":"tf","game":"Team Fortress","app_id":440,"player_count":24,"max_players":24,"Bots":0,"server_type":"Dedicated","server_os":"Linux","password":true,"vac":true,"version":"7961495","steam_id":85568392924469990,"keywords":["nocrits","nodmgspread","payload","uncletopia"],"game_id":440,"stv_port":27026,"stv_name":"Uncletopia | Frankfurt | 2 | All Maps | STV","players":[{"user_id":392,"name":"GabGame","steam_id":76561198105631808,"connected_time":172000000000,"state":"active","ping":55},{"user_id":374,"name":"Blub","steam_id":76561198999402987,"connected_time":837000000000,"state":"active","ping":44},{"user_id":384,"name":"Not that pro","steam_id":76561198299539583,"connected_time":434000000000,"state":"active","ping":87},{"user_id":308,"name":"Pilaarius","steam_id":76561198120273212,"connected_time":7009000000000,"state":"active","ping":92},{"user_id":385,"name":"LizaЯdlЧ","steam_id":76561198176750238,"connected_time":365000000000,"state":"active","ping":77},{"user_id":319,"name":"Vershal Smershal","steam_id":76561198116223995,"connected_time":6406000000000,"state":"active","ping":57},{"user_id":386,"name":"semoku","steam_id":76561198838877619,"connected_time":362000000000,"state":"active","ping":90},{"user_id":276,"name":"Bajas","steam_id":76561198179339326,"connected_time":8905000000000,"state":"active","ping":78},{"user_id":282,"name":"Beauf de France","steam_id":76561198799097492,"connected_time":8673000000000,"state":"active","ping":47},{"user_id":363,"name":"Just Navlis","steam_id":76561198090479609,"connected_time":1795000000000,"state":"active","ping":45},{"user_id":321,"name":"Snowy","steam_id":76561198169992461,"connected_time":6132000000000,"state":"active","ping":57},{"user_id":387,"name":"dusty","steam_id":76561199011977567,"connected_time":342000000000,"state":"active","ping":64},{"user_id":305,"name":"Fran","steam_id":76561199070516960,"connected_time":7028000000000,"state":"active","ping":63},{"user_id":312,"name":"cirrem","steam_id":76561198265192382,"connected_time":6892000000000,"state":"active","ping":60},{"user_id":395,"name":"Solymr ibn Wali Barad","steam_id":76561198044008976,"connected_time":88000000000,"state":"active","ping":70},{"user_id":359,"name":"Star_","steam_id":76561198160975698,"connected_time":2639000000000,"state":"active","ping":56},{"user_id":353,"name":"WasserGurke","steam_id":76561198372482746,"connected_time":2860000000000,"state":"active","ping":63},{"user_id":389,"name":"Инженер Флакси","steam_id":76561199039090356,"connected_time":326000000000,"state":"active","ping":92},{"user_id":376,"name":"guro my beloved","steam_id":76561198401523966,"connected_time":748000000000,"state":"active","ping":129},{"user_id":382,"name":"Hogs Sidekick","steam_id":76561198136433205,"connected_time":591000000000,"state":"active","ping":55},{"user_id":379,"name":"PENGUN","steam_id":76561199015156956,"connected_time":736000000000,"state":"active","ping":99},{"user_id":380,"name":"ok","steam_id":76561198320042443,"connected_time":735000000000,"state":"active","ping":104},{"user_id":341,"name":"ben henry","steam_id":76561198058012525,"connected_time":4246000000000,"state":"active","ping":49},{"user_id":390,"name":"Desnot","steam_id":76561198862581894,"connected_time":323000000000,"state":"active","ping":77}]},{"server_id":308,"name":"Uncletopia | Frankfurt | 3 | All Maps","name_short":"frk-3","host":"frk-1.de.uncletopia.com","port":27035,"enabled":true,"region":"eu","cc":"de","latitude":50.110924,"longitude":8.682127,"reserved":0,"last_update":"0001-01-01T00:00:00Z","name_a2s":"Uncletopia | Frankfurt | 3 | All Maps","protocol":17,"map":"koth_highpass","folder":"tf","game":"Team Fortress","app_id":440,"player_count":23,"max_players":24,"Bots":0,"server_type":"Dedicated","server_os":"Linux","password":true,"vac":true,"version":"7961495","steam_id":85568392924504274,"keywords":["cp","nocrits","nodmgspread","uncletopia"],"game_id":440,"stv_port":27036,"stv_name":"Uncletopia | Frankfurt | 3 | All Maps | STV","players":[{"user_id":612,"name":"MR BUBBLES","steam_id":76561198019005259,"connected_time":9690000000000,"state":"active","ping":89},{"user_id":741,"name":"fly high","steam_id":76561199067544793,"connected_time":1499000000000,"state":"active","ping":74},{"user_id":748,"name":"duckington duck","steam_id":76561199157117063,"connected_time":1265000000000,"state":"active","ping":55},{"user_id":767,"name":"Jangli","steam_id":76561198103923652,"connected_time":91000000000,"state":"active","ping":174},{"user_id":663,"name":"Godjan","steam_id":76561198077554447,"connected_time":5865000000000,"state":"active","ping":147},{"user_id":744,"name":"speedyboy","steam_id":76561199222795521,"connected_time":1467000000000,"state":"active","ping":86},{"user_id":764,"name":"Amandus","steam_id":76561198036281079,"connected_time":206000000000,"state":"active","ping":59},{"user_id":730,"name":"G_raff","steam_id":76561199048512726,"connected_time":1947000000000,"state":"active","ping":76},{"user_id":721,"name":"[fool] tiia","steam_id":76561198046196005,"connected_time":2499000000000,"state":"active","ping":41},{"user_id":735,"name":"Nick","steam_id":76561198036109469,"connected_time":1647000000000,"state":"active","ping":94},{"user_id":755,"name":"kipod616","steam_id":76561198431183777,"connected_time":809000000000,"state":"active","ping":102},{"user_id":754,"name":"Pestilence","steam_id":76561198140938904,"connected_time":857000000000,"state":"active","ping":56},{"user_id":728,"name":"TranvesTito","steam_id":76561198140034262,"connected_time":1980000000000,"state":"active","ping":49},{"user_id":752,"name":"Kentucky Fried Crab","steam_id":76561198035586715,"connected_time":1094000000000,"state":"active","ping":114},{"user_id":740,"name":"caramel❤","steam_id":76561198819353867,"connected_time":1569000000000,"state":"active","ping":51},{"user_id":763,"name":"Rock..","steam_id":76561198004641963,"connected_time":398000000000,"state":"active","ping":83},{"user_id":747,"name":"2bunnies","steam_id":76561198866822016,"connected_time":1403000000000,"state":"active","ping":49},{"user_id":761,"name":"Buck","steam_id":76561198111237954,"connected_time":557000000000,"state":"active","ping":48},{"user_id":766,"name":"Storm's Foreshadow","steam_id":76561198098462526,"connected_time":110000000000,"state":"active","ping":65},{"user_id":749,"name":"Serg","steam_id":76561198218959001,"connected_time":1223000000000,"state":"active","ping":67},{"user_id":765,"name":"Creamy","steam_id":76561198063907478,"connected_time":163000000000,"state":"active","ping":72},{"user_id":668,"name":"Red wine gaming","steam_id":76561198134378108,"connected_time":5825000000000,"state":"active","ping":74},{"user_id":750,"name":"SansaKissa326","steam_id":76561199189803939,"connected_time":1198000000000,"state":"active","ping":69}]},{"server_id":309,"name":"Uncletopia | Frankfurt | 4 | All Maps","name_short":"frk-4","host":"frk-1.de.uncletopia.com","port":27045,"enabled":true,"region":"eu","cc":"de","latitude":50.110924,"longitude":8.682127,"reserved":0,"last_update":"0001-01-01T00:00:00Z","name_a2s":"Uncletopia | Frankfurt | 4 | All Maps","protocol":17,"map":"pl_upward","folder":"tf","game":"Team Fortress","app_id":440,"player_count":24,"max_players":24,"Bots":0,"server_type":"Dedicated","server_os":"Linux","password":true,"vac":true,"version":"7961495","steam_id":85568392924504275,"keywords":["nocrits","nodmgspread","payload","uncletopia"],"game_id":440,"stv_port":27046,"stv_name":"Uncletopia | Frankfurt | 4 | All Maps | STV","players":[{"user_id":495,"name":"Eric Catman","steam_id":76561198802117294,"connected_time":1700000000000,"state":"active","ping":66},{"user_id":430,"name":"miiq130","steam_id":76561198188010666,"connected_time":5827000000000,"state":"active","ping":74},{"user_id":494,"name":"Diggity","steam_id":76561198297157085,"connected_time":1715000000000,"state":"active","ping":49},{"user_id":510,"name":"LEGEND FUMO.","steam_id":76561198061033903,"connected_time":469000000000,"state":"active","ping":45},{"user_id":477,"name":"1/1 OJ","steam_id":76561198054745133,"connected_time":3031000000000,"state":"active","ping":69},{"user_id":489,"name":"anders McFlanders","steam_id":76561198022811995,"connected_time":2341000000000,"state":"active","ping":53},{"user_id":475,"name":"Bob Sacamano","steam_id":76561198085610701,"connected_time":3057000000000,"state":"active","ping":74},{"user_id":505,"name":"w+m1","steam_id":76561198010428082,"connected_time":1015000000000,"state":"active","ping":51},{"user_id":507,"name":"truebosnianking","steam_id":76561199440060597,"connected_time":886000000000,"state":"active","ping":64},{"user_id":511,"name":"✪ m_br3","steam_id":76561198044981990,"connected_time":455000000000,"state":"active","ping":74},{"user_id":446,"name":"ToniGAM3S","steam_id":76561198128605351,"connected_time":5472000000000,"state":"active","ping":60},{"user_id":513,"name":"Emmy!! \u003c3","steam_id":76561199467222748,"connected_time":396000000000,"state":"active","ping":64},{"user_id":517,"name":"Froenzi","steam_id":76561198168841723,"connected_time":255000000000,"state":"active","ping":56},{"user_id":497,"name":"Acanda","steam_id":76561198123246537,"connected_time":1684000000000,"state":"active","ping":45},{"user_id":515,"name":"Doriian","steam_id":76561198071438810,"connected_time":346000000000,"state":"active","ping":75},{"user_id":512,"name":"Zel","steam_id":76561198284520120,"connected_time":447000000000,"state":"active","ping":61},{"user_id":492,"name":"Honest Tom's Discount Beef","steam_id":76561198029971392,"connected_time":1878000000000,"state":"active","ping":58},{"user_id":482,"name":"Grillem Dafoe","steam_id":76561198306874574,"connected_time":2987000000000,"state":"active","ping":68},{"user_id":483,"name":"emti","steam_id":76561198836233001,"connected_time":2985000000000,"state":"active","ping":69},{"user_id":509,"name":"Gordon Ramsay","steam_id":76561198123893900,"connected_time":484000000000,"state":"active","ping":156},{"user_id":485,"name":"Esquiloz","steam_id":76561198075645336,"connected_time":2972000000000,"state":"active","ping":71},{"user_id":504,"name":"Leviticus Cornwall","steam_id":76561197993702685,"connected_time":1281000000000,"state":"active","ping":69},{"user_id":461,"name":"Ama_r0","steam_id":76561198348377332,"connected_time":4498000000000,"state":"active","ping":107},{"user_id":500,"name":"perfectemu","steam_id":76561199147866624,"connected_time":1665000000000,"state":"active","ping":166}]},{"server_id":310,"name":"Uncletopia | Frankfurt | 5 | All Maps","name_short":"frk-5","host":"frk-1.de.uncletopia.com","port":27055,"enabled":true,"region":"eu","cc":"de","latitude":50.110924,"longitude":8.682127,"reserved":0,"last_update":"0001-01-01T00:00:00Z","name_a2s":"Uncletopia | Frankfurt | 5 | All Maps","protocol":17,"map":"cp_mountainlab","folder":"tf","game":"Team Fortress","app_id":440,"player_count":2,"max_players":24,"Bots":0,"server_type":"Dedicated","server_os":"Linux","password":true,"vac":true,"version":"7961495","steam_id":85568392924504277,"keywords":["cp","nocrits","nodmgspread","uncletopia"],"game_id":440,"stv_port":27056,"stv_name":"Uncletopia | Frankfurt | 5 | All Maps | STV","players":[{"user_id":172,"name":"razmerus","steam_id":76561198105569706,"connected_time":121000000000,"state":"active","ping":134},{"user_id":169,"name":"kastanomata","steam_id":76561198271832763,"connected_time":794000000000,"state":"active","ping":63}]},{"server_id":311,"name":"Uncletopia | Frankfurt | 6 | All Maps","name_short":"frk-6","host":"frk-1.de.uncletopia.com","port":27065,"enabled":true,"region":"eu","cc":"de","latitude":50.110924,"longitude":8.682127,"reserved":0,"last_update":"0001-01-01T00:00:00Z","name_a2s":"Uncletopia | Frankfurt | 6 | All Maps","protocol":17,"map":"pl_badwater","folder":"tf","game":"Team Fortress","app_id":440,"player_count":24,"max_players":24,"Bots":0,"server_type":"Dedicated","server_os":"Linux","password":true,"vac":true,"version":"7961495","steam_id":85568392924504278,"keywords":["nocrits","nodmgspread","payload","uncletopia"],"game_id":440,"stv_port":27066,"stv_name":"Uncletopia | Frankfurt | 6 | All Maps | STV","players":[{"user_id":322,"name":"Soerlssoelssöen","steam_id":76561197993060585,"connected_time":293000000000,"state":"active","ping":59},{"user_id":263,"name":"Wardruna96","steam_id":76561199057083828,"connected_time":5211000000000,"state":"active","ping":89},{"user_id":312,"name":"Dewisor","steam_id":76561198230971472,"connected_time":1451000000000,"state":"active","ping":60},{"user_id":288,"name":"Aoshi","steam_id":76561198043868358,"connected_time":2900000000000,"state":"active","ping":59},{"user_id":318,"name":"goofy ahh","steam_id":76561199066430860,"connected_time":1004000000000,"state":"active","ping":55},{"user_id":286,"name":"Aleksandr Dark","steam_id":76561198842131947,"connected_time":3065000000000,"state":"active","ping":102},{"user_id":295,"name":"pyrofightermag","steam_id":76561198089228732,"connected_time":2451000000000,"state":"active","ping":61},{"user_id":329,"name":"Spxndrej","steam_id":76561199426583978,"connected_time":93000000000,"state":"active","ping":45},{"user_id":311,"name":"Tea","steam_id":76561198090490071,"connected_time":1514000000000,"state":"active","ping":112},{"user_id":328,"name":"yes","steam_id":76561198276086010,"connected_time":102000000000,"state":"active","ping":84},{"user_id":309,"name":"Doctor Mobius","steam_id":76561197971281806,"connected_time":1715000000000,"state":"active","ping":47},{"user_id":320,"name":"Gugu gaga","steam_id":76561198161822358,"connected_time":649000000000,"state":"active","ping":64},{"user_id":323,"name":"GEP Gun","steam_id":76561197981821003,"connected_time":261000000000,"state":"active","ping":69},{"user_id":324,"name":"Hoff","steam_id":76561198138540938,"connected_time":240000000000,"state":"active","ping":66},{"user_id":325,"name":"Michael","steam_id":76561198003146906,"connected_time":226000000000,"state":"active","ping":57},{"user_id":315,"name":"Twik","steam_id":76561198023835056,"connected_time":1348000000000,"state":"active","ping":53},{"user_id":262,"name":"kluri","steam_id":76561198084518962,"connected_time":5556000000000,"state":"active","ping":70},{"user_id":326,"name":"Cosmetic brain","steam_id":76561198055936410,"connected_time":198000000000,"state":"active","ping":85},{"user_id":306,"name":"disc0rd","steam_id":76561197985965776,"connected_time":1989000000000,"state":"active","ping":51},{"user_id":317,"name":"etc","steam_id":76561197998394797,"connected_time":1307000000000,"state":"active","ping":58},{"user_id":307,"name":"Cheese Goblin","steam_id":76561198102366281,"connected_time":1901000000000,"state":"active","ping":56},{"user_id":279,"name":"worthless human being","steam_id":76561199177223922,"connected_time":3491000000000,"state":"active","ping":61},{"user_id":330,"name":"British Disapproval","steam_id":76561198001375260,"connected_time":54000000000,"state":"active","ping":52},{"user_id":265,"name":"DrExplosive","steam_id":76561198063678579,"connected_time":4244000000000,"state":"active","ping":66}]},{"server_id":23,"name":"Uncletopia | Frankfurt | 7 | Stopwatch","name_short":"frk-7","host":"frk-1.de.uncletopia.com","port":27075,"enabled":true,"region":"eu","cc":"de","latitude":50.110924,"longitude":8.682127,"reserved":0,"last_update":"0001-01-01T00:00:00Z","name_a2s":"Uncletopia | Frankfurt | 7 | Stopwatch","protocol":17,"map":"koth_lakeside_final","folder":"tf","game":"Team Fortress","app_id":440,"player_count":5,"max_players":24,"Bots":0,"server_type":"Dedicated","server_os":"Linux","password":true,"vac":true,"version":"7961495","steam_id":85568392924742827,"keywords":["cp","nocrits","nodmgspread","uncletopia"],"game_id":440,"stv_port":27076,"stv_name":"Uncletopia | Frankfurt | 7 | Stopwatch | STV","players":[{"user_id":46,"name":"cof","steam_id":76561199128417805,"connected_time":2958000000000,"state":"active","ping":64},{"user_id":48,"name":"Gandhi36","steam_id":76561198863280994,"connected_time":2776000000000,"state":"active","ping":49},{"user_id":52,"name":"yohan","steam_id":76561198002218330,"connected_time":490000000000,"state":"active","ping":48},{"user_id":54,"name":"Peter Pammpim","steam_id":76561199103785290,"connected_time":62000000000,"state":"active","ping":60},{"user_id":53,"name":"Gregor Samsa","steam_id":76561198973069177,"connected_time":224000000000,"state":"active","ping":46}]},{"server_id":24,"name":"Uncletopia | Frankfurt | 8 | Community","name_short":"frk-8","host":"frk-1.de.uncletopia.com","port":27085,"enabled":true,"region":"eu","cc":"de","latitude":50.110924,"longitude":8.682127,"reserved":0,"last_update":"0001-01-01T00:00:00Z","name_a2s":"Uncletopia | Frankfurt | 8 | Community","protocol":17,"map":"workshop/koth_jamram_rc1a.ugc2964065613","folder":"tf","game":"Team Fortress","app_id":440,"player_count":0,"max_players":24,"Bots":0,"server_type":"Dedicated","server_os":"Linux","password":true,"vac":true,"version":"7961495","steam_id":85568392924742828,"keywords":["cp","nocrits","nodmgspread","uncletopia"],"game_id":440,"stv_port":27086,"stv_name":"Uncletopia | Frankfurt | 8 | Community | STV","players":null},{"server_id":202,"name":"Uncletopia | Hong Kong | 1 | All Maps","name_short":"hgk-1","host":"hgk-1.hk.uncletopia.com","port":27015,"enabled":true,"region":"asia","cc":"hk","latitude":22.302711,"longitude":114.177216,"reserved":0,"last_update":"0001-01-01T00:00:00Z","name_a2s":"Uncletopia | Hong Kong | 1 | All Maps","protocol":17,"map":"pl_frontier_final","folder":"tf","game":"Team Fortress","app_id":440,"player_count":0,"max_players":24,"Bots":0,"server_type":"Dedicated","server_os":"Linux","password":true,"vac":true,"version":"7961495","steam_id":85568392924494504,"keywords":["nocrits","nodmgspread","payload","uncletopia"],"game_id":440,"stv_port":27016,"stv_name":"Uncletopia | Hong Kong | 1 | All Maps | STV","players":null},{"server_id":1,"name":"Uncletopia | Los Angeles | 1 | All Maps","name_short":"lax-1","host":"lax-1.us.uncletopia.com","port":27015,"enabled":true,"region":"us-west","cc":"us","latitude":33.94279,"longitude":-118.41004,"reserved":0,"last_update":"0001-01-01T00:00:00Z","name_a2s":"Uncletopia | Los Angeles | 1 | All Maps","protocol":17,"map":"pl_frontier_final","folder":"tf","game":"Team Fortress","app_id":440,"player_count":4,"max_players":24,"Bots":0,"server_type":"Dedicated","server_os":"Linux","password":true,"vac":true,"version":"7961495","steam_id":85568392924469991,"keywords":["nocrits","nodmgspread","payload","uncletopia"],"game_id":440,"stv_port":27016,"stv_name":"Uncletopia | Los Angeles | 1 | All Maps | STV","players":[{"user_id":10,"name":"Noire","steam_id":76561198149370109,"connected_time":807000000000,"state":"active","ping":54},{"user_id":11,"name":"Stimpry","steam_id":76561199055662248,"connected_time":533000000000,"state":"active","ping":53},{"user_id":14,"name":"SuperEvilPasta","steam_id":76561198078258907,"connected_time":40000000000,"state":"active","ping":47},{"user_id":13,"name":"Tarluk","steam_id":76561198079645112,"connected_time":177000000000,"state":"active","ping":48}]},{"server_id":112,"name":"Uncletopia | Los Angeles | 2 | All Maps","name_short":"lax-2","host":"lax-1.us.uncletopia.com","port":27025,"enabled":true,"region":"us-west","cc":"us","latitude":33.94279,"longitude":-118.41004,"reserved":0,"last_update":"0001-01-01T00:00:00Z","name_a2s":"Uncletopia | Los Angeles | 2 | All Maps","protocol":17,"map":"koth_cascade","folder":"tf","game":"Team Fortress","app_id":440,"player_count":0,"max_players":24,"Bots":0,"server_type":"Dedicated","server_os":"Linux","password":true,"vac":true,"version":"7961495","steam_id":85568392924469992,"keywords":["cp","nocrits","nodmgspread","uncletopia"],"game_id":440,"stv_port":27026,"stv_name":"Uncletopia | Los Angeles | 2 | All Maps | STV","players":null},{"server_id":324,"name":"Uncletopia | Los Angeles | 3 | All Maps","name_short":"lax-3","host":"lax-1.us.uncletopia.com","port":27035,"enabled":true,"region":"us-west","cc":"us","latitude":33.94279,"longitude":-118.41004,"reserved":0,"last_update":"0001-01-01T00:00:00Z","name_a2s":"Uncletopia | Los Angeles | 3 | All Maps","protocol":17,"map":"pl_pier","folder":"tf","game":"Team Fortress","app_id":440,"player_count":0,"max_players":24,"Bots":0,"server_type":"Dedicated","server_os":"Linux","password":true,"vac":true,"version":"7961495","steam_id":85568392924510198,"keywords":["nocrits","nodmgspread","payload","uncletopia"],"game_id":440,"stv_port":27036,"stv_name":"Uncletopia | Los Angeles | 3 | All Maps | STV","players":null},{"server_id":25,"name":"Uncletopia | Los Angeles | 4 | Stopwatch","name_short":"lax-4","host":"lax-1.us.uncletopia.com","port":27045,"enabled":true,"region":"us-west","cc":"us","latitude":33.94279,"longitude":-118.41004,"reserved":0,"last_update":"0001-01-01T00:00:00Z","name_a2s":"Uncletopia | Los Angeles | 4 | Stopwatch","protocol":17,"map":"pl_upward","folder":"tf","game":"Team Fortress","app_id":440,"player_count":0,"max_players":24,"Bots":0,"server_type":"Dedicated","server_os":"Linux","password":true,"vac":true,"version":"7961495","steam_id":85568392924510199,"keywords":["nocrits","nodmgspread","payload","uncletopia"],"game_id":440,"stv_port":27046,"stv_name":"Uncletopia | Los Angeles | 4 | Stopwatch | STV","players":null},{"server_id":11,"name":"Uncletopia | London | 1 | All Maps","name_short":"lon-1","host":"lon-1.uk.uncletopia.com","port":27015,"enabled":true,"region":"eu","cc":"gb","latitude":51.509865,"longitude":-0.118092,"reserved":0,"last_update":"0001-01-01T00:00:00Z","name_a2s":"Uncletopia | London | 1 | All Maps","protocol":17,"map":"cp_process_final","folder":"tf","game":"Team Fortress","app_id":440,"player_count":24,"max_players":24,"Bots":0,"server_type":"Dedicated","server_os":"Linux","password":true,"vac":true,"version":"7961495","steam_id":85568392924367362,"keywords":["cp","nocrits","nodmgspread","uncletopia"],"game_id":440,"stv_port":27016,"stv_name":"Uncletopia | London | 1 | All Maps | STV","players":[{"user_id":453,"name":"whimsy. (live)","steam_id":76561198878171763,"connected_time":5797000000000,"state":"active","ping":48},{"user_id":456,"name":"Bonca","steam_id":76561198137503531,"connected_time":5676000000000,"state":"active","ping":73},{"user_id":518,"name":"Star Throne","steam_id":76561198132171027,"connected_time":1437000000000,"state":"active","ping":52},{"user_id":502,"name":"Cöffee","steam_id":76561198115131952,"connected_time":3095000000000,"state":"active","ping":110},{"user_id":528,"name":"Jaakko","steam_id":76561198247893320,"connected_time":90000000000,"state":"active","ping":60},{"user_id":522,"name":"joemonster","steam_id":76561199057953617,"connected_time":1034000000000,"state":"active","ping":64},{"user_id":467,"name":"STEFF","steam_id":76561198013306538,"connected_time":5049000000000,"state":"active","ping":45},{"user_id":514,"name":"Afterman shakes the entire town","steam_id":76561198139913631,"connected_time":1894000000000,"state":"active","ping":75},{"user_id":513,"name":"ber","steam_id":76561197993892057,"connected_time":1922000000000,"state":"active","ping":89},{"user_id":530,"name":"Jokudami","steam_id":76561198346604154,"connected_time":51000000000,"state":"active","ping":47},{"user_id":531,"name":"Bronchius Bonehead","steam_id":76561198133961416,"connected_time":50000000000,"state":"active","ping":46},{"user_id":508,"name":"Someone","steam_id":76561199030195879,"connected_time":2766000000000,"state":"active","ping":40},{"user_id":519,"name":"TheKerhard","steam_id":76561198086772002,"connected_time":1380000000000,"state":"active","ping":128},{"user_id":526,"name":"Plep","steam_id":76561198840259819,"connected_time":105000000000,"state":"active","ping":60},{"user_id":515,"name":"trite","steam_id":76561197983765323,"connected_time":1892000000000,"state":"active","ping":44},{"user_id":477,"name":"Enjoyer","steam_id":76561198147399855,"connected_time":4615000000000,"state":"active","ping":126},{"user_id":527,"name":"The Black Duckling","steam_id":76561198383394891,"connected_time":103000000000,"state":"active","ping":149},{"user_id":491,"name":"Kahvi","steam_id":76561198723244199,"connected_time":3765000000000,"state":"active","ping":75},{"user_id":524,"name":"=flashpoint=","steam_id":76561197976774456,"connected_time":589000000000,"state":"active","ping":53},{"user_id":523,"name":"Gaius","steam_id":76561198188174963,"connected_time":743000000000,"state":"active","ping":44},{"user_id":485,"name":"Trapezoid","steam_id":76561198059369295,"connected_time":4263000000000,"state":"active","ping":66},{"user_id":525,"name":"albert","steam_id":76561198353496134,"connected_time":529000000000,"state":"active","ping":59},{"user_id":498,"name":"Clown :o)","steam_id":76561198074657015,"connected_time":3307000000000,"state":"active","ping":60},{"user_id":517,"name":"realhracosta","steam_id":76561198852753790,"connected_time":1845000000000,"state":"active","ping":113}]},{"server_id":114,"name":"Uncletopia | London | 2 | All Maps","name_short":"lon-2","host":"lon-1.uk.uncletopia.com","port":27025,"enabled":true,"region":"eu","cc":"gb","latitude":51.509865,"longitude":-0.118092,"reserved":0,"last_update":"0001-01-01T00:00:00Z","name_a2s":"Uncletopia | London | 2 | All Maps","protocol":17,"map":"pl_thundermountain","folder":"tf","game":"Team Fortress","app_id":440,"player_count":24,"max_players":24,"Bots":0,"server_type":"Dedicated","server_os":"Linux","password":true,"vac":true,"version":"7961495","steam_id":85568392924470941,"keywords":["nocrits","nodmgspread","payload","uncletopia"],"game_id":440,"stv_port":27026,"stv_name":"Uncletopia | London | 2 | All Maps | STV","players":[{"user_id":238,"name":"knowning none noel","steam_id":76561198046873337,"connected_time":3959000000000,"state":"active","ping":54},{"user_id":296,"name":"System","steam_id":76561199442503973,"connected_time":584000000000,"state":"active","ping":60},{"user_id":233,"name":"YunikkoN","steam_id":76561198211962412,"connected_time":4809000000000,"state":"active","ping":95},{"user_id":283,"name":"Firearms","steam_id":76561197989867612,"connected_time":1171000000000,"state":"active","ping":45},{"user_id":299,"name":"alecalove1112","steam_id":76561199235291566,"connected_time":100000000000,"state":"active","ping":108},{"user_id":294,"name":"he's not \"literally you\"","steam_id":76561198410941861,"connected_time":671000000000,"state":"active","ping":121},{"user_id":291,"name":"quickfast","steam_id":76561199438900919,"connected_time":705000000000,"state":"active","ping":47},{"user_id":234,"name":"Kyzentas","steam_id":76561198250724536,"connected_time":4748000000000,"state":"active","ping":56},{"user_id":274,"name":"Laru","steam_id":76561197998838438,"connected_time":1943000000000,"state":"active","ping":75},{"user_id":276,"name":"zayd","steam_id":76561198895235231,"connected_time":1862000000000,"state":"active","ping":57},{"user_id":292,"name":"voltimetro","steam_id":76561198195798495,"connected_time":704000000000,"state":"active","ping":72},{"user_id":195,"name":":3","steam_id":76561198169471853,"connected_time":7959000000000,"state":"active","ping":30},{"user_id":271,"name":"Razor","steam_id":76561197973965174,"connected_time":2275000000000,"state":"active","ping":60},{"user_id":293,"name":"DiscoTraveler","steam_id":76561199240168088,"connected_time":704000000000,"state":"active","ping":128},{"user_id":280,"name":"KFD","steam_id":76561198157183003,"connected_time":1322000000000,"state":"active","ping":88},{"user_id":284,"name":"Abakum","steam_id":76561198413243475,"connected_time":1023000000000,"state":"active","ping":64},{"user_id":252,"name":"Circular","steam_id":76561198001536710,"connected_time":3261000000000,"state":"active","ping":45},{"user_id":253,"name":"all knowing aaron","steam_id":76561198076219289,"connected_time":3233000000000,"state":"active","ping":51},{"user_id":287,"name":"SolidSalt","steam_id":76561198334789026,"connected_time":799000000000,"state":"active","ping":44},{"user_id":286,"name":"supercow","steam_id":76561198163201973,"connected_time":840000000000,"state":"active","ping":80},{"user_id":269,"name":"Man","steam_id":76561197964776022,"connected_time":2445000000000,"state":"active","ping":52},{"user_id":285,"name":"loremantes","steam_id":76561198013132313,"connected_time":861000000000,"state":"active","ping":45},{"user_id":298,"name":"Glitchas","steam_id":76561198883610618,"connected_time":202000000000,"state":"active","ping":116},{"user_id":273,"name":"DocTwoEight","steam_id":76561198153488940,"connected_time":2232000000000,"state":"active","ping":75}]},{"server_id":320,"name":"Uncletopia | London | 3 | All Maps","name_short":"lon-3","host":"lon-1.uk.uncletopia.com","port":27035,"enabled":true,"region":"eu","cc":"gb","latitude":51.509865,"longitude":-0.118092,"reserved":0,"last_update":"0001-01-01T00:00:00Z","name_a2s":"Uncletopia | London | 3 | All Maps","protocol":17,"map":"koth_cascade","folder":"tf","game":"Team Fortress","app_id":440,"player_count":0,"max_players":24,"Bots":0,"server_type":"Dedicated","server_os":"Linux","password":true,"vac":true,"version":"7961495","steam_id":85568392924510192,"keywords":["cp","nocrits","nodmgspread","uncletopia"],"game_id":440,"stv_port":27036,"stv_name":"Uncletopia | London | 3 | All Maps | STV","players":null},{"server_id":321,"name":"Uncletopia | London | 4 | All Maps","name_short":"lon-4","host":"lon-1.uk.uncletopia.com","port":27045,"enabled":true,"region":"eu","cc":"gb","latitude":51.509865,"longitude":-0.118092,"reserved":0,"last_update":"0001-01-01T00:00:00Z","name_a2s":"Uncletopia | London | 4 | All Maps","protocol":17,"map":"koth_viaduct","folder":"tf","game":"Team Fortress","app_id":440,"player_count":2,"max_players":24,"Bots":0,"server_type":"Dedicated","server_os":"Linux","password":true,"vac":true,"version":"7961495","steam_id":85568392924510193,"keywords":["cp","nocrits","nodmgspread","uncletopia"],"game_id":440,"stv_port":27046,"stv_name":"Uncletopia | London | 4 | All Maps | STV","players":[{"user_id":140,"name":"Nassu","steam_id":76561198147367577,"connected_time":532000000000,"state":"active","ping":136},{"user_id":143,"name":"Smartest Person In the Universe","steam_id":76561199444636848,"connected_time":146000000000,"state":"active","ping":45}]},{"server_id":21,"name":"Uncletopia | London | 5 | All Maps","name_short":"lon-5","host":"lon-1.uk.uncletopia.com","port":27055,"enabled":true,"region":"eu","cc":"gb","latitude":51.509865,"longitude":-0.118092,"reserved":0,"last_update":"0001-01-01T00:00:00Z","name_a2s":"Uncletopia | London | 5 | All Maps","protocol":17,"map":"pl_pier","folder":"tf","game":"Team Fortress","app_id":440,"player_count":23,"max_players":24,"Bots":0,"server_type":"Dedicated","server_os":"Linux","password":true,"vac":true,"version":"7961495","steam_id":85568392924742829,"keywords":["nocrits","nodmgspread","payload","uncletopia"],"game_id":440,"stv_port":27056,"stv_name":"Uncletopia | London | 5 | All Maps | STV","players":[{"user_id":22,"name":"Sheriff Graham","steam_id":76561198062668942,"connected_time":3146000000000,"state":"active","ping":46},{"user_id":74,"name":"Pudlich","steam_id":76561198300089671,"connected_time":128000000000,"state":"active","ping":58},{"user_id":25,"name":"smiley","steam_id":76561198042245117,"connected_time":3016000000000,"state":"active","ping":75},{"user_id":34,"name":"An_Unoriginal_Gamer","steam_id":76561198864060760,"connected_time":2126000000000,"state":"active","ping":80},{"user_id":52,"name":"Gros","steam_id":76561199146274228,"connected_time":1545000000000,"state":"active","ping":80},{"user_id":32,"name":"Collet-Gaming69","steam_id":76561198335486000,"connected_time":2230000000000,"state":"active","ping":60},{"user_id":57,"name":"sniper's kangaroo wife","steam_id":76561198334042273,"connected_time":1274000000000,"state":"active","ping":40},{"user_id":65,"name":"Dragon","steam_id":76561198163255365,"connected_time":675000000000,"state":"active","ping":102},{"user_id":75,"name":"Distributedcomputing","steam_id":76561198044421981,"connected_time":77000000000,"state":"active","ping":117},{"user_id":37,"name":"joosssh","steam_id":76561198072130805,"connected_time":2027000000000,"state":"active","ping":61},{"user_id":36,"name":"mr_hlaf","steam_id":76561199418761445,"connected_time":2064000000000,"state":"active","ping":135},{"user_id":66,"name":"highest noon","steam_id":76561199103959197,"connected_time":595000000000,"state":"active","ping":111},{"user_id":41,"name":"Ullr","steam_id":76561198140547483,"connected_time":1795000000000,"state":"active","ping":42},{"user_id":58,"name":"Ozzie","steam_id":76561197992915315,"connected_time":1141000000000,"state":"active","ping":75},{"user_id":73,"name":"Razef","steam_id":76561198030309484,"connected_time":231000000000,"state":"active","ping":47},{"user_id":64,"name":"shenanigan","steam_id":76561198043452925,"connected_time":730000000000,"state":"active","ping":83},{"user_id":45,"name":"MichaK","steam_id":76561198286608053,"connected_time":1707000000000,"state":"active","ping":59},{"user_id":71,"name":"brtaba","steam_id":76561198796334790,"connected_time":456000000000,"state":"active","ping":60},{"user_id":70,"name":"peyniz","steam_id":76561198044189114,"connected_time":479000000000,"state":"active","ping":65},{"user_id":72,"name":"faccboi","steam_id":76561198137816642,"connected_time":445000000000,"state":"active","ping":54},{"user_id":62,"name":"meow","steam_id":76561198087215038,"connected_time":899000000000,"state":"active","ping":88},{"user_id":53,"name":"Mébh Óg MacTíre","steam_id":76561198346399624,"connected_time":1545000000000,"state":"active","ping":76},{"user_id":56,"name":"Thundercracker__","steam_id":76561199163505476,"connected_time":1489000000000,"state":"active","ping":63}]},{"server_id":22,"name":"Uncletopia | London | 6 | All Maps","name_short":"lon-6","host":"lon-1.uk.uncletopia.com","port":27065,"enabled":true,"region":"eu","cc":"gb","latitude":51.509865,"longitude":-0.118092,"reserved":0,"last_update":"0001-01-01T00:00:00Z","name_a2s":"Uncletopia | London | 6 | All Maps","protocol":17,"map":"pl_barnblitz","folder":"tf","game":"Team Fortress","app_id":440,"player_count":24,"max_players":24,"Bots":0,"server_type":"Dedicated","server_os":"Linux","password":true,"vac":true,"version":"7961495","steam_id":85568392924742830,"keywords":["nocrits","nodmgspread","payload","uncletopia"],"game_id":440,"stv_port":27066,"stv_name":"Uncletopia | London | 6 | All Maps | STV","players":[{"user_id":74,"name":"RLCrazyCat3","steam_id":76561197983757878,"connected_time":2727000000000,"state":"active","ping":54},{"user_id":80,"name":"Femboy Thighs","steam_id":76561198115496457,"connected_time":2465000000000,"state":"active","ping":42},{"user_id":55,"name":"Hugh","steam_id":76561198976348754,"connected_time":3639000000000,"state":"active","ping":50},{"user_id":104,"name":"Sen","steam_id":76561198038686030,"connected_time":1126000000000,"state":"active","ping":126},{"user_id":36,"name":"Artakir","steam_id":76561198291746440,"connected_time":4109000000000,"state":"active","ping":88},{"user_id":121,"name":"cuddles","steam_id":76561198805181599,"connected_time":304000000000,"state":"active","ping":46},{"user_id":85,"name":"Piquesque","steam_id":76561198286763046,"connected_time":2406000000000,"state":"active","ping":93},{"user_id":69,"name":"john fortress","steam_id":76561198013237629,"connected_time":3107000000000,"state":"active","ping":93},{"user_id":120,"name":"I shitted my a$$","steam_id":76561198981017406,"connected_time":410000000000,"state":"active","ping":75},{"user_id":56,"name":"[UM-monster","steam_id":76561198085098243,"connected_time":3618000000000,"state":"active","ping":107},{"user_id":122,"name":"Dolcelatte","steam_id":76561198038501770,"connected_time":296000000000,"state":"active","ping":60},{"user_id":106,"name":"Bob1y","steam_id":76561199113762786,"connected_time":1075000000000,"state":"active","ping":60},{"user_id":118,"name":"Iris","steam_id":76561198430295815,"connected_time":591000000000,"state":"active","ping":60},{"user_id":70,"name":"Qwertuss","steam_id":76561198026305366,"connected_time":2868000000000,"state":"active","ping":46},{"user_id":91,"name":"Dr. Funkenstein","steam_id":76561197977816210,"connected_time":2161000000000,"state":"active","ping":73},{"user_id":92,"name":"Dark","steam_id":76561199162752036,"connected_time":2117000000000,"state":"active","ping":75},{"user_id":109,"name":"EliteSpartan","steam_id":76561198174023582,"connected_time":1037000000000,"state":"active","ping":135},{"user_id":125,"name":"Mayor Wank from Wanker Town","steam_id":76561197998253588,"connected_time":99000000000,"state":"active","ping":59},{"user_id":67,"name":"silicon based life form","steam_id":76561199127121346,"connected_time":3222000000000,"state":"active","ping":41},{"user_id":98,"name":"TheBeardedM1G","steam_id":76561198040208946,"connected_time":1863000000000,"state":"active","ping":45},{"user_id":116,"name":"Seliush","steam_id":76561198313583650,"connected_time":741000000000,"state":"active","ping":64},{"user_id":123,"name":"Wangel","steam_id":76561199116413509,"connected_time":294000000000,"state":"active","ping":56},{"user_id":119,"name":"Tyren","steam_id":76561198993747516,"connected_time":520000000000,"state":"active","ping":54},{"user_id":114,"name":"A literal heavy","steam_id":76561199219233587,"connected_time":944000000000,"state":"active","ping":86}]},{"server_id":40,"name":"Uncletopia | London | 7 | Stopwatch","name_short":"lon-7","host":"lon-1.uk.uncletopia.com","port":27075,"enabled":true,"region":"eu","cc":"gb","latitude":51.509865,"longitude":-0.118092,"reserved":0,"last_update":"0001-01-01T00:00:00Z","name_a2s":"Uncletopia | London | 7 | Stopwatch","protocol":17,"map":"workshop/koth_jamram_rc1a.ugc2964065613","folder":"tf","game":"Team Fortress","app_id":440,"player_count":0,"max_players":24,"Bots":0,"server_type":"Dedicated","server_os":"Linux","password":true,"vac":true,"version":"7961495","steam_id":85568392924964314,"keywords":["cp","nocrits","nodmgspread","uncletopia"],"game_id":440,"stv_port":27076,"stv_name":"Uncletopia | London | 7 | Stopwatch | STV","players":null},{"server_id":41,"name":"Uncletopia | London | 8 | Community","name_short":"lon-8","host":"lon-1.uk.uncletopia.com","port":27085,"enabled":true,"region":"eu","cc":"gb","latitude":51.509865,"longitude":-0.118092,"reserved":0,"last_update":"0001-01-01T00:00:00Z","name_a2s":"Uncletopia | London | 8 | Community","protocol":17,"map":"workshop/cp_fulgur_rc2a.ugc2068252300","folder":"tf","game":"Team Fortress","app_id":440,"player_count":0,"max_players":24,"Bots":0,"server_type":"Dedicated","server_os":"Linux","password":true,"vac":true,"version":"7961495","steam_id":85568392924964315,"keywords":["cp","nocrits","nodmgspread","uncletopia"],"game_id":440,"stv_port":27086,"stv_name":"Uncletopia | London | 8 | Community | STV","players":null},{"server_id":300,"name":"Uncletopia | Montréal | 1 | One Thousand Uncles","name_short":"mtl-1","host":"mtl-1.ca.uncletopia.com","port":27015,"enabled":true,"region":"us-east","cc":"ca","latitude":45.50889,"longitude":-73.56167,"reserved":0,"last_update":"0001-01-01T00:00:00Z","name_a2s":"Uncletopia | Montréal | 1 | One Thousand Uncles","protocol":17,"map":"pl_chilly","folder":"tf","game":"Team Fortress","app_id":440,"player_count":0,"max_players":32,"Bots":0,"server_type":"Dedicated","server_os":"Linux","password":true,"vac":true,"version":"7961495","steam_id":85568392924500087,"keywords":["alltalk","danepve","increased_maxplayers","norespawntime","payload","uncletopia"],"game_id":440,"stv_port":0,"stv_name":"","players":null},{"server_id":301,"name":"Uncletopia | Montréal | 2 | One Thousand Uncles","name_short":"mtl-2","host":"mtl-1.ca.uncletopia.com","port":27025,"enabled":true,"region":"us-east","cc":"ca","latitude":45.50889,"longitude":-73.56167,"reserved":0,"last_update":"0001-01-01T00:00:00Z","name_a2s":"Uncletopia | Montréal | 2 | One Thousand Uncles","protocol":17,"map":"pl_chilly","folder":"tf","game":"Team Fortress","app_id":440,"player_count":0,"max_players":32,"Bots":0,"server_type":"Dedicated","server_os":"Linux","password":true,"vac":true,"version":"7961495","steam_id":85568392924500088,"keywords":["alltalk","danepve","increased_maxplayers","norespawntime","payload","uncletopia"],"game_id":440,"stv_port":0,"stv_name":"","players":null},{"server_id":302,"name":"Uncletopia | Montréal | 3 | One Thousand Uncles","name_short":"mtl-3","host":"mtl-1.ca.uncletopia.com","port":27035,"enabled":true,"region":"us-east","cc":"ca","latitude":45.50889,"longitude":-73.56167,"reserved":0,"last_update":"0001-01-01T00:00:00Z","name_a2s":"Uncletopia | Montréal | 3 | One Thousand Uncles","protocol":17,"map":"pl_goldrush","folder":"tf","game":"Team Fortress","app_id":440,"player_count":25,"max_players":32,"Bots":16,"server_type":"Dedicated","server_os":"Linux","password":true,"vac":true,"version":"7961495","steam_id":85568392924500089,"keywords":["alltalk","bots","danepve","increased_maxplayers","norespawntime","payload","uncletopia"],"game_id":440,"stv_port":0,"stv_name":"","players":[{"user_id":72,"name":"The_Reaper_IV","steam_id":76561199439641635,"connected_time":3041000000000,"state":"active","ping":48},{"user_id":75,"name":"Leethalweapon","steam_id":76561198412167609,"connected_time":2380000000000,"state":"active","ping":75},{"user_id":104,"name":"St. Arnold of Soissons","steam_id":76561197974133892,"connected_time":728000000000,"state":"active","ping":58},{"user_id":70,"name":"ECCO","steam_id":76561198002821513,"connected_time":3538000000000,"state":"active","ping":73},{"user_id":106,"name":"A-Frame","steam_id":76561198423858118,"connected_time":582000000000,"state":"active","ping":116},{"user_id":108,"name":"consume tofu","steam_id":76561198882758067,"connected_time":217000000000,"state":"active","ping":96},{"user_id":84,"name":"manbearswineflu","steam_id":76561198083945137,"connected_time":1925000000000,"state":"active","ping":86},{"user_id":85,"name":"fish (2:3)","steam_id":76561198134331073,"connected_time":1899000000000,"state":"active","ping":120},{"user_id":99,"name":"oinkpig234","steam_id":76561198883733811,"connected_time":880000000000,"state":"active","ping":90}]},{"server_id":13,"name":"Uncletopia | New York City | 1 | All Maps","name_short":"nyc-1","host":"nyc-1.us.uncletopia.com","port":27015,"enabled":true,"region":"us-east","cc":"us","latitude":40.73061,"longitude":-73.93524,"reserved":0,"last_update":"0001-01-01T00:00:00Z","name_a2s":"Uncletopia | New York City | 1 | All Maps","protocol":17,"map":"koth_brazil","folder":"tf","game":"Team Fortress","app_id":440,"player_count":0,"max_players":24,"Bots":0,"server_type":"Dedicated","server_os":"Linux","password":true,"vac":true,"version":"7961495","steam_id":85568392924469993,"keywords":["cp","nocrits","nodmgspread","uncletopia"],"game_id":440,"stv_port":27016,"stv_name":"Uncletopia | New York City | 1 | All Maps | STV","players":null},{"server_id":14,"name":"Uncletopia | New York City | 2 | All Maps","name_short":"nyc-2","host":"nyc-1.us.uncletopia.com","port":27025,"enabled":true,"region":"us-east","cc":"us","latitude":40.73061,"longitude":-73.93524,"reserved":0,"last_update":"0001-01-01T00:00:00Z","name_a2s":"Uncletopia | New York City | 2 | All Maps","protocol":17,"map":"pl_badwater","folder":"tf","game":"Team Fortress","app_id":440,"player_count":0,"max_players":24,"Bots":0,"server_type":"Dedicated","server_os":"Linux","password":true,"vac":true,"version":"7961495","steam_id":85568392924469994,"keywords":["nocrits","nodmgspread","payload","uncletopia"],"game_id":440,"stv_port":27026,"stv_name":"Uncletopia | New York City | 2 | All Maps | STV","players":null},{"server_id":15,"name":"Uncletopia | New York City | 3 | Stopwatch","name_short":"nyc-3","host":"nyc-1.us.uncletopia.com","port":27035,"enabled":true,"region":"us-east","cc":"us","latitude":40.73061,"longitude":-73.93524,"reserved":0,"last_update":"0001-01-01T00:00:00Z","name_a2s":"Uncletopia | New York City | 3 | Stopwatch","protocol":17,"map":"workshop/koth_product_final.ugc454272353","folder":"tf","game":"Team Fortress","app_id":440,"player_count":0,"max_players":24,"Bots":0,"server_type":"Dedicated","server_os":"Linux","password":true,"vac":true,"version":"7961495","steam_id":85568392924742820,"keywords":["cp","nocrits","nodmgspread","uncletopia"],"game_id":440,"stv_port":27036,"stv_name":"Uncletopia | New York City | 3 | Stopwatch | STV","players":null},{"server_id":16,"name":"Uncletopia | New York City | 4 | Community","name_short":"nyc-4","host":"nyc-1.us.uncletopia.com","port":27045,"enabled":true,"region":"us-east","cc":"us","latitude":40.73061,"longitude":-73.93524,"reserved":0,"last_update":"0001-01-01T00:00:00Z","name_a2s":"Uncletopia | New York City | 4 | Community","protocol":17,"map":"workshop/cp_indulge.ugc528106646","folder":"tf","game":"Team Fortress","app_id":440,"player_count":0,"max_players":24,"Bots":0,"server_type":"Dedicated","server_os":"Linux","password":true,"vac":true,"version":"7961495","steam_id":85568392924742821,"keywords":["cp","nocrits","nodmgspread","uncletopia"],"game_id":440,"stv_port":27046,"stv_name":"Uncletopia | New York City | 4 | Community | STV","players":null},{"server_id":142,"name":"Uncletopia | São Paulo | 1 | All Maps","name_short":"sao-1","host":"sao-1.br.uncletopia.com","port":27015,"enabled":true,"region":"sa","cc":"br","latitude":-23.533773,"longitude":-46.62529,"reserved":0,"last_update":"0001-01-01T00:00:00Z","name_a2s":"Uncletopia | São Paulo | 1 | All Maps","protocol":17,"map":"cp_granary","folder":"tf","game":"Team Fortress","app_id":440,"player_count":0,"max_players":24,"Bots":0,"server_type":"Dedicated","server_os":"Linux","password":true,"vac":true,"version":"7961495","steam_id":85568392924469996,"keywords":["cp","nocrits","nodmgspread","uncletopia"],"game_id":440,"stv_port":27016,"stv_name":"Uncletopia | São Paulo | 1 | All Maps | STV","players":null},{"server_id":143,"name":"Uncletopia | São Paulo | 2 | Community","name_short":"sao-2","host":"sao-2.br.uncletopia.com","port":27015,"enabled":true,"region":"sa","cc":"br","latitude":-23.533773,"longitude":-46.62529,"reserved":0,"last_update":"0001-01-01T00:00:00Z","name_a2s":"Uncletopia | São Paulo | 2 | Community","protocol":17,"map":"workshop/cp_logjam_rc12.ugc454812035","folder":"tf","game":"Team Fortress","app_id":440,"player_count":1,"max_players":24,"Bots":0,"server_type":"Dedicated","server_os":"Linux","password":true,"vac":true,"version":"7961495","steam_id":85568392924485349,"keywords":["cp","nocrits","nodmgspread","uncletopia"],"game_id":440,"stv_port":27016,"stv_name":"Uncletopia | São Paulo | 2 | Community | STV","players":[{"user_id":1019,"name":"|AY|LazyCian","steam_id":76561199121786457,"connected_time":284000000000,"state":"connecting","ping":0}]},{"server_id":7,"name":"Uncletopia | Seattle | 1 | All Maps","name_short":"sea-1","host":"sea-1.us.uncletopia.com","port":27015,"enabled":true,"region":"us-west","cc":"us","latitude":47.608013,"longitude":-122.33517,"reserved":0,"last_update":"0001-01-01T00:00:00Z","name_a2s":"Uncletopia | Seattle | 1 | All Maps","protocol":17,"map":"pl_enclosure_final","folder":"tf","game":"Team Fortress","app_id":440,"player_count":24,"max_players":24,"Bots":0,"server_type":"Dedicated","server_os":"Linux","password":true,"vac":true,"version":"7961495","steam_id":85568392924469997,"keywords":["nocrits","nodmgspread","payload","uncletopia"],"game_id":440,"stv_port":27016,"stv_name":"Uncletopia | Seattle | 1 | All Maps | STV","players":[{"user_id":38,"name":"D'sparil","steam_id":76561197979942734,"connected_time":2954000000000,"state":"active","ping":110},{"user_id":9,"name":"Arkus","steam_id":76561199092478198,"connected_time":4321000000000,"state":"active","ping":43},{"user_id":73,"name":"Derblitz","steam_id":76561198040953176,"connected_time":220000000000,"state":"active","ping":75},{"user_id":11,"name":"Turts","steam_id":76561197998448097,"connected_time":4111000000000,"state":"active","ping":62},{"user_id":16,"name":"[COS]SonneyDonkeh","steam_id":76561198091284496,"connected_time":3710000000000,"state":"active","ping":67},{"user_id":74,"name":"chowanatohr","steam_id":76561198070165723,"connected_time":195000000000,"state":"active","ping":60},{"user_id":75,"name":"Laxoloni","steam_id":76561199197045700,"connected_time":62000000000,"state":"active","ping":89},{"user_id":18,"name":"Asparagus and cheese","steam_id":76561198968058652,"connected_time":3668000000000,"state":"active","ping":53},{"user_id":26,"name":"Peppy","steam_id":76561198866629645,"connected_time":3155000000000,"state":"active","ping":55},{"user_id":20,"name":"J0hN","steam_id":76561198055972894,"connected_time":3400000000000,"state":"active","ping":89},{"user_id":50,"name":"CheeseCake488","steam_id":76561199407617942,"connected_time":2232000000000,"state":"active","ping":94},{"user_id":49,"name":"you just got dyked on","steam_id":76561198018977723,"connected_time":2306000000000,"state":"active","ping":113},{"user_id":51,"name":"Juicy","steam_id":76561198049220780,"connected_time":2197000000000,"state":"active","ping":88},{"user_id":27,"name":"Raizen","steam_id":76561199092445367,"connected_time":3154000000000,"state":"active","ping":103},{"user_id":53,"name":"Dr. Karl, the AUS Science Guy","steam_id":76561198031278747,"connected_time":1764000000000,"state":"active","ping":47},{"user_id":29,"name":"Selective Serotonin Inhibitor","steam_id":76561198397908108,"connected_time":3106000000000,"state":"active","ping":97},{"user_id":77,"name":"Just a Good Friend","steam_id":76561198140052403,"connected_time":38000000000,"state":"active","ping":285},{"user_id":66,"name":"rad killl raccoon","steam_id":76561198980975595,"connected_time":939000000000,"state":"active","ping":47},{"user_id":69,"name":"SkobeBeef","steam_id":76561198078638948,"connected_time":768000000000,"state":"active","ping":56},{"user_id":40,"name":"2 Point Tom","steam_id":76561198087617008,"connected_time":2908000000000,"state":"active","ping":57},{"user_id":52,"name":"Cave Mushroom","steam_id":76561198090419068,"connected_time":1777000000000,"state":"active","ping":64},{"user_id":35,"name":"echelon","steam_id":76561198139172979,"connected_time":3002000000000,"state":"active","ping":63},{"user_id":71,"name":"BlazedBunny","steam_id":76561198243610560,"connected_time":764000000000,"state":"active","ping":67},{"user_id":72,"name":"Anthid","steam_id":76561198074493797,"connected_time":483000000000,"state":"active","ping":63}]},{"server_id":119,"name":"Uncletopia | Seattle | 2 | All Maps","name_short":"sea-2","host":"sea-1.us.uncletopia.com","port":27025,"enabled":true,"region":"us-west","cc":"us","latitude":47.608013,"longitude":-122.33517,"reserved":0,"last_update":"0001-01-01T00:00:00Z","name_a2s":"Uncletopia | Seattle | 2 | All Maps","protocol":17,"map":"koth_lakeside_final","folder":"tf","game":"Team Fortress","app_id":440,"player_count":0,"max_players":24,"Bots":0,"server_type":"Dedicated","server_os":"Linux","password":true,"vac":true,"version":"7961495","steam_id":85568392924469998,"keywords":["cp","nocrits","nodmgspread","uncletopia"],"game_id":440,"stv_port":27026,"stv_name":"Uncletopia | Seattle | 2 | All Maps | STV","players":null},{"server_id":406,"name":"Uncletopia | Seattle | 3 | Stopwatch","name_short":"sea-3","host":"sea-1.us.uncletopia.com","port":27035,"enabled":true,"region":"us-west","cc":"us","latitude":47.608013,"longitude":-122.33517,"reserved":0,"last_update":"0001-01-01T00:00:00Z","name_a2s":"Uncletopia | Seattle | 3 | Stopwatch","protocol":17,"map":"cp_gullywash_final1","folder":"tf","game":"Team Fortress","app_id":440,"player_count":0,"max_players":24,"Bots":0,"server_type":"Dedicated","server_os":"Linux","password":true,"vac":true,"version":"7961495","steam_id":85568392924515217,"keywords":["cp","nocrits","nodmgspread","uncletopia"],"game_id":440,"stv_port":27036,"stv_name":"Uncletopia | Seattle | 3 | Stopwatch | STV","players":null},{"server_id":17,"name":"Uncletopia | San Francisco | 1 | All Maps","name_short":"sfo-1","host":"sfo-1.us.uncletopia.com","port":27015,"enabled":true,"region":"us-west","cc":"us","latitude":37.77397,"longitude":-122.4313,"reserved":0,"last_update":"0001-01-01T00:00:00Z","name_a2s":"Uncletopia | San Francisco | 1 | All Maps","protocol":17,"map":"koth_highpass","folder":"tf","game":"Team Fortress","app_id":440,"player_count":0,"max_players":24,"Bots":0,"server_type":"Dedicated","server_os":"Linux","password":true,"vac":true,"version":"7961495","steam_id":85568392924469999,"keywords":["cp","nocrits","nodmgspread","uncletopia"],"game_id":440,"stv_port":27016,"stv_name":"Uncletopia | San Francisco | 1 | All Maps | STV","players":null},{"server_id":18,"name":"Uncletopia | San Francisco | 2 | All Maps","name_short":"sfo-2","host":"sfo-1.us.uncletopia.com","port":27025,"enabled":true,"region":"us-west","cc":"us","latitude":37.77397,"longitude":-122.4313,"reserved":0,"last_update":"0001-01-01T00:00:00Z","name_a2s":"Uncletopia | San Francisco | 2 | All Maps","protocol":17,"map":"cp_freight_final1","folder":"tf","game":"Team Fortress","app_id":440,"player_count":0,"max_players":24,"Bots":0,"server_type":"Dedicated","server_os":"Linux","password":true,"vac":true,"version":"7961495","steam_id":85568392924470000,"keywords":["cp","nocrits","nodmgspread","uncletopia"],"game_id":440,"stv_port":27026,"stv_name":"Uncletopia | San Francisco | 2 | All Maps | STV","players":null},{"server_id":19,"name":"Uncletopia | San Francisco | 3 | Stopwatch","name_short":"sfo-3","host":"sfo-1.us.uncletopia.com","port":27035,"enabled":true,"region":"us-west","cc":"us","latitude":37.77397,"longitude":-122.4313,"reserved":0,"last_update":"0001-01-01T00:00:00Z","name_a2s":"Uncletopia | San Francisco | 3 | Stopwatch","protocol":17,"map":"workshop/koth_product_final.ugc454272353","folder":"tf","game":"Team Fortress","app_id":440,"player_count":0,"max_players":24,"Bots":0,"server_type":"Dedicated","server_os":"Linux","password":true,"vac":true,"version":"7961495","steam_id":85568392924742824,"keywords":["cp","nocrits","nodmgspread","uncletopia"],"game_id":440,"stv_port":27036,"stv_name":"Uncletopia | San Francisco | 3 | Stopwatch | STV","players":null},{"server_id":20,"name":"Uncletopia | San Francisco | 4 | Community","name_short":"sfo-4","host":"sfo-1.us.uncletopia.com","port":27045,"enabled":true,"region":"us-west","cc":"us","latitude":37.77397,"longitude":-122.4313,"reserved":0,"last_update":"0001-01-01T00:00:00Z","name_a2s":"Uncletopia | San Francisco | 4 | Community","protocol":17,"map":"workshop/pl_cactuscanyon_redux_final2.ugc2579644293","folder":"tf","game":"Team Fortress","app_id":440,"player_count":0,"max_players":24,"Bots":0,"server_type":"Dedicated","server_os":"Linux","password":true,"vac":true,"version":"7961495","steam_id":85568392924742826,"keywords":["nocrits","nodmgspread","payload","uncletopia"],"game_id":440,"stv_port":27046,"stv_name":"Uncletopia | San Francisco | 4 | Community | STV","players":null},{"server_id":141,"name":"Uncletopia | Sydney | 1 | All Maps","name_short":"syd-1","host":"syd-1.au.uncletopia.com","port":27015,"enabled":true,"region":"au","cc":"au","latitude":-33.865143,"longitude":151.2099,"reserved":0,"last_update":"0001-01-01T00:00:00Z","name_a2s":"Uncletopia | Sydney | 1 | All Maps","protocol":17,"map":"koth_viaduct","folder":"tf","game":"Team Fortress","app_id":440,"player_count":0,"max_players":24,"Bots":0,"server_type":"Dedicated","server_os":"Linux","password":true,"vac":true,"version":"7961495","steam_id":85568392924470001,"keywords":["cp","nocrits","nodmgspread","uncletopia"],"game_id":440,"stv_port":27016,"stv_name":"Uncletopia | Sydney | 1 | All Maps | STV","players":null},{"server_id":123,"name":"Uncletopia | Sydney | 2 | All Maps","name_short":"syd-2","host":"syd-1.au.uncletopia.com","port":27025,"enabled":true,"region":"au","cc":"au","latitude":-33.865143,"longitude":151.2099,"reserved":0,"last_update":"0001-01-01T00:00:00Z","name_a2s":"Uncletopia | Sydney | 2 | All Maps","protocol":17,"map":"pl_barnblitz","folder":"tf","game":"Team Fortress","app_id":440,"player_count":0,"max_players":24,"Bots":0,"server_type":"Dedicated","server_os":"Linux","password":true,"vac":true,"version":"7961495","steam_id":85568392924470002,"keywords":["nocrits","nodmgspread","payload","uncletopia"],"game_id":440,"stv_port":27026,"stv_name":"Uncletopia | Sydney | 2 | All Maps | STV","players":null},{"server_id":395,"name":"Uncletopia | Sydney | 3 | All Maps","name_short":"syd-3","host":"syd-1.au.uncletopia.com","port":27035,"enabled":true,"region":"au","cc":"au","latitude":-33.865143,"longitude":151.2099,"reserved":0,"last_update":"0001-01-01T00:00:00Z","name_a2s":"Uncletopia | Sydney | 3 | All Maps","protocol":17,"map":"koth_lakeside_final","folder":"tf","game":"Team Fortress","app_id":440,"player_count":0,"max_players":24,"Bots":0,"server_type":"Dedicated","server_os":"Linux","password":true,"vac":true,"version":"7961495","steam_id":85568392925194467,"keywords":["cp","nocrits","nodmgspread","uncletopia"],"game_id":440,"stv_port":27036,"stv_name":"Uncletopia | Sydney | 3 | All Maps | STV","players":null},{"server_id":396,"name":"Uncletopia | Sydney | 4 | All Maps","name_short":"syd-4","host":"syd-1.au.uncletopia.com","port":27045,"enabled":true,"region":"au","cc":"au","latitude":-33.865143,"longitude":151.2099,"reserved":0,"last_update":"0001-01-01T00:00:00Z","name_a2s":"Uncletopia | Sydney | 4 | All Maps","protocol":17,"map":"pl_snowycoast","folder":"tf","game":"Team Fortress","app_id":440,"player_count":0,"max_players":24,"Bots":0,"server_type":"Dedicated","server_os":"Linux","password":true,"vac":true,"version":"7961495","steam_id":85568392925397958,"keywords":["nocrits","nodmgspread","payload","uncletopia"],"game_id":440,"stv_port":27046,"stv_name":"Uncletopia | Sydney | 4 | All Maps | STV","players":null},{"server_id":58,"name":"Uncletopia | Sydney | 5 | Stopwatch","name_short":"syd-5","host":"syd-1.au.uncletopia.com","port":27055,"enabled":true,"region":"au","cc":"au","latitude":-33.865143,"longitude":151.2099,"reserved":0,"last_update":"0001-01-01T00:00:00Z","name_a2s":"Uncletopia | Sydney | 5 | Stopwatch","protocol":17,"map":"koth_highpass","folder":"tf","game":"Team Fortress","app_id":440,"player_count":0,"max_players":24,"Bots":0,"server_type":"Dedicated","server_os":"Linux","password":true,"vac":true,"version":"7961495","steam_id":85568392925397959,"keywords":["cp","nocrits","nodmgspread","uncletopia"],"game_id":440,"stv_port":27056,"stv_name":"Uncletopia | Sydney | 5 | Stopwatch | STV","players":null},{"server_id":59,"name":"Uncletopia | Sydney | 6 | Community","name_short":"syd-6","host":"syd-1.au.uncletopia.com","port":27065,"enabled":true,"region":"au","cc":"au","latitude":-33.865143,"longitude":151.2099,"reserved":0,"last_update":"0001-01-01T00:00:00Z","name_a2s":"Uncletopia | Sydney | 6 | Community","protocol":17,"map":"workshop/koth_trenchfoot_ab1.ugc731436616","folder":"tf","game":"Team Fortress","app_id":440,"player_count":0,"max_players":24,"Bots":0,"server_type":"Dedicated","server_os":"Linux","password":true,"vac":true,"version":"7961495","steam_id":85568392925397960,"keywords":["cp","nocrits","nodmgspread","uncletopia"],"game_id":440,"stv_port":27066,"stv_name":"Uncletopia | Sydney | 6 | Community | STV","players":null},{"server_id":49,"name":"Uncletopia | Warsaw | 1 | One Thousand Uncles","name_short":"waw-1","host":"waw-1.pl.uncletopia.com","port":27015,"enabled":true,"region":"eu","cc":"pl","latitude":52.2297,"longitude":21.017532,"reserved":0,"last_update":"0001-01-01T00:00:00Z","name_a2s":"Uncletopia | Warsaw | 1 | One Thousand Uncles","protocol":17,"map":"pl_barnblitz","folder":"tf","game":"Team Fortress","app_id":440,"player_count":28,"max_players":32,"Bots":16,"server_type":"Dedicated","server_os":"Linux","password":true,"vac":true,"version":"7961495","steam_id":85568392925397850,"keywords":["alltalk","bots","danepve","increased_maxplayers","norespawntime","payload","uncletopia"],"game_id":440,"stv_port":0,"stv_name":"","players":[{"user_id":635,"name":"Rayco","steam_id":76561198048013129,"connected_time":345000000000,"state":"active","ping":55},{"user_id":609,"name":"guzjoanna75","steam_id":76561199305432762,"connected_time":1851000000000,"state":"active","ping":47},{"user_id":617,"name":"Patyczak112","steam_id":76561199207268429,"connected_time":1521000000000,"state":"active","ping":68},{"user_id":600,"name":"Pain in a Box","steam_id":76561197990777173,"connected_time":3516000000000,"state":"active","ping":69},{"user_id":608,"name":"adv6","steam_id":76561198029789989,"connected_time":2291000000000,"state":"active","ping":81},{"user_id":611,"name":"Riky95","steam_id":76561198095289436,"connected_time":1656000000000,"state":"active","ping":59},{"user_id":636,"name":"turknaskooyun","steam_id":76561199222306117,"connected_time":340000000000,"state":"active","ping":125},{"user_id":637,"name":"111","steam_id":76561199228000330,"connected_time":339000000000,"state":"active","ping":90},{"user_id":355,"name":"the baddest boy in btd5","steam_id":76561199487914508,"connected_time":21988000000000,"state":"active","ping":39},{"user_id":638,"name":"Dantevicious","steam_id":76561198086021748,"connected_time":237000000000,"state":"active","ping":103},{"user_id":602,"name":"DkDosk","steam_id":76561198997635602,"connected_time":3360000000000,"state":"active","ping":72},{"user_id":639,"name":"Atletlioglu","steam_id":76561199218188958,"connected_time":163000000000,"state":"active","ping":89}]},{"server_id":50,"name":"Uncletopia | Warsaw | 2 | One Thousand Uncles","name_short":"waw-2","host":"waw-1.pl.uncletopia.com","port":27025,"enabled":true,"region":"eu","cc":"pl","latitude":52.2297,"longitude":21.017532,"reserved":0,"last_update":"0001-01-01T00:00:00Z","name_a2s":"Uncletopia | Warsaw | 2 | One Thousand Uncles","protocol":17,"map":"pl_badwater","folder":"tf","game":"Team Fortress","app_id":440,"player_count":28,"max_players":32,"Bots":16,"server_type":"Dedicated","server_os":"Linux","password":true,"vac":true,"version":"7961495","steam_id":85568392925397851,"keywords":["alltalk","bots","danepve","increased_maxplayers","norespawntime","payload","uncletopia"],"game_id":440,"stv_port":0,"stv_name":"","players":[{"user_id":333,"name":"DarkJesterofit","steam_id":76561198438092461,"connected_time":1303000000000,"state":"active","ping":216},{"user_id":338,"name":"Tispy","steam_id":76561199207410049,"connected_time":394000000000,"state":"active","ping":137},{"user_id":300,"name":"irtaminu","steam_id":76561198388297030,"connected_time":3458000000000,"state":"active","ping":93},{"user_id":283,"name":"Skişehirli","steam_id":76561198421239254,"connected_time":4620000000000,"state":"active","ping":106},{"user_id":305,"name":"Rambunctious Dave","steam_id":76561199065817874,"connected_time":2536000000000,"state":"active","ping":122},{"user_id":339,"name":"inrzynier1","steam_id":76561199037368618,"connected_time":290000000000,"state":"active","ping":75},{"user_id":282,"name":"pls defend me, u little bi-","steam_id":76561199060439496,"connected_time":4684000000000,"state":"active","ping":47},{"user_id":340,"name":"Oreo Principle","steam_id":76561198063929217,"connected_time":242000000000,"state":"active","ping":46},{"user_id":307,"name":"aaaaaa","steam_id":76561198086304421,"connected_time":2222000000000,"state":"active","ping":94},{"user_id":285,"name":"Denmas","steam_id":76561199000084787,"connected_time":4490000000000,"state":"active","ping":40},{"user_id":313,"name":"absynth","steam_id":76561197960639092,"connected_time":1594000000000,"state":"active","ping":158},{"user_id":312,"name":"Vitalyy","steam_id":76561199237455383,"connected_time":1667000000000,"state":"active","ping":48}]},{"server_id":51,"name":"Uncletopia | Warsaw | 3 | All Maps","name_short":"waw-3","host":"waw-1.pl.uncletopia.com","port":27035,"enabled":true,"region":"eu","cc":"pl","latitude":52.2297,"longitude":21.017532,"reserved":0,"last_update":"0001-01-01T00:00:00Z","name_a2s":"Uncletopia | Warsaw | 3 | All Maps","protocol":17,"map":"cp_mountainlab","folder":"tf","game":"Team Fortress","app_id":440,"player_count":0,"max_players":24,"Bots":0,"server_type":"Dedicated","server_os":"Linux","password":true,"vac":true,"version":"7961495","steam_id":85568392925397852,"keywords":["cp","nocrits","nodmgspread","uncletopia"],"game_id":440,"stv_port":27036,"stv_name":"Uncletopia | Warsaw | 3 | All Maps | STV","players":null},{"server_id":52,"name":"Uncletopia | Warsaw | 4 | All Maps","name_short":"waw-4","host":"waw-1.pl.uncletopia.com","port":27045,"enabled":true,"region":"eu","cc":"pl","latitude":52.2297,"longitude":21.017532,"reserved":0,"last_update":"0001-01-01T00:00:00Z","name_a2s":"Uncletopia | Warsaw | 4 | All Maps","protocol":17,"map":"pl_snowycoast","folder":"tf","game":"Team Fortress","app_id":440,"player_count":0,"max_players":24,"Bots":0,"server_type":"Dedicated","server_os":"Linux","password":true,"vac":true,"version":"7961495","steam_id":85568392925397853,"keywords":["nocrits","nodmgspread","payload","uncletopia"],"game_id":440,"stv_port":27046,"stv_name":"Uncletopia | Warsaw | 4 | All Maps | STV","players":null},{"server_id":53,"name":"Uncletopia | Warsaw | 5 | Stopwatch","name_short":"waw-5","host":"waw-1.pl.uncletopia.com","port":27055,"enabled":true,"region":"eu","cc":"pl","latitude":52.2297,"longitude":21.017532,"reserved":0,"last_update":"0001-01-01T00:00:00Z","name_a2s":"Uncletopia | Warsaw | 5 | Stopwatch","protocol":17,"map":"koth_lakeside_final","folder":"tf","game":"Team Fortress","app_id":440,"player_count":0,"max_players":24,"Bots":0,"server_type":"Dedicated","server_os":"Linux","password":true,"vac":true,"version":"7961495","steam_id":85568392925397854,"keywords":["cp","nocrits","nodmgspread","uncletopia"],"game_id":440,"stv_port":27056,"stv_name":"Uncletopia | Warsaw | 5 | Stopwatch | STV","players":null},{"server_id":54,"name":"Uncletopia | Warsaw | 6 | Community","name_short":"waw-6","host":"waw-1.pl.uncletopia.com","port":27065,"enabled":true,"region":"eu","cc":"pl","latitude":52.2297,"longitude":21.017532,"reserved":0,"last_update":"0001-01-01T00:00:00Z","name_a2s":"Uncletopia | Warsaw | 6 | Community","protocol":17,"map":"workshop/koth_trenchfoot_ab1.ugc731436616","folder":"tf","game":"Team Fortress","app_id":440,"player_count":0,"max_players":24,"Bots":0,"server_type":"Dedicated","server_os":"Linux","password":true,"vac":true,"version":"7961495","steam_id":85568392925397856,"keywords":["cp","nocrits","nodmgspread","uncletopia"],"game_id":440,"stv_port":27066,"stv_name":"Uncletopia | Warsaw | 6 | Community | STV","players":null}]}