{"status":true,"message":"","result":[{"server_id":9,"name":"Uncletopia | Atlanta | 1 | All Maps","name_short":"atl-1","host":"atl-1.us.uncletopia.com","port":27015,"enabled":true,"region":"us-east","cc":"us","latitude":33.753746,"longitude":-84.38633,"reserved":0,"last_update":"0001-01-01T00:00:00Z","name_a2s":"Uncletopia | Atlanta | 1 | All Maps","protocol":17,"map":"pl_goldrush","folder":"tf","game":"Team Fortress","app_id":440,"player_count":18,"max_players":24,"Bots":0,"server_type":"Dedicated","server_os":"Linux","password":true,"vac":true,"version":"7961495","steam_id":85568392924469982,"keywords":["nocrits","nodmgspread","payload","uncletopia"],"game_id":440,"stv_port":27016,"stv_name":"Uncletopia | Atlanta | 1 | All Maps | STV","players":null},{"server_id":104,"name":"Uncletopia | Atlanta | 2 | All Maps","name_short":"atl-2","host":"atl-1.us.uncletopia.com","port":27025,"enabled":true,"region":"us-east","cc":"us","latitude":33.753746,"longitude":-84.38633,"reserved":0,"last_update":"0001-01-01T00:00:00Z","name_a2s":"Uncletopia | Atlanta | 2 | All Maps","protocol":17,"map":"koth_highpass","folder":"tf","game":"Team Fortress","app_id":440,"player_count":0,"max_players":24,"Bots":0,"server_type":"Dedicated","server_os":"Linux","password":true,"vac":true,"version":"7961495","steam_id":85568392924469983,"keywords":["cp","nocrits","nodmgspread","uncletopia"],"game_id":440,"stv_port":27026,"stv_name":"Uncletopia | Atlanta | 2 | All Maps | STV","players":null},{"server_id":400,"name":"Uncletopia | Atlanta | 3 | All Maps","name_short":"atl-3","host":"atl-1.us.uncletopia.com","port":27035,"enabled":true,"region":"us-east","cc":"us","latitude":33.753746,"longitude":-84.38633,"reserved":0,"last_update":"0001-01-01T00:00:00Z","name_a2s":"Uncletopia | Atlanta | 3 | All Maps","protocol":17,"map":"koth_cascade","folder":"tf","game":"Team Fortress","app_id":440,"player_count":9,"max_players":24,"Bots":0,"server_type":"Dedicated","server_os":"Linux","password":true,"vac":true,"version":"7961495","steam_id":85568392924515187,"keywords":["cp","nocrits","nodmgspread","uncletopia"],"game_id":440,"stv_port":27036,"stv_name":"Uncletopia | Atlanta | 3 | All Maps | STV","players":null},{"server_id":401,"name":"Uncletopia | Atlanta | 4 | Community","name_short":"atl-4","host":"atl-1.us.uncletopia.com","port":27045,"enabled":true,"region":"us-east","cc":"us","latitude":33.753746,"longitude":-84.38633,"reserved":0,"last_update":"0001-01-01T00:00:00Z","name_a2s":"Uncletopia | Atlanta | 4 | Community","protocol":17,"map":"koth_ashville_final","folder":"tf","game":"Team Fortress","app_id":440,"player_count":0,"max_players":24,"Bots":0,"server_type":"Dedicated","server_os":"Linux","password":true,"vac":true,"version":"7961495","steam_id":85568392924515188,"keywords":["cp","nocrits","nodmgspread","uncletopia"],"game_id":440,"stv_port":27046,"stv_name":"Uncletopia | Atlanta | 4 | Community | STV","players":null},{"server_id":2,"name":"Uncletopia | Chicago | 1 | All Maps","name_short":"chi-1","host":"chi-1.us.uncletopia.com","port":27015,"enabled":true,"region":"us-central","cc":"us","latitude":41.881832,"longitude":-87.62318,"reserved":0,"last_update":"0001-01-01T00:00:00Z","name_a2s":"Uncletopia | Chicago | 1 | All Maps","protocol":17,"map":"pl_barnblitz","folder":"tf","game":"Team Fortress","app_id":440,"player_count":24,"max_players":24,"Bots":0,"server_type":"Dedicated","server_os":"Linux","password":true,"vac":true,"version":"7961495","steam_id":85568392924469984,"keywords":["nocrits","nodmgspread","payload","uncletopia"],"game_id":440,"stv_port":27016,"stv_name":"Uncletopia | Chicago | 1 | All Maps | STV","players":[{"user_id":241,"name":"daffodil","steam_id":76561198049480053,"connected_time":833000000000,"state":"active","ping":57},{"user_id":233,"name":"Reckless Klondike","steam_id":76561198060904416,"connected_time":2320000000000,"state":"active","ping":70},{"user_id":190,"name":"❤Womp❤","steam_id":76561198167488304,"connected_time":6856000000000,"state":"active","ping":45},{"user_id":189,"name":"hammythegreat #SaveTF2","steam_id":76561198079526946,"connected_time":7058000000000,"state":"active","ping":90},{"user_id":254,"name":"Mank","steam_id":76561198189421005,"connected_time":330000000000,"state":"active","ping":56},{"user_id":181,"name":"blob","steam_id":76561198122375328,"connected_time":7192000000000,"state":"active","ping":56},{"user_id":169,"name":"Swash","steam_id":76561197969421355,"connected_time":8584000000000,"state":"active","ping":61},{"user_id":230,"name":"novu","steam_id":76561198886997024,"connected_time":2737000000000,"state":"active","ping":83},{"user_id":242,"name":"Cuffs","steam_id":76561198008116835,"connected_time":827000000000,"state":"active","ping":66},{"user_id":246,"name":"Soy","steam_id":76561198050605191,"connected_time":807000000000,"state":"active","ping":84},{"user_id":209,"name":"evxjj899","steam_id":76561199231625308,"connected_time":4531000000000,"state":"active","ping":74},{"user_id":244,"name":"pricklyporcupine","steam_id":76561198111669383,"connected_time":820000000000,"state":"active","ping":84},{"user_id":255,"name":"Mr_Frosty","steam_id":76561199380389079,"connected_time":288000000000,"state":"active","ping":81},{"user_id":171,"name":"hej","steam_id":76561197996366940,"connected_time":8534000000000,"state":"active","ping":60},{"user_id":248,"name":"Carpetspill","steam_id":76561198240023406,"connected_time":765000000000,"state":"active","ping":82},{"user_id":249,"name":"Maverick","steam_id":76561198322829814,"connected_time":753000000000,"state":"active","ping":79},{"user_id":237,"name":"LeoXG72","steam_id":76561199018385453,"connected_time":1955000000000,"state":"active","ping":93},{"user_id":223,"name":"Doctor Emerald(real)","steam_id":76561199123003872,"connected_time":3352000000000,"state":"active","ping":94},{"user_id":252,"name":"Notsocreative","steam_id":76561198236372202,"connected_time":591000000000,"state":"active","ping":74},{"user_id":253,"name":"Newplayer","steam_id":76561198965438781,"connected_time":333000000000,"state":"active","ping":59},{"user_id":256,"name":"Pun Gun","steam_id":76561199229784344,"connected_time":74000000000,"state":"active","ping":58},{"user_id":240,"name":"Astoriae!","steam_id":76561199090168858,"connected_time":989000000000,"state":"active","ping":72},{"user_id":214,"name":"Lia_Rein","steam_id":76561198151569597,"connected_time":4034000000000,"state":"active","ping":140},{"user_id":179,"name":"0100101101100001011100100110110","steam_id":76561198034028769,"connected_time":7196000000000,"state":"active","ping":66}]},{"server_id":106,"name":"Uncletopia | Chicago | 2 | All Maps","name_short":"chi-2","host":"chi-1.us.uncletopia.com","port":27025,"enabled":true,"region":"us-central","cc":"us","latitude":41.881832,"longitude":-87.62318,"reserved":0,"last_update":"0001-01-01T00:00:00Z","name_a2s":"Uncletopia | Chicago | 2 | All Maps","protocol":17,"map":"pl_snowycoast","folder":"tf","game":"Team Fortress","app_id":440,"player_count":24,"max_players":24,"Bots":0,"server_type":"Dedicated","server_os":"Linux","password":true,"vac":true,"version":"7961495","steam_id":85568392924469985,"keywords":["nocrits","nodmgspread","payload","uncletopia"],"game_id":440,"stv_port":27026,"stv_name":"Uncletopia | Chicago | 2 | All Maps | STV","players":[{"user_id":61,"name":"dedaF","steam_id":76561198006568936,"connected_time":3318000000000,"state":"active","ping":107},{"user_id":86,"name":"Ericpar","steam_id":76561198040297736,"connected_time":275000000000,"state":"active","ping":68},{"user_id":51,"name":"Cloud","steam_id":76561198954987128,"connected_time":3873000000000,"state":"active","ping":70},{"user_id":52,"name":"vanta","steam_id":76561198084317504,"connected_time":3858000000000,"state":"active","ping":45},{"user_id":84,"name":"fruitcake","steam_id":76561198436085863,"connected_time":335000000000,"state":"active","ping":99},{"user_id":50,"name":"I have no idea what I am doing?","steam_id":76561198093152207,"connected_time":3880000000000,"state":"active","ping":73},{"user_id":71,"name":"Mister Mundy","steam_id":76561198145675134,"connected_time":2354000000000,"state":"active","ping":83},{"user_id":29,"name":"Dr. Pl0x","steam_id":76561198040785401,"connected_time":4696000000000,"state":"active","ping":106},{"user_id":76,"name":"Glump","steam_id":76561198068199307,"connected_time":1563000000000,"state":"active","ping":60},{"user_id":42,"name":"Famished_4U","steam_id":76561198074097875,"connected_time":4559000000000,"state":"active","ping":60},{"user_id":79,"name":"eis","steam_id":76561198830293087,"connected_time":952000000000,"state":"active","ping":44},{"user_id":28,"name":"zen","steam_id":76561198066485047,"connected_time":4800000000000,"state":"active","ping":59},{"user_id":73,"name":"Bee","steam_id":76561198074681324,"connected_time":1810000000000,"state":"active","ping":65},{"user_id":31,"name":"e doctor","steam_id":76561198081851446,"connected_time":4648000000000,"state":"active","ping":45},{"user_id":58,"name":"Enzo","steam_id":76561197975076681,"connected_time":3424000000000,"state":"active","ping":54},{"user_id":82,"name":"Candy Sparkles","steam_id":76561198126871264,"connected_time":519000000000,"state":"active","ping":84},{"user_id":88,"name":"exotic fishes","steam_id":76561199046490785,"connected_time":54000000000,"state":"active","ping":62},{"user_id":83,"name":"Chihuahua","steam_id":76561199133120527,"connected_time":507000000000,"state":"active","ping":120},{"user_id":74,"name":"uh oh stinky","steam_id":76561198240881488,"connected_time":1672000000000,"state":"active","ping":58},{"user_id":38,"name":"BeefStewLover13","steam_id":76561198076207585,"connected_time":4582000000000,"state":"active","ping":69},{"user_id":85,"name":"tA.CHRONIC","steam_id":76561197960760990,"connected_time":324000000000,"state":"active","ping":44},{"user_id":81,"name":"ceres","steam_id":76561198291976960,"connected_time":525000000000,"state":"active","ping":105},{"user_id":87,"name":"Hooked","steam_id":76561198007302139,"connected_time":234000000000,"state":"active","ping":78},{"user_id":66,"name":"Turtleball","steam_id":76561198039375711,"connected_time":3009000000000,"state":"active","ping":73}]},{"server_id":402,"name":"Uncletopia | Chicago | 3 | All Maps","name_short":"chi-3","host":"chi-1.us.uncletopia.com","port":27035,"enabled":true,"region":"us-central","cc":"us","latitude":41.881832,"longitude":-87.62318,"reserved":0,"last_update":"0001-01-01T00:00:00Z","name_a2s":"Uncletopia | Chicago | 3 | All Maps","protocol":17,"map":"cp_powerhouse","folder":"tf","game":"Team Fortress","app_id":440,"player_count":23,"max_players":24,"Bots":0,"server_type":"Dedicated","server_os":"Linux","password":true,"vac":true,"version":"7961495","steam_id":85568392924515191,"keywords":["cp","nocrits","nodmgspread","uncletopia"],"game_id":440,"stv_port":27036,"stv_name":"Uncletopia | Chicago | 3 | All Maps | STV","players":[{"user_id":217,"name":"Lukey Pookey | Ham Mafia |","steam_id":76561199095883827,"connected_time":857000000000,"state":"active","ping":101},{"user_id":229,"name":"Ejaculation Zach","steam_id":76561198203765200,"connected_time":108000000000,"state":"active","ping":64},{"user_id":226,"name":"adult tim","steam_id":76561198075510786,"connected_time":261000000000,"state":"active","ping":70},{"user_id":139,"name":"son","steam_id":76561198442138731,"connected_time":4908000000000,"state":"active","ping":66},{"user_id":219,"name":"low tier booty god","steam_id":76561199493883721,"connected_time":825000000000,"state":"active","ping":49},{"user_id":191,"name":"google docs extraordinaire","steam_id":76561198124174061,"connected_time":1873000000000,"state":"active","ping":66},{"user_id":200,"name":"In Soviet America","steam_id":76561197998261826,"connected_time":1845000000000,"state":"active","ping":63},{"user_id":170,"name":"sweppy","steam_id":76561198035457667,"connected_time":3182000000000,"state":"active","ping":64},{"user_id":208,"name":"Amauri","steam_id":76561198130809137,"connected_time":1563000000000,"state":"active","ping":89},{"user_id":212,"name":"GruntRule","steam_id":76561198039987143,"connected_time":1227000000000,"state":"active","ping":83},{"user_id":188,"name":"DualiTea","steam_id":76561198081733870,"connected_time":1892000000000,"state":"active","ping":53},{"user_id":180,"name":"Speedy","steam_id":76561198080761661,"connected_time":2729000000000,"state":"active","ping":80},{"user_id":218,"name":"MarshallTheFilthyRat","steam_id":76561198054192888,"connected_time":831000000000,"state":"active","ping":77},{"user_id":164,"name":"Starkiller","steam_id":76561198101643120,"connected_time":3997000000000,"state":"active","ping":103},{"user_id":176,"name":"gaming unit","steam_id":76561198148059714,"connected_time":2926000000000,"state":"active","ping":59},{"user_id":202,"name":"HollyBlocky","steam_id":76561198030156100,"connected_time":1828000000000,"state":"active","ping":75},{"user_id":210,"name":"Swifgz","steam_id":76561198162875756,"connected_time":1421000000000,"state":"active","ping":59},{"user_id":228,"name":"kt","steam_id":76561198946374858,"connected_time":130000000000,"state":"active","ping":88},{"user_id":215,"name":"Kid named download","steam_id":76561199192074448,"connected_time":870000000000,"state":"active","ping":79},{"user_id":213,"name":"vapid","steam_id":76561198077643349,"connected_time":1038000000000,"state":"active","ping":73},{"user_id":222,"name":"FedSmoker","steam_id":76561198255854081,"connected_time":741000000000,"state":"active","ping":113},{"user_id":183,"name":"Saggy Haggis Balls","steam_id":76561198047845399,"connected_time":2318000000000,"state":"active","ping":75},{"user_id":199,"name":"D","steam_id":76561198292908619,"connected_time":1852000000000,"state":"active","ping":70}]},{"server_id":403,"name":"Uncletopia | Chicago | 4 | All Maps","name_short":"chi-4","host":"chi-1.us.uncletopia.com","port":27045,"enabled":true,"region":"us-central","cc":"us","latitude":41.881832,"longitude":-87.62318,"reserved":0,"last_update":"0001-01-01T00:00:00Z","name_a2s":"Uncletopia | Chicago | 4 | All Maps","protocol":17,"map":"pl_badwater","folder":"tf","game":"Team Fortress","app_id":440,"player_count":24,"max_players":24,"Bots":0,"server_type":"Dedicated","server_os":"Linux","password":true,"vac":true,"version":"7961495","steam_id":85568392924515193,"keywords":["nocrits","nodmgspread","payload","uncletopia"],"game_id":440,"stv_port":27046,"stv_name":"Uncletopia | Chicago | 4 | All Maps | STV","players":[{"user_id":86,"name":"JopsyJop","steam_id":76561198165542681,"connected_time":1511000000000,"state":"active","ping":47},{"user_id":63,"name":"The Maikeru","steam_id":76561199081647852,"connected_time":2296000000000,"state":"active","ping":138},{"user_id":84,"name":"hamberlin","steam_id":76561198055419255,"connected_time":1832000000000,"state":"active","ping":73},{"user_id":76,"name":"[F2P] Noob Medic [CAN'T TALK]","steam_id":76561198207987376,"connected_time":1984000000000,"state":"active","ping":61},{"user_id":92,"name":"reis","steam_id":76561199232952016,"connected_time":723000000000,"state":"active","ping":177},{"user_id":89,"name":"Joe","steam_id":76561198247499954,"connected_time":1067000000000,"state":"active","ping":64},{"user_id":95,"name":"pabloramirez1998@gmail.com","steam_id":76561198969675306,"connected_time":337000000000,"state":"active","ping":65},{"user_id":68,"name":"Ozer","steam_id":76561198390694422,"connected_time":2204000000000,"state":"active","ping":58},{"user_id":57,"name":"Grand Piano Tuna","steam_id":76561198135137213,"connected_time":2626000000000,"state":"active","ping":52},{"user_id":15,"name":"can man (cigarette advocate)","steam_id":76561197967844454,"connected_time":4010000000000,"state":"active","ping":88},{"user_id":72,"name":"Toyota Enthusiast","steam_id":76561198828668334,"connected_time":2031000000000,"state":"active","ping":62},{"user_id":93,"name":"1-800-GHOST-DANCE","steam_id":76561198835430429,"connected_time":720000000000,"state":"active","ping":89},{"user_id":62,"name":"Copter_Boy","steam_id":76561198322921312,"connected_time":2430000000000,"state":"active","ping":69},{"user_id":87,"name":"i eat bottle caps","steam_id":76561198204995668,"connected_time":1437000000000,"state":"active","ping":77},{"user_id":31,"name":"nhbiker","steam_id":76561198081277675,"connected_time":3624000000000,"state":"active","ping":60},{"user_id":88,"name":"PTR","steam_id":76561198237253772,"connected_time":1286000000000,"state":"active","ping":67},{"user_id":53,"name":"engiqueer69","steam_id":76561199153261850,"connected_time":2685000000000,"state":"active","ping":109},{"user_id":33,"name":"Wheaty","steam_id":76561198003553412,"connected_time":3590000000000,"state":"active","ping":105},{"user_id":91,"name":"the patriotic being","steam_id":76561198398918486,"connected_time":935000000000,"state":"active","ping":66},{"user_id":85,"name":"clicky clicky","steam_id":76561198099084394,"connected_time":1700000000000,"state":"active","ping":77},{"user_id":90,"name":"Pan-Demonica","steam_id":76561198294350105,"connected_time":1013000000000,"state":"active","ping":92},{"user_id":80,"name":"the keebler","steam_id":76561199486326945,"connected_time":1943000000000,"state":"active","ping":79},{"user_id":96,"name":"Fireblade425","steam_id":76561199278401592,"connected_time":272000000000,"state":"active","ping":89},{"user_id":66,"name":"uheggwhite","steam_id":76561199199795741,"connected_time":2261000000000,"state":"active","ping":74}]},{"server_id":36,"name":"Uncletopia | Chicago | 5 | All Maps","name_short":"chi-5","host":"chi-2.us.uncletopia.com","port":27015,"enabled":true,"region":"us-central","cc":"us","latitude":41.881832,"longitude":-87.62318,"reserved":0,"last_update":"0001-01-01T00:00:00Z","name_a2s":"Uncletopia | Chicago | 5 | All Maps","protocol":17,"map":"pl_snowycoast","folder":"tf","game":"Team Fortress","app_id":440,"player_count":24,"max_players":24,"Bots":0,"server_type":"Dedicated","server_os":"Linux","password":true,"vac":true,"version":"7961495","steam_id":85568392924866362,"keywords":["nocrits","nodmgspread","payload","uncletopia"],"game_id":440,"stv_port":27016,"stv_name":"Uncletopia | Chicago | 5 | All Maps | STV","players":[{"user_id":104,"name":"anotherl2","steam_id":76561198354418895,"connected_time":2385000000000,"state":"active","ping":92},{"user_id":111,"name":"Dreszerg","steam_id":76561198838757422,"connected_time":577000000000,"state":"active","ping":78},{"user_id":119,"name":"Sentient Plaid Shirt","steam_id":76561198073338999,"connected_time":342000000000,"state":"active","ping":71},{"user_id":112,"name":"Collision Chaos","steam_id":76561198354313961,"connected_time":557000000000,"state":"active","ping":85},{"user_id":88,"name":"Honolulu","steam_id":76561198106381764,"connected_time":3832000000000,"state":"active","ping":54},{"user_id":108,"name":"anaphylaxis","steam_id":76561198097396447,"connected_time":1371000000000,"state":"active","ping":125},{"user_id":106,"name":"None of that $9.99 bullshit","steam_id":76561198116169903,"connected_time":2275000000000,"state":"active","ping":45},{"user_id":72,"name":"asbestos","steam_id":76561198079178866,"connected_time":5478000000000,"state":"active","ping":74},{"user_id":80,"name":"--_Cook_--","steam_id":76561198080855748,"connected_time":4575000000000,"state":"active","ping":47},{"user_id":116,"name":"jimmyfnaf172198yay","steam_id":76561198311446636,"connected_time":489000000000,"state":"active","ping":65},{"user_id":35,"name":"Homvel","steam_id":76561198000848413,"connected_time":8086000000000,"state":"active","ping":65},{"user_id":113,"name":"ven the foreskin haver","steam_id":76561198880428283,"connected_time":550000000000,"state":"active","ping":75},{"user_id":100,"name":"ThisLittlePiggy","steam_id":76561198342589859,"connected_time":2692000000000,"state":"active","ping":63},{"user_id":117,"name":"lpk","steam_id":76561198025478698,"connected_time":449000000000,"state":"active","ping":43},{"user_id":118,"name":"Nungel","steam_id":76561198272961376,"connected_time":381000000000,"state":"active","ping":76},{"user_id":26,"name":"Big Time Bobby","steam_id":76561198935266162,"connected_time":8274000000000,"state":"active","ping":74},{"user_id":69,"name":"General Mightyian11","steam_id":76561199125278476,"connected_time":5542000000000,"state":"active","ping":68},{"user_id":105,"name":"Your Pal, Vegeta","steam_id":76561198064916816,"connected_time":2383000000000,"state":"active","ping":89},{"user_id":89,"name":"MacchuPeachu","steam_id":76561199093242587,"connected_time":3769000000000,"state":"active","ping":80},{"user_id":62,"name":"Echolu","steam_id":76561198158613750,"connected_time":6350000000000,"state":"active","ping":112},{"user_id":74,"name":"Rappitor","steam_id":76561198105613110,"connected_time":5452000000000,"state":"active","ping":68},{"user_id":39,"name":"Pandora Nyx","steam_id":76561198093475054,"connected_time":7859000000000,"state":"active","ping":78},{"user_id":115,"name":"Unpaid_Mcdonaldsworker","steam_id":76561199394565283,"connected_time":529000000000,"state":"active","ping":160},{"user_id":75,"name":"rapscallion","steam_id":76561198188722751,"connected_time":5445000000000,"state":"active","ping":103}]},{"server_id":37,"name":"Uncletopia | Chicago | 6 | All Maps","name_short":"chi-6","host":"chi-2.us.uncletopia.com","port":27025,"enabled":true,"region":"us-central","cc":"us","latitude":41.881832,"longitude":-87.62318,"reserved":0,"last_update":"0001-01-01T00:00:00Z","name_a2s":"Uncletopia | Chicago | 6 | All Maps","protocol":17,"map":"cp_dustbowl","folder":"tf","game":"Team Fortress","app_id":440,"player_count":24,"max_players":24,"Bots":0,"server_type":"Dedicated","server_os":"Linux","password":true,"vac":true,"version":"7961495","steam_id":85568392924866363,"keywords":["cp","nocrits","nodmgspread","uncletopia"],"game_id":440,"stv_port":27026,"stv_name":"Uncletopia | Chicago | 6 | All Maps | STV","players":[{"user_id":24,"name":"Mi cara","steam_id":76561198190771759,"connected_time":1427000000000,"state":"active","ping":94},{"user_id":27,"name":"Kindlebee","steam_id":76561198003987881,"connected_time":1373000000000,"state":"active","ping":74},{"user_id":21,"name":"Haxer","steam_id":76561198438402692,"connected_time":1772000000000,"state":"active","ping":35},{"user_id":59,"name":"Don Kiwi","steam_id":76561198069606892,"connected_time":128000000000,"state":"active","ping":166},{"user_id":30,"name":"Kevin Y.","steam_id":76561198364331423,"connected_time":1136000000000,"state":"active","ping":99},{"user_id":25,"name":"simplyhere141","steam_id":76561199204117948,"connected_time":1407000000000,"state":"active","ping":67},{"user_id":60,"name":"Σ-男","steam_id":76561199124332716,"connected_time":84000000000,"state":"active","ping":179},{"user_id":28,"name":"idk man","steam_id":76561198065543771,"connected_time":1275000000000,"state":"active","ping":73},{"user_id":55,"name":"itchy bitchy spider","steam_id":76561198073269122,"connected_time":250000000000,"state":"active","ping":61},{"user_id":32,"name":"TerrorOfTheSeas","steam_id":76561198388385659,"connected_time":1106000000000,"state":"active","ping":71},{"user_id":33,"name":"Sirmrmagoo","steam_id":76561198993190424,"connected_time":1083000000000,"state":"active","ping":112},{"user_id":62,"name":"Small tiny feet","steam_id":76561199141538581,"connected_time":34000000000,"state":"active","ping":117},{"user_id":35,"name":"Chaspen","steam_id":76561198098269939,"connected_time":1074000000000,"state":"active","ping":71},{"user_id":36,"name":"pinkie piw (real","steam_id":76561198147665500,"connected_time":1060000000000,"state":"active","ping":164},{"user_id":37,"name":"Blade Racer","steam_id":76561198155896703,"connected_time":1057000000000,"state":"active","ping":109},{"user_id":54,"name":"Rhutebeer","steam_id":76561198018302761,"connected_time":397000000000,"state":"active","ping":102},{"user_id":61,"name":"Just washed","steam_id":76561199030160932,"connected_time":44000000000,"state":"active","ping":78},{"user_id":56,"name":"PootisPOW","steam_id":76561199436966147,"connected_time":247000000000,"state":"active","ping":125},{"user_id":57,"name":"TheManMango","steam_id":76561198091984845,"connected_time":218000000000,"state":"active","ping":83},{"user_id":42,"name":"Jattiti","steam_id":76561199214217870,"connected_time":989000000000,"state":"active","ping":59},{"user_id":43,"name":"The new day","steam_id":76561198855144603,"connected_time":989000000000,"state":"active","ping":73},{"user_id":58,"name":"box","steam_id":76561198049531483,"connected_time":213000000000,"state":"active","ping":45},{"user_id":49,"name":"Simply_Komeiji","steam_id":76561198354177703,"connected_time":877000000000,"state":"active","ping":97},{"user_id":47,"name":"Makhnovian","steam_id":76561199090548721,"connected_time":953000000000,"state":"active","ping":67}]},{"server_id":38,"name":"Uncletopia | Chicago | 7 | Stopwatch Beta","name_short":"chi-7","host":"chi-2.us.uncletopia.com","port":27035,"enabled":true,"region":"us-central","cc":"us","latitude":41.881832,"longitude":-87.62318,"reserved":0,"last_update":"0001-01-01T00:00:00Z","name_a2s":"Uncletopia | Chicago | 7 | Stopwatch Beta","protocol":17,"map":"cp_sunshine","folder":"tf","game":"Team Fortress","app_id":440,"player_count":1,"max_players":24,"Bots":0,"server_type":"Dedicated","server_os":"Linux","password":true,"vac":true,"version":"7961495","steam_id":85568392924866364,"keywords":["nocrits","nodmgspread","payload","uncletopia"],"game_id":440,"stv_port":27036,"stv_name":"Uncletopia | Chicago | 7 | Stopwatch Beta | STV","players":[{"user_id":5,"name":"raspy","steam_id":76561198027298961,"connected_time":38000000000,"state":"connecting","ping":61}]},{"server_id":39,"name":"Uncletopia | Chicago | 8 | Community","name_short":"chi-8","host":"chi-2.us.uncletopia.com","port":27045,"enabled":true,"region":"us-central","cc":"us","latitude":41.881832,"longitude":-87.62318,"reserved":0,"last_update":"0001-01-01T00:00:00Z","name_a2s":"Uncletopia | Chicago | 8 | Community","protocol":17,"map":"workshop/pl_emerge_rc2.ugc888027758","folder":"tf","game":"Team Fortress","app_id":440,"player_count":24,"max_players":24,"Bots":0,"server_type":"Dedicated","server_os":"Linux","password":true,"vac":true,"version":"7961495","steam_id":85568392924866365,"keywords":["nocrits","nodmgspread","payload","uncletopia"],"game_id":440,"stv_port":27046,"stv_name":"Uncletopia | Chicago | 8 | Community | STV","players":[{"user_id":130,"name":"Cyclops_672","steam_id":76561198080169497,"connected_time":7937000000000,"state":"active","ping":53},{"user_id":181,"name":"Biden Blast","steam_id":76561198366729030,"connected_time":4897000000000,"state":"active","ping":91},{"user_id":230,"name":"Bheem","steam_id":76561198170453459,"connected_time":694000000000,"state":"active","ping":84},{"user_id":239,"name":"Team Fortress","steam_id":76561198058722801,"connected_time":175000000000,"state":"active","ping":129},{"user_id":231,"name":"brodytheaverage","steam_id":76561199013117654,"connected_time":686000000000,"state":"active","ping":147},{"user_id":194,"name":"Sergeant Snowflake","steam_id":76561198041474489,"connected_time":3723000000000,"state":"active","ping":61},{"user_id":232,"name":"Acorn","steam_id":76561198353480153,"connected_time":640000000000,"state":"active","ping":61},{"user_id":224,"name":"sailor","steam_id":76561198091015050,"connected_time":1608000000000,"state":"active","ping":58},{"user_id":166,"name":".mp3","steam_id":76561198070710025,"connected_time":5705000000000,"state":"active","ping":77},{"user_id":229,"name":"Hound_","steam_id":76561199389781834,"connected_time":904000000000,"state":"active","ping":115},{"user_id":221,"name":"Jarvis","steam_id":76561198020088034,"connected_time":2186000000000,"state":"active","ping":97},{"user_id":220,"name":"Whompert","steam_id":76561198042939624,"connected_time":2284000000000,"state":"active","ping":85},{"user_id":131,"name":"define ok","steam_id":76561198068190834,"connected_time":7882000000000,"state":"active","ping":111},{"user_id":235,"name":"LavenderSys","steam_id":76561198289106015,"connected_time":410000000000,"state":"active","ping":84},{"user_id":211,"name":"RarestGuide","steam_id":76561198050338923,"connected_time":2689000000000,"state":"active","ping":76},{"user_id":237,"name":"Joyous Jenny","steam_id":76561198127998866,"connected_time":253000000000,"state":"active","ping":74},{"user_id":234,"name":"Degree","steam_id":76561198059812393,"connected_time":597000000000,"state":"active","ping":69},{"user_id":227,"name":"Winter the Witchie","steam_id":76561198151971178,"connected_time":1468000000000,"state":"active","ping":65},{"user_id":222,"name":"soltuno","steam_id":76561198074430565,"connected_time":2127000000000,"state":"active","ping":123},{"user_id":213,"name":"The Sinister Potion","steam_id":76561198131280715,"connected_time":2657000000000,"state":"active","ping":72},{"user_id":226,"name":"Cryonics","steam_id":76561198314197911,"connected_time":1585000000000,"state":"active","ping":67},{"user_id":219,"name":"ryce","steam_id":76561198114572309,"connected_time":2452000000000,"state":"active","ping":90},{"user_id":203,"name":"tiefling lesbian","steam_id":76561198162998471,"connected_time":3450000000000,"state":"active","ping":63}]},{"server_id":8,"name":"Uncletopia | Dallas | 1 | All Maps","name_short":"dal-1","host":"dal-1.us.uncletopia.com","port":27015,"enabled":true,"region":"us-central","cc":"us","latitude":32.779167,"longitude":-96.80889,"reserved":0,"last_update":"0001-01-01T00:00:00Z","name_a2s":"Uncletopia | Dallas | 1 | All Maps","protocol":17,"map":"cp_sunshine","folder":"tf","game":"Team Fortress","app_id":440,"player_count":24,"max_players":24,"Bots":0,"server_type":"Dedicated","server_os":"Linux","password":true,"vac":true,"version":"7961495","steam_id":85568392924469986,"keywords":["cp","nocrits","nodmgspread","uncletopia"],"game_id":440,"stv_port":27016,"stv_name":"Uncletopia | Dallas | 1 | All Maps | STV","players":[{"user_id":246,"name":"nurp","steam_id":76561198071687616,"connected_time":115000000000,"state":"active","ping":76},{"user_id":236,"name":"Caustic","steam_id":76561198004802198,"connected_time":840000000000,"state":"active","ping":75},{"user_id":245,"name":"dt-Burt B'dert","steam_id":76561197996380095,"connected_time":314000000000,"state":"active","ping":86},{"user_id":230,"name":"CeLeb144","steam_id":76561199089907740,"connected_time":1548000000000,"state":"active","ping":63},{"user_id":247,"name":"carrot cake","steam_id":76561198055174915,"connected_time":112000000000,"state":"active","ping":83},{"user_id":240,"name":"I am made of paper","steam_id":76561199173608286,"connected_time":760000000000,"state":"active","ping":51},{"user_id":218,"name":"Chhaam","steam_id":76561198058508132,"connected_time":2168000000000,"state":"active","ping":75},{"user_id":192,"name":"Xx_4nim4lL0v3r_xX","steam_id":76561198092135570,"connected_time":3061000000000,"state":"active","ping":43},{"user_id":219,"name":"Love Tiger","steam_id":76561198876135365,"connected_time":2151000000000,"state":"active","ping":108},{"user_id":144,"name":"Kirby.exe","steam_id":76561198242714582,"connected_time":8868000000000,"state":"active","ping":63},{"user_id":239,"name":"lolgamer247","steam_id":76561198974645534,"connected_time":780000000000,"state":"active","ping":127},{"user_id":181,"name":"De MonkE","steam_id":76561198140626221,"connected_time":4433000000000,"state":"active","ping":31},{"user_id":213,"name":"p.k","steam_id":76561198307917606,"connected_time":2555000000000,"state":"active","ping":96},{"user_id":228,"name":"Rob","steam_id":76561199187786660,"connected_time":1626000000000,"state":"active","ping":56},{"user_id":229,"name":"Franz","steam_id":76561198041929745,"connected_time":1615000000000,"state":"active","ping":77},{"user_id":168,"name":"Kira99","steam_id":76561199384105097,"connected_time":6327000000000,"state":"active","ping":93},{"user_id":241,"name":"Rabid Ham","steam_id":76561198154931014,"connected_time":749000000000,"state":"active","ping":95},{"user_id":222,"name":"Synge","steam_id":76561198211955048,"connected_time":2116000000000,"state":"active","ping":72},{"user_id":232,"name":"Choppah","steam_id":76561198269193530,"connected_time":1433000000000,"state":"active","ping":60},{"user_id":202,"name":"Zycron0","steam_id":76561199122983789,"connected_time":2844000000000,"state":"active","ping":95},{"user_id":220,"name":"Magma","steam_id":76561197995793614,"connected_time":2147000000000,"state":"active","ping":69},{"user_id":221,"name":"Meso","steam_id":76561197988971820,"connected_time":2136000000000,"state":"active","ping":46},{"user_id":242,"name":"Paradon","steam_id":76561198242214772,"connected_time":722000000000,"state":"active","ping":75},{"user_id":248,"name":"Jerphf","steam_id":76561198328825964,"connected_time":111000000000,"state":"active","ping":60}]},{"server_id":108,"name":"Uncletopia | Dallas | 2 | All Maps","name_short":"dal-2","host":"dal-1.us.uncletopia.com","port":27025,"enabled":true,"region":"us-central","cc":"us","latitude":32.779167,"longitude":-96.80889,"reserved":0,"last_update":"0001-01-01T00:00:00Z","name_a2s":"Uncletopia | Dallas | 2 | All Maps","protocol":17,"map":"cp_process_final","folder":"tf","game":"Team Fortress","app_id":440,"player_count":21,"max_players":24,"Bots":0,"server_type":"Dedicated","server_os":"Linux","password":true,"vac":true,"version":"7961495","steam_id":85568392924469988,"keywords":["cp","nocrits","nodmgspread","uncletopia"],"game_id":440,"stv_port":27026,"stv_name":"Uncletopia | Dallas | 2 | All Maps | STV","players":[{"user_id":167,"name":"Zen1th","steam_id":76561199105729447,"connected_time":553000000000,"state":"active","ping":56},{"user_id":176,"name":"Wan Shi Tong","steam_id":76561198076441225,"connected_time":66000000000,"state":"active","ping":80},{"user_id":113,"name":"BLOCKHEAD","steam_id":76561198808224331,"connected_time":3903000000000,"state":"active","ping":120},{"user_id":163,"name":"your little goofy homie","steam_id":76561198967158026,"connected_time":605000000000,"state":"active","ping":75},{"user_id":158,"name":"Malex","steam_id":76561198012216805,"connected_time":747000000000,"state":"active","ping":81},{"user_id":174,"name":"Capt_Holiday","steam_id":76561198062432744,"connected_time":124000000000,"state":"active","ping":61},{"user_id":169,"name":"faygo eater","steam_id":76561199075660500,"connected_time":448000000000,"state":"active","ping":90},{"user_id":161,"name":"Chunk Stuffer","steam_id":76561198856508573,"connected_time":649000000000,"state":"active","ping":40},{"user_id":148,"name":"pea ttv/peabeanz","steam_id":76561198119551968,"connected_time":2215000000000,"state":"active","ping":97},{"user_id":118,"name":"CJAIME01345","steam_id":76561199091599141,"connected_time":3871000000000,"state":"active","ping":154},{"user_id":162,"name":"artichoke","steam_id":76561198980994364,"connected_time":624000000000,"state":"active","ping":106},{"user_id":170,"name":"thomas gerald the rat jr","steam_id":76561198087666917,"connected_time":351000000000,"state":"active","ping":59},{"user_id":146,"name":"Sammich","steam_id":76561198010543087,"connected_time":2253000000000,"state":"active","ping":61},{"user_id":107,"name":"A Straw","steam_id":76561199367935846,"connected_time":4389000000000,"state":"active","ping":72},{"user_id":168,"name":"Goldwalker","steam_id":76561198279461590,"connected_time":506000000000,"state":"active","ping":86},{"user_id":132,"name":"RokkitFrog","steam_id":76561198046465850,"connected_time":3503000000000,"state":"active","ping":47},{"user_id":145,"name":"GlizzLord","steam_id":76561198321010427,"connected_time":2551000000000,"state":"active","ping":81},{"user_id":134,"name":"GreatTimBones","steam_id":76561198409145748,"connected_time":3470000000000,"state":"active","ping":102},{"user_id":109,"name":"Shmovin","steam_id":76561198165355021,"connected_time":4343000000000,"state":"active","ping":64},{"user_id":136,"name":"Cactus™ ♥","steam_id":76561198036441270,"connected_time":3361000000000,"state":"active","ping":205},{"user_id":140,"name":"Mocha","steam_id":76561198368999744,"connected_time":3070000000000,"state":"active","ping":69}]},{"server_id":404,"name":"Uncletopia | Dallas | 3 | All Maps","name_short":"dal-3","host":"dal-1.us.uncletopia.com","port":27035,"enabled":true,"region":"us-central","cc":"us","latitude":32.779167,"longitude":-96.80889,"reserved":0,"last_update":"0001-01-01T00:00:00Z","name_a2s":"Uncletopia | Dallas | 3 | All Maps","protocol":17,"map":"pl_badwater","folder":"tf","game":"Team Fortress","app_id":440,"player_count":23,"max_players":24,"Bots":0,"server_type":"Dedicated","server_os":"Linux","password":true,"vac":true,"version":"7961495","steam_id":85568392924515219,"keywords":["nocrits","nodmgspread","payload","uncletopia"],"game_id":440,"stv_port":27036,"stv_name":"Uncletopia | Dallas | 3 | All Maps | STV","players":[{"user_id":64,"name":"PastaGuy","steam_id":76561199114327815,"connected_time":45000000000,"state":"active","ping":83},{"user_id":22,"name":"GLG.Liz","steam_id":76561198021957956,"connected_time":1957000000000,"state":"active","ping":52},{"user_id":50,"name":"-","steam_id":76561198057717934,"connected_time":431000000000,"state":"active","ping":90},{"user_id":20,"name":"30 fps gaming","steam_id":76561199216756079,"connected_time":2464000000000,"state":"active","ping":91},{"user_id":21,"name":"DankMemer","steam_id":76561199057017123,"connected_time":2365000000000,"state":"active","ping":65},{"user_id":24,"name":"TheReapingRogue","steam_id":76561199093936467,"connected_time":1850000000000,"state":"active","ping":143},{"user_id":51,"name":"CCPodz","steam_id":76561199143506502,"connected_time":413000000000,"state":"active","ping":71},{"user_id":26,"name":"Vergil","steam_id":76561199057299631,"connected_time":1565000000000,"state":"active","ping":70},{"user_id":28,"name":"mdos","steam_id":76561198332133944,"connected_time":1349000000000,"state":"active","ping":83},{"user_id":29,"name":"GrahamisGood","steam_id":76561198988396980,"connected_time":1341000000000,"state":"active","ping":89},{"user_id":30,"name":"skent6621","steam_id":76561199210134404,"connected_time":1328000000000,"state":"active","ping":72},{"user_id":31,"name":"Octo Will","steam_id":76561199069390820,"connected_time":1309000000000,"state":"active","ping":146},{"user_id":53,"name":"WHAT","steam_id":76561198172609874,"connected_time":391000000000,"state":"active","ping":76},{"user_id":33,"name":"poopshitter9000","steam_id":76561198074624639,"connected_time":1252000000000,"state":"active","ping":75},{"user_id":61,"name":"Criyan","steam_id":76561199001071793,"connected_time":258000000000,"state":"active","ping":87},{"user_id":36,"name":"K2f","steam_id":76561198049600563,"connected_time":1221000000000,"state":"active","ping":75},{"user_id":65,"name":"izzydex","steam_id":76561199101531034,"connected_time":21000000000,"state":"active","ping":88},{"user_id":62,"name":"captain red","steam_id":76561198191587983,"connected_time":215000000000,"state":"active","ping":68},{"user_id":56,"name":"mkl","steam_id":76561197986401685,"connected_time":329000000000,"state":"active","ping":59},{"user_id":57,"name":"!!","steam_id":76561198042937036,"connected_time":310000000000,"state":"active","ping":89},{"user_id":58,"name":"Domo","steam_id":76561198006738859,"connected_time":309000000000,"state":"active","ping":89},{"user_id":63,"name":"StormRage","steam_id":76561199435079308,"connected_time":155000000000,"state":"active","ping":183},{"user_id":59,"name":"Legit_Jaxer","steam_id":76561198172234053,"connected_time":306000000000,"state":"active","ping":105}]},{"server_id":405,"name":"Uncletopia | Dallas | 4 | Community","name_short":"dal-4","host":"dal-1.us.uncletopia.com","port":27045,"enabled":true,"region":"us-central","cc":"us","latitude":32.779167,"longitude":-96.80889,"reserved":0,"last_update":"0001-01-01T00:00:00Z","name_a2s":"Uncletopia | Dallas | 4 | Community","protocol":17,"map":"pl_badwater","folder":"tf","game":"Team Fortress","app_id":440,"player_count":0,"max_players":24,"Bots":0,"server_type":"Dedicated","server_os":"Linux","password":true,"vac":true,"version":"7961495","steam_id":85568392924515220,"keywords":["nocrits","nodmgspread","payload","uncletopia"],"game_id":440,"stv_port":27046,"stv_name":"Uncletopia | Dallas | 4 | Community | STV","players":null},{"server_id":5,"name":"Uncletopia | Frankfurt | 1 | All Maps","name_short":"frk-1","host":"frk-1.de.uncletopia.com","port":27015,"enabled":true,"region":"eu","cc":"de","latitude":50.110924,"longitude":8.682127,"reserved":0,"last_update":"0001-01-01T00:00:00Z","name_a2s":"Uncletopia | Frankfurt | 1 | All Maps","protocol":17,"map":"pl_upward","folder":"tf","game":"Team Fortress","app_id":440,"player_count":24,"max_players":24,"Bots":0,"server_type":"Dedicated","server_os":"Linux","password":true,"vac":true,"version":"7961495","steam_id":85568392924469989,"keywords":["nocrits","nodmgspread","payload","uncletopia"],"game_id":440,"stv_port":27016,"stv_name":"Uncletopia | Frankfurt | 1 | All Maps | STV","players":[{"user_id":564,"name":"Maxwell","steam_id":76561198088925893,"connected_time":2594000000000,"state":"active","ping":88},{"user_id":573,"name":"Spoke","steam_id":76561198039881350,"connected_time":1940000000000,"state":"active","ping":70},{"user_id":579,"name":"AzureTestament","steam_id":76561198147007440,"connected_time":1405000000000,"state":"active","ping":74},{"user_id":594,"name":"Industrial Revolution","steam_id":76561198230811124,"connected_time":514000000000,"state":"active","ping":58},{"user_id":566,"name":"jù xiē","steam_id":76561198096189399,"connected_time":2249000000000,"state":"active","ping":50},{"user_id":584,"name":"toe sucking freak","steam_id":76561198411069806,"connected_time":870000000000,"state":"active","ping":66},{"user_id":577,"name":"Mr.Shpee","steam_id":76561198158701474,"connected_time":1812000000000,"state":"active","ping":81},{"user_id":536,"name":"Coincé entre deux nichons","steam_id":76561198000866783,"connected_time":3422000000000,"state":"active","ping":56},{"user_id":556,"name":"HelwiiHill","steam_id":76561198066730552,"connected_time":2936000000000,"state":"active","ping":84},{"user_id":582,"name":"LivEssense","steam_id":76561198052476979,"connected_time":895000000000,"state":"active","ping":75},{"user_id":528,"name":"ne0n","steam_id":76561198032101031,"connected_time":4015000000000,"state":"active","ping":114},{"user_id":585,"name":"det","steam_id":76561198261505536,"connected_time":867000000000,"state":"active","ping":62},{"user_id":576,"name":"hushhx","steam_id":76561198216200092,"connected_time":1882000000000,"state":"active","ping":62},{"user_id":583,"name":"IONYCH","steam_id":76561198378350040,"connected_time":893000000000,"state":"active","ping":78},{"user_id":542,"name":"OuToU","steam_id":76561198073963443,"connected_time":3291000000000,"state":"active","ping":104},{"user_id":568,"name":"Valoxi","steam_id":76561197995042938,"connected_time":2228000000000,"state":"active","ping":68},{"user_id":596,"name":"ArisEyni","steam_id":76561198244112626,"connected_time":124000000000,"state":"active","ping":111},{"user_id":575,"name":"Paper","steam_id":76561199037749675,"connected_time":1899000000000,"state":"active","ping":40},{"user_id":581,"name":"Optimist 50","steam_id":76561198039631442,"connected_time":953000000000,"state":"active","ping":81},{"user_id":592,"name":"Testicular torsion","steam_id":76561198119547399,"connected_time":737000000000,"state":"active","ping":54},{"user_id":595,"name":"noobdog","steam_id":76561198036486671,"connected_time":369000000000,"state":"active","ping":59},{"user_id":591,"name":"WolfmanCZ","steam_id":76561199157141414,"connected_time":797000000000,"state":"active","ping":70},{"user_id":555,"name":"Chuck Norris","steam_id":76561197961395452,"connected_time":3037000000000,"state":"active","ping":126},{"user_id":593,"name":"kreeekz","steam_id":76561198014431602,"connected_time":703000000000,"state":"active","ping":64}]},{"server_id":110,"name":"Uncletopia | Frankfurt | 2 | All Maps","name_short":"frk-2","host":"frk-1.de.uncletopia.com","port":27025,"enabled":true,"region":"eu","cc":"de","latitude":50.110924,"longitude":8.682127,"reserved":0,"last_update":"0001-01-01T00:00:00Z","name_a2s":"Uncletopia | Frankfurt | 2 | All Maps","protocol":17,"map":"pl_thundermountain","folder":"tf","game":"Team Fortress","app_id":440,"player_count":24,"max_players":24,"Bots":0,"server_type":"Dedicated","server_os":"Linux","password":true,"vac":true,"version":"7961495","steam_id":85568392924469990,"keywords":["nocrits","nodmgspread","payload","uncletopia"],"game_id":440,"stv_port":27026,"stv_name":"Uncletopia | Frankfurt | 2 | All Maps | STV","players":[{"user_id":342,"name":"Daddy-O","steam_id":76561198120101147,"connected_time":2317000000000,"state":"active","ping":95},{"user_id":332,"name":"Who's laughing?","steam_id":76561198013961148,"connected_time":2950000000000,"state":"active","ping":101},{"user_id":299,"name":"Burbie","steam_id":76561198046069449,"connected_time":5200000000000,"state":"active","ping":75},{"user_id":363,"name":"why rum gone","steam_id":76561198158484784,"connected_time":213000000000,"state":"active","ping":60},{"user_id":255,"name":"17","steam_id":76561198172987322,"connected_time":8336000000000,"state":"active","ping":60},{"user_id":353,"name":"Jack Cable 3.5 mm","steam_id":76561198072998924,"connected_time":1170000000000,"state":"active","ping":48},{"user_id":354,"name":"jge","steam_id":76561198123186387,"connected_time":1150000000000,"state":"active","ping":45},{"user_id":341,"name":"Crusader","steam_id":76561198239172686,"connected_time":2603000000000,"state":"active","ping":118},{"user_id":345,"name":"Burpman","steam_id":76561198022897937,"connected_time":2129000000000,"state":"active","ping":60},{"user_id":358,"name":"Qwertuss","steam_id":76561198026305366,"connected_time":1094000000000,"state":"active","ping":58},{"user_id":333,"name":"Apollo","steam_id":76561198067219228,"connected_time":2851000000000,"state":"active","ping":87},{"user_id":355,"name":"Wenolainen","steam_id":76561198334592800,"connected_time":1145000000000,"state":"active","ping":82},{"user_id":362,"name":"tree goblin","steam_id":76561199176610938,"connected_time":365000000000,"state":"active","ping":68},{"user_id":364,"name":"we're running out of monster","steam_id":76561199065336628,"connected_time":162000000000,"state":"active","ping":74},{"user_id":343,"name":"Germanium_Ge","steam_id":76561198130561775,"connected_time":2255000000000,"state":"active","ping":55},{"user_id":350,"name":"Amon Gus","steam_id":76561199094540960,"connected_time":1518000000000,"state":"active","ping":62},{"user_id":365,"name":"Door","steam_id":76561198111462976,"connected_time":23000000000,"state":"active","ping":61},{"user_id":318,"name":"BUREK od Sira","steam_id":76561198092589818,"connected_time":4029000000000,"state":"active","ping":67},{"user_id":351,"name":"Exali","steam_id":76561198305938854,"connected_time":1360000000000,"state":"active","ping":61},{"user_id":366,"name":"Coconut","steam_id":76561198896612448,"connected_time":18000000000,"state":"active","ping":83},{"user_id":346,"name":"Sirzen","steam_id":76561198170155434,"connected_time":2121000000000,"state":"active","ping":53},{"user_id":360,"name":"honzajspv","steam_id":76561198434476343,"connected_time":949000000000,"state":"active","ping":48},{"user_id":367,"name":"twscsvl","steam_id":76561198045304929,"connected_time":2000000000,"state":"spawning","ping":121},{"user_id":310,"name":"Dogdigger","steam_id":76561198032893130,"connected_time":4584000000000,"state":"active","ping":96}]},{"server_id":308,"name":"Uncletopia | Frankfurt | 3 | All Maps","name_short":"frk-3","host":"frk-1.de.uncletopia.com","port":27035,"enabled":true,"region":"eu","cc":"de","latitude":50.110924,"longitude":8.682127,"reserved":0,"last_update":"0001-01-01T00:00:00Z","name_a2s":"Uncletopia | Frankfurt | 3 | All Maps","protocol":17,"map":"cp_coldfront","folder":"tf","game":"Team Fortress","app_id":440,"player_count":23,"max_players":24,"Bots":0,"server_type":"Dedicated","server_os":"Linux","password":true,"vac":true,"version":"7961495","steam_id":85568392924504274,"keywords":["cp","nocrits","nodmgspread","uncletopia"],"game_id":440,"stv_port":27036,"stv_name":"Uncletopia | Frankfurt | 3 | All Maps | STV","players":[{"user_id":34,"name":"hyvakii705","steam_id":76561198086630552,"connected_time":31659000000000,"state":"active","ping":91},{"user_id":477,"name":"God's Goofiest Goober","steam_id":76561198103175187,"connected_time":343000000000,"state":"active","ping":64},{"user_id":472,"name":"Coda","steam_id":76561198250946954,"connected_time":923000000000,"state":"active","ping":121},{"user_id":469,"name":"Mischail","steam_id":76561198016127010,"connected_time":1487000000000,"state":"active","ping":75},{"user_id":418,"name":"Archive","steam_id":76561198071255385,"connected_time":6467000000000,"state":"active","ping":96},{"user_id":406,"name":"Pronton","steam_id":76561198082502910,"connected_time":6685000000000,"state":"active","ping":55},{"user_id":430,"name":"dimsolosh","steam_id":76561198882573567,"connected_time":5749000000000,"state":"active","ping":129},{"user_id":474,"name":"Economic crisis","steam_id":76561198063562843,"connected_time":776000000000,"state":"active","ping":58},{"user_id":409,"name":"Jonathan","steam_id":76561198087988880,"connected_time":6609000000000,"state":"active","ping":45},{"user_id":476,"name":"hhhhhh","steam_id":76561198031982574,"connected_time":430000000000,"state":"active","ping":52},{"user_id":478,"name":"Rigby","steam_id":76561198021552128,"connected_time":238000000000,"state":"active","ping":98},{"user_id":473,"name":"Urfangonultasadana","steam_id":76561199389286151,"connected_time":793000000000,"state":"active","ping":89},{"user_id":458,"name":"SPONGE","steam_id":76561198040933472,"connected_time":2558000000000,"state":"active","ping":60},{"user_id":438,"name":"chillrend_morphs_high_lod6","steam_id":76561198452963141,"connected_time":4275000000000,"state":"active","ping":74},{"user_id":450,"name":"Target locked","steam_id":76561198862785207,"connected_time":3397000000000,"state":"active","ping":72},{"user_id":470,"name":"MrBanana","steam_id":76561198116021623,"connected_time":1487000000000,"state":"active","ping":56},{"user_id":467,"name":"Rock..","steam_id":76561198004641963,"connected_time":1555000000000,"state":"active","ping":87},{"user_id":443,"name":"Nittugai","steam_id":76561198067366462,"connected_time":3952000000000,"state":"active","ping":62},{"user_id":462,"name":"scallywag toni","steam_id":76561198891845999,"connected_time":2440000000000,"state":"active","ping":69},{"user_id":447,"name":"Ottetal","steam_id":76561198018528609,"connected_time":3554000000000,"state":"active","ping":73},{"user_id":361,"name":"Fat Pigeon","steam_id":76561198817940142,"connected_time":11006000000000,"state":"active","ping":46},{"user_id":479,"name":"[SQ UA] MartianDill","steam_id":76561198405382822,"connected_time":88000000000,"state":"active","ping":76},{"user_id":468,"name":"MackerelMiguel246","steam_id":76561198089478290,"connected_time":1552000000000,"state":"active","ping":59}]},{"server_id":309,"name":"Uncletopia | Frankfurt | 4 | All Maps","name_short":"frk-4","host":"frk-1.de.uncletopia.com","port":27045,"enabled":true,"region":"eu","cc":"de","latitude":50.110924,"longitude":8.682127,"reserved":0,"last_update":"0001-01-01T00:00:00Z","name_a2s":"Uncletopia | Frankfurt | 4 | All Maps","protocol":17,"map":"cp_mercenarypark","folder":"tf","game":"Team Fortress","app_id":440,"player_count":23,"max_players":24,"Bots":0,"server_type":"Dedicated","server_os":"Linux","password":true,"vac":true,"version":"7961495","steam_id":85568392924504275,"keywords":["cp","nocrits","nodmgspread","uncletopia"],"game_id":440,"stv_port":27046,"stv_name":"Uncletopia | Frankfurt | 4 | All Maps | STV","players":[{"user_id":387,"name":"Ewelinka Zniszczenia","steam_id":76561198307374456,"connected_time":2744000000000,"state":"active","ping":62},{"user_id":420,"name":"Average meme enjoyer","steam_id":76561199087566663,"connected_time":249000000000,"state":"active","ping":87},{"user_id":418,"name":"dbuBBle","steam_id":76561198057961506,"connected_time":1005000000000,"state":"active","ping":72},{"user_id":411,"name":"AudioFall","steam_id":76561198208814216,"connected_time":1183000000000,"state":"active","ping":61},{"user_id":408,"name":"Fridge","steam_id":76561198071665589,"connected_time":1215000000000,"state":"active","ping":102},{"user_id":419,"name":"Stu","steam_id":76561198131449281,"connected_time":688000000000,"state":"active","ping":46},{"user_id":409,"name":"Adolf Potter","steam_id":76561198120554557,"connected_time":1214000000000,"state":"active","ping":50},{"user_id":410,"name":"Lukas","steam_id":76561198009118452,"connected_time":1196000000000,"state":"active","ping":59},{"user_id":413,"name":"WojStaGra","steam_id":76561198157277370,"connected_time":1132000000000,"state":"active","ping":105},{"user_id":403,"name":"♥ ♥ Sp3ll soo SeXy 殺手#1","steam_id":76561197970593737,"connected_time":1940000000000,"state":"active","ping":64},{"user_id":412,"name":"Nymatoid","steam_id":76561199167865978,"connected_time":1164000000000,"state":"active","ping":163},{"user_id":398,"name":"Fenced","steam_id":76561197966629582,"connected_time":2437000000000,"state":"active","ping":57},{"user_id":395,"name":"Kaishakunin","steam_id":76561198028123874,"connected_time":2581000000000,"state":"active","ping":90},{"user_id":396,"name":"Soerlssoelssöen","steam_id":76561197993060585,"connected_time":2579000000000,"state":"active","ping":70},{"user_id":421,"name":"PanPatrik","steam_id":76561198293331527,"connected_time":223000000000,"state":"active","ping":55},{"user_id":414,"name":"Antimation","steam_id":76561198125649544,"connected_time":1119000000000,"state":"active","ping":63},{"user_id":397,"name":"finbar","steam_id":76561198056812396,"connected_time":2554000000000,"state":"active","ping":84},{"user_id":415,"name":"Hexagon","steam_id":76561198151205758,"connected_time":1093000000000,"state":"active","ping":47},{"user_id":372,"name":"Desuangle","steam_id":76561198110800599,"connected_time":3665000000000,"state":"active","ping":72},{"user_id":416,"name":"RemRem","steam_id":76561199005155029,"connected_time":1034000000000,"state":"active","ping":70},{"user_id":417,"name":"Paul Penix","steam_id":76561197996941396,"connected_time":1009000000000,"state":"active","ping":56},{"user_id":324,"name":"Zerfesh","steam_id":76561198117534358,"connected_time":7060000000000,"state":"active","ping":76},{"user_id":381,"name":"guh","steam_id":76561198257158275,"connected_time":3373000000000,"state":"active","ping":139}]},{"server_id":310,"name":"Uncletopia | Frankfurt | 5 | All Maps","name_short":"frk-5","host":"frk-1.de.uncletopia.com","port":27055,"enabled":true,"region":"eu","cc":"de","latitude":50.110924,"longitude":8.682127,"reserved":0,"last_update":"0001-01-01T00:00:00Z","name_a2s":"Uncletopia | Frankfurt | 5 | All Maps","protocol":17,"map":"pl_badwater","folder":"tf","game":"Team Fortress","app_id":440,"player_count":24,"max_players":24,"Bots":0,"server_type":"Dedicated","server_os":"Linux","password":true,"vac":true,"version":"7961495","steam_id":85568392924504277,"keywords":["nocrits","nodmgspread","payload","uncletopia"],"game_id":440,"stv_port":27056,"stv_name":"Uncletopia | Frankfurt | 5 | All Maps | STV","players":[{"user_id":146,"name":"MEDiUM","steam_id":76561198112328561,"connected_time":9040000000000,"state":"active","ping":76},{"user_id":285,"name":"Lorenzo Lovers","steam_id":76561198073973581,"connected_time":382000000000,"state":"active","ping":77},{"user_id":286,"name":"sandokan123","steam_id":76561199239154563,"connected_time":362000000000,"state":"active","ping":69},{"user_id":265,"name":"qwertyrealschru_lll","steam_id":76561199120083473,"connected_time":2135000000000,"state":"active","ping":71},{"user_id":186,"name":"Lartsa","steam_id":76561198275690230,"connected_time":7123000000000,"state":"active","ping":107},{"user_id":290,"name":"Быдла вой","steam_id":76561198041371314,"connected_time":294000000000,"state":"active","ping":121},{"user_id":288,"name":"Homosexual tiger","steam_id":76561198931139163,"connected_time":314000000000,"state":"active","ping":90},{"user_id":266,"name":"Erection Man","steam_id":76561198021714542,"connected_time":2109000000000,"state":"active","ping":60},{"user_id":293,"name":"vsakijmaksim","steam_id":76561199478364223,"connected_time":92000000000,"state":"active","ping":105},{"user_id":289,"name":"Kamanie","steam_id":76561198135448255,"connected_time":297000000000,"state":"active","ping":60},{"user_id":217,"name":"n-ski","steam_id":76561198020550849,"connected_time":5340000000000,"state":"active","ping":75},{"user_id":291,"name":"iniT","steam_id":76561198019883794,"connected_time":228000000000,"state":"active","ping":51},{"user_id":276,"name":"koji","steam_id":76561198051636999,"connected_time":1166000000000,"state":"active","ping":55},{"user_id":254,"name":"ALARM","steam_id":76561198120686521,"connected_time":2833000000000,"state":"active","ping":60},{"user_id":292,"name":"I-I","steam_id":76561198267969436,"connected_time":225000000000,"state":"active","ping":57},{"user_id":222,"name":"AP","steam_id":76561198203683067,"connected_time":4956000000000,"state":"active","ping":70},{"user_id":279,"name":"anders McFlanders","steam_id":76561198022811995,"connected_time":943000000000,"state":"active","ping":62},{"user_id":280,"name":"\"w\"esley \"s\"o","steam_id":76561199415989636,"connected_time":872000000000,"state":"active","ping":96},{"user_id":270,"name":"rets","steam_id":76561198061551392,"connected_time":1900000000000,"state":"active","ping":55},{"user_id":282,"name":"ozz-man","steam_id":76561198084676522,"connected_time":710000000000,"state":"active","ping":90},{"user_id":283,"name":"ᴋᴇʙᴜ","steam_id":76561199006025475,"connected_time":649000000000,"state":"active","ping":110},{"user_id":247,"name":"miiko22","steam_id":76561198296394929,"connected_time":3743000000000,"state":"active","ping":117},{"user_id":232,"name":"Finnish Farmer","steam_id":76561198205366043,"connected_time":4449000000000,"state":"active","ping":87},{"user_id":272,"name":"Automated death","steam_id":76561198977420882,"connected_time":1705000000000,"state":"active","ping":57}]},{"server_id":311,"name":"Uncletopia | Frankfurt | 6 | All Maps","name_short":"frk-6","host":"frk-1.de.uncletopia.com","port":27065,"enabled":true,"region":"eu","cc":"de","latitude":50.110924,"longitude":8.682127,"reserved":0,"last_update":"0001-01-01T00:00:00Z","name_a2s":"Uncletopia | Frankfurt | 6 | All Maps","protocol":17,"map":"koth_cascade","folder":"tf","game":"Team Fortress","app_id":440,"player_count":0,"max_players":24,"Bots":0,"server_type":"Dedicated","server_os":"Linux","password":true,"vac":true,"version":"7961495","steam_id":85568392924504278,"keywords":["cp","nocrits","nodmgspread","uncletopia"],"game_id":440,"stv_port":27066,"stv_name":"Uncletopia | Frankfurt | 6 | All Maps | STV","players":null},{"server_id":23,"name":"Uncletopia | Frankfurt | 7 | Stopwatch Beta","name_short":"frk-7","host":"frk-1.de.uncletopia.com","port":27075,"enabled":true,"region":"eu","cc":"de","latitude":50.110924,"longitude":8.682127,"reserved":0,"last_update":"0001-01-01T00:00:00Z","name_a2s":"Uncletopia | Frankfurt | 7 | Stopwatch Beta","protocol":17,"map":"pl_borneo","folder":"tf","game":"Team Fortress","app_id":440,"player_count":0,"max_players":24,"Bots":0,"server_type":"Dedicated","server_os":"Linux","password":true,"vac":true,"version":"7961495","steam_id":85568392924742827,"keywords":["nocrits","nodmgspread","payload","uncletopia"],"game_id":440,"stv_port":27076,"stv_name":"Uncletopia | Frankfurt | 7 | Stopwatch Beta | STV","players":null},{"server_id":24,"name":"Uncletopia | Frankfurt | 8 | Community","name_short":"frk-8","host":"frk-1.de.uncletopia.com","port":27085,"enabled":true,"region":"eu","cc":"de","latitude":50.110924,"longitude":8.682127,"reserved":0,"last_update":"0001-01-01T00:00:00Z","name_a2s":"Uncletopia | Frankfurt | 8 | Community","protocol":17,"map":"workshop/koth_product_final.ugc454272353","folder":"tf","game":"Team Fortress","app_id":440,"player_count":0,"max_players":24,"Bots":0,"server_type":"Dedicated","server_os":"Linux","password":true,"vac":true,"version":"7961495","steam_id":85568392924742828,"keywords":["cp","nocrits","nodmgspread","uncletopia"],"game_id":440,"stv_port":27086,"stv_name":"Uncletopia | Frankfurt | 8 | Community | STV","players":null},{"server_id":202,"name":"Uncletopia | Hong Kong | 1 | All Maps","name_short":"hgk-1","host":"hgk-1.hk.uncletopia.com","port":27015,"enabled":true,"region":"asia","cc":"hk","latitude":22.302711,"longitude":114.177216,"reserved":0,"last_update":"0001-01-01T00:00:00Z","name_a2s":"Uncletopia | Hong Kong | 1 | All Maps","protocol":17,"map":"koth_cascade","folder":"tf","game":"Team Fortress","app_id":440,"player_count":0,"max_players":24,"Bots":0,"server_type":"Dedicated","server_os":"Linux","password":true,"vac":true,"version":"7961495","steam_id":85568392924494504,"keywords":["cp","nocrits","nodmgspread","uncletopia"],"game_id":440,"stv_port":27016,"stv_name":"Uncletopia | Hong Kong | 1 | All Maps | STV","players":null},{"server_id":1,"name":"Uncletopia | Los Angeles | 1 | All Maps","name_short":"lax-1","host":"lax-1.us.uncletopia.com","port":27015,"enabled":true,"region":"us-west","cc":"us","latitude":33.94279,"longitude":-118.41004,"reserved":0,"last_update":"0001-01-01T00:00:00Z","name_a2s":"Uncletopia | Los Angeles | 1 | All Maps","protocol":17,"map":"koth_cascade","folder":"tf","game":"Team Fortress","app_id":440,"player_count":0,"max_players":24,"Bots":0,"server_type":"Dedicated","server_os":"Linux","password":true,"vac":true,"version":"7961495","steam_id":85568392924469991,"keywords":["cp","nocrits","nodmgspread","uncletopia"],"game_id":440,"stv_port":27016,"stv_name":"Uncletopia | Los Angeles | 1 | All Maps | STV","players":null},{"server_id":112,"name":"Uncletopia | Los Angeles | 2 | All Maps","name_short":"lax-2","host":"lax-1.us.uncletopia.com","port":27025,"enabled":true,"region":"us-west","cc":"us","latitude":33.94279,"longitude":-118.41004,"reserved":0,"last_update":"0001-01-01T00:00:00Z","name_a2s":"Uncletopia | Los Angeles | 2 | All Maps","protocol":17,"map":"koth_viaduct","folder":"tf","game":"Team Fortress","app_id":440,"player_count":0,"max_players":24,"Bots":0,"server_type":"Dedicated","server_os":"Linux","password":true,"vac":true,"version":"7961495","steam_id":85568392924469992,"keywords":["cp","nocrits","nodmgspread","uncletopia"],"game_id":440,"stv_port":27026,"stv_name":"Uncletopia | Los Angeles | 2 | All Maps | STV","players":null},{"server_id":324,"name":"Uncletopia | Los Angeles | 3 | All Maps","name_short":"lax-3","host":"lax-1.us.uncletopia.com","port":27035,"enabled":true,"region":"us-west","cc":"us","latitude":33.94279,"longitude":-118.41004,"reserved":0,"last_update":"0001-01-01T00:00:00Z","name_a2s":"Uncletopia | Los Angeles | 3 | All Maps","protocol":17,"map":"koth_viaduct","folder":"tf","game":"Team Fortress","app_id":440,"player_count":14,"max_players":24,"Bots":0,"server_type":"Dedicated","server_os":"Linux","password":true,"vac":true,"version":"7961495","steam_id":85568392924510198,"keywords":["cp","nocrits","nodmgspread","uncletopia"],"game_id":440,"stv_port":27036,"stv_name":"Uncletopia | Los Angeles | 3 | All Maps | STV","players":[{"user_id":164,"name":"Xander","steam_id":76561199100623603,"connected_time":132000000000,"state":"active","ping":109},{"user_id":88,"name":"no vc no c","steam_id":76561197989503095,"connected_time":6849000000000,"state":"active","ping":150},{"user_id":133,"name":"aBigPoo","steam_id":76561198425027856,"connected_time":3028000000000,"state":"active","ping":54},{"user_id":166,"name":"Hayd3nQ","steam_id":76561198124849736,"connected_time":91000000000,"state":"spawning","ping":179},{"user_id":167,"name":"MNIJ","steam_id":76561199209509468,"connected_time":82000000000,"state":"active","ping":59},{"user_id":139,"name":"Ockulus","steam_id":76561199069638460,"connected_time":2354000000000,"state":"active","ping":35},{"user_id":168,"name":"popgamer2","steam_id":76561198170879397,"connected_time":60000000000,"state":"active","ping":104},{"user_id":114,"name":"TüCold","steam_id":76561198111278197,"connected_time":4867000000000,"state":"active","ping":54},{"user_id":80,"name":"the pizza","steam_id":76561198221331476,"connected_time":7657000000000,"state":"active","ping":34},{"user_id":124,"name":"john.","steam_id":76561198982939658,"connected_time":3733000000000,"state":"active","ping":58},{"user_id":144,"name":"Frebresio","steam_id":76561198353493333,"connected_time":1726000000000,"state":"active","ping":58},{"user_id":161,"name":"adapt","steam_id":76561198156181017,"connected_time":590000000000,"state":"active","ping":51},{"user_id":157,"name":"Shadowwalker","steam_id":76561198344642637,"connected_time":1383000000000,"state":"active","ping":118},{"user_id":159,"name":"2girls1diymo","steam_id":76561198017600790,"connected_time":714000000000,"state":"active","ping":68}]},{"server_id":25,"name":"Uncletopia | Los Angeles | 4 | Stopwatch Beta","name_short":"lax-4","host":"lax-1.us.uncletopia.com","port":27045,"enabled":true,"region":"us-west","cc":"us","latitude":33.94279,"longitude":-118.41004,"reserved":0,"last_update":"0001-01-01T00:00:00Z","name_a2s":"Uncletopia | Los Angeles | 4 | Stopwatch Beta","protocol":17,"map":"pl_upward","folder":"tf","game":"Team Fortress","app_id":440,"player_count":0,"max_players":24,"Bots":0,"server_type":"Dedicated","server_os":"Linux","password":true,"vac":true,"version":"7961495","steam_id":85568392924510199,"keywords":["nocrits","nodmgspread","payload","uncletopia"],"game_id":440,"stv_port":27046,"stv_name":"Uncletopia | Los Angeles | 4 | Stopwatch Beta | STV","players":null},{"server_id":11,"name":"Uncletopia | London | 1 | All Maps","name_short":"lon-1","host":"lon-1.uk.uncletopia.com","port":27015,"enabled":true,"region":"eu","cc":"gb","latitude":51.509865,"longitude":-0.118092,"reserved":0,"last_update":"0001-01-01T00:00:00Z","name_a2s":"Uncletopia | London | 1 | All Maps","protocol":17,"map":"koth_viaduct","folder":"tf","game":"Team Fortress","app_id":440,"player_count":23,"max_players":24,"Bots":0,"server_type":"Dedicated","server_os":"Linux","password":true,"vac":true,"version":"7961495","steam_id":85568392924367362,"keywords":["cp","nocrits","nodmgspread","uncletopia"],"game_id":440,"stv_port":27016,"stv_name":"Uncletopia | London | 1 | All Maps | STV","players":[{"user_id":271,"name":"Snake-chan","steam_id":76561199044755854,"connected_time":23600000000000,"state":"active","ping":82},{"user_id":580,"name":"Shark","steam_id":76561198205226501,"connected_time":1137000000000,"state":"active","ping":170},{"user_id":458,"name":"Juche Necromancer","steam_id":76561198531978435,"connected_time":8918000000000,"state":"active","ping":45},{"user_id":564,"name":"Slifer the Sky Dragon","steam_id":76561198062255803,"connected_time":2221000000000,"state":"active","ping":71},{"user_id":574,"name":"Skatnaset","steam_id":76561198298457353,"connected_time":1363000000000,"state":"active","ping":81},{"user_id":579,"name":"A new Player(F2p)","steam_id":76561199388826335,"connected_time":1172000000000,"state":"active","ping":125},{"user_id":567,"name":"nobodyy","steam_id":76561198027735766,"connected_time":1918000000000,"state":"active","ping":74},{"user_id":557,"name":"Teathling.ttv","steam_id":76561198061580505,"connected_time":2344000000000,"state":"active","ping":50},{"user_id":533,"name":"CubityFirst","steam_id":76561198107654171,"connected_time":3555000000000,"state":"active","ping":47},{"user_id":578,"name":"Solymr ibn Wali Barad","steam_id":76561198044008976,"connected_time":1198000000000,"state":"active","ping":64},{"user_id":584,"name":"unconditional love","steam_id":76561199026097466,"connected_time":1017000000000,"state":"active","ping":78},{"user_id":555,"name":"ifih","steam_id":76561199493567777,"connected_time":2351000000000,"state":"active","ping":49},{"user_id":598,"name":"Glitch","steam_id":76561198801335846,"connected_time":42000000000,"state":"active","ping":72},{"user_id":597,"name":"Aaron","steam_id":76561197990046953,"connected_time":63000000000,"state":"active","ping":55},{"user_id":587,"name":"uwu","steam_id":76561199209906710,"connected_time":758000000000,"state":"active","ping":50},{"user_id":585,"name":"Jake","steam_id":76561198842243984,"connected_time":958000000000,"state":"active","ping":60},{"user_id":593,"name":"Killer Bean","steam_id":76561198072567787,"connected_time":333000000000,"state":"active","ping":76},{"user_id":540,"name":"dead and gone wish","steam_id":76561198277943630,"connected_time":2874000000000,"state":"active","ping":74},{"user_id":595,"name":"Nithle","steam_id":76561198025372740,"connected_time":202000000000,"state":"active","ping":30},{"user_id":590,"name":"Bonca","steam_id":76561198137503531,"connected_time":566000000000,"state":"active","ping":75},{"user_id":562,"name":"Knague","steam_id":76561198154332955,"connected_time":2251000000000,"state":"active","ping":64},{"user_id":521,"name":"Sixie","steam_id":76561198251675360,"connected_time":4089000000000,"state":"active","ping":54},{"user_id":592,"name":"here widdle wabbit… come here","steam_id":76561198190583242,"connected_time":353000000000,"state":"active","ping":96}]},{"server_id":114,"name":"Uncletopia | London | 2 | All Maps","name_short":"lon-2","host":"lon-1.uk.uncletopia.com","port":27025,"enabled":true,"region":"eu","cc":"gb","latitude":51.509865,"longitude":-0.118092,"reserved":0,"last_update":"0001-01-01T00:00:00Z","name_a2s":"Uncletopia | London | 2 | All Maps","protocol":17,"map":"pl_badwater","folder":"tf","game":"Team Fortress","app_id":440,"player_count":22,"max_players":24,"Bots":0,"server_type":"Dedicated","server_os":"Linux","password":true,"vac":true,"version":"7961495","steam_id":85568392924470941,"keywords":["nocrits","nodmgspread","payload","uncletopia"],"game_id":440,"stv_port":27026,"stv_name":"Uncletopia | London | 2 | All Maps | STV","players":[{"user_id":536,"name":"Whale = Fish","steam_id":76561198007792525,"connected_time":850000000000,"state":"active","ping":40},{"user_id":509,"name":"mohemmedmokhter2005","steam_id":76561199197650506,"connected_time":2371000000000,"state":"active","ping":104},{"user_id":500,"name":"Favi","steam_id":76561198013236935,"connected_time":2550000000000,"state":"active","ping":83},{"user_id":550,"name":"randompixel","steam_id":76561198003941207,"connected_time":173000000000,"state":"active","ping":60},{"user_id":499,"name":"Ironhound","steam_id":76561198052467769,"connected_time":2693000000000,"state":"active","ping":73},{"user_id":532,"name":"perry the platypus","steam_id":76561199379159771,"connected_time":1026000000000,"state":"active","ping":143},{"user_id":546,"name":"Mata_FM","steam_id":76561198044824504,"connected_time":369000000000,"state":"active","ping":67},{"user_id":549,"name":"1couver","steam_id":76561198168553215,"connected_time":223000000000,"state":"active","ping":108},{"user_id":485,"name":"ArtaKir","steam_id":76561198291746440,"connected_time":3540000000000,"state":"active","ping":87},{"user_id":535,"name":"Plep","steam_id":76561198840259819,"connected_time":863000000000,"state":"active","ping":59},{"user_id":520,"name":"Clark","steam_id":76561197998520785,"connected_time":1913000000000,"state":"active","ping":77},{"user_id":512,"name":"Xonrus","steam_id":76561198074717396,"connected_time":2321000000000,"state":"active","ping":73},{"user_id":540,"name":"Lolbyte","steam_id":76561199239627724,"connected_time":520000000000,"state":"active","ping":130},{"user_id":541,"name":"GGabe","steam_id":76561198117199068,"connected_time":517000000000,"state":"active","ping":73},{"user_id":553,"name":"tigersonalex","steam_id":76561198197991235,"connected_time":67000000000,"state":"active","ping":63},{"user_id":551,"name":"Niko","steam_id":76561199006295285,"connected_time":152000000000,"state":"active","ping":78},{"user_id":504,"name":"ff:ff:ff:ff:ff:ff","steam_id":76561198072122983,"connected_time":2488000000000,"state":"active","ping":81},{"user_id":542,"name":"Owlet","steam_id":76561198065613974,"connected_time":515000000000,"state":"active","ping":74},{"user_id":544,"name":"bailey","steam_id":76561198327418768,"connected_time":455000000000,"state":"active","ping":46},{"user_id":543,"name":"Ch4bby","steam_id":76561198058792875,"connected_time":510000000000,"state":"active","ping":60},{"user_id":525,"name":"OceanMan","steam_id":76561198391833371,"connected_time":1388000000000,"state":"active","ping":45},{"user_id":545,"name":"Temperance","steam_id":76561198446955878,"connected_time":433000000000,"state":"active","ping":58}]},{"server_id":320,"name":"Uncletopia | London | 3 | All Maps","name_short":"lon-3","host":"lon-1.uk.uncletopia.com","port":27035,"enabled":true,"region":"eu","cc":"gb","latitude":51.509865,"longitude":-0.118092,"reserved":0,"last_update":"0001-01-01T00:00:00Z","name_a2s":"Uncletopia | London | 3 | All Maps","protocol":17,"map":"pl_upward","folder":"tf","game":"Team Fortress","app_id":440,"player_count":24,"max_players":24,"Bots":0,"server_type":"Dedicated","server_os":"Linux","password":true,"vac":true,"version":"7961495","steam_id":85568392924510192,"keywords":["nocrits","nodmgspread","payload","uncletopia"],"game_id":440,"stv_port":27036,"stv_name":"Uncletopia | London | 3 | All Maps | STV","players":[{"user_id":272,"name":"Xydran","steam_id":76561198042397402,"connected_time":1972000000000,"state":"active","ping":48},{"user_id":307,"name":"fodace","steam_id":76561198442803577,"connected_time":496000000000,"state":"active","ping":74},{"user_id":275,"name":"Jobbalob","steam_id":76561198060860936,"connected_time":1869000000000,"state":"active","ping":66},{"user_id":303,"name":"pierogi","steam_id":76561198718760200,"connected_time":549000000000,"state":"active","ping":52},{"user_id":294,"name":"faqing POG BOG","steam_id":76561198042749479,"connected_time":1204000000000,"state":"active","ping":46},{"user_id":277,"name":"Jyghc","steam_id":76561198405980575,"connected_time":1818000000000,"state":"active","ping":75},{"user_id":227,"name":"Not that pro","steam_id":76561198299539583,"connected_time":5159000000000,"state":"active","ping":84},{"user_id":197,"name":"Ixsus\u003c3","steam_id":76561198094756869,"connected_time":7509000000000,"state":"active","ping":60},{"user_id":268,"name":"Methematics enjoyer","steam_id":76561198996399907,"connected_time":2204000000000,"state":"active","ping":63},{"user_id":288,"name":"Gugu","steam_id":76561198161822358,"connected_time":1695000000000,"state":"active","ping":70},{"user_id":250,"name":"lulu","steam_id":76561199147764133,"connected_time":3960000000000,"state":"active","ping":76},{"user_id":290,"name":"gothmoth","steam_id":76561198386910896,"connected_time":1609000000000,"state":"active","ping":69},{"user_id":260,"name":"Proud Jojo Fan #TF2SP","steam_id":76561198847327216,"connected_time":3597000000000,"state":"active","ping":71},{"user_id":300,"name":"Largo","steam_id":76561198844368927,"connected_time":665000000000,"state":"active","ping":69},{"user_id":301,"name":"w presser","steam_id":76561197994600818,"connected_time":614000000000,"state":"active","ping":38},{"user_id":282,"name":"MelonLad","steam_id":76561198975335528,"connected_time":1737000000000,"state":"active","ping":74},{"user_id":283,"name":"quak","steam_id":76561198053928976,"connected_time":1734000000000,"state":"active","ping":96},{"user_id":299,"name":"Mass","steam_id":76561198074442319,"connected_time":678000000000,"state":"active","ping":62},{"user_id":308,"name":"FlukeY","steam_id":76561198026137327,"connected_time":218000000000,"state":"active","ping":63},{"user_id":257,"name":"After8","steam_id":76561198090750865,"connected_time":3809000000000,"state":"active","ping":72},{"user_id":304,"name":"alien","steam_id":76561197968892194,"connected_time":540000000000,"state":"active","ping":48},{"user_id":293,"name":"Terminally Offline","steam_id":76561198146194820,"connected_time":1350000000000,"state":"active","ping":45},{"user_id":305,"name":"lore","steam_id":76561198120984188,"connected_time":535000000000,"state":"active","ping":79},{"user_id":306,"name":"TheFluffyCrano","steam_id":76561198058832960,"connected_time":525000000000,"state":"active","ping":52}]},{"server_id":321,"name":"Uncletopia | London | 4 | All Maps","name_short":"lon-4","host":"lon-1.uk.uncletopia.com","port":27045,"enabled":true,"region":"eu","cc":"gb","latitude":51.509865,"longitude":-0.118092,"reserved":0,"last_update":"0001-01-01T00:00:00Z","name_a2s":"Uncletopia | London | 4 | All Maps","protocol":17,"map":"pl_borneo","folder":"tf","game":"Team Fortress","app_id":440,"player_count":24,"max_players":24,"Bots":0,"server_type":"Dedicated","server_os":"Linux","password":true,"vac":true,"version":"7961495","steam_id":85568392924510193,"keywords":["nocrits","nodmgspread","payload","uncletopia"],"game_id":440,"stv_port":27046,"stv_name":"Uncletopia | London | 4 | All Maps | STV","players":[{"user_id":203,"name":"Mannequin","steam_id":76561198128833974,"connected_time":0,"state":"spawning","ping":14},{"user_id":183,"name":"GuSkand","steam_id":76561198043775605,"connected_time":768000000000,"state":"active","ping":86},{"user_id":184,"name":"I AM DOT","steam_id":76561198354118090,"connected_time":758000000000,"state":"active","ping":81},{"user_id":121,"name":"fence_","steam_id":76561198150386379,"connected_time":5022000000000,"state":"active","ping":46},{"user_id":185,"name":"simon","steam_id":76561198880361394,"connected_time":756000000000,"state":"active","ping":62},{"user_id":169,"name":"unpronounceable","steam_id":76561198271860748,"connected_time":2343000000000,"state":"active","ping":44},{"user_id":179,"name":"Random","steam_id":76561199116602799,"connected_time":946000000000,"state":"active","ping":46},{"user_id":149,"name":"TheEventGuy","steam_id":76561197972797744,"connected_time":3517000000000,"state":"active","ping":80},{"user_id":196,"name":"Shapeshifter","steam_id":76561198052898368,"connected_time":406000000000,"state":"active","ping":85},{"user_id":186,"name":"Hyppy ja liipasin pohjaan :D","steam_id":76561198080669698,"connected_time":704000000000,"state":"active","ping":93},{"user_id":195,"name":"flanseey","steam_id":76561198342593905,"connected_time":447000000000,"state":"active","ping":162},{"user_id":197,"name":"froge","steam_id":76561198304959766,"connected_time":388000000000,"state":"active","ping":75},{"user_id":162,"name":"ksg","steam_id":76561198042894236,"connected_time":2722000000000,"state":"active","ping":69},{"user_id":115,"name":"Na záchodě","steam_id":76561198383952144,"connected_time":5284000000000,"state":"active","ping":142},{"user_id":198,"name":"Cimbasso","steam_id":76561198968050004,"connected_time":373000000000,"state":"active","ping":153},{"user_id":122,"name":"cobblestone","steam_id":76561198079123043,"connected_time":5006000000000,"state":"active","ping":85},{"user_id":178,"name":"ViviSwarm","steam_id":76561198443130684,"connected_time":1102000000000,"state":"active","ping":62},{"user_id":202,"name":"hbivnm","steam_id":76561197996468677,"connected_time":64000000000,"state":"active","ping":72},{"user_id":190,"name":"Sítheach","steam_id":76561198138915310,"connected_time":658000000000,"state":"active","ping":59},{"user_id":140,"name":"clean carp","steam_id":76561198127053294,"connected_time":3585000000000,"state":"active","ping":75},{"user_id":191,"name":"Mr.Schnittlauch","steam_id":76561198295868113,"connected_time":626000000000,"state":"active","ping":60},{"user_id":199,"name":"Spawn","steam_id":76561199119237023,"connected_time":366000000000,"state":"active","ping":60},{"user_id":181,"name":"󠁳⁧⁧ Kruthal","steam_id":76561198245726582,"connected_time":913000000000,"state":"active","ping":82},{"user_id":201,"name":"JoCo","steam_id":76561198291368657,"connected_time":123000000000,"state":"active","ping":62}]},{"server_id":21,"name":"Uncletopia | London | 5 | All Maps","name_short":"lon-5","host":"lon-1.uk.uncletopia.com","port":27055,"enabled":true,"region":"eu","cc":"gb","latitude":51.509865,"longitude":-0.118092,"reserved":0,"last_update":"0001-01-01T00:00:00Z","name_a2s":"Uncletopia | London | 5 | All Maps","protocol":17,"map":"pl_badwater","folder":"tf","game":"Team Fortress","app_id":440,"player_count":24,"max_players":24,"Bots":0,"server_type":"Dedicated","server_os":"Linux","password":true,"vac":true,"version":"7961495","steam_id":85568392924742829,"keywords":["nocrits","nodmgspread","payload","uncletopia"],"game_id":440,"stv_port":27056,"stv_name":"Uncletopia | London | 5 | All Maps | STV","players":[{"user_id":523,"name":"marcus.subaru@subarumotors.jp","steam_id":76561198104896547,"connected_time":637000000000,"state":"active","ping":78},{"user_id":513,"name":"Lux","steam_id":76561198060417740,"connected_time":1171000000000,"state":"active","ping":50},{"user_id":502,"name":"N5LH","steam_id":76561199112528775,"connected_time":2427000000000,"state":"active","ping":121},{"user_id":527,"name":"Dr.Sees [F2P]","steam_id":76561199219233587,"connected_time":171000000000,"state":"active","ping":76},{"user_id":522,"name":"Hetmanych","steam_id":76561198870926865,"connected_time":730000000000,"state":"active","ping":43},{"user_id":499,"name":"fanthom 🥽","steam_id":76561198106409123,"connected_time":2539000000000,"state":"active","ping":64},{"user_id":512,"name":"harrison","steam_id":76561198990132243,"connected_time":1310000000000,"state":"active","ping":66},{"user_id":505,"name":"randem_","steam_id":76561198338793755,"connected_time":2334000000000,"state":"active","ping":41},{"user_id":500,"name":"Kolanciasty ♥","steam_id":76561198020042179,"connected_time":2497000000000,"state":"active","ping":89},{"user_id":517,"name":"Max Power","steam_id":76561198019269089,"connected_time":999000000000,"state":"active","ping":55},{"user_id":506,"name":"oriano","steam_id":76561198099916327,"connected_time":2332000000000,"state":"active","ping":75},{"user_id":508,"name":"Fran","steam_id":76561199070516960,"connected_time":2321000000000,"state":"active","ping":74},{"user_id":472,"name":"morris33morris","steam_id":76561198196456242,"connected_time":4237000000000,"state":"active","ping":66},{"user_id":488,"name":"Odinmuninn99","steam_id":76561198393712705,"connected_time":3076000000000,"state":"active","ping":90},{"user_id":490,"name":"roblan11","steam_id":76561198066839258,"connected_time":3019000000000,"state":"active","ping":60},{"user_id":475,"name":"Captain Brexit","steam_id":76561199025230103,"connected_time":4148000000000,"state":"active","ping":63},{"user_id":491,"name":"Detective Douche Rocket","steam_id":76561198391204078,"connected_time":3007000000000,"state":"active","ping":135},{"user_id":492,"name":"Jethro Tull","steam_id":76561199034041634,"connected_time":3006000000000,"state":"active","ping":69},{"user_id":511,"name":"Benny the Ball","steam_id":76561198043104532,"connected_time":1440000000000,"state":"active","ping":44},{"user_id":528,"name":"Krabs","steam_id":76561198161679477,"connected_time":133000000000,"state":"active","ping":43},{"user_id":525,"name":"sun^k","steam_id":76561198004720448,"connected_time":503000000000,"state":"active","ping":76},{"user_id":514,"name":"I have aids","steam_id":76561198860347851,"connected_time":1082000000000,"state":"active","ping":117},{"user_id":529,"name":"J.Bake","steam_id":76561198003585524,"connected_time":74000000000,"state":"active","ping":171},{"user_id":498,"name":"miro","steam_id":76561198063233185,"connected_time":2857000000000,"state":"active","ping":59}]},{"server_id":22,"name":"Uncletopia | London | 6 | All Maps","name_short":"lon-6","host":"lon-1.uk.uncletopia.com","port":27065,"enabled":true,"region":"eu","cc":"gb","latitude":51.509865,"longitude":-0.118092,"reserved":0,"last_update":"0001-01-01T00:00:00Z","name_a2s":"Uncletopia | London | 6 | All Maps","protocol":17,"map":"pl_upward","folder":"tf","game":"Team Fortress","app_id":440,"player_count":21,"max_players":24,"Bots":0,"server_type":"Dedicated","server_os":"Linux","password":true,"vac":true,"version":"7961495","steam_id":85568392924742830,"keywords":["nocrits","nodmgspread","payload","uncletopia"],"game_id":440,"stv_port":27066,"stv_name":"Uncletopia | London | 6 | All Maps | STV","players":[{"user_id":303,"name":"ANGELFISH","steam_id":76561198027536466,"connected_time":5265000000000,"state":"active","ping":101},{"user_id":304,"name":"WaffleCat","steam_id":76561198300396822,"connected_time":5254000000000,"state":"active","ping":114},{"user_id":363,"name":"knyazF","steam_id":76561198163278585,"connected_time":1406000000000,"state":"active","ping":85},{"user_id":366,"name":"Pvt. Prinny","steam_id":76561198030278562,"connected_time":1047000000000,"state":"active","ping":45},{"user_id":372,"name":"armadillo","steam_id":76561198324656652,"connected_time":58000000000,"state":"active","ping":48},{"user_id":353,"name":"Jimmy","steam_id":76561198236833426,"connected_time":1673000000000,"state":"active","ping":85},{"user_id":375,"name":"KINO","steam_id":76561197987215716,"connected_time":15000000000,"state":"active","ping":141},{"user_id":358,"name":".headwipe*","steam_id":76561198061135497,"connected_time":1489000000000,"state":"active","ping":74},{"user_id":342,"name":"Marquis de Hoto","steam_id":76561198080687708,"connected_time":2472000000000,"state":"active","ping":72},{"user_id":373,"name":"Townsend And Sons","steam_id":76561199072698153,"connected_time":35000000000,"state":"active","ping":71},{"user_id":368,"name":"Just Navlis","steam_id":76561198090479609,"connected_time":967000000000,"state":"active","ping":52},{"user_id":374,"name":"s1suu","steam_id":76561198029900617,"connected_time":29000000000,"state":"spawning","ping":86},{"user_id":316,"name":"BELADIT","steam_id":76561198011911501,"connected_time":4313000000000,"state":"active","ping":81},{"user_id":317,"name":"schnedwob","steam_id":76561197999146588,"connected_time":4220000000000,"state":"active","ping":155},{"user_id":319,"name":"old dumpster","steam_id":76561198251951544,"connected_time":4145000000000,"state":"active","ping":120},{"user_id":338,"name":"Sir Cauterize","steam_id":76561198047079422,"connected_time":3190000000000,"state":"active","ping":51},{"user_id":321,"name":"TrollSechsMann1941","steam_id":76561198150569669,"connected_time":4063000000000,"state":"active","ping":105},{"user_id":355,"name":"gaming time","steam_id":76561197971182017,"connected_time":1591000000000,"state":"active","ping":76},{"user_id":334,"name":"Cabbch","steam_id":76561198045955679,"connected_time":3460000000000,"state":"active","ping":45},{"user_id":335,"name":"Genesis","steam_id":76561198999652040,"connected_time":3458000000000,"state":"active","ping":46},{"user_id":370,"name":"socaramel","steam_id":76561197984480336,"connected_time":721000000000,"state":"active","ping":76}]},{"server_id":40,"name":"Uncletopia | London | 7 | No Payload","name_short":"lon-7","host":"lon-1.uk.uncletopia.com","port":27075,"enabled":true,"region":"eu","cc":"gb","latitude":51.509865,"longitude":-0.118092,"reserved":0,"last_update":"0001-01-01T00:00:00Z","name_a2s":"Uncletopia | London | 7 | No Payload","protocol":17,"map":"cp_coldfront","folder":"tf","game":"Team Fortress","app_id":440,"player_count":1,"max_players":24,"Bots":0,"server_type":"Dedicated","server_os":"Linux","password":true,"vac":true,"version":"7961495","steam_id":85568392924964314,"keywords":["cp","nocrits","nodmgspread","uncletopia"],"game_id":440,"stv_port":27076,"stv_name":"Uncletopia | London | 7 | No Payload | STV","players":[{"user_id":36,"name":"M J Daniell","steam_id":76561198246739302,"connected_time":106000000000,"state":"active","ping":50}]},{"server_id":41,"name":"Uncletopia | London | 8 | Community","name_short":"lon-8","host":"lon-1.uk.uncletopia.com","port":27085,"enabled":true,"region":"eu","cc":"gb","latitude":51.509865,"longitude":-0.118092,"reserved":0,"last_update":"0001-01-01T00:00:00Z","name_a2s":"Uncletopia | London | 8 | Community","protocol":17,"map":"workshop/cp_glacier_rc6.ugc2905735376","folder":"tf","game":"Team Fortress","app_id":440,"player_count":0,"max_players":24,"Bots":0,"server_type":"Dedicated","server_os":"Linux","password":true,"vac":true,"version":"7961495","steam_id":85568392924964315,"keywords":["cp","nocrits","nodmgspread","uncletopia"],"game_id":440,"stv_port":27086,"stv_name":"Uncletopia | London | 8 | Community | STV","players":null},{"server_id":300,"name":"Uncletopia | Montréal | 1 | All Maps","name_short":"mtl-1","host":"mtl-1.ca.uncletopia.com","port":27015,"enabled":true,"region":"us-east","cc":"ca","latitude":45.50889,"longitude":-73.56167,"reserved":0,"last_update":"0001-01-01T00:00:00Z","name_a2s":"","protocol":0,"map":"","folder":"","game":"","app_id":0,"player_count":21,"max_players":0,"Bots":0,"server_type":"","server_os":"","password":false,"vac":false,"version":"","steam_id":0,"keywords":null,"game_id":0,"stv_port":0,"stv_name":"","players":[{"user_id":331,"name":"Khajaja","steam_id":76561198846419434,"connected_time":209000000000,"state":"active","ping":99},{"user_id":329,"name":"SharpStabbyThing","steam_id":76561199059465912,"connected_time":356000000000,"state":"active","ping":99},{"user_id":311,"name":"Foreskin Master","steam_id":76561198881124492,"connected_time":1884000000000,"state":"active","ping":51},{"user_id":297,"name":"Grimbo","steam_id":76561198826767537,"connected_time":2510000000000,"state":"active","ping":68},{"user_id":330,"name":"my name jeff","steam_id":76561198179816898,"connected_time":241000000000,"state":"active","ping":71},{"user_id":290,"name":"SpeedY","steam_id":76561199238207915,"connected_time":3108000000000,"state":"active","ping":161},{"user_id":309,"name":"Sanshi","steam_id":76561198145823543,"connected_time":1967000000000,"state":"active","ping":141},{"user_id":332,"name":"prosciutto","steam_id":76561198882758067,"connected_time":182000000000,"state":"active","ping":62},{"user_id":333,"name":"mr pocahontas","steam_id":76561198051881047,"connected_time":134000000000,"state":"active","ping":51},{"user_id":334,"name":"Apollyon is hot fight me","steam_id":76561199037497493,"connected_time":127000000000,"state":"active","ping":67},{"user_id":312,"name":"Final_MarioXD","steam_id":76561199184862419,"connected_time":1870000000000,"state":"active","ping":109},{"user_id":293,"name":"MouxeWare","steam_id":76561199339512223,"connected_time":2908000000000,"state":"active","ping":151},{"user_id":313,"name":"Foreskin Warrior","steam_id":76561198322453917,"connected_time":1867000000000,"state":"active","ping":57},{"user_id":288,"name":"Big Milk","steam_id":76561198066904836,"connected_time":3290000000000,"state":"active","ping":68},{"user_id":335,"name":"twee dorrah noodahs","steam_id":76561198199156781,"connected_time":109000000000,"state":"active","ping":83},{"user_id":336,"name":"Өchpochmak","steam_id":76561198434212101,"connected_time":88000000000,"state":"active","ping":63},{"user_id":337,"name":"pandora","steam_id":76561198347366984,"connected_time":39000000000,"state":"active","ping":95},{"user_id":323,"name":"The","steam_id":76561198359311605,"connected_time":1318000000000,"state":"active","ping":150},{"user_id":307,"name":":3","steam_id":76561198120772700,"connected_time":2175000000000,"state":"active","ping":63},{"user_id":317,"name":"Blue⛧Melon","steam_id":76561197970926435,"connected_time":1762000000000,"state":"active","ping":58},{"user_id":318,"name":"Kdash","steam_id":76561198043829155,"connected_time":1748000000000,"state":"active","ping":93}]},{"server_id":301,"name":"Uncletopia | Montréal | 2 | All Maps","name_short":"mtl-2","host":"mtl-1.ca.uncletopia.com","port":27025,"enabled":true,"region":"us-east","cc":"ca","latitude":45.50889,"longitude":-73.56167,"reserved":0,"last_update":"0001-01-01T00:00:00Z","name_a2s":"","protocol":0,"map":"","folder":"","game":"","app_id":0,"player_count":0,"max_players":0,"Bots":0,"server_type":"","server_os":"","password":false,"vac":false,"version":"","steam_id":0,"keywords":null,"game_id":0,"stv_port":0,"stv_name":"","players":null},{"server_id":302,"name":"Uncletopia | Montréal | 3 | All Maps","name_short":"mtl-3","host":"mtl-1.ca.uncletopia.com","port":27035,"enabled":true,"region":"us-east","cc":"ca","latitude":45.50889,"longitude":-73.56167,"reserved":0,"last_update":"0001-01-01T00:00:00Z","name_a2s":"","protocol":0,"map":"","folder":"","game":"","app_id":0,"player_count":0,"max_players":0,"Bots":0,"server_type":"","server_os":"","password":false,"vac":false,"version":"","steam_id":0,"keywords":null,"game_id":0,"stv_port":0,"stv_name":"","players":null},{"server_id":303,"name":"Uncletopia | Montréal | 4 | No Payload","name_short":"mtl-4","host":"mtl-1.ca.uncletopia.com","port":27045,"enabled":true,"region":"us-east","cc":"ca","latitude":45.50889,"longitude":-73.56167,"reserved":0,"last_update":"0001-01-01T00:00:00Z","name_a2s":"","protocol":0,"map":"","folder":"","game":"","app_id":0,"player_count":0,"max_players":0,"Bots":0,"server_type":"","server_os":"","password":false,"vac":false,"version":"","steam_id":0,"keywords":null,"game_id":0,"stv_port":0,"stv_name":"","players":null},{"server_id":13,"name":"Uncletopia | New York City | 1 | All Maps","name_short":"nyc-1","host":"nyc-1.us.uncletopia.com","port":27015,"enabled":true,"region":"us-east","cc":"us","latitude":40.73061,"longitude":-73.93524,"reserved":0,"last_update":"0001-01-01T00:00:00Z","name_a2s":"Uncletopia | New York City | 1 | All Maps","protocol":17,"map":"pl_frontier_final","folder":"tf","game":"Team Fortress","app_id":440,"player_count":24,"max_players":24,"Bots":0,"server_type":"Dedicated","server_os":"Linux","password":true,"vac":true,"version":"7961495","steam_id":85568392924469993,"keywords":["nocrits","nodmgspread","payload","uncletopia"],"game_id":440,"stv_port":27016,"stv_name":"Uncletopia | New York City | 1 | All Maps | STV","players":[{"user_id":240,"name":"jamzine","steam_id":76561198186168293,"connected_time":3240000000000,"state":"active","ping":57},{"user_id":271,"name":"doctorbowl","steam_id":76561198398475350,"connected_time":673000000000,"state":"active","ping":56},{"user_id":265,"name":"Jiggs","steam_id":76561198435222286,"connected_time":987000000000,"state":"active","ping":63},{"user_id":254,"name":"antoniov00gaming","steam_id":76561198364632073,"connected_time":1451000000000,"state":"active","ping":80},{"user_id":256,"name":"Funke Monke","steam_id":76561198079440976,"connected_time":1096000000000,"state":"active","ping":63},{"user_id":266,"name":"Kaiser","steam_id":76561198140330263,"connected_time":952000000000,"state":"active","ping":69},{"user_id":198,"name":"TF2IsBetter","steam_id":76561198116812607,"connected_time":5419000000000,"state":"active","ping":66},{"user_id":187,"name":"eaglesfan609","steam_id":76561198151032242,"connected_time":6632000000000,"state":"active","ping":50},{"user_id":199,"name":"prospike569","steam_id":76561199491903111,"connected_time":5407000000000,"state":"active","ping":69},{"user_id":247,"name":"Eric Catman","steam_id":76561198802117294,"connected_time":2669000000000,"state":"active","ping":140},{"user_id":250,"name":"Mr. Call You Back","steam_id":76561198025172811,"connected_time":2411000000000,"state":"active","ping":39},{"user_id":273,"name":"Raine","steam_id":76561198055761141,"connected_time":620000000000,"state":"active","ping":70},{"user_id":230,"name":"B.","steam_id":76561198040445907,"connected_time":3904000000000,"state":"active","ping":78},{"user_id":105,"name":"Ata","steam_id":76561198349085545,"connected_time":11844000000000,"state":"active","ping":80},{"user_id":272,"name":"joe iroh","steam_id":76561198173105270,"connected_time":645000000000,"state":"active","ping":70},{"user_id":268,"name":"❤ Ashley ❤","steam_id":76561198056428303,"connected_time":796000000000,"state":"active","ping":106},{"user_id":252,"name":"Lemon","steam_id":76561198119362095,"connected_time":2216000000000,"state":"active","ping":44},{"user_id":274,"name":"Colonel Chikara","steam_id":76561198010021087,"connected_time":524000000000,"state":"active","ping":110},{"user_id":275,"name":"Punkin","steam_id":76561198334301755,"connected_time":125000000000,"state":"active","ping":48},{"user_id":242,"name":"GummybearKillr","steam_id":76561198031235750,"connected_time":3235000000000,"state":"active","ping":56},{"user_id":260,"name":"Sire Salty","steam_id":76561198079639072,"connected_time":1082000000000,"state":"active","ping":48},{"user_id":241,"name":"20 miles for a Quaalude","steam_id":76561198042579477,"connected_time":3238000000000,"state":"active","ping":52},{"user_id":261,"name":"Aaron","steam_id":76561198091157802,"connected_time":1082000000000,"state":"active","ping":68},{"user_id":262,"name":"turd ferguson","steam_id":76561198071620782,"connected_time":1082000000000,"state":"active","ping":68}]},{"server_id":14,"name":"Uncletopia | New York City | 2 | All Maps","name_short":"nyc-2","host":"nyc-1.us.uncletopia.com","port":27025,"enabled":true,"region":"us-east","cc":"us","latitude":40.73061,"longitude":-73.93524,"reserved":0,"last_update":"0001-01-01T00:00:00Z","name_a2s":"Uncletopia | New York City | 2 | All Maps","protocol":17,"map":"pl_snowycoast","folder":"tf","game":"Team Fortress","app_id":440,"player_count":24,"max_players":24,"Bots":0,"server_type":"Dedicated","server_os":"Linux","password":true,"vac":true,"version":"7961495","steam_id":85568392924469994,"keywords":["nocrits","nodmgspread","payload","uncletopia"],"game_id":440,"stv_port":27026,"stv_name":"Uncletopia | New York City | 2 | All Maps | STV","players":[{"user_id":261,"name":"yess","steam_id":76561199176869833,"connected_time":340000000000,"state":"active","ping":73},{"user_id":236,"name":"general.b","steam_id":76561198162480519,"connected_time":2336000000000,"state":"active","ping":58},{"user_id":247,"name":"dirt","steam_id":76561198194471251,"connected_time":946000000000,"state":"active","ping":56},{"user_id":254,"name":"Blaer","steam_id":76561198030462084,"connected_time":715000000000,"state":"active","ping":94},{"user_id":229,"name":"GaiBerd","steam_id":76561198177100634,"connected_time":3192000000000,"state":"active","ping":49},{"user_id":212,"name":"Comfy!","steam_id":76561198008818346,"connected_time":4658000000000,"state":"active","ping":45},{"user_id":250,"name":"bobby159753","steam_id":76561199222116870,"connected_time":803000000000,"state":"active","ping":164},{"user_id":188,"name":"WesyUWU (The mini crit pig)","steam_id":76561198069188177,"connected_time":7251000000000,"state":"active","ping":95},{"user_id":262,"name":"Shame","steam_id":76561198100490994,"connected_time":215000000000,"state":"active","ping":69},{"user_id":232,"name":"| L O S T |","steam_id":76561198062620333,"connected_time":3038000000000,"state":"active","ping":76},{"user_id":234,"name":"Pixler544","steam_id":76561198240575132,"connected_time":2411000000000,"state":"active","ping":80},{"user_id":251,"name":"The Incredible Fem Boy","steam_id":76561198355754259,"connected_time":757000000000,"state":"active","ping":65},{"user_id":252,"name":"RuinLucky","steam_id":76561199481172481,"connected_time":742000000000,"state":"active","ping":86},{"user_id":242,"name":"Flubby","steam_id":76561198069171252,"connected_time":1445000000000,"state":"active","ping":60},{"user_id":231,"name":"HUMBY","steam_id":76561198065045867,"connected_time":3079000000000,"state":"active","ping":145},{"user_id":258,"name":"phlour","steam_id":76561198137238620,"connected_time":484000000000,"state":"active","ping":84},{"user_id":211,"name":"clax","steam_id":76561199103697761,"connected_time":4717000000000,"state":"active","ping":64},{"user_id":259,"name":"Magnolia","steam_id":76561199044602594,"connected_time":454000000000,"state":"active","ping":48},{"user_id":244,"name":"Christian Bonnie","steam_id":76561199194702127,"connected_time":1042000000000,"state":"active","ping":108},{"user_id":263,"name":"abel_jr09","steam_id":76561199057301675,"connected_time":164000000000,"state":"active","ping":136},{"user_id":189,"name":"Okpar","steam_id":76561199221067945,"connected_time":7250000000000,"state":"active","ping":98},{"user_id":246,"name":"unlisted","steam_id":76561198204198497,"connected_time":988000000000,"state":"active","ping":108},{"user_id":194,"name":"Kung fu Mungus","steam_id":76561198069281556,"connected_time":7120000000000,"state":"active","ping":94},{"user_id":230,"name":"Deph Pyro","steam_id":76561198065033546,"connected_time":3192000000000,"state":"active","ping":82}]},{"server_id":15,"name":"Uncletopia | New York City | 3 | Stopwatch Beta","name_short":"nyc-3","host":"nyc-1.us.uncletopia.com","port":27035,"enabled":true,"region":"us-east","cc":"us","latitude":40.73061,"longitude":-73.93524,"reserved":0,"last_update":"0001-01-01T00:00:00Z","name_a2s":"Uncletopia | New York City | 3 | Stopwatch Beta","protocol":17,"map":"workshop/koth_product_final.ugc454272353","folder":"tf","game":"Team Fortress","app_id":440,"player_count":0,"max_players":24,"Bots":0,"server_type":"Dedicated","server_os":"Linux","password":true,"vac":true,"version":"7961495","steam_id":85568392924742820,"keywords":["cp","nocrits","nodmgspread","uncletopia"],"game_id":440,"stv_port":27036,"stv_name":"Uncletopia | New York City | 3 | Stopwatch Beta | STV","players":null},{"server_id":16,"name":"Uncletopia | New York City | 4 | Community","name_short":"nyc-4","host":"nyc-1.us.uncletopia.com","port":27045,"enabled":true,"region":"us-east","cc":"us","latitude":40.73061,"longitude":-73.93524,"reserved":0,"last_update":"0001-01-01T00:00:00Z","name_a2s":"Uncletopia | New York City | 4 | Community","protocol":17,"map":"koth_lakeside_final","folder":"tf","game":"Team Fortress","app_id":440,"player_count":0,"max_players":24,"Bots":0,"server_type":"Dedicated","server_os":"Linux","password":true,"vac":true,"version":"7961495","steam_id":85568392924742821,"keywords":["cp","nocrits","nodmgspread","uncletopia"],"game_id":440,"stv_port":27046,"stv_name":"Uncletopia | New York City | 4 | Community | STV","players":null},{"server_id":142,"name":"Uncletopia | São Paulo | 1 | All Maps","name_short":"sao-1","host":"sao-1.br.uncletopia.com","port":27015,"enabled":true,"region":"sa","cc":"br","latitude":-23.533773,"longitude":-46.62529,"reserved":0,"last_update":"0001-01-01T00:00:00Z","name_a2s":"Uncletopia | São Paulo | 1 | All Maps","protocol":17,"map":"koth_highpass","folder":"tf","game":"Team Fortress","app_id":440,"player_count":0,"max_players":24,"Bots":0,"server_type":"Dedicated","server_os":"Linux","password":true,"vac":true,"version":"7961495","steam_id":85568392924469996,"keywords":["cp","nocrits","nodmgspread","uncletopia"],"game_id":440,"stv_port":27016,"stv_name":"Uncletopia | São Paulo | 1 | All Maps | STV","players":null},{"server_id":143,"name":"Uncletopia | São Paulo | 2 | Community","name_short":"sao-2","host":"sao-2.br.uncletopia.com","port":27015,"enabled":true,"region":"sa","cc":"br","latitude":-23.533773,"longitude":-46.62529,"reserved":0,"last_update":"0001-01-01T00:00:00Z","name_a2s":"Uncletopia | São Paulo | 2 | Community","protocol":17,"map":"workshop/koth_bagel_rc6.ugc2514036946","folder":"tf","game":"Team Fortress","app_id":440,"player_count":16,"max_players":24,"Bots":0,"server_type":"Dedicated","server_os":"Linux","password":true,"vac":true,"version":"7961495","steam_id":85568392924485349,"keywords":["cp","nocrits","nodmgspread","uncletopia"],"game_id":440,"stv_port":27016,"stv_name":"Uncletopia | São Paulo | 2 | Community | STV","players":[{"user_id":35,"name":"YellowEyePatch Guy","steam_id":76561199108111310,"connected_time":1777000000000,"state":"active","ping":60},{"user_id":9,"name":"My wife left me","steam_id":76561199093912386,"connected_time":5411000000000,"state":"active","ping":62},{"user_id":10,"name":"cezar","steam_id":76561198426484905,"connected_time":5341000000000,"state":"active","ping":49},{"user_id":45,"name":"anaheisenberg","steam_id":76561198304847307,"connected_time":959000000000,"state":"active","ping":55},{"user_id":19,"name":"Adolf_Dripler_1945","steam_id":76561198963738808,"connected_time":3740000000000,"state":"active","ping":39},{"user_id":56,"name":"Otaah","steam_id":76561199072374071,"connected_time":115000000000,"state":"active","ping":55},{"user_id":14,"name":"Lan","steam_id":76561198263163492,"connected_time":4264000000000,"state":"active","ping":63},{"user_id":20,"name":"Tati","steam_id":76561198097756059,"connected_time":3445000000000,"state":"active","ping":79},{"user_id":55,"name":"buddha","steam_id":76561198155237323,"connected_time":266000000000,"state":"active","ping":33},{"user_id":36,"name":"sandvich dispenser","steam_id":76561199059503439,"connected_time":1711000000000,"state":"active","ping":45},{"user_id":39,"name":"Stalin","steam_id":76561198073356694,"connected_time":1379000000000,"state":"active","ping":65},{"user_id":47,"name":"vacaloca25","steam_id":76561198082683352,"connected_time":867000000000,"state":"active","ping":63},{"user_id":57,"name":"델리셔스","steam_id":76561198143438576,"connected_time":98000000000,"state":"active","ping":40},{"user_id":48,"name":"speky","steam_id":76561198340346088,"connected_time":776000000000,"state":"active","ping":75},{"user_id":42,"name":"Skyline","steam_id":76561198944468773,"connected_time":1254000000000,"state":"active","ping":44},{"user_id":53,"name":"Hercules","steam_id":76561199017999458,"connected_time":551000000000,"state":"active","ping":76}]},{"server_id":7,"name":"Uncletopia | Seattle | 1 | All Maps","name_short":"sea-1","host":"sea-1.us.uncletopia.com","port":27015,"enabled":true,"region":"us-west","cc":"us","latitude":47.608013,"longitude":-122.33517,"reserved":0,"last_update":"0001-01-01T00:00:00Z","name_a2s":"Uncletopia | Seattle | 1 | All Maps","protocol":17,"map":"pl_snowycoast","folder":"tf","game":"Team Fortress","app_id":440,"player_count":24,"max_players":24,"Bots":0,"server_type":"Dedicated","server_os":"Linux","password":true,"vac":true,"version":"7961495","steam_id":85568392924469997,"keywords":["nocrits","nodmgspread","payload","uncletopia"],"game_id":440,"stv_port":27016,"stv_name":"Uncletopia | Seattle | 1 | All Maps | STV","players":[{"user_id":92,"name":"bottom pride burger","steam_id":76561198322247602,"connected_time":1504000000000,"state":"active","ping":81},{"user_id":88,"name":"InterplanetaryGentlemann","steam_id":76561198146559390,"connected_time":1519000000000,"state":"active","ping":44},{"user_id":93,"name":"Tibetan Pop Star","steam_id":76561198844903984,"connected_time":1497000000000,"state":"active","ping":81},{"user_id":102,"name":"mooney","steam_id":76561199110622484,"connected_time":790000000000,"state":"active","ping":70},{"user_id":112,"name":"ThePriceIsRice","steam_id":76561198079069543,"connected_time":71000000000,"state":"active","ping":60},{"user_id":66,"name":"GooseWithAGibus","steam_id":76561198131567365,"connected_time":3860000000000,"state":"active","ping":69},{"user_id":90,"name":"dekemori","steam_id":76561198373889573,"connected_time":1511000000000,"state":"active","ping":69},{"user_id":111,"name":"Tuneski!!!!!!","steam_id":76561199054203198,"connected_time":421000000000,"state":"active","ping":175},{"user_id":94,"name":"cthonic cvnt","steam_id":76561198039604491,"connected_time":1495000000000,"state":"active","ping":46},{"user_id":105,"name":"Mike Bean Burritos","steam_id":76561198173430607,"connected_time":626000000000,"state":"active","ping":54},{"user_id":24,"name":"Dosario","steam_id":76561198298095535,"connected_time":6833000000000,"state":"active","ping":64},{"user_id":58,"name":"Skippy Dinglechalk","steam_id":76561198133291980,"connected_time":5079000000000,"state":"active","ping":167},{"user_id":89,"name":"zinnk","steam_id":76561198092081825,"connected_time":1518000000000,"state":"active","ping":58},{"user_id":106,"name":"Ducks","steam_id":76561198130038345,"connected_time":602000000000,"state":"active","ping":70},{"user_id":95,"name":"PJROCK101","steam_id":76561198070616561,"connected_time":1482000000000,"state":"active","ping":61},{"user_id":99,"name":"Chase","steam_id":76561198142160728,"connected_time":1133000000000,"state":"active","ping":59},{"user_id":103,"name":"Filthy Hobbit Hole","steam_id":76561198020524500,"connected_time":685000000000,"state":"active","ping":63},{"user_id":71,"name":"Little Linguine","steam_id":76561198816986370,"connected_time":3727000000000,"state":"active","ping":62},{"user_id":100,"name":"Slothy","steam_id":76561198967069349,"connected_time":1083000000000,"state":"active","ping":57},{"user_id":70,"name":"Peakt","steam_id":76561198096328768,"connected_time":3743000000000,"state":"active","ping":54},{"user_id":101,"name":"FIREPOW","steam_id":76561198111259720,"connected_time":1037000000000,"state":"active","ping":120},{"user_id":110,"name":"Mr defrost","steam_id":76561198322125657,"connected_time":505000000000,"state":"active","ping":71},{"user_id":81,"name":"o o o o o o o o o","steam_id":76561197993757506,"connected_time":2835000000000,"state":"active","ping":70},{"user_id":72,"name":"rad killl raccoon","steam_id":76561198980975595,"connected_time":3727000000000,"state":"active","ping":68}]},{"server_id":119,"name":"Uncletopia | Seattle | 2 | All Maps","name_short":"sea-2","host":"sea-1.us.uncletopia.com","port":27025,"enabled":true,"region":"us-west","cc":"us","latitude":47.608013,"longitude":-122.33517,"reserved":0,"last_update":"0001-01-01T00:00:00Z","name_a2s":"Uncletopia | Seattle | 2 | All Maps","protocol":17,"map":"koth_lakeside_final","folder":"tf","game":"Team Fortress","app_id":440,"player_count":0,"max_players":24,"Bots":0,"server_type":"Dedicated","server_os":"Linux","password":true,"vac":true,"version":"7961495","steam_id":85568392924469998,"keywords":["cp","nocrits","nodmgspread","uncletopia"],"game_id":440,"stv_port":27026,"stv_name":"Uncletopia | Seattle | 2 | All Maps | STV","players":null},{"server_id":406,"name":"Uncletopia | Seattle | 3 | Stopwatch Beta","name_short":"sea-3","host":"sea-1.us.uncletopia.com","port":27035,"enabled":true,"region":"us-west","cc":"us","latitude":47.608013,"longitude":-122.33517,"reserved":0,"last_update":"0001-01-01T00:00:00Z","name_a2s":"Uncletopia | Seattle | 3 | Stopwatch Beta","protocol":17,"map":"workshop/pl_vigil_rc9.ugc1266210012","folder":"tf","game":"Team Fortress","app_id":440,"player_count":0,"max_players":24,"Bots":0,"server_type":"Dedicated","server_os":"Linux","password":true,"vac":true,"version":"7961495","steam_id":85568392924515217,"keywords":["nocrits","nodmgspread","payload","uncletopia"],"game_id":440,"stv_port":27036,"stv_name":"Uncletopia | Seattle | 3 | Stopwatch Beta | STV","players":null},{"server_id":17,"name":"Uncletopia | San Francisco | 1 | All Maps","name_short":"sfo-1","host":"sfo-1.us.uncletopia.com","port":27015,"enabled":true,"region":"us-west","cc":"us","latitude":37.77397,"longitude":-122.4313,"reserved":0,"last_update":"0001-01-01T00:00:00Z","name_a2s":"Uncletopia | San Francisco | 1 | All Maps","protocol":17,"map":"pl_barnblitz","folder":"tf","game":"Team Fortress","app_id":440,"player_count":0,"max_players":24,"Bots":0,"server_type":"Dedicated","server_os":"Linux","password":true,"vac":true,"version":"7961495","steam_id":85568392924469999,"keywords":["nocrits","nodmgspread","payload","uncletopia"],"game_id":440,"stv_port":27016,"stv_name":"Uncletopia | San Francisco | 1 | All Maps | STV","players":null},{"server_id":18,"name":"Uncletopia | San Francisco | 2 | All Maps","name_short":"sfo-2","host":"sfo-1.us.uncletopia.com","port":27025,"enabled":true,"region":"us-west","cc":"us","latitude":37.77397,"longitude":-122.4313,"reserved":0,"last_update":"0001-01-01T00:00:00Z","name_a2s":"Uncletopia | San Francisco | 2 | All Maps","protocol":17,"map":"pl_borneo","folder":"tf","game":"Team Fortress","app_id":440,"player_count":24,"max_players":24,"Bots":0,"server_type":"Dedicated","server_os":"Linux","password":true,"vac":true,"version":"7961495","steam_id":85568392924470000,"keywords":["nocrits","nodmgspread","payload","uncletopia"],"game_id":440,"stv_port":27026,"stv_name":"Uncletopia | San Francisco | 2 | All Maps | STV","players":[{"user_id":258,"name":"aintnowaiyboi","steam_id":76561198301372369,"connected_time":1421000000000,"state":"active","ping":69},{"user_id":285,"name":"CPTforever","steam_id":76561198237767198,"connected_time":203000000000,"state":"active","ping":50},{"user_id":210,"name":"DIO Gaming","steam_id":76561198096858233,"connected_time":2614000000000,"state":"active","ping":101},{"user_id":271,"name":"paint","steam_id":76561199006886644,"connected_time":1223000000000,"state":"active","ping":53},{"user_id":281,"name":"JZ","steam_id":76561198377029198,"connected_time":259000000000,"state":"active","ping":126},{"user_id":166,"name":"a cat plushie","steam_id":76561198080046542,"connected_time":4236000000000,"state":"active","ping":61},{"user_id":209,"name":"Mark","steam_id":76561199092079229,"connected_time":2696000000000,"state":"active","ping":58},{"user_id":280,"name":"hyzaaZzzZZzAzA","steam_id":76561199100342013,"connected_time":285000000000,"state":"active","ping":56},{"user_id":169,"name":"Daz","steam_id":76561198041431938,"connected_time":3945000000000,"state":"active","ping":70},{"user_id":260,"name":"ChickenShred","steam_id":76561198867897841,"connected_time":1392000000000,"state":"active","ping":105},{"user_id":270,"name":"Nihplod_","steam_id":76561199010320094,"connected_time":1253000000000,"state":"active","ping":105},{"user_id":286,"name":"merkury731","steam_id":76561198110565430,"connected_time":195000000000,"state":"active","ping":101},{"user_id":255,"name":"SmearierGold7","steam_id":76561198065689410,"connected_time":1486000000000,"state":"active","ping":132},{"user_id":103,"name":"ilun","steam_id":76561198042913843,"connected_time":8837000000000,"state":"active","ping":72},{"user_id":283,"name":"greens beans","steam_id":76561198153611491,"connected_time":234000000000,"state":"active","ping":59},{"user_id":287,"name":"Reggie","steam_id":76561198835737236,"connected_time":179000000000,"state":"active","ping":125},{"user_id":288,"name":"Sharkysaurus","steam_id":76561198285533174,"connected_time":170000000000,"state":"active","ping":86},{"user_id":289,"name":"watchfull","steam_id":76561198433266742,"connected_time":136000000000,"state":"active","ping":78},{"user_id":243,"name":"noceof","steam_id":76561198043656816,"connected_time":1767000000000,"state":"active","ping":163},{"user_id":207,"name":"Blind_Deuce","steam_id":76561198155697762,"connected_time":2722000000000,"state":"active","ping":65},{"user_id":264,"name":"orangePulp","steam_id":76561198038373636,"connected_time":1337000000000,"state":"active","ping":69},{"user_id":117,"name":"✪ Y V E S","steam_id":76561198299479796,"connected_time":8443000000000,"state":"active","ping":54},{"user_id":276,"name":"NUKE RADIO","steam_id":76561198979277948,"connected_time":1060000000000,"state":"active","ping":104},{"user_id":278,"name":"Lunar","steam_id":76561199120845371,"connected_time":775000000000,"state":"active","ping":115}]},{"server_id":19,"name":"Uncletopia | San Francisco | 3 | Stopwatch Beta","name_short":"sfo-3","host":"sfo-1.us.uncletopia.com","port":27035,"enabled":true,"region":"us-west","cc":"us","latitude":37.77397,"longitude":-122.4313,"reserved":0,"last_update":"0001-01-01T00:00:00Z","name_a2s":"Uncletopia | San Francisco | 3 | Stopwatch Beta","protocol":17,"map":"pl_borneo","folder":"tf","game":"Team Fortress","app_id":440,"player_count":0,"max_players":24,"Bots":0,"server_type":"Dedicated","server_os":"Linux","password":true,"vac":true,"version":"7961495","steam_id":85568392924742824,"keywords":["nocrits","nodmgspread","payload","uncletopia"],"game_id":440,"stv_port":27036,"stv_name":"Uncletopia | San Francisco | 3 | Stopwatch Beta | STV","players":null},{"server_id":20,"name":"Uncletopia | San Francisco | 4 | Community","name_short":"sfo-4","host":"sfo-1.us.uncletopia.com","port":27045,"enabled":true,"region":"us-west","cc":"us","latitude":37.77397,"longitude":-122.4313,"reserved":0,"last_update":"0001-01-01T00:00:00Z","name_a2s":"Uncletopia | San Francisco | 4 | Community","protocol":17,"map":"koth_viaduct","folder":"tf","game":"Team Fortress","app_id":440,"player_count":0,"max_players":24,"Bots":0,"server_type":"Dedicated","server_os":"Linux","password":true,"vac":true,"version":"7961495","steam_id":85568392924742826,"keywords":["cp","nocrits","nodmgspread","uncletopia"],"game_id":440,"stv_port":27046,"stv_name":"Uncletopia | San Francisco | 4 | Community | STV","players":null},{"server_id":141,"name":"Uncletopia | Sydney | 1 | All Maps","name_short":"syd-1","host":"syd-1.au.uncletopia.com","port":27015,"enabled":true,"region":"au","cc":"au","latitude":-33.865143,"longitude":151.2099,"reserved":0,"last_update":"0001-01-01T00:00:00Z","name_a2s":"Uncletopia | Sydney | 1 | All Maps","protocol":17,"map":"koth_highpass","folder":"tf","game":"Team Fortress","app_id":440,"player_count":0,"max_players":24,"Bots":0,"server_type":"Dedicated","server_os":"Linux","password":true,"vac":true,"version":"7961495","steam_id":85568392924470001,"keywords":["cp","nocrits","nodmgspread","uncletopia"],"game_id":440,"stv_port":27016,"stv_name":"Uncletopia | Sydney | 1 | All Maps | STV","players":null},{"server_id":123,"name":"Uncletopia | Sydney | 2 | All Maps","name_short":"syd-2","host":"syd-1.au.uncletopia.com","port":27025,"enabled":true,"region":"au","cc":"au","latitude":-33.865143,"longitude":151.2099,"reserved":0,"last_update":"0001-01-01T00:00:00Z","name_a2s":"Uncletopia | Sydney | 2 | All Maps","protocol":17,"map":"koth_viaduct","folder":"tf","game":"Team Fortress","app_id":440,"player_count":0,"max_players":24,"Bots":0,"server_type":"Dedicated","server_os":"Linux","password":true,"vac":true,"version":"7961495","steam_id":85568392924470002,"keywords":["cp","nocrits","nodmgspread","uncletopia"],"game_id":440,"stv_port":27026,"stv_name":"Uncletopia | Sydney | 2 | All Maps | STV","players":null},{"server_id":395,"name":"Uncletopia | Sydney | 3 | All Maps","name_short":"syd-3","host":"syd-1.au.uncletopia.com","port":27035,"enabled":true,"region":"au","cc":"au","latitude":-33.865143,"longitude":151.2099,"reserved":0,"last_update":"0001-01-01T00:00:00Z","name_a2s":"Uncletopia | Sydney | 3 | All Maps","protocol":17,"map":"koth_highpass","folder":"tf","game":"Team Fortress","app_id":440,"player_count":0,"max_players":24,"Bots":0,"server_type":"Dedicated","server_os":"Linux","password":true,"vac":true,"version":"7961495","steam_id":85568392925194467,"keywords":["cp","nocrits","nodmgspread","uncletopia"],"game_id":440,"stv_port":27036,"stv_name":"Uncletopia | Sydney | 3 | All Maps | STV","players":null},{"server_id":396,"name":"Uncletopia | Sydney | 4 | All Maps","name_short":"syd-4","host":"syd-1.au.uncletopia.com","port":27045,"enabled":true,"region":"au","cc":"au","latitude":-33.865143,"longitude":151.2099,"reserved":0,"last_update":"0001-01-01T00:00:00Z","name_a2s":"Uncletopia | Sydney | 4 | All Maps","protocol":17,"map":"pl_swiftwater_final1","folder":"tf","game":"Team Fortress","app_id":440,"player_count":0,"max_players":24,"Bots":0,"server_type":"Dedicated","server_os":"Linux","password":true,"vac":true,"version":"7961495","steam_id":85568392925397958,"keywords":["nocrits","nodmgspread","payload","uncletopia"],"game_id":440,"stv_port":27046,"stv_name":"Uncletopia | Sydney | 4 | All Maps | STV","players":null},{"server_id":58,"name":"Uncletopia | Sydney | 5 | Stopwatch Beta","name_short":"syd-5","host":"syd-1.au.uncletopia.com","port":27055,"enabled":true,"region":"au","cc":"au","latitude":-33.865143,"longitude":151.2099,"reserved":0,"last_update":"0001-01-01T00:00:00Z","name_a2s":"Uncletopia | Sydney | 5 | Stopwatch Beta","protocol":17,"map":"koth_viaduct","folder":"tf","game":"Team Fortress","app_id":440,"player_count":0,"max_players":24,"Bots":0,"server_type":"Dedicated","server_os":"Linux","password":true,"vac":true,"version":"7961495","steam_id":85568392925397959,"keywords":["cp","nocrits","nodmgspread","uncletopia"],"game_id":440,"stv_port":27056,"stv_name":"Uncletopia | Sydney | 5 | Stopwatch Beta | STV","players":null},{"server_id":59,"name":"Uncletopia | Sydney | 6 | Community","name_short":"syd-6","host":"syd-1.au.uncletopia.com","port":27065,"enabled":true,"region":"au","cc":"au","latitude":-33.865143,"longitude":151.2099,"reserved":0,"last_update":"0001-01-01T00:00:00Z","name_a2s":"Uncletopia | Sydney | 6 | Community","protocol":17,"map":"koth_cascade","folder":"tf","game":"Team Fortress","app_id":440,"player_count":0,"max_players":24,"Bots":0,"server_type":"Dedicated","server_os":"Linux","password":true,"vac":true,"version":"7961495","steam_id":85568392925397960,"keywords":["cp","nocrits","nodmgspread","uncletopia"],"game_id":440,"stv_port":27066,"stv_name":"Uncletopia | Sydney | 6 | Community | STV","players":null},{"server_id":49,"name":"Uncletopia | Warsaw | 1 | All Maps","name_short":"waw-1","host":"waw-1.pl.uncletopia.com","port":27015,"enabled":true,"region":"eu","cc":"pl","latitude":52.2297,"longitude":21.017532,"reserved":0,"last_update":"0001-01-01T00:00:00Z","name_a2s":"Uncletopia | Warsaw | 1 | All Maps","protocol":17,"map":"cp_dustbowl","folder":"tf","game":"Team Fortress","app_id":440,"player_count":0,"max_players":24,"Bots":0,"server_type":"Dedicated","server_os":"Linux","password":true,"vac":true,"version":"7961495","steam_id":85568392925397850,"keywords":["cp","nocrits","nodmgspread","uncletopia"],"game_id":440,"stv_port":27016,"stv_name":"Uncletopia | Warsaw | 1 | All Maps | STV","players":null},{"server_id":50,"name":"Uncletopia | Warsaw | 2 | All Maps","name_short":"waw-2","host":"waw-1.pl.uncletopia.com","port":27025,"enabled":true,"region":"eu","cc":"pl","latitude":52.2297,"longitude":21.017532,"reserved":0,"last_update":"0001-01-01T00:00:00Z","name_a2s":"Uncletopia | Warsaw | 2 | All Maps","protocol":17,"map":"koth_lakeside_final","folder":"tf","game":"Team Fortress","app_id":440,"player_count":0,"max_players":24,"Bots":0,"server_type":"Dedicated","server_os":"Linux","password":true,"vac":true,"version":"7961495","steam_id":85568392925397851,"keywords":["cp","nocrits","nodmgspread","uncletopia"],"game_id":440,"stv_port":27026,"stv_name":"Uncletopia | Warsaw | 2 | All Maps | STV","players":null},{"server_id":51,"name":"Uncletopia | Warsaw | 3 | All Maps","name_short":"waw-3","host":"waw-1.pl.uncletopia.com","port":27035,"enabled":true,"region":"eu","cc":"pl","latitude":52.2297,"longitude":21.017532,"reserved":0,"last_update":"0001-01-01T00:00:00Z","name_a2s":"Uncletopia | Warsaw | 3 | All Maps","protocol":17,"map":"cp_dustbowl","folder":"tf","game":"Team Fortress","app_id":440,"player_count":0,"max_players":24,"Bots":0,"server_type":"Dedicated","server_os":"Linux","password":true,"vac":true,"version":"7961495","steam_id":85568392925397852,"keywords":["cp","nocrits","nodmgspread","uncletopia"],"game_id":440,"stv_port":27036,"stv_name":"Uncletopia | Warsaw | 3 | All Maps | STV","players":null},{"server_id":52,"name":"Uncletopia | Warsaw | 4 | All Maps","name_short":"waw-4","host":"waw-1.pl.uncletopia.com","port":27045,"enabled":true,"region":"eu","cc":"pl","latitude":52.2297,"longitude":21.017532,"reserved":0,"last_update":"0001-01-01T00:00:00Z","name_a2s":"Uncletopia | Warsaw | 4 | All Maps","protocol":17,"map":"koth_highpass","folder":"tf","game":"Team Fortress","app_id":440,"player_count":0,"max_players":24,"Bots":0,"server_type":"Dedicated","server_os":"Linux","password":true,"vac":true,"version":"7961495","steam_id":85568392925397853,"keywords":["cp","nocrits","nodmgspread","uncletopia"],"game_id":440,"stv_port":27046,"stv_name":"Uncletopia | Warsaw | 4 | All Maps | STV","players":null},{"server_id":53,"name":"Uncletopia | Warsaw | 5 | Stopwatch Beta","name_short":"waw-5","host":"waw-1.pl.uncletopia.com","port":27055,"enabled":true,"region":"eu","cc":"pl","latitude":52.2297,"longitude":21.017532,"reserved":0,"last_update":"0001-01-01T00:00:00Z","name_a2s":"Uncletopia | Warsaw | 5 | Stopwatch Beta","protocol":17,"map":"workshop/pl_badwater_pro_v12.ugc2142942074","folder":"tf","game":"Team Fortress","app_id":440,"player_count":0,"max_players":24,"Bots":0,"server_type":"Dedicated","server_os":"Linux","password":true,"vac":true,"version":"7961495","steam_id":85568392925397854,"keywords":["nocrits","nodmgspread","payload","uncletopia"],"game_id":440,"stv_port":27056,"stv_name":"Uncletopia | Warsaw | 5 | Stopwatch Beta | STV","players":null},{"server_id":54,"name":"Uncletopia | Warsaw | 6 | Community","name_short":"waw-6","host":"waw-1.pl.uncletopia.com","port":27065,"enabled":true,"region":"eu","cc":"pl","latitude":52.2297,"longitude":21.017532,"reserved":0,"last_update":"0001-01-01T00:00:00Z","name_a2s":"Uncletopia | Warsaw | 6 | Community","protocol":17,"map":"workshop/pl_boundary_final1.ugc456799153","folder":"tf","game":"Team Fortress","app_id":440,"player_count":0,"max_players":24,"Bots":0,"server_type":"Dedicated","server_os":"Linux","password":true,"vac":true,"version":"7961495","steam_id":85568392925397856,"keywords":["nocrits","nodmgspread","payload","uncletopia"],"game_id":440,"stv_port":27066,"stv_name":"Uncletopia | Warsaw | 6 | Community | STV","players":null}]}