{"status":true,"message":"","result":[{"server_id":9,"name":"Uncletopia | Atlanta | 1 | All Maps","name_short":"atl-1","host":"atl-1.us.uncletopia.com","port":27015,"enabled":true,"region":"us-east","cc":"us","latitude":33.753746,"longitude":-84.38633,"reserved":0,"last_update":"0001-01-01T00:00:00Z","name_a2s":"Uncletopia | Atlanta | 1 | All Maps","protocol":17,"map":"cp_snakewater_final1","folder":"tf","game":"Team Fortress","app_id":440,"player_count":0,"max_players":24,"Bots":0,"server_type":"Dedicated","server_os":"Linux","password":true,"vac":true,"version":"7961495","steam_id":85568392924469982,"keywords":["cp","nocrits","nodmgspread","uncletopia"],"game_id":440,"stv_port":27016,"stv_name":"Uncletopia | Atlanta | 1 | All Maps | STV","players":null},{"server_id":104,"name":"Uncletopia | Atlanta | 2 | All Maps","name_short":"atl-2","host":"atl-1.us.uncletopia.com","port":27025,"enabled":true,"region":"us-east","cc":"us","latitude":33.753746,"longitude":-84.38633,"reserved":0,"last_update":"0001-01-01T00:00:00Z","name_a2s":"Uncletopia | Atlanta | 2 | All Maps","protocol":17,"map":"koth_cascade","folder":"tf","game":"Team Fortress","app_id":440,"player_count":0,"max_players":24,"Bots":0,"server_type":"Dedicated","server_os":"Linux","password":true,"vac":true,"version":"7961495","steam_id":85568392924469983,"keywords":["cp","nocrits","nodmgspread","uncletopia"],"game_id":440,"stv_port":27026,"stv_name":"Uncletopia | Atlanta | 2 | All Maps | STV","players":null},{"server_id":400,"name":"Uncletopia | Atlanta | 3 | Stopwatch","name_short":"atl-3","host":"atl-1.us.uncletopia.com","port":27035,"enabled":true,"region":"us-east","cc":"us","latitude":33.753746,"longitude":-84.38633,"reserved":0,"last_update":"0001-01-01T00:00:00Z","name_a2s":"Uncletopia | Atlanta | 3 | Stopwatch","protocol":17,"map":"pl_badwater","folder":"tf","game":"Team Fortress","app_id":440,"player_count":0,"max_players":24,"Bots":0,"server_type":"Dedicated","server_os":"Linux","password":true,"vac":true,"version":"7961495","steam_id":85568392924515187,"keywords":["nocrits","nodmgspread","payload","uncletopia"],"game_id":440,"stv_port":27036,"stv_name":"Uncletopia | Atlanta | 3 | Stopwatch | STV","players":null},{"server_id":401,"name":"Uncletopia | Atlanta | 4 | Community","name_short":"atl-4","host":"atl-1.us.uncletopia.com","port":27045,"enabled":true,"region":"us-east","cc":"us","latitude":33.753746,"longitude":-84.38633,"reserved":0,"last_update":"0001-01-01T00:00:00Z","name_a2s":"Uncletopia | Atlanta | 4 | Community","protocol":17,"map":"cp_sunshine","folder":"tf","game":"Team Fortress","app_id":440,"player_count":0,"max_players":24,"Bots":0,"server_type":"Dedicated","server_os":"Linux","password":true,"vac":true,"version":"7961495","steam_id":85568392924515188,"keywords":["cp","nocrits","nodmgspread","uncletopia"],"game_id":440,"stv_port":27046,"stv_name":"Uncletopia | Atlanta | 4 | Community | STV","players":null},{"server_id":2,"name":"Uncletopia | Chicago | 1 | All Maps","name_short":"chi-1","host":"chi-1.us.uncletopia.com","port":27015,"enabled":true,"region":"us-central","cc":"us","latitude":41.881832,"longitude":-87.62318,"reserved":0,"last_update":"0001-01-01T00:00:00Z","name_a2s":"Uncletopia | Chicago | 1 | All Maps","protocol":17,"map":"koth_nucleus","folder":"tf","game":"Team Fortress","app_id":440,"player_count":24,"max_players":24,"Bots":0,"server_type":"Dedicated","server_os":"Linux","password":true,"vac":true,"version":"7961495","steam_id":85568392924469984,"keywords":["cp","nocrits","nodmgspread","uncletopia"],"game_id":440,"stv_port":27016,"stv_name":"Uncletopia | Chicago | 1 | All Maps | STV","players":[{"user_id":124,"name":"TATARA","steam_id":76561199098759517,"connected_time":511000000000,"state":"active","ping":131},{"user_id":71,"name":"Winzinf","steam_id":76561198026152232,"connected_time":5408000000000,"state":"active","ping":71},{"user_id":102,"name":"Natsuki the Scunt","steam_id":76561199175922684,"connected_time":2617000000000,"state":"active","ping":91},{"user_id":84,"name":"King Of The Chill","steam_id":76561197971394640,"connected_time":4100000000000,"state":"active","ping":96},{"user_id":111,"name":"XeroDollars","steam_id":76561198137858047,"connected_time":2011000000000,"state":"active","ping":60},{"user_id":120,"name":"Skeebo","steam_id":76561198039320867,"connected_time":1129000000000,"state":"active","ping":73},{"user_id":132,"name":"MrKokonut","steam_id":76561198879575825,"connected_time":21000000000,"state":"spawning","ping":51},{"user_id":127,"name":"Oddball","steam_id":76561198040440984,"connected_time":61000000000,"state":"active","ping":68},{"user_id":98,"name":"TallBit","steam_id":76561199059748976,"connected_time":2737000000000,"state":"active","ping":48},{"user_id":96,"name":"swan","steam_id":76561198012569200,"connected_time":2782000000000,"state":"active","ping":70},{"user_id":122,"name":"‚ú†CrustyCake‚ú†","steam_id":76561198155062405,"connected_time":913000000000,"state":"active","ping":96},{"user_id":128,"name":"Avenging Spirit","steam_id":76561198119572121,"connected_time":54000000000,"state":"connecting","ping":56},{"user_id":109,"name":"[TrC] Dackstrus","steam_id":76561197973518509,"connected_time":2248000000000,"state":"active","ping":121},{"user_id":123,"name":"racoon(s)","steam_id":76561199275619337,"connected_time":662000000000,"state":"active","ping":74},{"user_id":129,"name":"Some Dumb Werewolf","steam_id":76561198114146739,"connected_time":50000000000,"state":"active","ping":108},{"user_id":116,"name":"Sunflower","steam_id":76561198081223793,"connected_time":1943000000000,"state":"active","ping":56},{"user_id":118,"name":"Alkimia","steam_id":76561198385763137,"connected_time":1193000000000,"state":"active","ping":131},{"user_id":47,"name":"Stupid","steam_id":76561198127348089,"connected_time":6763000000000,"state":"active","ping":64},{"user_id":67,"name":"Kethal the Goddess ‚ôÄ","steam_id":76561198046610996,"connected_time":5749000000000,"state":"active","ping":95},{"user_id":29,"name":"(Edited)","steam_id":76561198201657342,"connected_time":8656000000000,"state":"active","ping":102},{"user_id":130,"name":"Lancer Fan Club","steam_id":76561198355495948,"connected_time":49000000000,"state":"active","ping":59},{"user_id":100,"name":"Hyggin","steam_id":76561198045388653,"connected_time":2674000000000,"state":"active","ping":106},{"user_id":92,"name":"Darling","steam_id":76561198127525888,"connected_time":3014000000000,"state":"active","ping":61},{"user_id":101,"name":"ZachChase","steam_id":76561198086057112,"connected_time":2666000000000,"state":"active","ping":131}]},{"server_id":106,"name":"Uncletopia | Chicago | 2 | All Maps","name_short":"chi-2","host":"chi-1.us.uncletopia.com","port":27025,"enabled":true,"region":"us-central","cc":"us","latitude":41.881832,"longitude":-87.62318,"reserved":0,"last_update":"0001-01-01T00:00:00Z","name_a2s":"Uncletopia | Chicago | 2 | All Maps","protocol":17,"map":"pl_barnblitz","folder":"tf","game":"Team Fortress","app_id":440,"player_count":24,"max_players":24,"Bots":0,"server_type":"Dedicated","server_os":"Linux","password":true,"vac":true,"version":"7961495","steam_id":85568392924469985,"keywords":["nocrits","nodmgspread","payload","uncletopia"],"game_id":440,"stv_port":27026,"stv_name":"Uncletopia | Chicago | 2 | All Maps | STV","players":[{"user_id":81,"name":"provo","steam_id":76561198042843798,"connected_time":93000000000,"state":"active","ping":61},{"user_id":26,"name":"filthy white trash","steam_id":76561198154176367,"connected_time":3175000000000,"state":"active","ping":86},{"user_id":73,"name":"FedSmoker","steam_id":76561198255854081,"connected_time":749000000000,"state":"active","ping":110},{"user_id":57,"name":"wincel hampton","steam_id":76561198083095146,"connected_time":1709000000000,"state":"active","ping":75},{"user_id":10,"name":"artemisjackson2","steam_id":76561199094686268,"connected_time":4337000000000,"state":"active","ping":80},{"user_id":58,"name":"motherfucker 2.0","steam_id":76561198141189209,"connected_time":1709000000000,"state":"active","ping":60},{"user_id":79,"name":"Tlord","steam_id":76561198086967416,"connected_time":210000000000,"state":"active","ping":53},{"user_id":55,"name":"Discourse","steam_id":76561198984286678,"connected_time":1755000000000,"state":"active","ping":56},{"user_id":52,"name":"Mr. Cheesey","steam_id":76561198153462183,"connected_time":1824000000000,"state":"active","ping":59},{"user_id":59,"name":"Skizzo","steam_id":76561198271050573,"connected_time":1649000000000,"state":"active","ping":46},{"user_id":53,"name":"shadow6","steam_id":76561197979807910,"connected_time":1780000000000,"state":"active","ping":101},{"user_id":83,"name":"Leo x.x","steam_id":76561198309760791,"connected_time":19000000000,"state":"active","ping":136},{"user_id":54,"name":"jmsnrfyhug","steam_id":76561198146241989,"connected_time":1761000000000,"state":"active","ping":79},{"user_id":70,"name":"psi","steam_id":76561198061497429,"connected_time":766000000000,"state":"active","ping":58},{"user_id":65,"name":"AMU","steam_id":76561198092346231,"connected_time":1223000000000,"state":"active","ping":66},{"user_id":78,"name":"Smog","steam_id":76561198043705383,"connected_time":387000000000,"state":"active","ping":75},{"user_id":67,"name":"Spiderfight1","steam_id":76561199189991528,"connected_time":1117000000000,"state":"active","ping":112},{"user_id":33,"name":"mrappledumb","steam_id":76561199133590774,"connected_time":3082000000000,"state":"active","ping":64},{"user_id":82,"name":"mike penis","steam_id":76561198159339442,"connected_time":47000000000,"state":"active","ping":71},{"user_id":63,"name":"BenUpde","steam_id":76561198003554034,"connected_time":1330000000000,"state":"active","ping":92},{"user_id":71,"name":"Scuba Steve","steam_id":76561198313018251,"connected_time":764000000000,"state":"active","ping":84},{"user_id":77,"name":"UwU","steam_id":76561198971629959,"connected_time":412000000000,"state":"active","ping":135},{"user_id":72,"name":"club going up","steam_id":76561198141700569,"connected_time":759000000000,"state":"active","ping":71},{"user_id":74,"name":"Exetior","steam_id":76561198978688451,"connected_time":744000000000,"state":"active","ping":69}]},{"server_id":402,"name":"Uncletopia | Chicago | 3 | All Maps","name_short":"chi-3","host":"chi-1.us.uncletopia.com","port":27035,"enabled":true,"region":"us-central","cc":"us","latitude":41.881832,"longitude":-87.62318,"reserved":0,"last_update":"0001-01-01T00:00:00Z","name_a2s":"Uncletopia | Chicago | 3 | All Maps","protocol":17,"map":"koth_viaduct","folder":"tf","game":"Team Fortress","app_id":440,"player_count":0,"max_players":24,"Bots":0,"server_type":"Dedicated","server_os":"Linux","password":true,"vac":true,"version":"7961495","steam_id":85568392924515191,"keywords":["cp","nocrits","nodmgspread","uncletopia"],"game_id":440,"stv_port":27036,"stv_name":"Uncletopia | Chicago | 3 | All Maps | STV","players":null},{"server_id":403,"name":"Uncletopia | Chicago | 4 | All Maps","name_short":"chi-4","host":"chi-1.us.uncletopia.com","port":27045,"enabled":true,"region":"us-central","cc":"us","latitude":41.881832,"longitude":-87.62318,"reserved":0,"last_update":"0001-01-01T00:00:00Z","name_a2s":"Uncletopia | Chicago | 4 | All Maps","protocol":17,"map":"koth_cascade","folder":"tf","game":"Team Fortress","app_id":440,"player_count":0,"max_players":24,"Bots":0,"server_type":"Dedicated","server_os":"Linux","password":true,"vac":true,"version":"7961495","steam_id":85568392924515193,"keywords":["cp","nocrits","nodmgspread","uncletopia"],"game_id":440,"stv_port":27046,"stv_name":"Uncletopia | Chicago | 4 | All Maps | STV","players":null},{"server_id":36,"name":"Uncletopia | Chicago | 5 | All Maps","name_short":"chi-5","host":"chi-2.us.uncletopia.com","port":27015,"enabled":true,"region":"us-central","cc":"us","latitude":41.881832,"longitude":-87.62318,"reserved":0,"last_update":"0001-01-01T00:00:00Z","name_a2s":"Uncletopia | Chicago | 5 | All Maps","protocol":17,"map":"koth_viaduct","folder":"tf","game":"Team Fortress","app_id":440,"player_count":0,"max_players":24,"Bots":0,"server_type":"Dedicated","server_os":"Linux","password":true,"vac":true,"version":"7961495","steam_id":85568392924866362,"keywords":["cp","nocrits","nodmgspread","uncletopia"],"game_id":440,"stv_port":27016,"stv_name":"Uncletopia | Chicago | 5 | All Maps | STV","players":null},{"server_id":37,"name":"Uncletopia | Chicago | 6 | All Maps","name_short":"chi-6","host":"chi-2.us.uncletopia.com","port":27025,"enabled":true,"region":"us-central","cc":"us","latitude":41.881832,"longitude":-87.62318,"reserved":0,"last_update":"0001-01-01T00:00:00Z","name_a2s":"Uncletopia | Chicago | 6 | All Maps","protocol":17,"map":"pl_frontier_final","folder":"tf","game":"Team Fortress","app_id":440,"player_count":0,"max_players":24,"Bots":0,"server_type":"Dedicated","server_os":"Linux","password":true,"vac":true,"version":"7961495","steam_id":85568392924866363,"keywords":["nocrits","nodmgspread","payload","uncletopia"],"game_id":440,"stv_port":27026,"stv_name":"Uncletopia | Chicago | 6 | All Maps | STV","players":null},{"server_id":38,"name":"Uncletopia | Chicago | 7 | Stopwatch","name_short":"chi-7","host":"chi-2.us.uncletopia.com","port":27035,"enabled":true,"region":"us-central","cc":"us","latitude":41.881832,"longitude":-87.62318,"reserved":0,"last_update":"0001-01-01T00:00:00Z","name_a2s":"Uncletopia | Chicago | 7 | Stopwatch","protocol":17,"map":"cp_metalworks","folder":"tf","game":"Team Fortress","app_id":440,"player_count":0,"max_players":24,"Bots":0,"server_type":"Dedicated","server_os":"Linux","password":true,"vac":true,"version":"7961495","steam_id":85568392924866364,"keywords":["cp","nocrits","nodmgspread","uncletopia"],"game_id":440,"stv_port":27036,"stv_name":"Uncletopia | Chicago | 7 | Stopwatch | STV","players":null},{"server_id":39,"name":"Uncletopia | Chicago | 8 | Community","name_short":"chi-8","host":"chi-2.us.uncletopia.com","port":27045,"enabled":true,"region":"us-central","cc":"us","latitude":41.881832,"longitude":-87.62318,"reserved":0,"last_update":"0001-01-01T00:00:00Z","name_a2s":"Uncletopia | Chicago | 8 | Community","protocol":17,"map":"pl_pier","folder":"tf","game":"Team Fortress","app_id":440,"player_count":0,"max_players":24,"Bots":0,"server_type":"Dedicated","server_os":"Linux","password":true,"vac":true,"version":"7961495","steam_id":85568392924866365,"keywords":["nocrits","nodmgspread","payload","uncletopia"],"game_id":440,"stv_port":27046,"stv_name":"Uncletopia | Chicago | 8 | Community | STV","players":null},{"server_id":8,"name":"Uncletopia | Dallas | 1 | All Maps","name_short":"dal-1","host":"dal-1.us.uncletopia.com","port":27015,"enabled":true,"region":"us-central","cc":"us","latitude":32.779167,"longitude":-96.80889,"reserved":0,"last_update":"0001-01-01T00:00:00Z","name_a2s":"Uncletopia | Dallas | 1 | All Maps","protocol":17,"map":"pl_barnblitz","folder":"tf","game":"Team Fortress","app_id":440,"player_count":18,"max_players":24,"Bots":0,"server_type":"Dedicated","server_os":"Linux","password":true,"vac":true,"version":"7961495","steam_id":85568392924469986,"keywords":["nocrits","nodmgspread","payload","uncletopia"],"game_id":440,"stv_port":27016,"stv_name":"Uncletopia | Dallas | 1 | All Maps | STV","players":[{"user_id":4,"name":"Soldier TF2","steam_id":76561198414675183,"connected_time":1330000000000,"state":"active","ping":61},{"user_id":5,"name":"‚ô©Karmism‚ô©","steam_id":76561199453410299,"connected_time":1028000000000,"state":"active","ping":93},{"user_id":6,"name":"pabbott123110","steam_id":76561199231739796,"connected_time":1009000000000,"state":"active","ping":98},{"user_id":7,"name":"Squigly","steam_id":76561198084811625,"connected_time":938000000000,"state":"active","ping":72},{"user_id":8,"name":"gregoryhens","steam_id":76561199434318315,"connected_time":587000000000,"state":"active","ping":197},{"user_id":9,"name":"ISpitOnMyCat","steam_id":76561199215395242,"connected_time":368000000000,"state":"active","ping":69},{"user_id":10,"name":"titan","steam_id":76561198961972464,"connected_time":350000000000,"state":"active","ping":62},{"user_id":11,"name":"Cheesi","steam_id":76561199417190840,"connected_time":350000000000,"state":"active","ping":89},{"user_id":13,"name":"PHISH","steam_id":76561199121918806,"connected_time":208000000000,"state":"active","ping":94},{"user_id":14,"name":"Eggie","steam_id":76561199018655610,"connected_time":141000000000,"state":"active","ping":88},{"user_id":15,"name":"Horizons","steam_id":76561198106417594,"connected_time":134000000000,"state":"active","ping":47},{"user_id":16,"name":"Average","steam_id":76561199247786983,"connected_time":109000000000,"state":"active","ping":109},{"user_id":19,"name":"Oninja94","steam_id":76561199467195274,"connected_time":90000000000,"state":"active","ping":76},{"user_id":20,"name":"Noobynoob15","steam_id":76561199497020916,"connected_time":84000000000,"state":"active","ping":77},{"user_id":21,"name":"A_Toaster","steam_id":76561198946997549,"connected_time":77000000000,"state":"active","ping":75},{"user_id":22,"name":"colorblindwizardlvl5","steam_id":76561199208988804,"connected_time":64000000000,"state":"active","ping":72},{"user_id":23,"name":"hyaz, +rep.","steam_id":76561199100342013,"connected_time":58000000000,"state":"active","ping":75},{"user_id":24,"name":"TheGrassMan (He/Him)","steam_id":76561198118984048,"connected_time":9000000000,"state":"spawning","ping":70}]},{"server_id":108,"name":"Uncletopia | Dallas | 2 | All Maps","name_short":"dal-2","host":"dal-1.us.uncletopia.com","port":27025,"enabled":true,"region":"us-central","cc":"us","latitude":32.779167,"longitude":-96.80889,"reserved":0,"last_update":"0001-01-01T00:00:00Z","name_a2s":"Uncletopia | Dallas | 2 | All Maps","protocol":17,"map":"pl_barnblitz","folder":"tf","game":"Team Fortress","app_id":440,"player_count":0,"max_players":24,"Bots":0,"server_type":"Dedicated","server_os":"Linux","password":true,"vac":true,"version":"7961495","steam_id":85568392924469988,"keywords":["nocrits","nodmgspread","payload","uncletopia"],"game_id":440,"stv_port":27026,"stv_name":"Uncletopia | Dallas | 2 | All Maps | STV","players":null},{"server_id":404,"name":"Uncletopia | Dallas | 3 | All Maps","name_short":"dal-3","host":"dal-1.us.uncletopia.com","port":27035,"enabled":true,"region":"us-central","cc":"us","latitude":32.779167,"longitude":-96.80889,"reserved":0,"last_update":"0001-01-01T00:00:00Z","name_a2s":"Uncletopia | Dallas | 3 | All Maps","protocol":17,"map":"koth_lakeside_final","folder":"tf","game":"Team Fortress","app_id":440,"player_count":0,"max_players":24,"Bots":0,"server_type":"Dedicated","server_os":"Linux","password":true,"vac":true,"version":"7961495","steam_id":85568392924515219,"keywords":["cp","nocrits","nodmgspread","uncletopia"],"game_id":440,"stv_port":27036,"stv_name":"Uncletopia | Dallas | 3 | All Maps | STV","players":null},{"server_id":405,"name":"Uncletopia | Dallas | 4 | Community","name_short":"dal-4","host":"dal-1.us.uncletopia.com","port":27045,"enabled":true,"region":"us-central","cc":"us","latitude":32.779167,"longitude":-96.80889,"reserved":0,"last_update":"0001-01-01T00:00:00Z","name_a2s":"Uncletopia | Dallas | 4 | Community","protocol":17,"map":"pl_pier","folder":"tf","game":"Team Fortress","app_id":440,"player_count":0,"max_players":24,"Bots":0,"server_type":"Dedicated","server_os":"Linux","password":true,"vac":true,"version":"7961495","steam_id":85568392924515220,"keywords":["nocrits","nodmgspread","payload","uncletopia"],"game_id":440,"stv_port":27046,"stv_name":"Uncletopia | Dallas | 4 | Community | STV","players":null},{"server_id":5,"name":"Uncletopia | Frankfurt | 1 | All Maps","name_short":"frk-1","host":"frk-1.de.uncletopia.com","port":27015,"enabled":true,"region":"eu","cc":"de","latitude":50.110924,"longitude":8.682127,"reserved":0,"last_update":"0001-01-01T00:00:00Z","name_a2s":"Uncletopia | Frankfurt | 1 | All Maps","protocol":17,"map":"cp_badlands","folder":"tf","game":"Team Fortress","app_id":440,"player_count":2,"max_players":24,"Bots":0,"server_type":"Dedicated","server_os":"Linux","password":true,"vac":true,"version":"7961495","steam_id":85568392924469989,"keywords":["cp","nocrits","nodmgspread","uncletopia"],"game_id":440,"stv_port":27016,"stv_name":"Uncletopia | Frankfurt | 1 | All Maps | STV","players":[{"user_id":258,"name":"I-I","steam_id":76561198267969436,"connected_time":2389000000000,"state":"active","ping":60},{"user_id":270,"name":"Jonkheervanflep","steam_id":76561198006853101,"connected_time":699000000000,"state":"active","ping":70}]},{"server_id":110,"name":"Uncletopia | Frankfurt | 2 | All Maps","name_short":"frk-2","host":"frk-1.de.uncletopia.com","port":27025,"enabled":true,"region":"eu","cc":"de","latitude":50.110924,"longitude":8.682127,"reserved":0,"last_update":"0001-01-01T00:00:00Z","name_a2s":"Uncletopia | Frankfurt | 2 | All Maps","protocol":17,"map":"cp_sunshine","folder":"tf","game":"Team Fortress","app_id":440,"player_count":24,"max_players":24,"Bots":0,"server_type":"Dedicated","server_os":"Linux","password":true,"vac":true,"version":"7961495","steam_id":85568392924469990,"keywords":["cp","nocrits","nodmgspread","uncletopia"],"game_id":440,"stv_port":27026,"stv_name":"Uncletopia | Frankfurt | 2 | All Maps | STV","players":[{"user_id":175,"name":"^1MARAMA PALEX","steam_id":76561198311372563,"connected_time":2288000000000,"state":"active","ping":69},{"user_id":227,"name":"goofster","steam_id":76561199052275857,"connected_time":711000000000,"state":"active","ping":104},{"user_id":164,"name":"the grongle","steam_id":76561198989398023,"connected_time":3322000000000,"state":"active","ping":105},{"user_id":236,"name":"Obama Healthcare","steam_id":76561198364121077,"connected_time":78000000000,"state":"active","ping":86},{"user_id":196,"name":"Zazou","steam_id":76561198028076362,"connected_time":1778000000000,"state":"active","ping":54},{"user_id":45,"name":"fish","steam_id":76561198092096689,"connected_time":11807000000000,"state":"active","ping":47},{"user_id":229,"name":"Lag","steam_id":76561198159360376,"connected_time":587000000000,"state":"active","ping":60},{"user_id":177,"name":"elijah","steam_id":76561198093936708,"connected_time":2241000000000,"state":"active","ping":64},{"user_id":222,"name":"Xiqui","steam_id":76561198818386611,"connected_time":969000000000,"state":"active","ping":77},{"user_id":219,"name":"Dodo","steam_id":76561198001877653,"connected_time":1175000000000,"state":"active","ping":55},{"user_id":198,"name":"-IVG- | Fortress Faceoffs","steam_id":76561199090537218,"connected_time":1657000000000,"state":"active","ping":78},{"user_id":179,"name":"rob","steam_id":76561198122211848,"connected_time":2206000000000,"state":"active","ping":97},{"user_id":232,"name":"Zaka","steam_id":76561198148434957,"connected_time":293000000000,"state":"active","ping":84},{"user_id":237,"name":"Prim","steam_id":76561198043191342,"connected_time":40000000000,"state":"active","ping":61},{"user_id":213,"name":"skeleton_archer_1","steam_id":76561198407636430,"connected_time":1226000000000,"state":"active","ping":105},{"user_id":233,"name":"johnkleiman","steam_id":76561198375607729,"connected_time":196000000000,"state":"active","ping":57},{"user_id":231,"name":"Tony","steam_id":76561198128993838,"connected_time":380000000000,"state":"active","ping":74},{"user_id":181,"name":"nieco","steam_id":76561198046217866,"connected_time":2191000000000,"state":"active","ping":45},{"user_id":235,"name":"Vlad","steam_id":76561198048605526,"connected_time":130000000000,"state":"active","ping":93},{"user_id":216,"name":"MastahWARIO","steam_id":76561198123024093,"connected_time":1213000000000,"state":"active","ping":56},{"user_id":189,"name":"ChicoColo [ A1r ]","steam_id":76561198045977760,"connected_time":1998000000000,"state":"active","ping":46},{"user_id":204,"name":"Kosu","steam_id":76561198018280306,"connected_time":1498000000000,"state":"active","ping":75},{"user_id":223,"name":"Frylock","steam_id":76561198050292560,"connected_time":963000000000,"state":"active","ping":45},{"user_id":217,"name":"‚òπ","steam_id":76561198804763186,"connected_time":1196000000000,"state":"active","ping":147}]},{"server_id":308,"name":"Uncletopia | Frankfurt | 3 | All Maps","name_short":"frk-3","host":"frk-1.de.uncletopia.com","port":27035,"enabled":true,"region":"eu","cc":"de","latitude":50.110924,"longitude":8.682127,"reserved":0,"last_update":"0001-01-01T00:00:00Z","name_a2s":"Uncletopia | Frankfurt | 3 | All Maps","protocol":17,"map":"pl_frontier_final","folder":"tf","game":"Team Fortress","app_id":440,"player_count":24,"max_players":24,"Bots":0,"server_type":"Dedicated","server_os":"Linux","password":true,"vac":true,"version":"7961495","steam_id":85568392924504274,"keywords":["nocrits","nodmgspread","payload","uncletopia"],"game_id":440,"stv_port":27036,"stv_name":"Uncletopia | Frankfurt | 3 | All Maps | STV","players":[{"user_id":241,"name":"The real Baguette","steam_id":76561198873855165,"connected_time":5325000000000,"state":"active","ping":77},{"user_id":316,"name":"Groucho","steam_id":76561198042888918,"connected_time":533000000000,"state":"active","ping":53},{"user_id":317,"name":"Daga","steam_id":76561198055450219,"connected_time":525000000000,"state":"active","ping":53},{"user_id":262,"name":"Niccole","steam_id":76561198126998695,"connected_time":3700000000000,"state":"active","ping":167},{"user_id":318,"name":"I sell exotic parrots","steam_id":76561199192434258,"connected_time":505000000000,"state":"active","ping":79},{"user_id":270,"name":"Hexagon","steam_id":76561198151205758,"connected_time":3063000000000,"state":"active","ping":51},{"user_id":313,"name":"Dolcelatte","steam_id":76561198038501770,"connected_time":594000000000,"state":"active","ping":60},{"user_id":296,"name":"jello_hey","steam_id":76561199176327650,"connected_time":1750000000000,"state":"active","ping":145},{"user_id":320,"name":"capetanunito","steam_id":76561199364524852,"connected_time":362000000000,"state":"active","ping":129},{"user_id":321,"name":"Mormor's boller","steam_id":76561198173170733,"connected_time":360000000000,"state":"active","ping":61},{"user_id":253,"name":"JamesPepega","steam_id":76561198019156154,"connected_time":4307000000000,"state":"active","ping":73},{"user_id":306,"name":"lulu","steam_id":76561199147764133,"connected_time":1426000000000,"state":"active","ping":61},{"user_id":311,"name":"Mr. Mundy","steam_id":76561198132008918,"connected_time":681000000000,"state":"active","ping":75},{"user_id":319,"name":"jones","steam_id":76561198044434971,"connected_time":443000000000,"state":"active","ping":60},{"user_id":301,"name":"Largo","steam_id":76561198844368927,"connected_time":1668000000000,"state":"active","ping":72},{"user_id":302,"name":"Fader Peder","steam_id":76561198063375121,"connected_time":1666000000000,"state":"active","ping":78},{"user_id":269,"name":"Germanium_Ge","steam_id":76561198130561775,"connected_time":3499000000000,"state":"active","ping":56},{"user_id":260,"name":"MIGHTY PISS","steam_id":76561198226378616,"connected_time":3951000000000,"state":"active","ping":80},{"user_id":315,"name":"JepCabestany","steam_id":76561198123812578,"connected_time":572000000000,"state":"active","ping":94},{"user_id":168,"name":"john fortress","steam_id":76561198013237629,"connected_time":9662000000000,"state":"active","ping":103},{"user_id":322,"name":"lukagotovac12","steam_id":76561199126479138,"connected_time":358000000000,"state":"active","ping":102},{"user_id":282,"name":"Gintonas","steam_id":76561198043837552,"connected_time":2491000000000,"state":"active","ping":78},{"user_id":224,"name":"Nick","steam_id":76561198036109469,"connected_time":7017000000000,"state":"active","ping":90},{"user_id":309,"name":"Dictatorial Karelian","steam_id":76561198196736457,"connected_time":929000000000,"state":"active","ping":76}]},{"server_id":309,"name":"Uncletopia | Frankfurt | 4 | All Maps","name_short":"frk-4","host":"frk-1.de.uncletopia.com","port":27045,"enabled":true,"region":"eu","cc":"de","latitude":50.110924,"longitude":8.682127,"reserved":0,"last_update":"0001-01-01T00:00:00Z","name_a2s":"Uncletopia | Frankfurt | 4 | All Maps","protocol":17,"map":"pl_borneo","folder":"tf","game":"Team Fortress","app_id":440,"player_count":24,"max_players":24,"Bots":0,"server_type":"Dedicated","server_os":"Linux","password":true,"vac":true,"version":"7961495","steam_id":85568392924504275,"keywords":["nocrits","nodmgspread","payload","uncletopia"],"game_id":440,"stv_port":27046,"stv_name":"Uncletopia | Frankfurt | 4 | All Maps | STV","players":[{"user_id":346,"name":"Sham!","steam_id":76561198050434275,"connected_time":5020000000000,"state":"active","ping":49},{"user_id":334,"name":"Marukuso","steam_id":76561198154229845,"connected_time":5244000000000,"state":"active","ping":67},{"user_id":392,"name":"Hann√º","steam_id":76561197969886128,"connected_time":1505000000000,"state":"active","ping":66},{"user_id":397,"name":"raebbitos","steam_id":76561198167580006,"connected_time":946000000000,"state":"active","ping":54},{"user_id":367,"name":"John Noob","steam_id":76561197999170026,"connected_time":3569000000000,"state":"active","ping":89},{"user_id":368,"name":"benjels big day","steam_id":76561198025970709,"connected_time":3512000000000,"state":"active","ping":51},{"user_id":300,"name":"1coquo","steam_id":76561199107802470,"connected_time":7575000000000,"state":"active","ping":71},{"user_id":369,"name":"Mr.Okman","steam_id":76561198119636866,"connected_time":3419000000000,"state":"active","ping":83},{"user_id":370,"name":"Demicore","steam_id":76561197976922136,"connected_time":3338000000000,"state":"active","ping":97},{"user_id":381,"name":"Morale -10","steam_id":76561198046932043,"connected_time":2768000000000,"state":"active","ping":68},{"user_id":379,"name":"sin","steam_id":76561198193416785,"connected_time":2871000000000,"state":"active","ping":58},{"user_id":389,"name":"Meanderthal","steam_id":76561197962377653,"connected_time":2348000000000,"state":"active","ping":72},{"user_id":372,"name":"(MAC) [BN] Crazyking","steam_id":76561198001668616,"connected_time":3335000000000,"state":"active","ping":71},{"user_id":390,"name":"night.s","steam_id":76561198326287823,"connected_time":2249000000000,"state":"active","ping":72},{"user_id":380,"name":"[HOL] Solringen","steam_id":76561198003584681,"connected_time":2842000000000,"state":"active","ping":71},{"user_id":353,"name":"RocketBoy08","steam_id":76561198833978944,"connected_time":4923000000000,"state":"active","ping":88},{"user_id":270,"name":"[UM-monster","steam_id":76561198085098243,"connected_time":9728000000000,"state":"active","ping":107},{"user_id":394,"name":"Miito","steam_id":76561198188000642,"connected_time":1100000000000,"state":"active","ping":66},{"user_id":388,"name":"mr.resetti","steam_id":76561198974520642,"connected_time":2472000000000,"state":"active","ping":67},{"user_id":398,"name":"agent_richi","steam_id":76561199218542987,"connected_time":812000000000,"state":"active","ping":54},{"user_id":395,"name":"BabyYodaIsMySoda","steam_id":76561198321846861,"connected_time":1077000000000,"state":"active","ping":84},{"user_id":396,"name":"Im trash, sorry","steam_id":76561198115505047,"connected_time":1039000000000,"state":"active","ping":54},{"user_id":399,"name":"WonderTotoro","steam_id":76561199217889324,"connected_time":306000000000,"state":"active","ping":74},{"user_id":393,"name":"Towercat","steam_id":76561198013141793,"connected_time":1116000000000,"state":"active","ping":60}]},{"server_id":310,"name":"Uncletopia | Frankfurt | 5 | All Maps","name_short":"frk-5","host":"frk-1.de.uncletopia.com","port":27055,"enabled":true,"region":"eu","cc":"de","latitude":50.110924,"longitude":8.682127,"reserved":0,"last_update":"0001-01-01T00:00:00Z","name_a2s":"Uncletopia | Frankfurt | 5 | All Maps","protocol":17,"map":"pl_snowycoast","folder":"tf","game":"Team Fortress","app_id":440,"player_count":23,"max_players":24,"Bots":0,"server_type":"Dedicated","server_os":"Linux","password":true,"vac":true,"version":"7961495","steam_id":85568392924504277,"keywords":["nocrits","nodmgspread","payload","uncletopia"],"game_id":440,"stv_port":27056,"stv_name":"Uncletopia | Frankfurt | 5 | All Maps | STV","players":[{"user_id":247,"name":"Gman","steam_id":76561198357543942,"connected_time":484000000000,"state":"active","ping":88},{"user_id":249,"name":"Roborobl","steam_id":76561198257426035,"connected_time":436000000000,"state":"active","ping":67},{"user_id":243,"name":"sihvoperhe","steam_id":76561198236112926,"connected_time":778000000000,"state":"active","ping":98},{"user_id":213,"name":"Flint","steam_id":76561197995920776,"connected_time":2164000000000,"state":"active","ping":41},{"user_id":178,"name":"catboy extraordinaire","steam_id":76561197983889333,"connected_time":4954000000000,"state":"active","ping":63},{"user_id":224,"name":"Soldier boy","steam_id":76561199048950640,"connected_time":1747000000000,"state":"active","ping":102},{"user_id":244,"name":"JeffsJeff","steam_id":76561198966358094,"connected_time":678000000000,"state":"active","ping":64},{"user_id":245,"name":"Qwertuss","steam_id":76561198026305366,"connected_time":582000000000,"state":"active","ping":60},{"user_id":248,"name":"cat aesthetics","steam_id":76561199062437546,"connected_time":468000000000,"state":"active","ping":55},{"user_id":215,"name":"KipxSateee","steam_id":76561198149158137,"connected_time":2117000000000,"state":"active","ping":72},{"user_id":250,"name":"xam.‚Çâ‚Åπ‚Çâ","steam_id":76561198375761256,"connected_time":383000000000,"state":"active","ping":83},{"user_id":226,"name":"Yves","steam_id":76561198359804640,"connected_time":1621000000000,"state":"active","ping":43},{"user_id":231,"name":"apem","steam_id":76561198155568598,"connected_time":1439000000000,"state":"active","ping":68},{"user_id":251,"name":"Torrii","steam_id":76561198307916635,"connected_time":330000000000,"state":"active","ping":89},{"user_id":228,"name":"StoneLord","steam_id":76561198327834107,"connected_time":1580000000000,"state":"active","ping":63},{"user_id":107,"name":"Cannon Fart","steam_id":76561198042593027,"connected_time":9451000000000,"state":"active","ping":85},{"user_id":234,"name":"Abska","steam_id":76561198118323803,"connected_time":1400000000000,"state":"active","ping":274},{"user_id":235,"name":"gr3821","steam_id":76561198091531010,"connected_time":1400000000000,"state":"active","ping":62},{"user_id":236,"name":"Hypermumm","steam_id":76561198061151330,"connected_time":1386000000000,"state":"active","ping":62},{"user_id":252,"name":"hipster_doofus","steam_id":76561197970902697,"connected_time":259000000000,"state":"active","ping":71},{"user_id":201,"name":"A moon goose","steam_id":76561198064734905,"connected_time":3295000000000,"state":"active","ping":90},{"user_id":253,"name":"Saint","steam_id":76561198003296382,"connected_time":206000000000,"state":"active","ping":61},{"user_id":254,"name":"Jetty","steam_id":76561198004885583,"connected_time":205000000000,"state":"active","ping":168}]},{"server_id":311,"name":"Uncletopia | Frankfurt | 6 | All Maps","name_short":"frk-6","host":"frk-1.de.uncletopia.com","port":27065,"enabled":true,"region":"eu","cc":"de","latitude":50.110924,"longitude":8.682127,"reserved":0,"last_update":"0001-01-01T00:00:00Z","name_a2s":"Uncletopia | Frankfurt | 6 | All Maps","protocol":17,"map":"pl_pier","folder":"tf","game":"Team Fortress","app_id":440,"player_count":24,"max_players":24,"Bots":0,"server_type":"Dedicated","server_os":"Linux","password":true,"vac":true,"version":"7961495","steam_id":85568392924504278,"keywords":["nocrits","nodmgspread","payload","uncletopia"],"game_id":440,"stv_port":27066,"stv_name":"Uncletopia | Frankfurt | 6 | All Maps | STV","players":[{"user_id":37,"name":"Jethro Tull","steam_id":76561199034041634,"connected_time":4377000000000,"state":"active","ping":70},{"user_id":28,"name":"The","steam_id":76561199378865926,"connected_time":4766000000000,"state":"active","ping":118},{"user_id":20,"name":"QuantumFox","steam_id":76561198125912648,"connected_time":5467000000000,"state":"active","ping":59},{"user_id":66,"name":"cirrem","steam_id":76561198265192382,"connected_time":2882000000000,"state":"active","ping":61},{"user_id":101,"name":"meriones","steam_id":76561198034234373,"connected_time":692000000000,"state":"active","ping":56},{"user_id":82,"name":"froglids","steam_id":76561198045466919,"connected_time":2185000000000,"state":"active","ping":61},{"user_id":90,"name":"monky ‚ôø","steam_id":76561198064440542,"connected_time":1590000000000,"state":"active","ping":53},{"user_id":100,"name":"Old Beavis","steam_id":76561198065951617,"connected_time":717000000000,"state":"active","ping":60},{"user_id":103,"name":"putrefied meat","steam_id":76561198280507478,"connected_time":681000000000,"state":"active","ping":54},{"user_id":81,"name":"cister0","steam_id":76561198130195469,"connected_time":2233000000000,"state":"active","ping":70},{"user_id":104,"name":"confusion","steam_id":76561199199499453,"connected_time":674000000000,"state":"active","ping":66},{"user_id":105,"name":"katten","steam_id":76561198163615254,"connected_time":674000000000,"state":"active","ping":59},{"user_id":109,"name":"dumb whore","steam_id":76561198311044984,"connected_time":472000000000,"state":"active","ping":64},{"user_id":114,"name":"ScampSixteen","steam_id":76561198021771000,"connected_time":74000000000,"state":"active","ping":68},{"user_id":94,"name":"Ziemniaczki","steam_id":76561198061866742,"connected_time":1007000000000,"state":"active","ping":59},{"user_id":88,"name":"mountain goat","steam_id":76561198326628884,"connected_time":1753000000000,"state":"active","ping":140},{"user_id":89,"name":"dzgnated","steam_id":76561198026927089,"connected_time":1651000000000,"state":"active","ping":106},{"user_id":106,"name":"Ghost11","steam_id":76561198068892992,"connected_time":650000000000,"state":"active","ping":100},{"user_id":58,"name":"Qwerty","steam_id":76561198023525894,"connected_time":3352000000000,"state":"active","ping":81},{"user_id":112,"name":"Mastenbier","steam_id":76561199067658590,"connected_time":147000000000,"state":"active","ping":122},{"user_id":85,"name":"foo","steam_id":76561198084451074,"connected_time":2126000000000,"state":"active","ping":78},{"user_id":92,"name":"sork","steam_id":76561198082446459,"connected_time":1437000000000,"state":"active","ping":66},{"user_id":107,"name":"tadisab","steam_id":76561199484049632,"connected_time":638000000000,"state":"active","ping":164},{"user_id":108,"name":"vomitlust","steam_id":76561197994492154,"connected_time":638000000000,"state":"active","ping":59}]},{"server_id":23,"name":"Uncletopia | Frankfurt | 7 | Stopwatch","name_short":"frk-7","host":"frk-1.de.uncletopia.com","port":27075,"enabled":true,"region":"eu","cc":"de","latitude":50.110924,"longitude":8.682127,"reserved":0,"last_update":"0001-01-01T00:00:00Z","name_a2s":"Uncletopia | Frankfurt | 7 | Stopwatch","protocol":17,"map":"workshop/koth_ramjam_rc1.ugc459778887","folder":"tf","game":"Team Fortress","app_id":440,"player_count":0,"max_players":24,"Bots":0,"server_type":"Dedicated","server_os":"Linux","password":true,"vac":true,"version":"7961495","steam_id":85568392924742827,"keywords":["cp","nocrits","nodmgspread","uncletopia"],"game_id":440,"stv_port":27076,"stv_name":"Uncletopia | Frankfurt | 7 | Stopwatch | STV","players":null},{"server_id":24,"name":"Uncletopia | Frankfurt | 8 | Community","name_short":"frk-8","host":"frk-1.de.uncletopia.com","port":27085,"enabled":true,"region":"eu","cc":"de","latitude":50.110924,"longitude":8.682127,"reserved":0,"last_update":"0001-01-01T00:00:00Z","name_a2s":"Uncletopia | Frankfurt | 8 | Community","protocol":17,"map":"workshop/koth_synthetic_rc6a.ugc1549817316","folder":"tf","game":"Team Fortress","app_id":440,"player_count":0,"max_players":24,"Bots":0,"server_type":"Dedicated","server_os":"Linux","password":true,"vac":true,"version":"7961495","steam_id":85568392924742828,"keywords":["cp","nocrits","nodmgspread","uncletopia"],"game_id":440,"stv_port":27086,"stv_name":"Uncletopia | Frankfurt | 8 | Community | STV","players":null},{"server_id":202,"name":"Uncletopia | Hong Kong | 1 | All Maps","name_short":"hgk-1","host":"hgk-1.hk.uncletopia.com","port":27015,"enabled":true,"region":"asia","cc":"hk","latitude":22.302711,"longitude":114.177216,"reserved":0,"last_update":"0001-01-01T00:00:00Z","name_a2s":"Uncletopia | Hong Kong | 1 | All Maps","protocol":17,"map":"pl_barnblitz","folder":"tf","game":"Team Fortress","app_id":440,"player_count":24,"max_players":24,"Bots":0,"server_type":"Dedicated","server_os":"Linux","password":true,"vac":true,"version":"7961495","steam_id":85568392924494504,"keywords":["nocrits","nodmgspread","payload","uncletopia"],"game_id":440,"stv_port":27016,"stv_name":"Uncletopia | Hong Kong | 1 | All Maps | STV","players":[{"user_id":450,"name":"Mystery cheese üßÄ","steam_id":76561198304002409,"connected_time":2852000000000,"state":"active","ping":79},{"user_id":431,"name":"Othopeus","steam_id":76561198283534382,"connected_time":5073000000000,"state":"active","ping":68},{"user_id":422,"name":"Lu","steam_id":76561198320532821,"connected_time":5871000000000,"state":"active","ping":79},{"user_id":455,"name":"Delet this","steam_id":76561198014789213,"connected_time":1947000000000,"state":"active","ping":130},{"user_id":462,"name":"Waltuh (Real)","steam_id":76561199257300024,"connected_time":192000000000,"state":"active","ping":80},{"user_id":461,"name":"YoyoKnight","steam_id":76561198989168133,"connected_time":1303000000000,"state":"active","ping":88},{"user_id":398,"name":"Pillboi","steam_id":76561198011172886,"connected_time":6690000000000,"state":"active","ping":40},{"user_id":447,"name":"TomCat","steam_id":76561198133744053,"connected_time":3019000000000,"state":"active","ping":118},{"user_id":464,"name":"Johnmatib","steam_id":76561198925748501,"connected_time":187000000000,"state":"active","ping":77},{"user_id":457,"name":"Ivy","steam_id":76561198400698408,"connected_time":1912000000000,"state":"active","ping":95},{"user_id":466,"name":"doom","steam_id":76561199231146887,"connected_time":15000000000,"state":"active","ping":83},{"user_id":451,"name":"bocchi the oppai","steam_id":76561198008307645,"connected_time":2788000000000,"state":"active","ping":121},{"user_id":433,"name":"Lelouch","steam_id":76561198828840546,"connected_time":5060000000000,"state":"active","ping":83},{"user_id":465,"name":"Fakyme","steam_id":76561199222644971,"connected_time":147000000000,"state":"active","ping":67},{"user_id":463,"name":"3rwynM","steam_id":76561198288311270,"connected_time":192000000000,"state":"active","ping":102},{"user_id":438,"name":"vintage","steam_id":76561198230213828,"connected_time":3858000000000,"state":"active","ping":62},{"user_id":446,"name":"Puddin","steam_id":76561198140052918,"connected_time":3040000000000,"state":"active","ping":97},{"user_id":453,"name":"TomProPlayer","steam_id":76561199223292521,"connected_time":2533000000000,"state":"active","ping":74},{"user_id":411,"name":"beet juice","steam_id":76561198055553140,"connected_time":6144000000000,"state":"active","ping":79},{"user_id":412,"name":"piston","steam_id":76561198992723983,"connected_time":6141000000000,"state":"active","ping":95},{"user_id":430,"name":"j_rex","steam_id":76561198132473926,"connected_time":5098000000000,"state":"active","ping":58},{"user_id":435,"name":"Veroser [€©]","steam_id":76561198032949819,"connected_time":4991000000000,"state":"active","ping":77},{"user_id":449,"name":"noob pyro of all time","steam_id":76561198074339034,"connected_time":2904000000000,"state":"active","ping":80},{"user_id":443,"name":"I'm going to eat your ass","steam_id":76561198313605970,"connected_time":3497000000000,"state":"active","ping":144}]},{"server_id":1,"name":"Uncletopia | Los Angeles | 1 | All Maps","name_short":"lax-1","host":"lax-1.us.uncletopia.com","port":27015,"enabled":true,"region":"us-west","cc":"us","latitude":33.94279,"longitude":-118.41004,"reserved":0,"last_update":"0001-01-01T00:00:00Z","name_a2s":"Uncletopia | Los Angeles | 1 | All Maps","protocol":17,"map":"pl_snowycoast","folder":"tf","game":"Team Fortress","app_id":440,"player_count":0,"max_players":24,"Bots":0,"server_type":"Dedicated","server_os":"Linux","password":true,"vac":true,"version":"7961495","steam_id":85568392924469991,"keywords":["nocrits","nodmgspread","payload","uncletopia"],"game_id":440,"stv_port":27016,"stv_name":"Uncletopia | Los Angeles | 1 | All Maps | STV","players":null},{"server_id":112,"name":"Uncletopia | Los Angeles | 2 | All Maps","name_short":"lax-2","host":"lax-1.us.uncletopia.com","port":27025,"enabled":true,"region":"us-west","cc":"us","latitude":33.94279,"longitude":-118.41004,"reserved":0,"last_update":"0001-01-01T00:00:00Z","name_a2s":"Uncletopia | Los Angeles | 2 | All Maps","protocol":17,"map":"koth_cascade","folder":"tf","game":"Team Fortress","app_id":440,"player_count":1,"max_players":24,"Bots":0,"server_type":"Dedicated","server_os":"Linux","password":true,"vac":true,"version":"7961495","steam_id":85568392924469992,"keywords":["cp","nocrits","nodmgspread","uncletopia"],"game_id":440,"stv_port":27026,"stv_name":"Uncletopia | Los Angeles | 2 | All Maps | STV","players":[{"user_id":3,"name":"Pybrowm1","steam_id":76561199500706672,"connected_time":190000000000,"state":"active","ping":54}]},{"server_id":324,"name":"Uncletopia | Los Angeles | 3 | All Maps","name_short":"lax-3","host":"lax-1.us.uncletopia.com","port":27035,"enabled":true,"region":"us-west","cc":"us","latitude":33.94279,"longitude":-118.41004,"reserved":0,"last_update":"0001-01-01T00:00:00Z","name_a2s":"Uncletopia | Los Angeles | 3 | All Maps","protocol":17,"map":"pl_frontier_final","folder":"tf","game":"Team Fortress","app_id":440,"player_count":0,"max_players":24,"Bots":0,"server_type":"Dedicated","server_os":"Linux","password":true,"vac":true,"version":"7961495","steam_id":85568392924510198,"keywords":["nocrits","nodmgspread","payload","uncletopia"],"game_id":440,"stv_port":27036,"stv_name":"Uncletopia | Los Angeles | 3 | All Maps | STV","players":null},{"server_id":25,"name":"Uncletopia | Los Angeles | 4 | Stopwatch","name_short":"lax-4","host":"lax-1.us.uncletopia.com","port":27045,"enabled":true,"region":"us-west","cc":"us","latitude":33.94279,"longitude":-118.41004,"reserved":0,"last_update":"0001-01-01T00:00:00Z","name_a2s":"Uncletopia | Los Angeles | 4 | Stopwatch","protocol":17,"map":"pl_barnblitz","folder":"tf","game":"Team Fortress","app_id":440,"player_count":0,"max_players":24,"Bots":0,"server_type":"Dedicated","server_os":"Linux","password":true,"vac":true,"version":"7961495","steam_id":85568392924510199,"keywords":["nocrits","nodmgspread","payload","uncletopia"],"game_id":440,"stv_port":27046,"stv_name":"Uncletopia | Los Angeles | 4 | Stopwatch | STV","players":null},{"server_id":11,"name":"Uncletopia | London | 1 | All Maps","name_short":"lon-1","host":"lon-1.uk.uncletopia.com","port":27015,"enabled":true,"region":"eu","cc":"gb","latitude":51.509865,"longitude":-0.118092,"reserved":0,"last_update":"0001-01-01T00:00:00Z","name_a2s":"Uncletopia | London | 1 | All Maps","protocol":17,"map":"pl_upward","folder":"tf","game":"Team Fortress","app_id":440,"player_count":24,"max_players":24,"Bots":0,"server_type":"Dedicated","server_os":"Linux","password":true,"vac":true,"version":"7961495","steam_id":85568392924367362,"keywords":["nocrits","nodmgspread","payload","uncletopia"],"game_id":440,"stv_port":27016,"stv_name":"Uncletopia | London | 1 | All Maps | STV","players":[{"user_id":385,"name":"Trans Femtress 2","steam_id":76561198014056212,"connected_time":1973000000000,"state":"active","ping":73},{"user_id":348,"name":"neJ","steam_id":76561198003397488,"connected_time":5186000000000,"state":"active","ping":76},{"user_id":396,"name":"kilo","steam_id":76561198015641339,"connected_time":378000000000,"state":"active","ping":77},{"user_id":377,"name":"ein","steam_id":76561198152162834,"connected_time":2783000000000,"state":"active","ping":98},{"user_id":398,"name":"ScottMachine","steam_id":76561198813531432,"connected_time":334000000000,"state":"active","ping":49},{"user_id":381,"name":"Mister","steam_id":76561199049647854,"connected_time":2378000000000,"state":"active","ping":45},{"user_id":394,"name":"Richard nixon roleplayer","steam_id":76561198236015392,"connected_time":504000000000,"state":"active","ping":119},{"user_id":378,"name":"ROX","steam_id":76561198272289320,"connected_time":2624000000000,"state":"active","ping":65},{"user_id":397,"name":"willo","steam_id":76561198034442999,"connected_time":373000000000,"state":"active","ping":56},{"user_id":354,"name":"Bai lan do","steam_id":76561198176442942,"connected_time":5042000000000,"state":"active","ping":82},{"user_id":356,"name":"Dmann","steam_id":76561198097958692,"connected_time":4943000000000,"state":"active","ping":100},{"user_id":399,"name":"Ixsus\u003c3","steam_id":76561198094756869,"connected_time":297000000000,"state":"active","ping":61},{"user_id":400,"name":"Not Steven","steam_id":76561198051881261,"connected_time":246000000000,"state":"active","ping":36},{"user_id":390,"name":"paypig","steam_id":76561198035137115,"connected_time":853000000000,"state":"active","ping":45},{"user_id":360,"name":"Wonton","steam_id":76561198026843002,"connected_time":4564000000000,"state":"active","ping":68},{"user_id":338,"name":"Bill Clinton","steam_id":76561198060011032,"connected_time":6142000000000,"state":"active","ping":70},{"user_id":395,"name":"epic gamer moment","steam_id":76561198299515070,"connected_time":421000000000,"state":"active","ping":80},{"user_id":380,"name":"Excessive Clownery","steam_id":76561198130404188,"connected_time":2395000000000,"state":"active","ping":57},{"user_id":401,"name":"MaBoi000","steam_id":76561198379901519,"connected_time":236000000000,"state":"active","ping":84},{"user_id":382,"name":"Scout","steam_id":76561198992898803,"connected_time":2191000000000,"state":"active","ping":55},{"user_id":402,"name":"Nescio","steam_id":76561198119526760,"connected_time":118000000000,"state":"active","ping":144},{"user_id":383,"name":"LeenBeen","steam_id":76561199251065660,"connected_time":2134000000000,"state":"active","ping":126},{"user_id":391,"name":"gagalak","steam_id":76561198089979108,"connected_time":849000000000,"state":"active","ping":104},{"user_id":389,"name":"forscinpyro","steam_id":76561198853262176,"connected_time":1310000000000,"state":"active","ping":54}]},{"server_id":114,"name":"Uncletopia | London | 2 | All Maps","name_short":"lon-2","host":"lon-1.uk.uncletopia.com","port":27025,"enabled":true,"region":"eu","cc":"gb","latitude":51.509865,"longitude":-0.118092,"reserved":0,"last_update":"0001-01-01T00:00:00Z","name_a2s":"Uncletopia | London | 2 | All Maps","protocol":17,"map":"cp_snakewater_final1","folder":"tf","game":"Team Fortress","app_id":440,"player_count":24,"max_players":24,"Bots":0,"server_type":"Dedicated","server_os":"Linux","password":true,"vac":true,"version":"7961495","steam_id":85568392924470941,"keywords":["cp","nocrits","nodmgspread","uncletopia"],"game_id":440,"stv_port":27026,"stv_name":"Uncletopia | London | 2 | All Maps | STV","players":[{"user_id":146,"name":"Bump the Younger","steam_id":76561198036900460,"connected_time":2206000000000,"state":"active","ping":59},{"user_id":126,"name":"Grimm","steam_id":76561198044684227,"connected_time":5376000000000,"state":"active","ping":57},{"user_id":179,"name":"Lux","steam_id":76561198060417740,"connected_time":96000000000,"state":"active","ping":45},{"user_id":172,"name":"Crazyyk","steam_id":76561198882313836,"connected_time":897000000000,"state":"active","ping":41},{"user_id":161,"name":"Garry_G","steam_id":76561198362834902,"connected_time":1114000000000,"state":"active","ping":70},{"user_id":180,"name":"smosh gaming","steam_id":76561198821743257,"connected_time":96000000000,"state":"active","ping":82},{"user_id":178,"name":"Kahvi","steam_id":76561198723244199,"connected_time":155000000000,"state":"active","ping":76},{"user_id":176,"name":"hbivnm","steam_id":76561197996468677,"connected_time":576000000000,"state":"active","ping":64},{"user_id":184,"name":"Joe Swanson","steam_id":76561198178175462,"connected_time":46000000000,"state":"active","ping":48},{"user_id":118,"name":"SuntanPikachu","steam_id":76561198121242476,"connected_time":5592000000000,"state":"active","ping":105},{"user_id":182,"name":"padillacampos","steam_id":76561198161923970,"connected_time":63000000000,"state":"active","ping":70},{"user_id":145,"name":"Paste","steam_id":76561198139275322,"connected_time":2322000000000,"state":"active","ping":65},{"user_id":163,"name":"smecleu","steam_id":76561198401018345,"connected_time":1102000000000,"state":"active","ping":77},{"user_id":183,"name":"greg's mom","steam_id":76561198050525471,"connected_time":57000000000,"state":"active","ping":83},{"user_id":175,"name":"noel","steam_id":76561198128280883,"connected_time":731000000000,"state":"active","ping":122},{"user_id":158,"name":"Smeglasaurus","steam_id":76561198055949151,"connected_time":1287000000000,"state":"active","ping":50},{"user_id":181,"name":"Tomato","steam_id":76561199124472513,"connected_time":82000000000,"state":"active","ping":156},{"user_id":185,"name":"Yapnor","steam_id":76561198205130675,"connected_time":36000000000,"state":"spawning","ping":48},{"user_id":186,"name":"Yefch","steam_id":76561199375126278,"connected_time":34000000000,"state":"spawning","ping":89},{"user_id":169,"name":"Minimi","steam_id":76561198873850443,"connected_time":965000000000,"state":"active","ping":45},{"user_id":187,"name":"JENNY","steam_id":76561198072302273,"connected_time":11000000000,"state":"active","ping":68},{"user_id":170,"name":"Noob_with_source","steam_id":76561198870362103,"connected_time":965000000000,"state":"active","ping":59},{"user_id":139,"name":"Dr. Peppino Spaghetti","steam_id":76561199121285443,"connected_time":3464000000000,"state":"active","ping":124},{"user_id":171,"name":"Pinkchup","steam_id":76561198106802803,"connected_time":960000000000,"state":"active","ping":88}]},{"server_id":320,"name":"Uncletopia | London | 3 | All Maps","name_short":"lon-3","host":"lon-1.uk.uncletopia.com","port":27035,"enabled":true,"region":"eu","cc":"gb","latitude":51.509865,"longitude":-0.118092,"reserved":0,"last_update":"0001-01-01T00:00:00Z","name_a2s":"Uncletopia | London | 3 | All Maps","protocol":17,"map":"koth_sawmill","folder":"tf","game":"Team Fortress","app_id":440,"player_count":24,"max_players":24,"Bots":0,"server_type":"Dedicated","server_os":"Linux","password":true,"vac":true,"version":"7961495","steam_id":85568392924510192,"keywords":["cp","nocrits","nodmgspread","uncletopia"],"game_id":440,"stv_port":27036,"stv_name":"Uncletopia | London | 3 | All Maps | STV","players":[{"user_id":318,"name":"silicon based life form","steam_id":76561199127121346,"connected_time":4378000000000,"state":"active","ping":55},{"user_id":380,"name":"ONI","steam_id":76561199038860035,"connected_time":425000000000,"state":"active","ping":59},{"user_id":344,"name":"Ark-e","steam_id":76561198261870909,"connected_time":2593000000000,"state":"active","ping":32},{"user_id":370,"name":"Smorth","steam_id":76561198051316160,"connected_time":788000000000,"state":"active","ping":97},{"user_id":367,"name":"Camptyuyu","steam_id":76561198810134666,"connected_time":1239000000000,"state":"active","ping":55},{"user_id":371,"name":"Axolotl","steam_id":76561198042135647,"connected_time":787000000000,"state":"active","ping":68},{"user_id":342,"name":"Femboy Thighs","steam_id":76561198115496457,"connected_time":2630000000000,"state":"active","ping":38},{"user_id":373,"name":"Proud Jojo Fan #TF2SP","steam_id":76561198847327216,"connected_time":734000000000,"state":"active","ping":70},{"user_id":350,"name":"Coke","steam_id":76561199083035892,"connected_time":2117000000000,"state":"active","ping":178},{"user_id":382,"name":"GazerBazer","steam_id":76561198879107565,"connected_time":220000000000,"state":"active","ping":59},{"user_id":368,"name":"Vibing Wave","steam_id":76561198866358613,"connected_time":1233000000000,"state":"active","ping":179},{"user_id":372,"name":"Zwphyr","steam_id":76561198160772793,"connected_time":785000000000,"state":"active","ping":62},{"user_id":358,"name":"Purple Soup :D","steam_id":76561198985100366,"connected_time":1677000000000,"state":"active","ping":93},{"user_id":359,"name":"Space","steam_id":76561198378357559,"connected_time":1653000000000,"state":"active","ping":44},{"user_id":365,"name":"TovenaarGenieter","steam_id":76561198051685232,"connected_time":1537000000000,"state":"active","ping":45},{"user_id":383,"name":"Da bodi do","steam_id":76561198131055184,"connected_time":136000000000,"state":"active","ping":66},{"user_id":307,"name":"dank pank","steam_id":76561198995052713,"connected_time":5600000000000,"state":"active","ping":90},{"user_id":379,"name":"BananaMilkGaming","steam_id":76561199386270080,"connected_time":486000000000,"state":"active","ping":50},{"user_id":314,"name":"error","steam_id":76561198065364691,"connected_time":4468000000000,"state":"active","ping":71},{"user_id":364,"name":"Tom Cruise","steam_id":76561198871991529,"connected_time":1564000000000,"state":"active","ping":62},{"user_id":340,"name":"dddance","steam_id":76561198118412910,"connected_time":2734000000000,"state":"active","ping":58},{"user_id":361,"name":"Colonel Dimanche","steam_id":76561197994792632,"connected_time":1594000000000,"state":"active","ping":43},{"user_id":343,"name":"Mr.McNuggets","steam_id":76561199205631497,"connected_time":2613000000000,"state":"active","ping":143},{"user_id":384,"name":"MinnowCraft","steam_id":76561199215043894,"connected_time":91000000000,"state":"active","ping":153}]},{"server_id":321,"name":"Uncletopia | London | 4 | All Maps","name_short":"lon-4","host":"lon-1.uk.uncletopia.com","port":27045,"enabled":true,"region":"eu","cc":"gb","latitude":51.509865,"longitude":-0.118092,"reserved":0,"last_update":"0001-01-01T00:00:00Z","name_a2s":"Uncletopia | London | 4 | All Maps","protocol":17,"map":"pl_upward","folder":"tf","game":"Team Fortress","app_id":440,"player_count":24,"max_players":24,"Bots":0,"server_type":"Dedicated","server_os":"Linux","password":true,"vac":true,"version":"7961495","steam_id":85568392924510193,"keywords":["nocrits","nodmgspread","payload","uncletopia"],"game_id":440,"stv_port":27046,"stv_name":"Uncletopia | London | 4 | All Maps | STV","players":[{"user_id":135,"name":"Landfall Menace","steam_id":76561198069800407,"connected_time":389000000000,"state":"active","ping":55},{"user_id":92,"name":"The CEO of Sex Inc.","steam_id":76561198385989487,"connected_time":2286000000000,"state":"active","ping":98},{"user_id":105,"name":"Houlles","steam_id":76561198095277383,"connected_time":1991000000000,"state":"active","ping":49},{"user_id":137,"name":"mossad sponsored intel backdoor","steam_id":76561198071882999,"connected_time":257000000000,"state":"active","ping":154},{"user_id":140,"name":"Silver","steam_id":76561198175238807,"connected_time":13000000000,"state":"active","ping":49},{"user_id":90,"name":"British Disapproval","steam_id":76561198001375260,"connected_time":2553000000000,"state":"active","ping":66},{"user_id":18,"name":"The Wurden","steam_id":76561198190643457,"connected_time":6440000000000,"state":"active","ping":48},{"user_id":19,"name":"Nosh","steam_id":76561198156055894,"connected_time":6435000000000,"state":"active","ping":47},{"user_id":120,"name":"Homosapien","steam_id":76561197972035953,"connected_time":1056000000000,"state":"active","ping":60},{"user_id":138,"name":"Sunshine","steam_id":76561198885528098,"connected_time":78000000000,"state":"active","ping":120},{"user_id":125,"name":"Papa Cheese","steam_id":76561198276351496,"connected_time":800000000000,"state":"active","ping":69},{"user_id":124,"name":"svantezch","steam_id":76561198373831657,"connected_time":837000000000,"state":"active","ping":82},{"user_id":139,"name":"YARrICk.¬´+¬ª","steam_id":76561197990126485,"connected_time":61000000000,"state":"active","ping":61},{"user_id":119,"name":"????????????","steam_id":76561199438805486,"connected_time":1300000000000,"state":"active","ping":58},{"user_id":107,"name":"LSKi","steam_id":76561198215470228,"connected_time":1743000000000,"state":"active","ping":55},{"user_id":134,"name":"JulianND","steam_id":76561198074083306,"connected_time":391000000000,"state":"active","ping":58},{"user_id":136,"name":"Lusitana","steam_id":76561198186320802,"connected_time":339000000000,"state":"active","ping":83},{"user_id":116,"name":"Lin","steam_id":76561198066992851,"connected_time":1490000000000,"state":"active","ping":57},{"user_id":98,"name":"HellJumper","steam_id":76561198064758540,"connected_time":2176000000000,"state":"active","ping":101},{"user_id":118,"name":"Plep","steam_id":76561198840259819,"connected_time":1324000000000,"state":"active","ping":60},{"user_id":104,"name":"TOP G","steam_id":76561198138928548,"connected_time":2038000000000,"state":"active","ping":61},{"user_id":122,"name":"sneaky @ bundalan","steam_id":76561198061233344,"connected_time":956000000000,"state":"active","ping":64},{"user_id":102,"name":"flange","steam_id":76561198040182692,"connected_time":2065000000000,"state":"active","ping":39},{"user_id":130,"name":"scar | URF.IM","steam_id":76561198927694734,"connected_time":652000000000,"state":"active","ping":75}]},{"server_id":21,"name":"Uncletopia | London | 5 | All Maps","name_short":"lon-5","host":"lon-1.uk.uncletopia.com","port":27055,"enabled":true,"region":"eu","cc":"gb","latitude":51.509865,"longitude":-0.118092,"reserved":0,"last_update":"0001-01-01T00:00:00Z","name_a2s":"Uncletopia | London | 5 | All Maps","protocol":17,"map":"koth_cascade","folder":"tf","game":"Team Fortress","app_id":440,"player_count":21,"max_players":24,"Bots":0,"server_type":"Dedicated","server_os":"Linux","password":true,"vac":true,"version":"7961495","steam_id":85568392924742829,"keywords":["cp","nocrits","nodmgspread","uncletopia"],"game_id":440,"stv_port":27056,"stv_name":"Uncletopia | London | 5 | All Maps | STV","players":[{"user_id":83,"name":"TomNoSocks","steam_id":76561198114071046,"connected_time":5209000000000,"state":"active","ping":66},{"user_id":114,"name":"Mesi","steam_id":76561199027827940,"connected_time":3206000000000,"state":"active","ping":45},{"user_id":132,"name":"robsan","steam_id":76561198137375391,"connected_time":825000000000,"state":"active","ping":82},{"user_id":99,"name":"photoshop dan","steam_id":76561198797266244,"connected_time":4609000000000,"state":"active","ping":67},{"user_id":75,"name":"lizard","steam_id":76561198061513180,"connected_time":5666000000000,"state":"active","ping":37},{"user_id":97,"name":"hasky","steam_id":76561197986052798,"connected_time":4658000000000,"state":"active","ping":71},{"user_id":133,"name":"‚ÜØ","steam_id":76561198055389492,"connected_time":818000000000,"state":"active","ping":40},{"user_id":130,"name":"Sonicshroomz","steam_id":76561198068242381,"connected_time":1124000000000,"state":"active","ping":57},{"user_id":126,"name":"OceanCow","steam_id":76561198343428913,"connected_time":1505000000000,"state":"active","ping":61},{"user_id":134,"name":"AveragePiglet","steam_id":76561198057673967,"connected_time":420000000000,"state":"active","ping":68},{"user_id":100,"name":"toad (ungodly gigantic)","steam_id":76561198870327755,"connected_time":4591000000000,"state":"active","ping":74},{"user_id":121,"name":"Tree","steam_id":76561197989948420,"connected_time":2283000000000,"state":"active","ping":56},{"user_id":96,"name":"ShadowTwin","steam_id":76561198046658200,"connected_time":4667000000000,"state":"active","ping":67},{"user_id":98,"name":"Lithe","steam_id":76561198097130024,"connected_time":4650000000000,"state":"active","ping":59},{"user_id":102,"name":"Cynosure","steam_id":76561198121286517,"connected_time":4394000000000,"state":"active","ping":37},{"user_id":71,"name":"Viri","steam_id":76561198027432387,"connected_time":5850000000000,"state":"active","ping":77},{"user_id":73,"name":"The Mage","steam_id":76561198019147244,"connected_time":5760000000000,"state":"active","ping":75},{"user_id":127,"name":"BEBOP 3030","steam_id":76561197960379608,"connected_time":1378000000000,"state":"active","ping":54},{"user_id":119,"name":"jacio","steam_id":76561199491964000,"connected_time":2565000000000,"state":"active","ping":51},{"user_id":136,"name":"g19","steam_id":76561198159769052,"connected_time":379000000000,"state":"active","ping":71},{"user_id":92,"name":"DeterminedXD[HUN]","steam_id":76561199469006453,"connected_time":4908000000000,"state":"active","ping":98}]},{"server_id":22,"name":"Uncletopia | London | 6 | All Maps","name_short":"lon-6","host":"lon-1.uk.uncletopia.com","port":27065,"enabled":true,"region":"eu","cc":"gb","latitude":51.509865,"longitude":-0.118092,"reserved":0,"last_update":"0001-01-01T00:00:00Z","name_a2s":"Uncletopia | London | 6 | All Maps","protocol":17,"map":"pl_swiftwater_final1","folder":"tf","game":"Team Fortress","app_id":440,"player_count":0,"max_players":24,"Bots":0,"server_type":"Dedicated","server_os":"Linux","password":true,"vac":true,"version":"7961495","steam_id":85568392924742830,"keywords":["nocrits","nodmgspread","payload","uncletopia"],"game_id":440,"stv_port":27066,"stv_name":"Uncletopia | London | 6 | All Maps | STV","players":null},{"server_id":40,"name":"Uncletopia | London | 7 | Stopwatch","name_short":"lon-7","host":"lon-1.uk.uncletopia.com","port":27075,"enabled":true,"region":"eu","cc":"gb","latitude":51.509865,"longitude":-0.118092,"reserved":0,"last_update":"0001-01-01T00:00:00Z","name_a2s":"Uncletopia | London | 7 | Stopwatch","protocol":17,"map":"cp_sunshine","folder":"tf","game":"Team Fortress","app_id":440,"player_count":0,"max_players":24,"Bots":0,"server_type":"Dedicated","server_os":"Linux","password":true,"vac":true,"version":"7961495","steam_id":85568392924964314,"keywords":["cp","nocrits","nodmgspread","uncletopia"],"game_id":440,"stv_port":27076,"stv_name":"Uncletopia | London | 7 | Stopwatch | STV","players":null},{"server_id":41,"name":"Uncletopia | London | 8 | Community","name_short":"lon-8","host":"lon-1.uk.uncletopia.com","port":27085,"enabled":true,"region":"eu","cc":"gb","latitude":51.509865,"longitude":-0.118092,"reserved":0,"last_update":"0001-01-01T00:00:00Z","name_a2s":"Uncletopia | London | 8 | Community","protocol":17,"map":"workshop/pl_badwater_pro_v12.ugc2142942074","folder":"tf","game":"Team Fortress","app_id":440,"player_count":0,"max_players":24,"Bots":0,"server_type":"Dedicated","server_os":"Linux","password":true,"vac":true,"version":"7961495","steam_id":85568392924964315,"keywords":["nocrits","nodmgspread","payload","uncletopia"],"game_id":440,"stv_port":27086,"stv_name":"Uncletopia | London | 8 | Community | STV","players":null},{"server_id":300,"name":"Uncletopia | Montr√©al | 1 | One Thousand Uncles","name_short":"mtl-1","host":"mtl-1.ca.uncletopia.com","port":27015,"enabled":true,"region":"us-east","cc":"ca","latitude":45.50889,"longitude":-73.56167,"reserved":0,"last_update":"0001-01-01T00:00:00Z","name_a2s":"","protocol":0,"map":"","folder":"","game":"","app_id":0,"player_count":0,"max_players":0,"Bots":0,"server_type":"","server_os":"","password":false,"vac":false,"version":"","steam_id":0,"keywords":null,"game_id":0,"stv_port":0,"stv_name":"","players":null},{"server_id":301,"name":"Uncletopia | Montr√©al | 2 | One Thousand Uncles","name_short":"mtl-2","host":"mtl-1.ca.uncletopia.com","port":27025,"enabled":true,"region":"us-east","cc":"ca","latitude":45.50889,"longitude":-73.56167,"reserved":0,"last_update":"0001-01-01T00:00:00Z","name_a2s":"","protocol":0,"map":"","folder":"","game":"","app_id":0,"player_count":0,"max_players":0,"Bots":0,"server_type":"","server_os":"","password":false,"vac":false,"version":"","steam_id":0,"keywords":null,"game_id":0,"stv_port":0,"stv_name":"","players":null},{"server_id":302,"name":"Uncletopia | Montr√©al | 3 | One Thousand Uncles","name_short":"mtl-3","host":"mtl-1.ca.uncletopia.com","port":27035,"enabled":true,"region":"us-east","cc":"ca","latitude":45.50889,"longitude":-73.56167,"reserved":0,"last_update":"0001-01-01T00:00:00Z","name_a2s":"","protocol":0,"map":"","folder":"","game":"","app_id":0,"player_count":2,"max_players":0,"Bots":0,"server_type":"","server_os":"","password":false,"vac":false,"version":"","steam_id":0,"keywords":null,"game_id":0,"stv_port":0,"stv_name":"","players":[{"user_id":2,"name":"McDonald's Employee Gone Rogue","steam_id":76561199266846329,"connected_time":3950000000000,"state":"active","ping":58},{"user_id":19,"name":"MisterLegitimate","steam_id":76561199198559715,"connected_time":476000000000,"state":"active","ping":127}]},{"server_id":13,"name":"Uncletopia | New York City | 1 | All Maps","name_short":"nyc-1","host":"nyc-1.us.uncletopia.com","port":27015,"enabled":true,"region":"us-east","cc":"us","latitude":40.73061,"longitude":-73.93524,"reserved":0,"last_update":"0001-01-01T00:00:00Z","name_a2s":"Uncletopia | New York City | 1 | All Maps","protocol":17,"map":"pl_swiftwater_final1","folder":"tf","game":"Team Fortress","app_id":440,"player_count":24,"max_players":24,"Bots":0,"server_type":"Dedicated","server_os":"Linux","password":true,"vac":true,"version":"7961495","steam_id":85568392924469993,"keywords":["nocrits","nodmgspread","payload","uncletopia"],"game_id":440,"stv_port":27016,"stv_name":"Uncletopia | New York City | 1 | All Maps | STV","players":[{"user_id":192,"name":"dangergirl99","steam_id":76561198121651564,"connected_time":1527000000000,"state":"active","ping":41},{"user_id":195,"name":"DuckKey","steam_id":76561198904477889,"connected_time":1028000000000,"state":"active","ping":43},{"user_id":173,"name":"BubbyBoy27","steam_id":76561199102009679,"connected_time":2861000000000,"state":"active","ping":75},{"user_id":174,"name":"Esteban Delsin","steam_id":76561198433519639,"connected_time":2810000000000,"state":"active","ping":117},{"user_id":207,"name":"Butt Cheese Wanky","steam_id":76561198006569710,"connected_time":569000000000,"state":"active","ping":74},{"user_id":181,"name":"blonde binch","steam_id":76561198066227208,"connected_time":2602000000000,"state":"active","ping":45},{"user_id":189,"name":"Hobo Shanker","steam_id":76561198001785187,"connected_time":2077000000000,"state":"active","ping":73},{"user_id":168,"name":"GummybearKillr","steam_id":76561198031235750,"connected_time":3402000000000,"state":"active","ping":56},{"user_id":204,"name":"LuckyTaco","steam_id":76561198871931383,"connected_time":665000000000,"state":"active","ping":68},{"user_id":196,"name":"Cwiishe","steam_id":76561199482943969,"connected_time":1020000000000,"state":"active","ping":58},{"user_id":190,"name":"Novu","steam_id":76561198886997024,"connected_time":1858000000000,"state":"active","ping":99},{"user_id":208,"name":"DrCrent","steam_id":76561198182204161,"connected_time":568000000000,"state":"active","ping":43},{"user_id":138,"name":"Ryoko","steam_id":76561198084725087,"connected_time":5208000000000,"state":"active","ping":52},{"user_id":72,"name":"tac","steam_id":76561198408477421,"connected_time":11442000000000,"state":"active","ping":90},{"user_id":201,"name":"Revolver TF2","steam_id":76561198968778310,"connected_time":917000000000,"state":"active","ping":66},{"user_id":191,"name":"Yeonwoo","steam_id":76561199082985721,"connected_time":1754000000000,"state":"active","ping":58},{"user_id":182,"name":"imng","steam_id":76561198014988031,"connected_time":2548000000000,"state":"active","ping":81},{"user_id":193,"name":"ButterBob","steam_id":76561199150673665,"connected_time":1493000000000,"state":"active","ping":72},{"user_id":209,"name":"General Lee","steam_id":76561199501497157,"connected_time":489000000000,"state":"active","ping":75},{"user_id":184,"name":"CornDog","steam_id":76561198249446918,"connected_time":2403000000000,"state":"active","ping":40},{"user_id":200,"name":"Jihadi Spunk Trumpet","steam_id":76561198014792482,"connected_time":976000000000,"state":"active","ping":65},{"user_id":202,"name":"Bud Light","steam_id":76561198066904836,"connected_time":851000000000,"state":"active","ping":85},{"user_id":151,"name":"Jaflampe","steam_id":76561198175827647,"connected_time":4491000000000,"state":"active","ping":84},{"user_id":203,"name":"taigaxx","steam_id":76561198202669250,"connected_time":832000000000,"state":"active","ping":69}]},{"server_id":14,"name":"Uncletopia | New York City | 2 | All Maps","name_short":"nyc-2","host":"nyc-1.us.uncletopia.com","port":27025,"enabled":true,"region":"us-east","cc":"us","latitude":40.73061,"longitude":-73.93524,"reserved":0,"last_update":"0001-01-01T00:00:00Z","name_a2s":"Uncletopia | New York City | 2 | All Maps","protocol":17,"map":"cp_altitude","folder":"tf","game":"Team Fortress","app_id":440,"player_count":23,"max_players":24,"Bots":0,"server_type":"Dedicated","server_os":"Linux","password":true,"vac":true,"version":"7961495","steam_id":85568392924469994,"keywords":["cp","nocrits","nodmgspread","uncletopia"],"game_id":440,"stv_port":27026,"stv_name":"Uncletopia | New York City | 2 | All Maps | STV","players":[{"user_id":97,"name":"Gum Cuzzler","steam_id":76561198348965524,"connected_time":1876000000000,"state":"active","ping":60},{"user_id":116,"name":"goose","steam_id":76561198438565027,"connected_time":1053000000000,"state":"active","ping":83},{"user_id":103,"name":"Hallowedspoon","steam_id":76561199141350399,"connected_time":1419000000000,"state":"active","ping":99},{"user_id":111,"name":"BullsEyeBart","steam_id":76561198046646621,"connected_time":1205000000000,"state":"active","ping":62},{"user_id":102,"name":"hops_a_pops","steam_id":76561198210902109,"connected_time":1496000000000,"state":"active","ping":76},{"user_id":126,"name":"DeathCreeper2000","steam_id":76561199231667737,"connected_time":710000000000,"state":"active","ping":88},{"user_id":115,"name":"Zee‚úû","steam_id":76561198274550638,"connected_time":1170000000000,"state":"active","ping":90},{"user_id":93,"name":"femboy birb","steam_id":76561199198726572,"connected_time":2386000000000,"state":"active","ping":84},{"user_id":65,"name":"Jelqing Table","steam_id":76561198051373750,"connected_time":5064000000000,"state":"active","ping":96},{"user_id":127,"name":"U want soup? ^_^??","steam_id":76561198498921371,"connected_time":515000000000,"state":"active","ping":45},{"user_id":74,"name":"reiidaya","steam_id":76561198325306660,"connected_time":4246000000000,"state":"active","ping":120},{"user_id":118,"name":"Babylon","steam_id":76561198048291984,"connected_time":1008000000000,"state":"active","ping":86},{"user_id":119,"name":"That Desert Ranger","steam_id":76561198067702754,"connected_time":1004000000000,"state":"active","ping":72},{"user_id":24,"name":"Single Legged Duck","steam_id":76561199013241172,"connected_time":6343000000000,"state":"active","ping":51},{"user_id":107,"name":"Fanatic","steam_id":76561197998548387,"connected_time":1262000000000,"state":"active","ping":60},{"user_id":104,"name":"The Hose on Upward","steam_id":76561197965092192,"connected_time":1410000000000,"state":"active","ping":66},{"user_id":105,"name":"i love crack","steam_id":76561199158284778,"connected_time":1398000000000,"state":"active","ping":67},{"user_id":120,"name":"atylerx","steam_id":76561199477747315,"connected_time":959000000000,"state":"active","ping":83},{"user_id":121,"name":"Takeover","steam_id":76561197996081461,"connected_time":903000000000,"state":"active","ping":44},{"user_id":83,"name":"Brown_Dream","steam_id":76561198975766145,"connected_time":3751000000000,"state":"active","ping":70},{"user_id":123,"name":"yourlocalforecast","steam_id":76561198042243083,"connected_time":817000000000,"state":"active","ping":47},{"user_id":82,"name":"Colonel Canada","steam_id":76561198042110453,"connected_time":4106000000000,"state":"active","ping":49},{"user_id":125,"name":"GibbusGod","steam_id":76561199232436690,"connected_time":751000000000,"state":"active","ping":70}]},{"server_id":15,"name":"Uncletopia | New York City | 3 | Stopwatch","name_short":"nyc-3","host":"nyc-1.us.uncletopia.com","port":27035,"enabled":true,"region":"us-east","cc":"us","latitude":40.73061,"longitude":-73.93524,"reserved":0,"last_update":"0001-01-01T00:00:00Z","name_a2s":"Uncletopia | New York City | 3 | Stopwatch","protocol":17,"map":"pl_snowycoast","folder":"tf","game":"Team Fortress","app_id":440,"player_count":2,"max_players":24,"Bots":0,"server_type":"Dedicated","server_os":"Linux","password":true,"vac":true,"version":"7961495","steam_id":85568392924742820,"keywords":["nocrits","nodmgspread","payload","uncletopia"],"game_id":440,"stv_port":27036,"stv_name":"Uncletopia | New York City | 3 | Stopwatch | STV","players":[{"user_id":6,"name":"necatiekmen","steam_id":76561198859023103,"connected_time":81000000000,"state":"active","ping":169},{"user_id":5,"name":"Ronin Nuitsu","steam_id":76561198447712941,"connected_time":199000000000,"state":"active","ping":44}]},{"server_id":16,"name":"Uncletopia | New York City | 4 | Community","name_short":"nyc-4","host":"nyc-1.us.uncletopia.com","port":27045,"enabled":true,"region":"us-east","cc":"us","latitude":40.73061,"longitude":-73.93524,"reserved":0,"last_update":"0001-01-01T00:00:00Z","name_a2s":"Uncletopia | New York City | 4 | Community","protocol":17,"map":"cp_altitude","folder":"tf","game":"Team Fortress","app_id":440,"player_count":0,"max_players":24,"Bots":0,"server_type":"Dedicated","server_os":"Linux","password":true,"vac":true,"version":"7961495","steam_id":85568392924742821,"keywords":["cp","nocrits","nodmgspread","uncletopia"],"game_id":440,"stv_port":27046,"stv_name":"Uncletopia | New York City | 4 | Community | STV","players":null},{"server_id":142,"name":"Uncletopia | S√£o Paulo | 1 | All Maps","name_short":"sao-1","host":"sao-1.br.uncletopia.com","port":27015,"enabled":true,"region":"sa","cc":"br","latitude":-23.533773,"longitude":-46.62529,"reserved":0,"last_update":"0001-01-01T00:00:00Z","name_a2s":"Uncletopia | S√£o Paulo | 1 | All Maps","protocol":17,"map":"cp_process_final","folder":"tf","game":"Team Fortress","app_id":440,"player_count":0,"max_players":24,"Bots":0,"server_type":"Dedicated","server_os":"Linux","password":true,"vac":true,"version":"7961495","steam_id":85568392924469996,"keywords":["cp","nocrits","nodmgspread","uncletopia"],"game_id":440,"stv_port":27016,"stv_name":"Uncletopia | S√£o Paulo | 1 | All Maps | STV","players":null},{"server_id":143,"name":"Uncletopia | S√£o Paulo | 2 | Community","name_short":"sao-2","host":"sao-2.br.uncletopia.com","port":27015,"enabled":true,"region":"sa","cc":"br","latitude":-23.533773,"longitude":-46.62529,"reserved":0,"last_update":"0001-01-01T00:00:00Z","name_a2s":"Uncletopia | S√£o Paulo | 2 | Community","protocol":17,"map":"workshop/cp_logjam_rc12.ugc454812035","folder":"tf","game":"Team Fortress","app_id":440,"player_count":0,"max_players":24,"Bots":0,"server_type":"Dedicated","server_os":"Linux","password":true,"vac":true,"version":"7961495","steam_id":85568392924485349,"keywords":["cp","nocrits","nodmgspread","uncletopia"],"game_id":440,"stv_port":27016,"stv_name":"Uncletopia | S√£o Paulo | 2 | Community | STV","players":null},{"server_id":7,"name":"Uncletopia | Seattle | 1 | All Maps","name_short":"sea-1","host":"sea-1.us.uncletopia.com","port":27015,"enabled":true,"region":"us-west","cc":"us","latitude":47.608013,"longitude":-122.33517,"reserved":0,"last_update":"0001-01-01T00:00:00Z","name_a2s":"Uncletopia | Seattle | 1 | All Maps","protocol":17,"map":"pl_borneo","folder":"tf","game":"Team Fortress","app_id":440,"player_count":0,"max_players":24,"Bots":0,"server_type":"Dedicated","server_os":"Linux","password":true,"vac":true,"version":"7961495","steam_id":85568392924469997,"keywords":["nocrits","nodmgspread","payload","uncletopia"],"game_id":440,"stv_port":27016,"stv_name":"Uncletopia | Seattle | 1 | All Maps | STV","players":null},{"server_id":119,"name":"Uncletopia | Seattle | 2 | All Maps","name_short":"sea-2","host":"sea-1.us.uncletopia.com","port":27025,"enabled":true,"region":"us-west","cc":"us","latitude":47.608013,"longitude":-122.33517,"reserved":0,"last_update":"0001-01-01T00:00:00Z","name_a2s":"Uncletopia | Seattle | 2 | All Maps","protocol":17,"map":"cp_process_final","folder":"tf","game":"Team Fortress","app_id":440,"player_count":0,"max_players":24,"Bots":0,"server_type":"Dedicated","server_os":"Linux","password":true,"vac":true,"version":"7961495","steam_id":85568392924469998,"keywords":["cp","nocrits","nodmgspread","uncletopia"],"game_id":440,"stv_port":27026,"stv_name":"Uncletopia | Seattle | 2 | All Maps | STV","players":null},{"server_id":406,"name":"Uncletopia | Seattle | 3 | Stopwatch","name_short":"sea-3","host":"sea-1.us.uncletopia.com","port":27035,"enabled":true,"region":"us-west","cc":"us","latitude":47.608013,"longitude":-122.33517,"reserved":0,"last_update":"0001-01-01T00:00:00Z","name_a2s":"Uncletopia | Seattle | 3 | Stopwatch","protocol":17,"map":"pl_pier","folder":"tf","game":"Team Fortress","app_id":440,"player_count":0,"max_players":24,"Bots":0,"server_type":"Dedicated","server_os":"Linux","password":true,"vac":true,"version":"7961495","steam_id":85568392924515217,"keywords":["nocrits","nodmgspread","payload","uncletopia"],"game_id":440,"stv_port":27036,"stv_name":"Uncletopia | Seattle | 3 | Stopwatch | STV","players":null},{"server_id":17,"name":"Uncletopia | San Francisco | 1 | All Maps","name_short":"sfo-1","host":"sfo-1.us.uncletopia.com","port":27015,"enabled":true,"region":"us-west","cc":"us","latitude":37.77397,"longitude":-122.4313,"reserved":0,"last_update":"0001-01-01T00:00:00Z","name_a2s":"Uncletopia | San Francisco | 1 | All Maps","protocol":17,"map":"koth_cascade","folder":"tf","game":"Team Fortress","app_id":440,"player_count":0,"max_players":24,"Bots":0,"server_type":"Dedicated","server_os":"Linux","password":true,"vac":true,"version":"7961495","steam_id":85568392924469999,"keywords":["cp","nocrits","nodmgspread","uncletopia"],"game_id":440,"stv_port":27016,"stv_name":"Uncletopia | San Francisco | 1 | All Maps | STV","players":null},{"server_id":18,"name":"Uncletopia | San Francisco | 2 | All Maps","name_short":"sfo-2","host":"sfo-1.us.uncletopia.com","port":27025,"enabled":true,"region":"us-west","cc":"us","latitude":37.77397,"longitude":-122.4313,"reserved":0,"last_update":"0001-01-01T00:00:00Z","name_a2s":"Uncletopia | San Francisco | 2 | All Maps","protocol":17,"map":"pl_frontier_final","folder":"tf","game":"Team Fortress","app_id":440,"player_count":0,"max_players":24,"Bots":0,"server_type":"Dedicated","server_os":"Linux","password":true,"vac":true,"version":"7961495","steam_id":85568392924470000,"keywords":["nocrits","nodmgspread","payload","uncletopia"],"game_id":440,"stv_port":27026,"stv_name":"Uncletopia | San Francisco | 2 | All Maps | STV","players":null},{"server_id":19,"name":"Uncletopia | San Francisco | 3 | Stopwatch","name_short":"sfo-3","host":"sfo-1.us.uncletopia.com","port":27035,"enabled":true,"region":"us-west","cc":"us","latitude":37.77397,"longitude":-122.4313,"reserved":0,"last_update":"0001-01-01T00:00:00Z","name_a2s":"Uncletopia | San Francisco | 3 | Stopwatch","protocol":17,"map":"pl_pier","folder":"tf","game":"Team Fortress","app_id":440,"player_count":0,"max_players":24,"Bots":0,"server_type":"Dedicated","server_os":"Linux","password":true,"vac":true,"version":"7961495","steam_id":85568392924742824,"keywords":["nocrits","nodmgspread","payload","uncletopia"],"game_id":440,"stv_port":27036,"stv_name":"Uncletopia | San Francisco | 3 | Stopwatch | STV","players":null},{"server_id":20,"name":"Uncletopia | San Francisco | 4 | Community","name_short":"sfo-4","host":"sfo-1.us.uncletopia.com","port":27045,"enabled":true,"region":"us-west","cc":"us","latitude":37.77397,"longitude":-122.4313,"reserved":0,"last_update":"0001-01-01T00:00:00Z","name_a2s":"Uncletopia | San Francisco | 4 | Community","protocol":17,"map":"pl_pier","folder":"tf","game":"Team Fortress","app_id":440,"player_count":0,"max_players":24,"Bots":0,"server_type":"Dedicated","server_os":"Linux","password":true,"vac":true,"version":"7961495","steam_id":85568392924742826,"keywords":["nocrits","nodmgspread","payload","uncletopia"],"game_id":440,"stv_port":27046,"stv_name":"Uncletopia | San Francisco | 4 | Community | STV","players":null},{"server_id":141,"name":"Uncletopia | Sydney | 1 | All Maps","name_short":"syd-1","host":"syd-1.au.uncletopia.com","port":27015,"enabled":true,"region":"au","cc":"au","latitude":-33.865143,"longitude":151.2099,"reserved":0,"last_update":"0001-01-01T00:00:00Z","name_a2s":"Uncletopia | Sydney | 1 | All Maps","protocol":17,"map":"cp_dustbowl","folder":"tf","game":"Team Fortress","app_id":440,"player_count":24,"max_players":24,"Bots":0,"server_type":"Dedicated","server_os":"Linux","password":true,"vac":true,"version":"7961495","steam_id":85568392924470001,"keywords":["cp","nocrits","nodmgspread","uncletopia"],"game_id":440,"stv_port":27016,"stv_name":"Uncletopia | Sydney | 1 | All Maps | STV","players":[{"user_id":535,"name":"Zalovaid","steam_id":76561198238958998,"connected_time":3036000000000,"state":"active","ping":77},{"user_id":572,"name":"Geronimoopy","steam_id":76561198052710344,"connected_time":1128000000000,"state":"active","ping":55},{"user_id":561,"name":"Beans","steam_id":76561198073605613,"connected_time":1928000000000,"state":"active","ping":82},{"user_id":557,"name":"Rizeo","steam_id":76561198147901488,"connected_time":2008000000000,"state":"active","ping":67},{"user_id":529,"name":"Revetron","steam_id":76561198108592373,"connected_time":3200000000000,"state":"active","ping":38},{"user_id":562,"name":"Pug","steam_id":76561198136794372,"connected_time":1919000000000,"state":"active","ping":95},{"user_id":537,"name":"bro","steam_id":76561198310908346,"connected_time":2794000000000,"state":"active","ping":78},{"user_id":568,"name":"Overlold","steam_id":76561197978635495,"connected_time":1645000000000,"state":"active","ping":84},{"user_id":578,"name":"NORKIE","steam_id":76561198027693856,"connected_time":819000000000,"state":"active","ping":120},{"user_id":565,"name":"Abraham Lincoln","steam_id":76561198095292515,"connected_time":1814000000000,"state":"active","ping":64},{"user_id":542,"name":"oldbie","steam_id":76561198053297711,"connected_time":2332000000000,"state":"active","ping":70},{"user_id":550,"name":"Resin","steam_id":76561198054911792,"connected_time":2086000000000,"state":"active","ping":54},{"user_id":504,"name":"invert.","steam_id":76561198049619174,"connected_time":6417000000000,"state":"active","ping":69},{"user_id":474,"name":"voxii","steam_id":76561198099698281,"connected_time":8563000000000,"state":"active","ping":68},{"user_id":576,"name":"Lovres","steam_id":76561198058740774,"connected_time":1014000000000,"state":"active","ping":73},{"user_id":554,"name":"Pompadouraus","steam_id":76561198327530525,"connected_time":2037000000000,"state":"active","ping":78},{"user_id":524,"name":"Astro Samurai","steam_id":76561198328252260,"connected_time":4690000000000,"state":"active","ping":54},{"user_id":577,"name":"¬øeTheRealMe?","steam_id":76561198033297147,"connected_time":831000000000,"state":"active","ping":91},{"user_id":571,"name":"doctor morbin' (official)","steam_id":76561199365241695,"connected_time":1337000000000,"state":"active","ping":130},{"user_id":559,"name":"Conch Yeastwood","steam_id":76561198244811924,"connected_time":1955000000000,"state":"active","ping":67},{"user_id":570,"name":"Mungbean","steam_id":76561198192300679,"connected_time":1462000000000,"state":"active","ping":70},{"user_id":564,"name":"Anonymous Lee","steam_id":76561198199847073,"connected_time":1904000000000,"state":"active","ping":70},{"user_id":575,"name":"table","steam_id":76561199218095319,"connected_time":1041000000000,"state":"active","ping":50},{"user_id":567,"name":"Blondie","steam_id":76561198046977058,"connected_time":1777000000000,"state":"active","ping":70}]},{"server_id":123,"name":"Uncletopia | Sydney | 2 | All Maps","name_short":"syd-2","host":"syd-1.au.uncletopia.com","port":27025,"enabled":true,"region":"au","cc":"au","latitude":-33.865143,"longitude":151.2099,"reserved":0,"last_update":"0001-01-01T00:00:00Z","name_a2s":"Uncletopia | Sydney | 2 | All Maps","protocol":17,"map":"pl_pier","folder":"tf","game":"Team Fortress","app_id":440,"player_count":2,"max_players":24,"Bots":0,"server_type":"Dedicated","server_os":"Linux","password":true,"vac":true,"version":"7961495","steam_id":85568392924470002,"keywords":["nocrits","nodmgspread","payload","uncletopia"],"game_id":440,"stv_port":27026,"stv_name":"Uncletopia | Sydney | 2 | All Maps | STV","players":[{"user_id":510,"name":"Lauri","steam_id":76561198375473660,"connected_time":18000000000,"state":"connecting","ping":346},{"user_id":455,"name":"J2PWN","steam_id":76561198409287854,"connected_time":5438000000000,"state":"spawning","ping":164}]},{"server_id":395,"name":"Uncletopia | Sydney | 3 | All Maps","name_short":"syd-3","host":"syd-1.au.uncletopia.com","port":27035,"enabled":true,"region":"au","cc":"au","latitude":-33.865143,"longitude":151.2099,"reserved":0,"last_update":"0001-01-01T00:00:00Z","name_a2s":"Uncletopia | Sydney | 3 | All Maps","protocol":17,"map":"koth_king","folder":"tf","game":"Team Fortress","app_id":440,"player_count":0,"max_players":24,"Bots":0,"server_type":"Dedicated","server_os":"Linux","password":true,"vac":true,"version":"7961495","steam_id":85568392925194467,"keywords":["cp","nocrits","nodmgspread","uncletopia"],"game_id":440,"stv_port":27036,"stv_name":"Uncletopia | Sydney | 3 | All Maps | STV","players":null},{"server_id":396,"name":"Uncletopia | Sydney | 4 | All Maps","name_short":"syd-4","host":"syd-1.au.uncletopia.com","port":27045,"enabled":true,"region":"au","cc":"au","latitude":-33.865143,"longitude":151.2099,"reserved":0,"last_update":"0001-01-01T00:00:00Z","name_a2s":"Uncletopia | Sydney | 4 | All Maps","protocol":17,"map":"cp_process_final","folder":"tf","game":"Team Fortress","app_id":440,"player_count":0,"max_players":24,"Bots":0,"server_type":"Dedicated","server_os":"Linux","password":true,"vac":true,"version":"7961495","steam_id":85568392925397958,"keywords":["cp","nocrits","nodmgspread","uncletopia"],"game_id":440,"stv_port":27046,"stv_name":"Uncletopia | Sydney | 4 | All Maps | STV","players":null},{"server_id":58,"name":"Uncletopia | Sydney | 5 | Stopwatch","name_short":"syd-5","host":"syd-1.au.uncletopia.com","port":27055,"enabled":true,"region":"au","cc":"au","latitude":-33.865143,"longitude":151.2099,"reserved":0,"last_update":"0001-01-01T00:00:00Z","name_a2s":"Uncletopia | Sydney | 5 | Stopwatch","protocol":17,"map":"pl_frontier_final","folder":"tf","game":"Team Fortress","app_id":440,"player_count":0,"max_players":24,"Bots":0,"server_type":"Dedicated","server_os":"Linux","password":true,"vac":true,"version":"7961495","steam_id":85568392925397959,"keywords":["nocrits","nodmgspread","payload","uncletopia"],"game_id":440,"stv_port":27056,"stv_name":"Uncletopia | Sydney | 5 | Stopwatch | STV","players":null},{"server_id":59,"name":"Uncletopia | Sydney | 6 | Community","name_short":"syd-6","host":"syd-1.au.uncletopia.com","port":27065,"enabled":true,"region":"au","cc":"au","latitude":-33.865143,"longitude":151.2099,"reserved":0,"last_update":"0001-01-01T00:00:00Z","name_a2s":"Uncletopia | Sydney | 6 | Community","protocol":17,"map":"cp_sunshine","folder":"tf","game":"Team Fortress","app_id":440,"player_count":0,"max_players":24,"Bots":0,"server_type":"Dedicated","server_os":"Linux","password":true,"vac":true,"version":"7961495","steam_id":85568392925397960,"keywords":["cp","nocrits","nodmgspread","uncletopia"],"game_id":440,"stv_port":27066,"stv_name":"Uncletopia | Sydney | 6 | Community | STV","players":null},{"server_id":49,"name":"Uncletopia | Warsaw | 1 | One Thousand Uncles","name_short":"waw-1","host":"waw-1.pl.uncletopia.com","port":27015,"enabled":true,"region":"eu","cc":"pl","latitude":52.2297,"longitude":21.017532,"reserved":0,"last_update":"0001-01-01T00:00:00Z","name_a2s":"Uncletopia | Warsaw | 1 | One Thousand Uncles","protocol":17,"map":"pl_upward","folder":"tf","game":"Team Fortress","app_id":440,"player_count":28,"max_players":32,"Bots":16,"server_type":"Dedicated","server_os":"Linux","password":true,"vac":true,"version":"7961495","steam_id":85568392925397850,"keywords":["alltalk","bots","danepve","increased_maxplayers","nocrits","norespawntime","payload","uncletopia"],"game_id":440,"stv_port":0,"stv_name":"","players":[{"user_id":409,"name":"Pascal Darras","steam_id":76561198052136478,"connected_time":1875000000000,"state":"active","ping":73},{"user_id":411,"name":"dejwidowski","steam_id":76561199137466824,"connected_time":1556000000000,"state":"active","ping":42},{"user_id":412,"name":"joe8317","steam_id":76561199113974643,"connected_time":1549000000000,"state":"active","ping":201},{"user_id":398,"name":"Tispy","steam_id":76561199207410049,"connected_time":3272000000000,"state":"active","ping":109},{"user_id":419,"name":"mr mufasi","steam_id":76561198068453867,"connected_time":770000000000,"state":"active","ping":75},{"user_id":420,"name":"keepflatandenjoy","steam_id":76561198976062150,"connected_time":752000000000,"state":"active","ping":72},{"user_id":422,"name":"Sanya_Love","steam_id":76561199278652142,"connected_time":435000000000,"state":"active","ping":199},{"user_id":423,"name":"Felwo3","steam_id":76561199217352978,"connected_time":350000000000,"state":"active","ping":123},{"user_id":425,"name":"kakash","steam_id":76561199420637314,"connected_time":243000000000,"state":"active","ping":79},{"user_id":426,"name":"CanSirMan","steam_id":76561198312570181,"connected_time":220000000000,"state":"active","ping":72},{"user_id":431,"name":"kamalianin","steam_id":76561198023940941,"connected_time":24000000000,"state":"active","ping":101},{"user_id":418,"name":"Retrograde_","steam_id":76561198155371354,"connected_time":903000000000,"state":"active","ping":81},{"user_id":429,"name":"adegyld","steam_id":76561198094894241,"connected_time":77000000000,"state":"active","ping":59}]},{"server_id":50,"name":"Uncletopia | Warsaw | 2 | One Thousand Uncles","name_short":"waw-2","host":"waw-1.pl.uncletopia.com","port":27025,"enabled":true,"region":"eu","cc":"pl","latitude":52.2297,"longitude":21.017532,"reserved":0,"last_update":"0001-01-01T00:00:00Z","name_a2s":"Uncletopia | Warsaw | 2 | One Thousand Uncles","protocol":17,"map":"cp_dustbowl","folder":"tf","game":"Team Fortress","app_id":440,"player_count":1,"max_players":32,"Bots":0,"server_type":"Dedicated","server_os":"Linux","password":true,"vac":true,"version":"7961495","steam_id":85568392925397851,"keywords":["alltalk","cp","danepve","increased_maxplayers","nocrits","norespawntime","uncletopia"],"game_id":440,"stv_port":0,"stv_name":"","players":[{"user_id":257,"name":"[SQ UA] MartianDill","steam_id":76561198405382822,"connected_time":7000000000,"state":"spawning","ping":143}]},{"server_id":51,"name":"Uncletopia | Warsaw | 3 | All Maps","name_short":"waw-3","host":"waw-1.pl.uncletopia.com","port":27035,"enabled":true,"region":"eu","cc":"pl","latitude":52.2297,"longitude":21.017532,"reserved":0,"last_update":"0001-01-01T00:00:00Z","name_a2s":"Uncletopia | Warsaw | 3 | All Maps","protocol":17,"map":"pl_swiftwater_final1","folder":"tf","game":"Team Fortress","app_id":440,"player_count":4,"max_players":24,"Bots":0,"server_type":"Dedicated","server_os":"Linux","password":true,"vac":true,"version":"7961495","steam_id":85568392925397852,"keywords":["nocrits","nodmgspread","payload","uncletopia"],"game_id":440,"stv_port":27036,"stv_name":"Uncletopia | Warsaw | 3 | All Maps | STV","players":[{"user_id":26,"name":"JossteZu","steam_id":76561198962929805,"connected_time":657000000000,"state":"active","ping":70},{"user_id":27,"name":"sewer goblin","steam_id":76561199135835032,"connected_time":97000000000,"state":"active","ping":104},{"user_id":28,"name":"Moiseicho45","steam_id":76561199054826363,"connected_time":41000000000,"state":"active","ping":57},{"user_id":25,"name":"stefanbejenari","steam_id":76561199466718294,"connected_time":1126000000000,"state":"active","ping":69}]},{"server_id":52,"name":"Uncletopia | Warsaw | 4 | All Maps","name_short":"waw-4","host":"waw-1.pl.uncletopia.com","port":27045,"enabled":true,"region":"eu","cc":"pl","latitude":52.2297,"longitude":21.017532,"reserved":0,"last_update":"0001-01-01T00:00:00Z","name_a2s":"Uncletopia | Warsaw | 4 | All Maps","protocol":17,"map":"cp_snakewater_final1","folder":"tf","game":"Team Fortress","app_id":440,"player_count":0,"max_players":24,"Bots":0,"server_type":"Dedicated","server_os":"Linux","password":true,"vac":true,"version":"7961495","steam_id":85568392925397853,"keywords":["cp","nocrits","nodmgspread","uncletopia"],"game_id":440,"stv_port":27046,"stv_name":"Uncletopia | Warsaw | 4 | All Maps | STV","players":null},{"server_id":53,"name":"Uncletopia | Warsaw | 5 | Stopwatch","name_short":"waw-5","host":"waw-1.pl.uncletopia.com","port":27055,"enabled":true,"region":"eu","cc":"pl","latitude":52.2297,"longitude":21.017532,"reserved":0,"last_update":"0001-01-01T00:00:00Z","name_a2s":"Uncletopia | Warsaw | 5 | Stopwatch","protocol":17,"map":"cp_process_final","folder":"tf","game":"Team Fortress","app_id":440,"player_count":0,"max_players":24,"Bots":0,"server_type":"Dedicated","server_os":"Linux","password":true,"vac":true,"version":"7961495","steam_id":85568392925397854,"keywords":["cp","nocrits","nodmgspread","uncletopia"],"game_id":440,"stv_port":27056,"stv_name":"Uncletopia | Warsaw | 5 | Stopwatch | STV","players":null},{"server_id":54,"name":"Uncletopia | Warsaw | 6 | Community","name_short":"waw-6","host":"waw-1.pl.uncletopia.com","port":27065,"enabled":true,"region":"eu","cc":"pl","latitude":52.2297,"longitude":21.017532,"reserved":0,"last_update":"0001-01-01T00:00:00Z","name_a2s":"Uncletopia | Warsaw | 6 | Community","protocol":17,"map":"workshop/rd_asteroid_redux_b1.ugc2154902912","folder":"tf","game":"Team Fortress","app_id":440,"player_count":0,"max_players":24,"Bots":0,"server_type":"Dedicated","server_os":"Linux","password":true,"vac":true,"version":"7961495","steam_id":85568392925397856,"keywords":["beta","nocrits","nodmgspread","rd","uncletopia"],"game_id":440,"stv_port":27066,"stv_name":"Uncletopia | Warsaw | 6 | Community | STV","players":null}]}