{"status":true,"message":"","result":[{"server_id":9,"name":"Uncletopia | Atlanta | 1 | All Maps","name_short":"atl-1","host":"atl-1.us.uncletopia.com","port":27015,"enabled":true,"region":"us-east","cc":"us","latitude":33.753746,"longitude":-84.38633,"reserved":0,"last_update":"0001-01-01T00:00:00Z","name_a2s":"Uncletopia | Atlanta | 1 | All Maps","protocol":17,"map":"cp_snakewater_final1","folder":"tf","game":"Team Fortress","app_id":440,"player_count":0,"max_players":24,"Bots":0,"server_type":"Dedicated","server_os":"Linux","password":false,"vac":true,"version":"7961495","steam_id":85568392924469982,"keywords":["cp","nocrits","nodmgspread","uncletopia"],"game_id":440,"stv_port":27016,"stv_name":"Uncletopia | Atlanta | 1 | All Maps | STV","players":null},{"server_id":104,"name":"Uncletopia | Atlanta | 2 | All Maps","name_short":"atl-2","host":"atl-1.us.uncletopia.com","port":27025,"enabled":true,"region":"us-east","cc":"us","latitude":33.753746,"longitude":-84.38633,"reserved":0,"last_update":"0001-01-01T00:00:00Z","name_a2s":"Uncletopia | Atlanta | 2 | All Maps","protocol":17,"map":"cp_mountainlab","folder":"tf","game":"Team Fortress","app_id":440,"player_count":0,"max_players":24,"Bots":0,"server_type":"Dedicated","server_os":"Linux","password":false,"vac":true,"version":"7961495","steam_id":85568392924469983,"keywords":["cp","nocrits","nodmgspread","uncletopia"],"game_id":440,"stv_port":27026,"stv_name":"Uncletopia | Atlanta | 2 | All Maps | STV","players":null},{"server_id":400,"name":"Uncletopia | Atlanta | 3 | All Maps","name_short":"atl-3","host":"atl-1.us.uncletopia.com","port":27035,"enabled":true,"region":"us-east","cc":"us","latitude":33.753746,"longitude":-84.38633,"reserved":0,"last_update":"0001-01-01T00:00:00Z","name_a2s":"Uncletopia | Atlanta | 3 | All Maps","protocol":17,"map":"cp_process_final","folder":"tf","game":"Team Fortress","app_id":440,"player_count":0,"max_players":24,"Bots":0,"server_type":"Dedicated","server_os":"Linux","password":false,"vac":true,"version":"7961495","steam_id":85568392924515187,"keywords":["cp","nocrits","nodmgspread","uncletopia"],"game_id":440,"stv_port":27036,"stv_name":"Uncletopia | Atlanta | 3 | All Maps | STV","players":null},{"server_id":401,"name":"Uncletopia | Atlanta | 4 | Community","name_short":"atl-4","host":"atl-1.us.uncletopia.com","port":27045,"enabled":true,"region":"us-east","cc":"us","latitude":33.753746,"longitude":-84.38633,"reserved":0,"last_update":"0001-01-01T00:00:00Z","name_a2s":"Uncletopia | Atlanta | 4 | Community","protocol":17,"map":"koth_lakeside_final","folder":"tf","game":"Team Fortress","app_id":440,"player_count":0,"max_players":24,"Bots":0,"server_type":"Dedicated","server_os":"Linux","password":false,"vac":true,"version":"7961495","steam_id":85568392924515188,"keywords":["cp","nocrits","nodmgspread","uncletopia"],"game_id":440,"stv_port":27046,"stv_name":"Uncletopia | Atlanta | 4 | Community | STV","players":null},{"server_id":2,"name":"Uncletopia | Chicago | 1 | All Maps","name_short":"chi-1","host":"chi-1.us.uncletopia.com","port":27015,"enabled":true,"region":"us-central","cc":"us","latitude":41.881832,"longitude":-87.62318,"reserved":0,"last_update":"0001-01-01T00:00:00Z","name_a2s":"Uncletopia | Chicago | 1 | All Maps","protocol":17,"map":"cp_dustbowl","folder":"tf","game":"Team Fortress","app_id":440,"player_count":0,"max_players":24,"Bots":0,"server_type":"Dedicated","server_os":"Linux","password":true,"vac":true,"version":"7961495","steam_id":85568392924469984,"keywords":["cp","nocrits","nodmgspread","uncletopia"],"game_id":440,"stv_port":27016,"stv_name":"Uncletopia | Chicago | 1 | All Maps | STV","players":null},{"server_id":106,"name":"Uncletopia | Chicago | 2 | All Maps","name_short":"chi-2","host":"chi-1.us.uncletopia.com","port":27025,"enabled":true,"region":"us-central","cc":"us","latitude":41.881832,"longitude":-87.62318,"reserved":0,"last_update":"0001-01-01T00:00:00Z","name_a2s":"Uncletopia | Chicago | 2 | All Maps","protocol":17,"map":"pl_borneo","folder":"tf","game":"Team Fortress","app_id":440,"player_count":24,"max_players":24,"Bots":0,"server_type":"Dedicated","server_os":"Linux","password":true,"vac":true,"version":"7961495","steam_id":85568392924469985,"keywords":["nocrits","nodmgspread","payload","uncletopia"],"game_id":440,"stv_port":27026,"stv_name":"Uncletopia | Chicago | 2 | All Maps | STV","players":[{"user_id":123,"name":"exlhk7","steam_id":76561199468136783,"connected_time":298000000000,"state":"active","ping":63},{"user_id":120,"name":"stiGGy","steam_id":76561198049311931,"connected_time":461000000000,"state":"active","ping":78},{"user_id":122,"name":"「Daws_Dudeguy」","steam_id":76561198205838645,"connected_time":447000000000,"state":"active","ping":65},{"user_id":114,"name":"Ghoulenoir","steam_id":76561198074314573,"connected_time":545000000000,"state":"active","ping":49},{"user_id":121,"name":"Norman","steam_id":76561198154715990,"connected_time":453000000000,"state":"active","ping":110},{"user_id":98,"name":"Waffle Wannabe","steam_id":76561198064510650,"connected_time":1580000000000,"state":"active","ping":62},{"user_id":97,"name":"ungr8t うんぐれいと","steam_id":76561198063521721,"connected_time":1596000000000,"state":"active","ping":74},{"user_id":90,"name":"gaming unit","steam_id":76561198148059714,"connected_time":2244000000000,"state":"active","ping":59},{"user_id":126,"name":"Pipo","steam_id":76561198171466414,"connected_time":109000000000,"state":"active","ping":64},{"user_id":119,"name":"CrusadingComrade","steam_id":76561198286511203,"connected_time":517000000000,"state":"active","ping":56},{"user_id":106,"name":"JC","steam_id":76561198135307995,"connected_time":1145000000000,"state":"active","ping":68},{"user_id":101,"name":"Braspooky","steam_id":76561198275170070,"connected_time":1190000000000,"state":"active","ping":68},{"user_id":125,"name":"gender cowboy","steam_id":76561198097175164,"connected_time":243000000000,"state":"active","ping":84},{"user_id":68,"name":".JIFF","steam_id":76561198045181760,"connected_time":3117000000000,"state":"active","ping":58},{"user_id":103,"name":"kinky n stinky","steam_id":76561198145366579,"connected_time":1164000000000,"state":"active","ping":82},{"user_id":109,"name":"floppy muppet","steam_id":76561198003076261,"connected_time":881000000000,"state":"active","ping":83},{"user_id":110,"name":"Drew P. Sack","steam_id":76561198036201738,"connected_time":848000000000,"state":"active","ping":53},{"user_id":117,"name":"notdbone","steam_id":76561198045890038,"connected_time":532000000000,"state":"active","ping":68},{"user_id":113,"name":"Aurora","steam_id":76561198271981179,"connected_time":814000000000,"state":"active","ping":60},{"user_id":116,"name":"Mr. Green","steam_id":76561198037778253,"connected_time":535000000000,"state":"active","ping":64},{"user_id":112,"name":"Chaos","steam_id":76561199068325065,"connected_time":840000000000,"state":"active","ping":96},{"user_id":127,"name":"Im High","steam_id":76561198049954886,"connected_time":101000000000,"state":"active","ping":74},{"user_id":49,"name":"John CounterStrike","steam_id":76561198129346110,"connected_time":4319000000000,"state":"active","ping":78},{"user_id":70,"name":"Noodle Princess [Dexgod]","steam_id":76561198017130786,"connected_time":3051000000000,"state":"active","ping":75}]},{"server_id":402,"name":"Uncletopia | Chicago | 3 | All Maps","name_short":"chi-3","host":"chi-1.us.uncletopia.com","port":27035,"enabled":true,"region":"us-central","cc":"us","latitude":41.881832,"longitude":-87.62318,"reserved":0,"last_update":"0001-01-01T00:00:00Z","name_a2s":"Uncletopia | Chicago | 3 | All Maps","protocol":17,"map":"pl_snowycoast","folder":"tf","game":"Team Fortress","app_id":440,"player_count":24,"max_players":24,"Bots":0,"server_type":"Dedicated","server_os":"Linux","password":true,"vac":true,"version":"7961495","steam_id":85568392924515191,"keywords":["nocrits","nodmgspread","payload","uncletopia"],"game_id":440,"stv_port":27036,"stv_name":"Uncletopia | Chicago | 3 | All Maps | STV","players":[{"user_id":303,"name":"Nivi!","steam_id":76561198097857418,"connected_time":4275000000000,"state":"active","ping":90},{"user_id":337,"name":"a bullet","steam_id":76561198809248362,"connected_time":1235000000000,"state":"active","ping":165},{"user_id":257,"name":"Ashes!","steam_id":76561197998475441,"connected_time":8840000000000,"state":"active","ping":92},{"user_id":250,"name":"PackingPeanutt :]","steam_id":76561199053229413,"connected_time":9135000000000,"state":"active","ping":91},{"user_id":354,"name":"i46","steam_id":76561198031675881,"connected_time":15000000000,"state":"active","ping":43},{"user_id":341,"name":"Bigjon300","steam_id":76561198137902441,"connected_time":983000000000,"state":"active","ping":78},{"user_id":309,"name":"Lylith","steam_id":76561198386687546,"connected_time":4191000000000,"state":"active","ping":65},{"user_id":305,"name":"Jerry Bondle","steam_id":76561198337512213,"connected_time":4201000000000,"state":"active","ping":67},{"user_id":315,"name":"swat","steam_id":76561198803159110,"connected_time":3396000000000,"state":"active","ping":75},{"user_id":344,"name":"Thumbs","steam_id":76561199065890132,"connected_time":276000000000,"state":"active","ping":62},{"user_id":334,"name":"Pyrovision Distributor","steam_id":76561198242118240,"connected_time":1436000000000,"state":"active","ping":48},{"user_id":345,"name":"Zhong Xina","steam_id":76561198048157121,"connected_time":214000000000,"state":"active","ping":85},{"user_id":313,"name":"dak","steam_id":76561198076596506,"connected_time":3580000000000,"state":"active","ping":60},{"user_id":335,"name":"b","steam_id":76561198118211523,"connected_time":1389000000000,"state":"active","ping":60},{"user_id":320,"name":"FoxyTheFish","steam_id":76561199074190919,"connected_time":2582000000000,"state":"active","ping":140},{"user_id":346,"name":"Quigi","steam_id":76561198144645874,"connected_time":194000000000,"state":"active","ping":117},{"user_id":322,"name":"bushy472","steam_id":76561198259074051,"connected_time":2002000000000,"state":"active","ping":59},{"user_id":321,"name":"sand","steam_id":76561198086193212,"connected_time":2477000000000,"state":"active","ping":61},{"user_id":296,"name":"hank","steam_id":76561197977182378,"connected_time":4734000000000,"state":"active","ping":48},{"user_id":347,"name":"Professor Chromosomes","steam_id":76561198042020662,"connected_time":185000000000,"state":"active","ping":174},{"user_id":264,"name":"Cloud","steam_id":76561198954987128,"connected_time":8073000000000,"state":"active","ping":75},{"user_id":348,"name":"pumpkin patch","steam_id":76561198381020239,"connected_time":172000000000,"state":"active","ping":88},{"user_id":349,"name":"Wilhelmktx","steam_id":76561198158102295,"connected_time":155000000000,"state":"active","ping":49},{"user_id":324,"name":"Eating Toast","steam_id":76561199168711796,"connected_time":1945000000000,"state":"active","ping":70}]},{"server_id":403,"name":"Uncletopia | Chicago | 4 | All Maps","name_short":"chi-4","host":"chi-1.us.uncletopia.com","port":27045,"enabled":true,"region":"us-central","cc":"us","latitude":41.881832,"longitude":-87.62318,"reserved":0,"last_update":"0001-01-01T00:00:00Z","name_a2s":"Uncletopia | Chicago | 4 | All Maps","protocol":17,"map":"pl_frontier_final","folder":"tf","game":"Team Fortress","app_id":440,"player_count":24,"max_players":24,"Bots":0,"server_type":"Dedicated","server_os":"Linux","password":true,"vac":true,"version":"7961495","steam_id":85568392924515193,"keywords":["nocrits","nodmgspread","payload","uncletopia"],"game_id":440,"stv_port":27046,"stv_name":"Uncletopia | Chicago | 4 | All Maps | STV","players":[{"user_id":323,"name":"ThePatheticMedic","steam_id":76561198873083105,"connected_time":761000000000,"state":"active","ping":55},{"user_id":239,"name":"Thotimus Begonimus","steam_id":76561197970275938,"connected_time":1855000000000,"state":"active","ping":50},{"user_id":329,"name":"Radish Master","steam_id":76561198072523811,"connected_time":707000000000,"state":"active","ping":43},{"user_id":236,"name":"Dr. Freeday, E.I.M.B","steam_id":76561198046870291,"connected_time":1881000000000,"state":"active","ping":60},{"user_id":238,"name":"Honk","steam_id":76561198076720361,"connected_time":1858000000000,"state":"active","ping":57},{"user_id":330,"name":"that one","steam_id":76561199088969462,"connected_time":704000000000,"state":"active","ping":57},{"user_id":331,"name":"Ripheart","steam_id":76561198089661561,"connected_time":698000000000,"state":"active","ping":43},{"user_id":124,"name":"Rornir","steam_id":76561198081829615,"connected_time":4349000000000,"state":"active","ping":42},{"user_id":226,"name":"earthbound393","steam_id":76561199444276547,"connected_time":2094000000000,"state":"active","ping":113},{"user_id":188,"name":"Pussy Slambasket","steam_id":76561198093694322,"connected_time":2731000000000,"state":"active","ping":49},{"user_id":271,"name":"some tree","steam_id":76561198166093346,"connected_time":1589000000000,"state":"active","ping":55},{"user_id":240,"name":"Mint Jelly","steam_id":76561197991286751,"connected_time":1839000000000,"state":"active","ping":45},{"user_id":231,"name":"Epifiny","steam_id":76561198027958086,"connected_time":2024000000000,"state":"active","ping":70},{"user_id":339,"name":"Space Lizard","steam_id":76561198056798193,"connected_time":426000000000,"state":"active","ping":79},{"user_id":68,"name":"chanoc","steam_id":76561198026734746,"connected_time":8727000000000,"state":"active","ping":98},{"user_id":348,"name":"[㏈] Bumpercars","steam_id":76561198061591743,"connected_time":216000000000,"state":"active","ping":74},{"user_id":333,"name":"Dillo","steam_id":76561198131497687,"connected_time":618000000000,"state":"active","ping":75},{"user_id":234,"name":"Organ Harvester","steam_id":76561198069948353,"connected_time":1970000000000,"state":"active","ping":80},{"user_id":274,"name":"POSTERBOYOFGOODBOYS","steam_id":76561198199344313,"connected_time":1558000000000,"state":"active","ping":115},{"user_id":275,"name":"Young Sanity","steam_id":76561198395766307,"connected_time":1519000000000,"state":"active","ping":46},{"user_id":328,"name":"Saggy Haggis Balls","steam_id":76561198047845399,"connected_time":720000000000,"state":"active","ping":73},{"user_id":309,"name":"Admiral Catradora","steam_id":76561198017271944,"connected_time":914000000000,"state":"active","ping":70},{"user_id":361,"name":"lili","steam_id":76561199391478575,"connected_time":59000000000,"state":"active","ping":107},{"user_id":341,"name":"Just PYE","steam_id":76561199439622967,"connected_time":369000000000,"state":"active","ping":90}]},{"server_id":36,"name":"Uncletopia | Chicago | 5 | All Maps","name_short":"chi-5","host":"chi-2.us.uncletopia.com","port":27015,"enabled":true,"region":"us-central","cc":"us","latitude":41.881832,"longitude":-87.62318,"reserved":0,"last_update":"0001-01-01T00:00:00Z","name_a2s":"Uncletopia | Chicago | 5 | All Maps","protocol":17,"map":"koth_cascade","folder":"tf","game":"Team Fortress","app_id":440,"player_count":0,"max_players":24,"Bots":0,"server_type":"Dedicated","server_os":"Linux","password":true,"vac":true,"version":"7961495","steam_id":85568392924866362,"keywords":["cp","nocrits","nodmgspread","uncletopia"],"game_id":440,"stv_port":27016,"stv_name":"Uncletopia | Chicago | 5 | All Maps | STV","players":null},{"server_id":37,"name":"Uncletopia | Chicago | 6 | All Maps","name_short":"chi-6","host":"chi-2.us.uncletopia.com","port":27025,"enabled":true,"region":"us-central","cc":"us","latitude":41.881832,"longitude":-87.62318,"reserved":0,"last_update":"0001-01-01T00:00:00Z","name_a2s":"Uncletopia | Chicago | 6 | All Maps","protocol":17,"map":"pl_borneo","folder":"tf","game":"Team Fortress","app_id":440,"player_count":0,"max_players":24,"Bots":0,"server_type":"Dedicated","server_os":"Linux","password":true,"vac":true,"version":"7961495","steam_id":85568392924866363,"keywords":["nocrits","nodmgspread","payload","uncletopia"],"game_id":440,"stv_port":27026,"stv_name":"Uncletopia | Chicago | 6 | All Maps | STV","players":null},{"server_id":38,"name":"Uncletopia | Chicago | 7 | Stopwatch Beta","name_short":"chi-7","host":"chi-2.us.uncletopia.com","port":27035,"enabled":true,"region":"us-central","cc":"us","latitude":41.881832,"longitude":-87.62318,"reserved":0,"last_update":"0001-01-01T00:00:00Z","name_a2s":"Uncletopia | Chicago | 7 | Stopwatch Beta","protocol":17,"map":"pl_badwater","folder":"tf","game":"Team Fortress","app_id":440,"player_count":0,"max_players":24,"Bots":0,"server_type":"Dedicated","server_os":"Linux","password":true,"vac":true,"version":"7961495","steam_id":85568392924866364,"keywords":["nocrits","nodmgspread","payload","uncletopia"],"game_id":440,"stv_port":27036,"stv_name":"Uncletopia | Chicago | 7 | Stopwatch Beta | STV","players":null},{"server_id":39,"name":"Uncletopia | Chicago | 8 | Community","name_short":"chi-8","host":"chi-2.us.uncletopia.com","port":27045,"enabled":true,"region":"us-central","cc":"us","latitude":41.881832,"longitude":-87.62318,"reserved":0,"last_update":"0001-01-01T00:00:00Z","name_a2s":"Uncletopia | Chicago | 8 | Community","protocol":17,"map":"koth_cascade","folder":"tf","game":"Team Fortress","app_id":440,"player_count":0,"max_players":24,"Bots":0,"server_type":"Dedicated","server_os":"Linux","password":true,"vac":true,"version":"7961495","steam_id":85568392924866365,"keywords":["cp","nocrits","nodmgspread","uncletopia"],"game_id":440,"stv_port":27046,"stv_name":"Uncletopia | Chicago | 8 | Community | STV","players":null},{"server_id":8,"name":"Uncletopia | Dallas | 1 | All Maps","name_short":"dal-1","host":"dal-1.us.uncletopia.com","port":27015,"enabled":true,"region":"us-central","cc":"us","latitude":32.779167,"longitude":-96.80889,"reserved":0,"last_update":"0001-01-01T00:00:00Z","name_a2s":"Uncletopia | Dallas | 1 | All Maps","protocol":17,"map":"koth_harvest_final","folder":"tf","game":"Team Fortress","app_id":440,"player_count":24,"max_players":24,"Bots":0,"server_type":"Dedicated","server_os":"Linux","password":true,"vac":true,"version":"7961495","steam_id":85568392924469986,"keywords":["cp","nocrits","nodmgspread","uncletopia"],"game_id":440,"stv_port":27016,"stv_name":"Uncletopia | Dallas | 1 | All Maps | STV","players":[{"user_id":268,"name":"JoeFalco","steam_id":76561198064005012,"connected_time":822000000000,"state":"active","ping":86},{"user_id":219,"name":"HeadOfB.O.XNews","steam_id":76561198823322405,"connected_time":4773000000000,"state":"active","ping":49},{"user_id":258,"name":"Rue","steam_id":76561198013135993,"connected_time":1709000000000,"state":"active","ping":68},{"user_id":193,"name":"the pizza","steam_id":76561198221331476,"connected_time":7741000000000,"state":"active","ping":74},{"user_id":217,"name":"The Second Jimmy","steam_id":76561198409907417,"connected_time":5160000000000,"state":"active","ping":93},{"user_id":281,"name":"ATL1 | on my hunting trip","steam_id":76561198315341646,"connected_time":176000000000,"state":"active","ping":90},{"user_id":154,"name":"Yummy Kabobz","steam_id":76561198067661705,"connected_time":11944000000000,"state":"active","ping":74},{"user_id":252,"name":"socializedCryptid","steam_id":76561198991665007,"connected_time":2302000000000,"state":"active","ping":85},{"user_id":271,"name":"SLOPMASTER_69","steam_id":76561198080130096,"connected_time":685000000000,"state":"active","ping":93},{"user_id":260,"name":"magnanimity","steam_id":76561198242842394,"connected_time":1647000000000,"state":"active","ping":48},{"user_id":279,"name":"test gamer please ignore","steam_id":76561198007464245,"connected_time":360000000000,"state":"active","ping":110},{"user_id":274,"name":"Lock'd","steam_id":76561198170108230,"connected_time":554000000000,"state":"active","ping":60},{"user_id":282,"name":"BigBubble42","steam_id":76561198136286123,"connected_time":78000000000,"state":"active","ping":37},{"user_id":253,"name":"im ultrakill (official)","steam_id":76561198415528114,"connected_time":2281000000000,"state":"active","ping":188},{"user_id":263,"name":"Jango","steam_id":76561198084589742,"connected_time":1241000000000,"state":"active","ping":75},{"user_id":276,"name":"OneTrueNarwhal","steam_id":76561198288042952,"connected_time":518000000000,"state":"active","ping":86},{"user_id":266,"name":"Lord Garrard","steam_id":76561198212184303,"connected_time":868000000000,"state":"active","ping":56},{"user_id":269,"name":"FIREPOW","steam_id":76561198111259720,"connected_time":759000000000,"state":"active","ping":79},{"user_id":256,"name":"poopshitter9000","steam_id":76561198074624639,"connected_time":2011000000000,"state":"active","ping":87},{"user_id":283,"name":"Hindmost","steam_id":76561199081837220,"connected_time":2000000000,"state":"spawning","ping":52},{"user_id":267,"name":"Quomples","steam_id":76561198140996628,"connected_time":863000000000,"state":"active","ping":59},{"user_id":280,"name":"fewix!","steam_id":76561199060002248,"connected_time":344000000000,"state":"active","ping":111},{"user_id":277,"name":"yaldabaoth","steam_id":76561198084606869,"connected_time":484000000000,"state":"active","ping":82},{"user_id":278,"name":"Major Depression","steam_id":76561198018103878,"connected_time":474000000000,"state":"active","ping":95}]},{"server_id":108,"name":"Uncletopia | Dallas | 2 | All Maps","name_short":"dal-2","host":"dal-1.us.uncletopia.com","port":27025,"enabled":true,"region":"us-central","cc":"us","latitude":32.779167,"longitude":-96.80889,"reserved":0,"last_update":"0001-01-01T00:00:00Z","name_a2s":"Uncletopia | Dallas | 2 | All Maps","protocol":17,"map":"pl_pier","folder":"tf","game":"Team Fortress","app_id":440,"player_count":24,"max_players":24,"Bots":0,"server_type":"Dedicated","server_os":"Linux","password":true,"vac":true,"version":"7961495","steam_id":85568392924469988,"keywords":["nocrits","nodmgspread","payload","uncletopia"],"game_id":440,"stv_port":27026,"stv_name":"Uncletopia | Dallas | 2 | All Maps | STV","players":[{"user_id":214,"name":"Kirby.exe","steam_id":76561198242714582,"connected_time":4387000000000,"state":"active","ping":47},{"user_id":172,"name":"Sup m8","steam_id":76561198081659121,"connected_time":6912000000000,"state":"active","ping":41},{"user_id":203,"name":"HardlyEthical","steam_id":76561198044535087,"connected_time":5051000000000,"state":"active","ping":87},{"user_id":216,"name":"Wan Shi Tong","steam_id":76561198076441225,"connected_time":3971000000000,"state":"active","ping":89},{"user_id":234,"name":"☆Doggirl Genius☆","steam_id":76561198083243888,"connected_time":2516000000000,"state":"active","ping":85},{"user_id":213,"name":"Provocator","steam_id":76561197961830410,"connected_time":4681000000000,"state":"active","ping":87},{"user_id":226,"name":"MeMyBongusAndTheGreatOutdoors","steam_id":76561198097708978,"connected_time":3013000000000,"state":"active","ping":47},{"user_id":237,"name":"JayRawgTV","steam_id":76561198044402840,"connected_time":2191000000000,"state":"active","ping":46},{"user_id":153,"name":"Big Yoshi","steam_id":76561199160576376,"connected_time":8839000000000,"state":"active","ping":102},{"user_id":243,"name":"Modstin","steam_id":76561198080081255,"connected_time":1144000000000,"state":"active","ping":94},{"user_id":169,"name":"Svepport","steam_id":76561198071373137,"connected_time":7667000000000,"state":"active","ping":59},{"user_id":190,"name":"Doctor Emerald(real)","steam_id":76561199123003872,"connected_time":6179000000000,"state":"active","ping":87},{"user_id":231,"name":"yes daddy","steam_id":76561198166100997,"connected_time":2928000000000,"state":"active","ping":74},{"user_id":224,"name":"Alkimia","steam_id":76561198385763137,"connected_time":3052000000000,"state":"active","ping":145},{"user_id":211,"name":"MrMeeph","steam_id":76561197997146185,"connected_time":4854000000000,"state":"active","ping":79},{"user_id":251,"name":"OctoHam","steam_id":76561198143371318,"connected_time":705000000000,"state":"active","ping":171},{"user_id":230,"name":"Jesse Bear","steam_id":76561198217075305,"connected_time":2968000000000,"state":"active","ping":99},{"user_id":228,"name":"Freyja","steam_id":76561198207412177,"connected_time":2991000000000,"state":"active","ping":71},{"user_id":248,"name":"greg club","steam_id":76561198370506193,"connected_time":890000000000,"state":"active","ping":54},{"user_id":245,"name":"Acro","steam_id":76561198092451804,"connected_time":1063000000000,"state":"active","ping":73},{"user_id":242,"name":"western bacon cheeseburger","steam_id":76561198145320480,"connected_time":1180000000000,"state":"active","ping":86},{"user_id":246,"name":"bunger bunger bunger bunger","steam_id":76561198175955138,"connected_time":1029000000000,"state":"active","ping":94},{"user_id":247,"name":"Lt Lushen","steam_id":76561198124083273,"connected_time":1015000000000,"state":"active","ping":97},{"user_id":250,"name":"lynt","steam_id":76561198988333976,"connected_time":838000000000,"state":"active","ping":65}]},{"server_id":404,"name":"Uncletopia | Dallas | 3 | All Maps","name_short":"dal-3","host":"dal-1.us.uncletopia.com","port":27035,"enabled":true,"region":"us-central","cc":"us","latitude":32.779167,"longitude":-96.80889,"reserved":0,"last_update":"0001-01-01T00:00:00Z","name_a2s":"Uncletopia | Dallas | 3 | All Maps","protocol":17,"map":"pl_badwater","folder":"tf","game":"Team Fortress","app_id":440,"player_count":24,"max_players":24,"Bots":0,"server_type":"Dedicated","server_os":"Linux","password":true,"vac":true,"version":"7961495","steam_id":85568392924515219,"keywords":["nocrits","nodmgspread","payload","uncletopia"],"game_id":440,"stv_port":27036,"stv_name":"Uncletopia | Dallas | 3 | All Maps | STV","players":[{"user_id":6,"name":"shitass | troutsupply.net","steam_id":76561198210572481,"connected_time":3725000000000,"state":"active","ping":60},{"user_id":49,"name":"joe","steam_id":76561198968576397,"connected_time":1260000000000,"state":"active","ping":156},{"user_id":55,"name":"M1C4A3L","steam_id":76561198009980085,"connected_time":410000000000,"state":"active","ping":63},{"user_id":43,"name":"Solly","steam_id":76561198157466077,"connected_time":1333000000000,"state":"active","ping":61},{"user_id":11,"name":"Lolxdloldx","steam_id":76561198136887125,"connected_time":3144000000000,"state":"active","ping":99},{"user_id":64,"name":"ShadowKun","steam_id":76561199134735740,"connected_time":114000000000,"state":"active","ping":65},{"user_id":26,"name":"TJGSASQUATCH","steam_id":76561198077806921,"connected_time":1859000000000,"state":"active","ping":95},{"user_id":21,"name":"hard cement with handprint","steam_id":76561198066566813,"connected_time":1978000000000,"state":"active","ping":111},{"user_id":25,"name":"FanGirl Troutsupply.net","steam_id":76561199140940650,"connected_time":1925000000000,"state":"active","ping":62},{"user_id":62,"name":"TG_16","steam_id":76561199109196768,"connected_time":246000000000,"state":"active","ping":52},{"user_id":27,"name":"Superman123389","steam_id":76561198267472539,"connected_time":1769000000000,"state":"active","ping":87},{"user_id":28,"name":"Adokato","steam_id":76561199077640506,"connected_time":1588000000000,"state":"active","ping":88},{"user_id":29,"name":"nuclearpotatoes","steam_id":76561198197856134,"connected_time":1583000000000,"state":"active","ping":68},{"user_id":58,"name":"thai tea","steam_id":76561198308290211,"connected_time":314000000000,"state":"active","ping":93},{"user_id":31,"name":"Cinder","steam_id":76561198380434689,"connected_time":1576000000000,"state":"active","ping":118},{"user_id":52,"name":"nayonhaha","steam_id":76561198066507360,"connected_time":809000000000,"state":"active","ping":70},{"user_id":50,"name":"Cold shoulder","steam_id":76561198453824178,"connected_time":1260000000000,"state":"active","ping":129},{"user_id":34,"name":"Kaiju","steam_id":76561198035703156,"connected_time":1542000000000,"state":"active","ping":52},{"user_id":45,"name":"OldRavensFan","steam_id":76561198043919562,"connected_time":1317000000000,"state":"active","ping":81},{"user_id":54,"name":"Creature","steam_id":76561198194585781,"connected_time":775000000000,"state":"active","ping":80},{"user_id":38,"name":"Gustavo_Banana","steam_id":76561198387866587,"connected_time":1462000000000,"state":"active","ping":194},{"user_id":39,"name":"TomosconesYT","steam_id":76561198813586588,"connected_time":1434000000000,"state":"active","ping":100},{"user_id":60,"name":"Mephistopheles","steam_id":76561198253731826,"connected_time":303000000000,"state":"active","ping":96},{"user_id":53,"name":"Ockulus","steam_id":76561199069638460,"connected_time":808000000000,"state":"active","ping":76}]},{"server_id":405,"name":"Uncletopia | Dallas | 4 | Community","name_short":"dal-4","host":"dal-1.us.uncletopia.com","port":27045,"enabled":true,"region":"us-central","cc":"us","latitude":32.779167,"longitude":-96.80889,"reserved":0,"last_update":"0001-01-01T00:00:00Z","name_a2s":"Uncletopia | Dallas | 4 | Community","protocol":17,"map":"workshop/pl_cactuscanyon_redux_final2.ugc2579644293","folder":"tf","game":"Team Fortress","app_id":440,"player_count":4,"max_players":24,"Bots":0,"server_type":"Dedicated","server_os":"Linux","password":true,"vac":true,"version":"7961495","steam_id":85568392924515220,"keywords":["nocrits","nodmgspread","payload","uncletopia"],"game_id":440,"stv_port":27046,"stv_name":"Uncletopia | Dallas | 4 | Community | STV","players":[{"user_id":21,"name":"jairo","steam_id":76561199006124613,"connected_time":270000000000,"state":"active","ping":113},{"user_id":18,"name":"Wajliii","steam_id":76561199002865510,"connected_time":901000000000,"state":"active","ping":193},{"user_id":19,"name":"GibbusGod","steam_id":76561199232436690,"connected_time":367000000000,"state":"active","ping":63},{"user_id":22,"name":"Ajsa CFBI","steam_id":76561199235907971,"connected_time":244000000000,"state":"active","ping":108}]},{"server_id":5,"name":"Uncletopia | Frankfurt | 1 | All Maps","name_short":"frk-1","host":"frk-1.de.uncletopia.com","port":27015,"enabled":true,"region":"eu","cc":"de","latitude":50.110924,"longitude":8.682127,"reserved":0,"last_update":"0001-01-01T00:00:00Z","name_a2s":"Uncletopia | Frankfurt | 1 | All Maps","protocol":17,"map":"pl_frontier_final","folder":"tf","game":"Team Fortress","app_id":440,"player_count":23,"max_players":24,"Bots":0,"server_type":"Dedicated","server_os":"Linux","password":true,"vac":true,"version":"7961495","steam_id":85568392924469989,"keywords":["nocrits","nodmgspread","payload","uncletopia"],"game_id":440,"stv_port":27016,"stv_name":"Uncletopia | Frankfurt | 1 | All Maps | STV","players":[{"user_id":8,"name":"Falcon","steam_id":76561198211463916,"connected_time":1726000000000,"state":"active","ping":115},{"user_id":11,"name":"Savv","steam_id":76561197992892379,"connected_time":1678000000000,"state":"active","ping":177},{"user_id":10,"name":"SoulSeek","steam_id":76561198023805987,"connected_time":1691000000000,"state":"spawning","ping":62},{"user_id":12,"name":"[IVe/LO]Jadore_les_Currywurst","steam_id":76561198005084382,"connected_time":1644000000000,"state":"spawning","ping":76},{"user_id":39,"name":"♉ LEIGULAS ♉","steam_id":76561198006815007,"connected_time":1013000000000,"state":"active","ping":244},{"user_id":14,"name":"Barry Bee Benson","steam_id":76561198115199225,"connected_time":1596000000000,"state":"spawning","ping":55},{"user_id":47,"name":"flave","steam_id":76561198056372101,"connected_time":27000000000,"state":"spawning","ping":57},{"user_id":44,"name":"alpha","steam_id":76561198250491640,"connected_time":43000000000,"state":"active","ping":55},{"user_id":41,"name":"fgustav","steam_id":76561197996939661,"connected_time":897000000000,"state":"spawning","ping":76},{"user_id":38,"name":"leminsc8","steam_id":76561198825084995,"connected_time":1054000000000,"state":"spawning","ping":55},{"user_id":28,"name":"puuksu_mees7","steam_id":76561198022616643,"connected_time":1391000000000,"state":"active","ping":137},{"user_id":45,"name":"Strangerdanger","steam_id":76561198206728500,"connected_time":40000000000,"state":"spawning","ping":334},{"user_id":21,"name":"randompixel","steam_id":76561198003941207,"connected_time":1469000000000,"state":"spawning","ping":119},{"user_id":23,"name":"Hey, I´m Andy!","steam_id":76561198060337777,"connected_time":1455000000000,"state":"spawning","ping":329},{"user_id":24,"name":"jimq","steam_id":76561198394653715,"connected_time":1431000000000,"state":"spawning","ping":69},{"user_id":40,"name":"spruce","steam_id":76561198353290368,"connected_time":1011000000000,"state":"active","ping":82},{"user_id":26,"name":"vurtun","steam_id":76561198857395274,"connected_time":1396000000000,"state":"spawning","ping":29},{"user_id":27,"name":"−•−• •− −","steam_id":76561198139398425,"connected_time":1393000000000,"state":"active","ping":125},{"user_id":29,"name":"Poop_toast","steam_id":76561199251933053,"connected_time":1387000000000,"state":"spawning","ping":165},{"user_id":30,"name":"FoOzTV","steam_id":76561197998636728,"connected_time":1354000000000,"state":"spawning","ping":56},{"user_id":46,"name":"quarks and stuff","steam_id":76561198137869662,"connected_time":40000000000,"state":"spawning","ping":67},{"user_id":42,"name":"2BCD","steam_id":76561198178254946,"connected_time":835000000000,"state":"spawning","ping":309},{"user_id":43,"name":"ouchie wouchies","steam_id":76561198105443986,"connected_time":834000000000,"state":"spawning","ping":78}]},{"server_id":110,"name":"Uncletopia | Frankfurt | 2 | All Maps","name_short":"frk-2","host":"frk-1.de.uncletopia.com","port":27025,"enabled":true,"region":"eu","cc":"de","latitude":50.110924,"longitude":8.682127,"reserved":0,"last_update":"0001-01-01T00:00:00Z","name_a2s":"Uncletopia | Frankfurt | 2 | All Maps","protocol":17,"map":"pl_borneo","folder":"tf","game":"Team Fortress","app_id":440,"player_count":24,"max_players":24,"Bots":0,"server_type":"Dedicated","server_os":"Linux","password":true,"vac":true,"version":"7961495","steam_id":85568392924469990,"keywords":["nocrits","nodmgspread","payload","uncletopia"],"game_id":440,"stv_port":27026,"stv_name":"Uncletopia | Frankfurt | 2 | All Maps | STV","players":[{"user_id":19,"name":"Dante","steam_id":76561198867107032,"connected_time":526000000000,"state":"active","ping":144},{"user_id":7,"name":"Chainfire","steam_id":76561198120774329,"connected_time":1264000000000,"state":"active","ping":115},{"user_id":10,"name":"Rocadinis","steam_id":76561198095910616,"connected_time":1022000000000,"state":"active","ping":93},{"user_id":11,"name":"JM\u003c3","steam_id":76561199123978696,"connected_time":977000000000,"state":"active","ping":103},{"user_id":14,"name":"ash","steam_id":76561198159073505,"connected_time":763000000000,"state":"active","ping":90},{"user_id":15,"name":"MrBanana","steam_id":76561198116021623,"connected_time":748000000000,"state":"active","ping":58},{"user_id":20,"name":"Doriian","steam_id":76561198071438810,"connected_time":470000000000,"state":"active","ping":78},{"user_id":17,"name":"Minimi","steam_id":76561198873850443,"connected_time":633000000000,"state":"active","ping":64},{"user_id":25,"name":"antlionguard","steam_id":76561198072747143,"connected_time":386000000000,"state":"active","ping":98},{"user_id":29,"name":"willem dafoe fan","steam_id":76561198795590054,"connected_time":346000000000,"state":"active","ping":87},{"user_id":40,"name":"Pinkchup","steam_id":76561198106802803,"connected_time":77000000000,"state":"active","ping":75},{"user_id":37,"name":"Mayor Wank from Wanker Town","steam_id":76561197998253588,"connected_time":216000000000,"state":"active","ping":52},{"user_id":41,"name":"Magiccomplex","steam_id":76561199203555188,"connected_time":27000000000,"state":"active","ping":42},{"user_id":26,"name":"Remyie","steam_id":76561198131031404,"connected_time":382000000000,"state":"active","ping":101},{"user_id":27,"name":"Electro","steam_id":76561198047875183,"connected_time":381000000000,"state":"active","ping":84},{"user_id":28,"name":"Ronix97","steam_id":76561198880996434,"connected_time":359000000000,"state":"active","ping":47},{"user_id":30,"name":"mucaak","steam_id":76561198938589296,"connected_time":328000000000,"state":"active","ping":71},{"user_id":31,"name":"ＴrendyＬemon","steam_id":76561198158957324,"connected_time":265000000000,"state":"active","ping":75},{"user_id":32,"name":"juni","steam_id":76561198036504214,"connected_time":263000000000,"state":"active","ping":47},{"user_id":33,"name":"DrExplosive","steam_id":76561198063678579,"connected_time":262000000000,"state":"active","ping":57},{"user_id":34,"name":"Genesis","steam_id":76561198999652040,"connected_time":254000000000,"state":"active","ping":44},{"user_id":36,"name":"StingyLettuce","steam_id":76561199010337406,"connected_time":233000000000,"state":"active","ping":112},{"user_id":38,"name":"Benzo Fury","steam_id":76561198025259336,"connected_time":214000000000,"state":"active","ping":60},{"user_id":39,"name":"El Mosquito","steam_id":76561198065347907,"connected_time":208000000000,"state":"active","ping":79}]},{"server_id":308,"name":"Uncletopia | Frankfurt | 3 | All Maps","name_short":"frk-3","host":"frk-1.de.uncletopia.com","port":27035,"enabled":true,"region":"eu","cc":"de","latitude":50.110924,"longitude":8.682127,"reserved":0,"last_update":"0001-01-01T00:00:00Z","name_a2s":"Uncletopia | Frankfurt | 3 | All Maps","protocol":17,"map":"pl_barnblitz","folder":"tf","game":"Team Fortress","app_id":440,"player_count":24,"max_players":24,"Bots":0,"server_type":"Dedicated","server_os":"Linux","password":true,"vac":true,"version":"7961495","steam_id":85568392924504274,"keywords":["nocrits","nodmgspread","payload","uncletopia"],"game_id":440,"stv_port":27036,"stv_name":"Uncletopia | Frankfurt | 3 | All Maps | STV","players":[{"user_id":21,"name":"db","steam_id":76561198377533237,"connected_time":2108000000000,"state":"active","ping":71},{"user_id":65,"name":"Tomfool","steam_id":76561197993256481,"connected_time":789000000000,"state":"active","ping":72},{"user_id":49,"name":"Shlyk","steam_id":76561198333387103,"connected_time":1057000000000,"state":"active","ping":99},{"user_id":50,"name":"Maddox","steam_id":76561198026419869,"connected_time":1054000000000,"state":"active","ping":68},{"user_id":14,"name":"Street Carp","steam_id":76561198202175138,"connected_time":2440000000000,"state":"active","ping":110},{"user_id":93,"name":"yuck","steam_id":76561197987249568,"connected_time":439000000000,"state":"active","ping":83},{"user_id":52,"name":"GorkaMorka","steam_id":76561198323830346,"connected_time":941000000000,"state":"active","ping":82},{"user_id":13,"name":"the one who grips","steam_id":76561198381106289,"connected_time":2557000000000,"state":"active","ping":72},{"user_id":101,"name":"Krefa12","steam_id":76561198268375393,"connected_time":344000000000,"state":"active","ping":80},{"user_id":104,"name":"Homosapien","steam_id":76561197972035953,"connected_time":294000000000,"state":"active","ping":46},{"user_id":18,"name":"Rengii76","steam_id":76561198869802076,"connected_time":2243000000000,"state":"active","ping":70},{"user_id":116,"name":"Acanda","steam_id":76561198123246537,"connected_time":82000000000,"state":"active","ping":54},{"user_id":96,"name":"Haine-Kun","steam_id":76561198033843814,"connected_time":408000000000,"state":"active","ping":66},{"user_id":110,"name":"Twink Destroyer","steam_id":76561198397024973,"connected_time":195000000000,"state":"active","ping":56},{"user_id":60,"name":"Pohnut","steam_id":76561198087831690,"connected_time":826000000000,"state":"active","ping":63},{"user_id":26,"name":"gaming gamer","steam_id":76561198212488780,"connected_time":2054000000000,"state":"active","ping":60},{"user_id":48,"name":"fish","steam_id":76561198092096689,"connected_time":1100000000000,"state":"active","ping":52},{"user_id":53,"name":"frosty","steam_id":76561198094560834,"connected_time":933000000000,"state":"active","ping":66},{"user_id":30,"name":"Coja","steam_id":76561198083974982,"connected_time":2006000000000,"state":"active","ping":79},{"user_id":62,"name":"Jobless and Angry","steam_id":76561198160523608,"connected_time":802000000000,"state":"active","ping":71},{"user_id":32,"name":"Happy Cat","steam_id":76561198405359788,"connected_time":2004000000000,"state":"active","ping":96},{"user_id":118,"name":"NothingMan","steam_id":76561198051284446,"connected_time":52000000000,"state":"active","ping":57},{"user_id":86,"name":"Petros","steam_id":76561198088906975,"connected_time":497000000000,"state":"active","ping":80},{"user_id":41,"name":"Not A Fake Uncletopia Server","steam_id":76561198152871288,"connected_time":1923000000000,"state":"active","ping":59}]},{"server_id":309,"name":"Uncletopia | Frankfurt | 4 | All Maps","name_short":"frk-4","host":"frk-1.de.uncletopia.com","port":27045,"enabled":true,"region":"eu","cc":"de","latitude":50.110924,"longitude":8.682127,"reserved":0,"last_update":"0001-01-01T00:00:00Z","name_a2s":"Uncletopia | Frankfurt | 4 | All Maps","protocol":17,"map":"pl_badwater","folder":"tf","game":"Team Fortress","app_id":440,"player_count":0,"max_players":24,"Bots":0,"server_type":"Dedicated","server_os":"Linux","password":true,"vac":true,"version":"7961495","steam_id":85568392924504275,"keywords":["nocrits","nodmgspread","payload","uncletopia"],"game_id":440,"stv_port":27046,"stv_name":"Uncletopia | Frankfurt | 4 | All Maps | STV","players":null},{"server_id":310,"name":"Uncletopia | Frankfurt | 5 | All Maps","name_short":"frk-5","host":"frk-1.de.uncletopia.com","port":27055,"enabled":true,"region":"eu","cc":"de","latitude":50.110924,"longitude":8.682127,"reserved":0,"last_update":"0001-01-01T00:00:00Z","name_a2s":"Uncletopia | Frankfurt | 5 | All Maps","protocol":17,"map":"koth_highpass","folder":"tf","game":"Team Fortress","app_id":440,"player_count":0,"max_players":24,"Bots":0,"server_type":"Dedicated","server_os":"Linux","password":true,"vac":true,"version":"7961495","steam_id":85568392924504277,"keywords":["cp","nocrits","nodmgspread","uncletopia"],"game_id":440,"stv_port":27056,"stv_name":"Uncletopia | Frankfurt | 5 | All Maps | STV","players":null},{"server_id":311,"name":"Uncletopia | Frankfurt | 6 | All Maps","name_short":"frk-6","host":"frk-1.de.uncletopia.com","port":27065,"enabled":true,"region":"eu","cc":"de","latitude":50.110924,"longitude":8.682127,"reserved":0,"last_update":"0001-01-01T00:00:00Z","name_a2s":"Uncletopia | Frankfurt | 6 | All Maps","protocol":17,"map":"pl_barnblitz","folder":"tf","game":"Team Fortress","app_id":440,"player_count":13,"max_players":24,"Bots":0,"server_type":"Dedicated","server_os":"Linux","password":true,"vac":true,"version":"7961495","steam_id":85568392924504278,"keywords":["nocrits","nodmgspread","payload","uncletopia"],"game_id":440,"stv_port":27066,"stv_name":"Uncletopia | Frankfurt | 6 | All Maps | STV","players":[{"user_id":9,"name":"Bagingi","steam_id":76561198052197810,"connected_time":1040000000000,"state":"active","ping":99},{"user_id":10,"name":"Liberos","steam_id":76561198050029082,"connected_time":982000000000,"state":"active","ping":88},{"user_id":11,"name":"Rynowm","steam_id":76561198136379860,"connected_time":957000000000,"state":"active","ping":78},{"user_id":14,"name":"papaja","steam_id":76561199216208960,"connected_time":664000000000,"state":"active","ping":88},{"user_id":15,"name":"Emperor Haddad","steam_id":76561198308853672,"connected_time":512000000000,"state":"active","ping":69},{"user_id":16,"name":"Джекет","steam_id":76561198327897125,"connected_time":468000000000,"state":"active","ping":86},{"user_id":24,"name":"( ´･ω･ `)","steam_id":76561198118412910,"connected_time":8000000000,"state":"active","ping":107},{"user_id":18,"name":"purpledrake08","steam_id":76561199155657280,"connected_time":214000000000,"state":"active","ping":273},{"user_id":20,"name":"God's Hungriest PitBull","steam_id":76561198069518492,"connected_time":196000000000,"state":"active","ping":90},{"user_id":21,"name":"r0la","steam_id":76561198128315340,"connected_time":122000000000,"state":"active","ping":84},{"user_id":22,"name":"Number 1 BROCKHAMPTON Fan","steam_id":76561199130640658,"connected_time":46000000000,"state":"active","ping":85},{"user_id":23,"name":"ᶦˢʳᵃᵉˡ","steam_id":76561198051832269,"connected_time":32000000000,"state":"active","ping":59},{"user_id":25,"name":"SelfBurn","steam_id":76561199121219076,"connected_time":8000000000,"state":"spawning","ping":42}]},{"server_id":23,"name":"Uncletopia | Frankfurt | 7 | Stopwatch Beta","name_short":"frk-7","host":"frk-1.de.uncletopia.com","port":27075,"enabled":true,"region":"eu","cc":"de","latitude":50.110924,"longitude":8.682127,"reserved":0,"last_update":"0001-01-01T00:00:00Z","name_a2s":"Uncletopia | Frankfurt | 7 | Stopwatch Beta","protocol":17,"map":"koth_cascade","folder":"tf","game":"Team Fortress","app_id":440,"player_count":0,"max_players":24,"Bots":0,"server_type":"Dedicated","server_os":"Linux","password":true,"vac":true,"version":"7961495","steam_id":85568392924742827,"keywords":["cp","nocrits","nodmgspread","uncletopia"],"game_id":440,"stv_port":27076,"stv_name":"Uncletopia | Frankfurt | 7 | Stopwatch Beta | STV","players":null},{"server_id":24,"name":"Uncletopia | Frankfurt | 8 | Community","name_short":"frk-8","host":"frk-1.de.uncletopia.com","port":27085,"enabled":true,"region":"eu","cc":"de","latitude":50.110924,"longitude":8.682127,"reserved":0,"last_update":"0001-01-01T00:00:00Z","name_a2s":"Uncletopia | Frankfurt | 8 | Community","protocol":17,"map":"cp_dustbowl","folder":"tf","game":"Team Fortress","app_id":440,"player_count":0,"max_players":24,"Bots":0,"server_type":"Dedicated","server_os":"Linux","password":true,"vac":true,"version":"7961495","steam_id":85568392924742828,"keywords":["cp","nocrits","nodmgspread","uncletopia"],"game_id":440,"stv_port":27086,"stv_name":"Uncletopia | Frankfurt | 8 | Community | STV","players":null},{"server_id":202,"name":"Uncletopia | Hong Kong | 1 | All Maps","name_short":"hgk-1","host":"hgk-1.hk.uncletopia.com","port":27015,"enabled":true,"region":"asia","cc":"hk","latitude":22.302711,"longitude":114.177216,"reserved":0,"last_update":"0001-01-01T00:00:00Z","name_a2s":"Uncletopia | Hong Kong | 1 | All Maps","protocol":17,"map":"koth_highpass","folder":"tf","game":"Team Fortress","app_id":440,"player_count":0,"max_players":24,"Bots":0,"server_type":"Dedicated","server_os":"Linux","password":true,"vac":true,"version":"7961495","steam_id":85568392924494504,"keywords":["cp","nocrits","nodmgspread","uncletopia"],"game_id":440,"stv_port":27016,"stv_name":"Uncletopia | Hong Kong | 1 | All Maps | STV","players":null},{"server_id":1,"name":"Uncletopia | Los Angeles | 1 | All Maps","name_short":"lax-1","host":"lax-1.us.uncletopia.com","port":27015,"enabled":true,"region":"us-west","cc":"us","latitude":33.94279,"longitude":-118.41004,"reserved":0,"last_update":"0001-01-01T00:00:00Z","name_a2s":"Uncletopia | Los Angeles | 1 | All Maps","protocol":17,"map":"cp_mountainlab","folder":"tf","game":"Team Fortress","app_id":440,"player_count":0,"max_players":24,"Bots":0,"server_type":"Dedicated","server_os":"Linux","password":true,"vac":true,"version":"7961495","steam_id":85568392924469991,"keywords":["cp","nocrits","nodmgspread","uncletopia"],"game_id":440,"stv_port":27016,"stv_name":"Uncletopia | Los Angeles | 1 | All Maps | STV","players":null},{"server_id":112,"name":"Uncletopia | Los Angeles | 2 | All Maps","name_short":"lax-2","host":"lax-1.us.uncletopia.com","port":27025,"enabled":true,"region":"us-west","cc":"us","latitude":33.94279,"longitude":-118.41004,"reserved":0,"last_update":"0001-01-01T00:00:00Z","name_a2s":"Uncletopia | Los Angeles | 2 | All Maps","protocol":17,"map":"pl_borneo","folder":"tf","game":"Team Fortress","app_id":440,"player_count":0,"max_players":24,"Bots":0,"server_type":"Dedicated","server_os":"Linux","password":true,"vac":true,"version":"7961495","steam_id":85568392924469992,"keywords":["nocrits","nodmgspread","payload","uncletopia"],"game_id":440,"stv_port":27026,"stv_name":"Uncletopia | Los Angeles | 2 | All Maps | STV","players":null},{"server_id":324,"name":"Uncletopia | Los Angeles | 3 | All Maps","name_short":"lax-3","host":"lax-1.us.uncletopia.com","port":27035,"enabled":true,"region":"us-west","cc":"us","latitude":33.94279,"longitude":-118.41004,"reserved":0,"last_update":"0001-01-01T00:00:00Z","name_a2s":"Uncletopia | Los Angeles | 3 | All Maps","protocol":17,"map":"cp_process_final","folder":"tf","game":"Team Fortress","app_id":440,"player_count":0,"max_players":24,"Bots":0,"server_type":"Dedicated","server_os":"Linux","password":true,"vac":true,"version":"7961495","steam_id":85568392924510198,"keywords":["cp","nocrits","nodmgspread","uncletopia"],"game_id":440,"stv_port":27036,"stv_name":"Uncletopia | Los Angeles | 3 | All Maps | STV","players":null},{"server_id":25,"name":"Uncletopia | Los Angeles | 4 | Stopwatch Beta","name_short":"lax-4","host":"lax-1.us.uncletopia.com","port":27045,"enabled":true,"region":"us-west","cc":"us","latitude":33.94279,"longitude":-118.41004,"reserved":0,"last_update":"0001-01-01T00:00:00Z","name_a2s":"Uncletopia | Los Angeles | 4 | Stopwatch Beta","protocol":17,"map":"pl_upward","folder":"tf","game":"Team Fortress","app_id":440,"player_count":0,"max_players":24,"Bots":0,"server_type":"Dedicated","server_os":"Linux","password":true,"vac":true,"version":"7961495","steam_id":85568392924510199,"keywords":["nocrits","nodmgspread","payload","uncletopia"],"game_id":440,"stv_port":27046,"stv_name":"Uncletopia | Los Angeles | 4 | Stopwatch Beta | STV","players":null},{"server_id":11,"name":"Uncletopia | London | 1 | All Maps","name_short":"lon-1","host":"lon-1.uk.uncletopia.com","port":27015,"enabled":true,"region":"eu","cc":"gb","latitude":51.509865,"longitude":-0.118092,"reserved":0,"last_update":"0001-01-01T00:00:00Z","name_a2s":"Uncletopia | London | 1 | All Maps","protocol":17,"map":"cp_steel","folder":"tf","game":"Team Fortress","app_id":440,"player_count":24,"max_players":24,"Bots":0,"server_type":"Dedicated","server_os":"Linux","password":true,"vac":true,"version":"7961495","steam_id":85568392924367362,"keywords":["cp","nocrits","nodmgspread","uncletopia"],"game_id":440,"stv_port":27016,"stv_name":"Uncletopia | London | 1 | All Maps | STV","players":[{"user_id":319,"name":"ambiwalentna","steam_id":76561199010825303,"connected_time":3291000000000,"state":"active","ping":85},{"user_id":380,"name":"AftiksPL","steam_id":76561198875182686,"connected_time":584000000000,"state":"active","ping":127},{"user_id":356,"name":"png.png","steam_id":76561198444446521,"connected_time":1720000000000,"state":"active","ping":105},{"user_id":383,"name":"TroupeKingGrimm","steam_id":76561199130602211,"connected_time":408000000000,"state":"active","ping":61},{"user_id":379,"name":"Croy","steam_id":76561197972552579,"connected_time":594000000000,"state":"active","ping":44},{"user_id":357,"name":"pokemonsuper9","steam_id":76561198120530545,"connected_time":1706000000000,"state":"active","ping":69},{"user_id":372,"name":"FlukeY","steam_id":76561198026137327,"connected_time":1000000000000,"state":"active","ping":70},{"user_id":338,"name":"Nessieling","steam_id":76561198083556891,"connected_time":2562000000000,"state":"active","ping":77},{"user_id":363,"name":"glyph","steam_id":76561197980736364,"connected_time":1641000000000,"state":"active","ping":90},{"user_id":377,"name":"Malai","steam_id":76561198062537014,"connected_time":639000000000,"state":"active","ping":80},{"user_id":350,"name":"ein'd","steam_id":76561198152162834,"connected_time":1918000000000,"state":"active","ping":105},{"user_id":378,"name":"[T]aKer","steam_id":76561198001778013,"connected_time":604000000000,"state":"active","ping":45},{"user_id":374,"name":"Asfreild","steam_id":76561198055901120,"connected_time":808000000000,"state":"active","ping":74},{"user_id":283,"name":"howabe","steam_id":76561197996486818,"connected_time":5026000000000,"state":"active","ping":68},{"user_id":324,"name":"rosepinkyfuzz","steam_id":76561198018546334,"connected_time":3205000000000,"state":"active","ping":89},{"user_id":353,"name":"Piox","steam_id":76561198125689157,"connected_time":1802000000000,"state":"active","ping":76},{"user_id":360,"name":"Oxer","steam_id":76561198055942412,"connected_time":1666000000000,"state":"active","ping":85},{"user_id":351,"name":"Atomiccorn","steam_id":76561198298316720,"connected_time":1900000000000,"state":"active","ping":68},{"user_id":375,"name":"Worm","steam_id":76561198296497176,"connected_time":723000000000,"state":"active","ping":58},{"user_id":361,"name":"Kepler_62f","steam_id":76561199005732555,"connected_time":1666000000000,"state":"active","ping":82},{"user_id":314,"name":"halow","steam_id":76561198061505163,"connected_time":3515000000000,"state":"active","ping":105},{"user_id":382,"name":"schmick h_stt 0","steam_id":76561198039537958,"connected_time":513000000000,"state":"active","ping":45},{"user_id":386,"name":"iiiiiii","steam_id":76561199082156030,"connected_time":281000000000,"state":"active","ping":89},{"user_id":371,"name":"-rikeOo-","steam_id":76561198303995379,"connected_time":1161000000000,"state":"active","ping":83}]},{"server_id":114,"name":"Uncletopia | London | 2 | All Maps","name_short":"lon-2","host":"lon-1.uk.uncletopia.com","port":27025,"enabled":true,"region":"eu","cc":"gb","latitude":51.509865,"longitude":-0.118092,"reserved":0,"last_update":"0001-01-01T00:00:00Z","name_a2s":"Uncletopia | London | 2 | All Maps","protocol":17,"map":"pl_swiftwater_final1","folder":"tf","game":"Team Fortress","app_id":440,"player_count":21,"max_players":24,"Bots":0,"server_type":"Dedicated","server_os":"Linux","password":true,"vac":true,"version":"7961495","steam_id":85568392924470941,"keywords":["nocrits","nodmgspread","payload","uncletopia"],"game_id":440,"stv_port":27026,"stv_name":"Uncletopia | London | 2 | All Maps | STV","players":[{"user_id":219,"name":"Cosmic Gamer","steam_id":76561198027357981,"connected_time":2574000000000,"state":"active","ping":113},{"user_id":195,"name":"Solus","steam_id":76561199486493777,"connected_time":3448000000000,"state":"active","ping":45},{"user_id":231,"name":"F4.exe","steam_id":76561198278822807,"connected_time":1857000000000,"state":"active","ping":72},{"user_id":246,"name":"Javier dorsaless","steam_id":76561198179324075,"connected_time":350000000000,"state":"active","ping":69},{"user_id":235,"name":"Tea","steam_id":76561198799243030,"connected_time":1534000000000,"state":"active","ping":69},{"user_id":179,"name":"Mr.Duck","steam_id":76561197983710667,"connected_time":4001000000000,"state":"active","ping":93},{"user_id":241,"name":"[-K-R-I-S-]","steam_id":76561198298185714,"connected_time":534000000000,"state":"active","ping":60},{"user_id":248,"name":"DwoaC","steam_id":76561198005686118,"connected_time":305000000000,"state":"active","ping":66},{"user_id":249,"name":"t.tv/Montreetor","steam_id":76561198088729562,"connected_time":40000000000,"state":"spawning","ping":74},{"user_id":160,"name":"A Javelin Pro Tank missile","steam_id":76561198133780954,"connected_time":4493000000000,"state":"active","ping":66},{"user_id":245,"name":"neophyte78","steam_id":76561198010009076,"connected_time":374000000000,"state":"active","ping":50},{"user_id":240,"name":"generic alias","steam_id":76561198271607226,"connected_time":635000000000,"state":"active","ping":91},{"user_id":183,"name":"ROX","steam_id":76561198272289320,"connected_time":3848000000000,"state":"active","ping":59},{"user_id":167,"name":"xTheDarkLight","steam_id":76561198239128298,"connected_time":4309000000000,"state":"active","ping":61},{"user_id":234,"name":"Zrazik","steam_id":76561198084112189,"connected_time":1557000000000,"state":"active","ping":87},{"user_id":190,"name":"Zerfesh","steam_id":76561198117534358,"connected_time":3722000000000,"state":"active","ping":108},{"user_id":232,"name":"elmstJP ₪ F4.exe","steam_id":76561197997909480,"connected_time":1851000000000,"state":"active","ping":75},{"user_id":243,"name":"Foo.","steam_id":76561198000013666,"connected_time":423000000000,"state":"active","ping":71},{"user_id":224,"name":"BD[PL]","steam_id":76561198115995871,"connected_time":2540000000000,"state":"active","ping":91},{"user_id":236,"name":"mark","steam_id":76561198309246388,"connected_time":968000000000,"state":"active","ping":60},{"user_id":244,"name":"Bottle O' Scrumpy","steam_id":76561199244250562,"connected_time":403000000000,"state":"active","ping":108}]},{"server_id":320,"name":"Uncletopia | London | 3 | All Maps","name_short":"lon-3","host":"lon-1.uk.uncletopia.com","port":27035,"enabled":true,"region":"eu","cc":"gb","latitude":51.509865,"longitude":-0.118092,"reserved":0,"last_update":"0001-01-01T00:00:00Z","name_a2s":"Uncletopia | London | 3 | All Maps","protocol":17,"map":"pl_barnblitz","folder":"tf","game":"Team Fortress","app_id":440,"player_count":24,"max_players":24,"Bots":0,"server_type":"Dedicated","server_os":"Linux","password":true,"vac":true,"version":"7961495","steam_id":85568392924510192,"keywords":["nocrits","nodmgspread","payload","uncletopia"],"game_id":440,"stv_port":27036,"stv_name":"Uncletopia | London | 3 | All Maps | STV","players":[{"user_id":250,"name":"Boop","steam_id":76561198042167559,"connected_time":1329000000000,"state":"active","ping":50},{"user_id":243,"name":"Woman (Real)","steam_id":76561199151823932,"connected_time":2296000000000,"state":"active","ping":88},{"user_id":267,"name":"Dapper","steam_id":76561198081694974,"connected_time":168000000000,"state":"active","ping":44},{"user_id":253,"name":"rets","steam_id":76561198061551392,"connected_time":1200000000000,"state":"active","ping":68},{"user_id":251,"name":"static","steam_id":76561198836825741,"connected_time":1315000000000,"state":"active","ping":50},{"user_id":242,"name":"Ricey","steam_id":76561198832961307,"connected_time":2334000000000,"state":"active","ping":44},{"user_id":188,"name":"Twiggu","steam_id":76561198070853128,"connected_time":5649000000000,"state":"active","ping":82},{"user_id":142,"name":"mateusz","steam_id":76561198111599735,"connected_time":7751000000000,"state":"active","ping":67},{"user_id":233,"name":"Grillem Dafoe","steam_id":76561198306874574,"connected_time":2660000000000,"state":"active","ping":62},{"user_id":132,"name":"Grand Piano Tuna","steam_id":76561198135137213,"connected_time":8481000000000,"state":"active","ping":153},{"user_id":234,"name":"Burpman","steam_id":76561198022897937,"connected_time":2657000000000,"state":"active","ping":46},{"user_id":249,"name":"please do not the cat","steam_id":76561198089003514,"connected_time":1697000000000,"state":"active","ping":60},{"user_id":248,"name":"kanka","steam_id":76561198116530769,"connected_time":1703000000000,"state":"active","ping":94},{"user_id":264,"name":"джегеми хэпкингс","steam_id":76561198131531394,"connected_time":549000000000,"state":"active","ping":117},{"user_id":265,"name":"khan","steam_id":76561198099245500,"connected_time":363000000000,"state":"active","ping":56},{"user_id":252,"name":"Plep","steam_id":76561198840259819,"connected_time":1204000000000,"state":"active","ping":60},{"user_id":230,"name":"Lyncurion","steam_id":76561199260022725,"connected_time":2694000000000,"state":"active","ping":90},{"user_id":254,"name":"quickfast","steam_id":76561199438900919,"connected_time":1197000000000,"state":"active","ping":45},{"user_id":134,"name":"uheggwhite","steam_id":76561199199795741,"connected_time":8464000000000,"state":"active","ping":160},{"user_id":256,"name":"Special Agent Big Smoke","steam_id":76561198154468827,"connected_time":1175000000000,"state":"active","ping":72},{"user_id":215,"name":"[503. ]captain swiftfingers","steam_id":76561198043684517,"connected_time":4328000000000,"state":"active","ping":56},{"user_id":150,"name":"douio","steam_id":76561199070344811,"connected_time":7618000000000,"state":"active","ping":93},{"user_id":257,"name":"Creative","steam_id":76561198835034247,"connected_time":1174000000000,"state":"active","ping":92},{"user_id":259,"name":"Bun","steam_id":76561197989239999,"connected_time":1114000000000,"state":"active","ping":60}]},{"server_id":321,"name":"Uncletopia | London | 4 | All Maps","name_short":"lon-4","host":"lon-1.uk.uncletopia.com","port":27045,"enabled":true,"region":"eu","cc":"gb","latitude":51.509865,"longitude":-0.118092,"reserved":0,"last_update":"0001-01-01T00:00:00Z","name_a2s":"Uncletopia | London | 4 | All Maps","protocol":17,"map":"pl_upward","folder":"tf","game":"Team Fortress","app_id":440,"player_count":24,"max_players":24,"Bots":0,"server_type":"Dedicated","server_os":"Linux","password":true,"vac":true,"version":"7961495","steam_id":85568392924510193,"keywords":["nocrits","nodmgspread","payload","uncletopia"],"game_id":440,"stv_port":27046,"stv_name":"Uncletopia | London | 4 | All Maps | STV","players":[{"user_id":278,"name":"Estamie","steam_id":76561198058527691,"connected_time":3071000000000,"state":"active","ping":86},{"user_id":227,"name":"hyvakii705","steam_id":76561198086630552,"connected_time":6437000000000,"state":"active","ping":89},{"user_id":312,"name":"lulu","steam_id":76561199147764133,"connected_time":717000000000,"state":"active","ping":76},{"user_id":237,"name":"Owlet","steam_id":76561198065613974,"connected_time":6135000000000,"state":"active","ping":74},{"user_id":294,"name":"nobodyy","steam_id":76561198027735766,"connected_time":1884000000000,"state":"active","ping":75},{"user_id":320,"name":"Tercio","steam_id":76561197992230278,"connected_time":191000000000,"state":"active","ping":86},{"user_id":318,"name":"Michael","steam_id":76561198003146906,"connected_time":295000000000,"state":"active","ping":47},{"user_id":282,"name":"Kamanie","steam_id":76561198135448255,"connected_time":3005000000000,"state":"active","ping":70},{"user_id":309,"name":"Lorenzo Lovers","steam_id":76561198073973581,"connected_time":1033000000000,"state":"active","ping":97},{"user_id":296,"name":"fart poo penis","steam_id":76561199008015028,"connected_time":1856000000000,"state":"active","ping":47},{"user_id":304,"name":"The Green Uncle","steam_id":76561198257163156,"connected_time":1196000000000,"state":"active","ping":75},{"user_id":319,"name":"GRAFTOR","steam_id":76561198024638352,"connected_time":293000000000,"state":"active","ping":116},{"user_id":313,"name":"Shlongulator","steam_id":76561198149779201,"connected_time":703000000000,"state":"active","ping":49},{"user_id":298,"name":"WinRAR™","steam_id":76561198056522270,"connected_time":1697000000000,"state":"active","ping":74},{"user_id":307,"name":"lore","steam_id":76561198120984188,"connected_time":1167000000000,"state":"active","ping":84},{"user_id":314,"name":"Greasus (The Shockingly Obese)","steam_id":76561198027738546,"connected_time":679000000000,"state":"active","ping":47},{"user_id":322,"name":"hotmom","steam_id":76561198081264588,"connected_time":26000000000,"state":"active","ping":69},{"user_id":292,"name":"Emir","steam_id":76561198113089831,"connected_time":1950000000000,"state":"active","ping":92},{"user_id":293,"name":"Jimmi Amareno","steam_id":76561198327750625,"connected_time":1901000000000,"state":"active","ping":32},{"user_id":295,"name":"Lukas","steam_id":76561198009118452,"connected_time":1870000000000,"state":"active","ping":76},{"user_id":297,"name":"Frenchie","steam_id":76561198178298931,"connected_time":1844000000000,"state":"active","ping":44},{"user_id":301,"name":"Donutella","steam_id":76561198193972491,"connected_time":1226000000000,"state":"active","ping":51},{"user_id":306,"name":"azzy","steam_id":76561198061293740,"connected_time":1192000000000,"state":"active","ping":82},{"user_id":311,"name":"Thing","steam_id":76561197997904403,"connected_time":849000000000,"state":"active","ping":112}]},{"server_id":21,"name":"Uncletopia | London | 5 | All Maps","name_short":"lon-5","host":"lon-1.uk.uncletopia.com","port":27055,"enabled":true,"region":"eu","cc":"gb","latitude":51.509865,"longitude":-0.118092,"reserved":0,"last_update":"0001-01-01T00:00:00Z","name_a2s":"Uncletopia | London | 5 | All Maps","protocol":17,"map":"cp_dustbowl","folder":"tf","game":"Team Fortress","app_id":440,"player_count":24,"max_players":24,"Bots":0,"server_type":"Dedicated","server_os":"Linux","password":true,"vac":true,"version":"7961495","steam_id":85568392924742829,"keywords":["cp","nocrits","nodmgspread","uncletopia"],"game_id":440,"stv_port":27056,"stv_name":"Uncletopia | London | 5 | All Maps | STV","players":[{"user_id":78,"name":"Fbafroguy","steam_id":76561199113010473,"connected_time":395000000000,"state":"active","ping":61},{"user_id":63,"name":"GEP Gun","steam_id":76561197981821003,"connected_time":1785000000000,"state":"active","ping":50},{"user_id":12,"name":"DeterminedXD[HUN]","steam_id":76561199469006453,"connected_time":4700000000000,"state":"active","ping":96},{"user_id":81,"name":"ToTy","steam_id":76561198845763340,"connected_time":190000000000,"state":"active","ping":128},{"user_id":73,"name":"glorbus","steam_id":76561198969544894,"connected_time":851000000000,"state":"active","ping":45},{"user_id":69,"name":"Avitz","steam_id":76561197986150359,"connected_time":1152000000000,"state":"active","ping":45},{"user_id":58,"name":"concussion gaming","steam_id":76561198425494530,"connected_time":1891000000000,"state":"active","ping":132},{"user_id":18,"name":"Lola bunny","steam_id":76561198214149431,"connected_time":3567000000000,"state":"active","ping":45},{"user_id":20,"name":"LainBizkit","steam_id":76561199200708626,"connected_time":3479000000000,"state":"active","ping":106},{"user_id":21,"name":"Alcoholic Princess","steam_id":76561198208093880,"connected_time":3477000000000,"state":"active","ping":61},{"user_id":59,"name":"O B S E R V E R","steam_id":76561198397143311,"connected_time":1843000000000,"state":"active","ping":72},{"user_id":56,"name":"AudioFall","steam_id":76561198208814216,"connected_time":1948000000000,"state":"active","ping":50},{"user_id":24,"name":"Ledo","steam_id":76561198845775668,"connected_time":3423000000000,"state":"active","ping":127},{"user_id":82,"name":"Federal Republic of Yugoslavia","steam_id":76561198883033062,"connected_time":173000000000,"state":"active","ping":115},{"user_id":26,"name":"Windy Windo","steam_id":76561199222931747,"connected_time":3405000000000,"state":"active","ping":167},{"user_id":74,"name":"Mobster Tortoise","steam_id":76561199036837091,"connected_time":776000000000,"state":"active","ping":93},{"user_id":67,"name":"❤G a n K","steam_id":76561199125995565,"connected_time":1523000000000,"state":"active","ping":61},{"user_id":29,"name":"fartcollector","steam_id":76561198048304703,"connected_time":3349000000000,"state":"active","ping":52},{"user_id":75,"name":"Farmercy","steam_id":76561198000038039,"connected_time":739000000000,"state":"active","ping":64},{"user_id":80,"name":"Rockfrenzy","steam_id":76561198005428050,"connected_time":272000000000,"state":"active","ping":77},{"user_id":39,"name":"Sylvanas","steam_id":76561198154904165,"connected_time":3045000000000,"state":"active","ping":128},{"user_id":62,"name":"hondjo","steam_id":76561198119324108,"connected_time":1806000000000,"state":"active","ping":53},{"user_id":37,"name":"emag live","steam_id":76561198047164140,"connected_time":3131000000000,"state":"active","ping":65},{"user_id":65,"name":"WonderOfU","steam_id":76561199172036471,"connected_time":1738000000000,"state":"active","ping":59}]},{"server_id":22,"name":"Uncletopia | London | 6 | All Maps","name_short":"lon-6","host":"lon-1.uk.uncletopia.com","port":27065,"enabled":true,"region":"eu","cc":"gb","latitude":51.509865,"longitude":-0.118092,"reserved":0,"last_update":"0001-01-01T00:00:00Z","name_a2s":"Uncletopia | London | 6 | All Maps","protocol":17,"map":"cp_sunshine","folder":"tf","game":"Team Fortress","app_id":440,"player_count":24,"max_players":24,"Bots":0,"server_type":"Dedicated","server_os":"Linux","password":true,"vac":true,"version":"7961495","steam_id":85568392924742830,"keywords":["cp","nocrits","nodmgspread","uncletopia"],"game_id":440,"stv_port":27066,"stv_name":"Uncletopia | London | 6 | All Maps | STV","players":[{"user_id":80,"name":"你喜欢它?","steam_id":76561198201424726,"connected_time":236000000000,"state":"active","ping":179},{"user_id":73,"name":"N . E . ㊉ . N","steam_id":76561198074131777,"connected_time":865000000000,"state":"active","ping":56},{"user_id":65,"name":"fence_","steam_id":76561198150386379,"connected_time":1303000000000,"state":"active","ping":43},{"user_id":30,"name":"Pan Pan","steam_id":76561199074670515,"connected_time":2774000000000,"state":"active","ping":103},{"user_id":55,"name":"RLCrazyCat3","steam_id":76561197983757878,"connected_time":2396000000000,"state":"active","ping":70},{"user_id":32,"name":"?TheEnd","steam_id":76561198055280327,"connected_time":2746000000000,"state":"active","ping":111},{"user_id":76,"name":"Dåvid","steam_id":76561198184135755,"connected_time":630000000000,"state":"active","ping":73},{"user_id":34,"name":"Bob Sacamano","steam_id":76561198085610701,"connected_time":2719000000000,"state":"active","ping":130},{"user_id":64,"name":"Dr. Funkenstein","steam_id":76561197977816210,"connected_time":1421000000000,"state":"active","ping":67},{"user_id":81,"name":"jj","steam_id":76561198079200985,"connected_time":228000000000,"state":"active","ping":58},{"user_id":58,"name":"The Builder","steam_id":76561198403959663,"connected_time":1880000000000,"state":"active","ping":97},{"user_id":88,"name":"Kodak White","steam_id":76561198134663458,"connected_time":102000000000,"state":"active","ping":67},{"user_id":79,"name":"Lord Lem0ns!","steam_id":76561198323174893,"connected_time":260000000000,"state":"active","ping":82},{"user_id":83,"name":"Borat","steam_id":76561198122226417,"connected_time":182000000000,"state":"active","ping":42},{"user_id":84,"name":"m909","steam_id":76561198279621400,"connected_time":177000000000,"state":"active","ping":99},{"user_id":67,"name":"jerf(portal 3)","steam_id":76561199213901239,"connected_time":1252000000000,"state":"active","ping":45},{"user_id":85,"name":"kluri","steam_id":76561198084518962,"connected_time":147000000000,"state":"active","ping":81},{"user_id":72,"name":"blazeeight","steam_id":76561198159456502,"connected_time":998000000000,"state":"active","ping":52},{"user_id":47,"name":"Silvestro","steam_id":76561198021660066,"connected_time":2498000000000,"state":"active","ping":96},{"user_id":48,"name":"Amayuri","steam_id":76561198068666784,"connected_time":2490000000000,"state":"active","ping":58},{"user_id":49,"name":"Real (Real)","steam_id":76561198323425034,"connected_time":2486000000000,"state":"active","ping":86},{"user_id":87,"name":"Alegz","steam_id":76561198287810139,"connected_time":110000000000,"state":"active","ping":65},{"user_id":53,"name":"Grym","steam_id":76561198119397460,"connected_time":2445000000000,"state":"active","ping":53},{"user_id":69,"name":"GlueTasty {she/her}","steam_id":76561199086480891,"connected_time":1239000000000,"state":"active","ping":86}]},{"server_id":40,"name":"Uncletopia | London | 7 | No Payload","name_short":"lon-7","host":"lon-1.uk.uncletopia.com","port":27075,"enabled":true,"region":"eu","cc":"gb","latitude":51.509865,"longitude":-0.118092,"reserved":0,"last_update":"0001-01-01T00:00:00Z","name_a2s":"Uncletopia | London | 7 | No Payload","protocol":17,"map":"ctf_well","folder":"tf","game":"Team Fortress","app_id":440,"player_count":0,"max_players":24,"Bots":0,"server_type":"Dedicated","server_os":"Linux","password":true,"vac":true,"version":"7961495","steam_id":85568392924964314,"keywords":["ctf","nocrits","nodmgspread","uncletopia"],"game_id":440,"stv_port":27076,"stv_name":"Uncletopia | London | 7 | No Payload | STV","players":null},{"server_id":41,"name":"Uncletopia | London | 8 | Community","name_short":"lon-8","host":"lon-1.uk.uncletopia.com","port":27085,"enabled":true,"region":"eu","cc":"gb","latitude":51.509865,"longitude":-0.118092,"reserved":0,"last_update":"0001-01-01T00:00:00Z","name_a2s":"Uncletopia | London | 8 | Community","protocol":17,"map":"workshop/pl_cactuscanyon_redux_final2.ugc2579644293","folder":"tf","game":"Team Fortress","app_id":440,"player_count":24,"max_players":24,"Bots":0,"server_type":"Dedicated","server_os":"Linux","password":true,"vac":true,"version":"7961495","steam_id":85568392924964315,"keywords":["nocrits","nodmgspread","payload","uncletopia"],"game_id":440,"stv_port":27086,"stv_name":"Uncletopia | London | 8 | Community | STV","players":[{"user_id":165,"name":"akakez","steam_id":76561198095432821,"connected_time":8026000000000,"state":"active","ping":115},{"user_id":284,"name":"God's Goofiest Goober","steam_id":76561198103175187,"connected_time":1638000000000,"state":"active","ping":72},{"user_id":243,"name":"he just like me fr fr","steam_id":76561198119372509,"connected_time":3708000000000,"state":"active","ping":84},{"user_id":275,"name":"Plop_","steam_id":76561198112567921,"connected_time":2247000000000,"state":"active","ping":41},{"user_id":276,"name":"Morbidly A Beast","steam_id":76561198251578274,"connected_time":2238000000000,"state":"active","ping":98},{"user_id":271,"name":"Aven","steam_id":76561198974343597,"connected_time":2454000000000,"state":"active","ping":83},{"user_id":270,"name":"Mc Cheezy","steam_id":76561198834780242,"connected_time":2617000000000,"state":"active","ping":109},{"user_id":285,"name":"shix","steam_id":76561198819968777,"connected_time":1462000000000,"state":"active","ping":92},{"user_id":219,"name":"slug","steam_id":76561198065902089,"connected_time":4877000000000,"state":"active","ping":68},{"user_id":259,"name":"Traylie","steam_id":76561198050797796,"connected_time":2883000000000,"state":"active","ping":69},{"user_id":261,"name":"pakin157","steam_id":76561198035125667,"connected_time":2863000000000,"state":"active","ping":89},{"user_id":269,"name":"Blenderman179","steam_id":76561198091096668,"connected_time":2721000000000,"state":"active","ping":62},{"user_id":286,"name":"Penis Contortionist","steam_id":76561198073663784,"connected_time":1451000000000,"state":"active","ping":39},{"user_id":278,"name":"crispy Robespierre","steam_id":76561198072881845,"connected_time":2207000000000,"state":"active","ping":75},{"user_id":263,"name":"Metalizer","steam_id":76561198099595082,"connected_time":2854000000000,"state":"active","ping":84},{"user_id":237,"name":"PEEPEEPOOPOOGOOBER JR","steam_id":76561198049687408,"connected_time":3880000000000,"state":"active","ping":40},{"user_id":291,"name":"https.oni","steam_id":76561199436728580,"connected_time":1217000000000,"state":"active","ping":126},{"user_id":282,"name":"RuinLucky","steam_id":76561199481172481,"connected_time":1986000000000,"state":"active","ping":158},{"user_id":292,"name":"DragonLord","steam_id":76561198074279225,"connected_time":835000000000,"state":"active","ping":53},{"user_id":280,"name":"Krabs","steam_id":76561198161679477,"connected_time":2115000000000,"state":"active","ping":48},{"user_id":272,"name":"Sergeant_cross","steam_id":76561198148270425,"connected_time":2452000000000,"state":"active","ping":66},{"user_id":273,"name":"joachym","steam_id":76561198428579761,"connected_time":2445000000000,"state":"active","ping":82},{"user_id":290,"name":"Voxel","steam_id":76561199225333422,"connected_time":1286000000000,"state":"active","ping":104},{"user_id":283,"name":"Shark","steam_id":76561198205226501,"connected_time":1986000000000,"state":"active","ping":155}]},{"server_id":300,"name":"Uncletopia | Montréal | 1 | All Maps","name_short":"mtl-1","host":"mtl-1.ca.uncletopia.com","port":27015,"enabled":true,"region":"us-east","cc":"ca","latitude":45.50889,"longitude":-73.56167,"reserved":0,"last_update":"0001-01-01T00:00:00Z","name_a2s":"Uncletopia | Montréal | 1 | All Maps","protocol":17,"map":"pl_pier","folder":"tf","game":"Team Fortress","app_id":440,"player_count":0,"max_players":24,"Bots":0,"server_type":"Dedicated","server_os":"Linux","password":true,"vac":true,"version":"7961495","steam_id":85568392924500087,"keywords":["nocrits","nodmgspread","payload","uncletopia"],"game_id":440,"stv_port":27016,"stv_name":"Uncletopia | Montréal | 1 | All Maps | STV","players":null},{"server_id":301,"name":"Uncletopia | Montréal | 2 | All Maps","name_short":"mtl-2","host":"mtl-1.ca.uncletopia.com","port":27025,"enabled":true,"region":"us-east","cc":"ca","latitude":45.50889,"longitude":-73.56167,"reserved":0,"last_update":"0001-01-01T00:00:00Z","name_a2s":"Uncletopia | Montréal | 2 | All Maps","protocol":17,"map":"pl_upward","folder":"tf","game":"Team Fortress","app_id":440,"player_count":3,"max_players":24,"Bots":0,"server_type":"Dedicated","server_os":"Linux","password":true,"vac":true,"version":"7961495","steam_id":85568392924500088,"keywords":["nocrits","nodmgspread","payload","uncletopia"],"game_id":440,"stv_port":27026,"stv_name":"Uncletopia | Montréal | 2 | All Maps | STV","players":[{"user_id":9,"name":"Bee_Pirate","steam_id":76561199000599111,"connected_time":1089000000000,"state":"active","ping":46},{"user_id":11,"name":"peppino","steam_id":76561198389398163,"connected_time":992000000000,"state":"active","ping":74},{"user_id":12,"name":"Spamton Plush [At half price!]","steam_id":76561198799704762,"connected_time":958000000000,"state":"active","ping":66}]},{"server_id":302,"name":"Uncletopia | Montréal | 3 | All Maps","name_short":"mtl-3","host":"mtl-1.ca.uncletopia.com","port":27035,"enabled":true,"region":"us-east","cc":"ca","latitude":45.50889,"longitude":-73.56167,"reserved":0,"last_update":"0001-01-01T00:00:00Z","name_a2s":"Uncletopia | Montréal | 3 | All Maps","protocol":17,"map":"koth_cascade","folder":"tf","game":"Team Fortress","app_id":440,"player_count":0,"max_players":24,"Bots":0,"server_type":"Dedicated","server_os":"Linux","password":true,"vac":true,"version":"7961495","steam_id":85568392924500089,"keywords":["cp","nocrits","nodmgspread","uncletopia"],"game_id":440,"stv_port":27036,"stv_name":"Uncletopia | Montréal | 3 | All Maps | STV","players":null},{"server_id":303,"name":"Uncletopia | Montréal | 4 | No Payload","name_short":"mtl-4","host":"mtl-1.ca.uncletopia.com","port":27045,"enabled":true,"region":"us-east","cc":"ca","latitude":45.50889,"longitude":-73.56167,"reserved":0,"last_update":"0001-01-01T00:00:00Z","name_a2s":"Uncletopia | Montréal | 4 | No Payload","protocol":17,"map":"koth_lakeside_final","folder":"tf","game":"Team Fortress","app_id":440,"player_count":0,"max_players":24,"Bots":0,"server_type":"Dedicated","server_os":"Linux","password":true,"vac":true,"version":"7961495","steam_id":85568392924500090,"keywords":["cp","nocrits","nodmgspread","uncletopia"],"game_id":440,"stv_port":27046,"stv_name":"Uncletopia | Montréal | 4 | No Payload | STV","players":null},{"server_id":13,"name":"Uncletopia | New York City | 1 | All Maps","name_short":"nyc-1","host":"nyc-1.us.uncletopia.com","port":27015,"enabled":true,"region":"us-east","cc":"us","latitude":40.73061,"longitude":-73.93524,"reserved":0,"last_update":"0001-01-01T00:00:00Z","name_a2s":"Uncletopia | New York City | 1 | All Maps","protocol":17,"map":"pl_upward","folder":"tf","game":"Team Fortress","app_id":440,"player_count":0,"max_players":24,"Bots":0,"server_type":"Dedicated","server_os":"Linux","password":true,"vac":true,"version":"7961495","steam_id":85568392924469993,"keywords":["nocrits","nodmgspread","payload","uncletopia"],"game_id":440,"stv_port":27016,"stv_name":"Uncletopia | New York City | 1 | All Maps | STV","players":null},{"server_id":14,"name":"Uncletopia | New York City | 2 | All Maps","name_short":"nyc-2","host":"nyc-1.us.uncletopia.com","port":27025,"enabled":true,"region":"us-east","cc":"us","latitude":40.73061,"longitude":-73.93524,"reserved":0,"last_update":"0001-01-01T00:00:00Z","name_a2s":"Uncletopia | New York City | 2 | All Maps","protocol":17,"map":"cp_dustbowl","folder":"tf","game":"Team Fortress","app_id":440,"player_count":24,"max_players":24,"Bots":0,"server_type":"Dedicated","server_os":"Linux","password":true,"vac":true,"version":"7961495","steam_id":85568392924469994,"keywords":["cp","nocrits","nodmgspread","uncletopia"],"game_id":440,"stv_port":27026,"stv_name":"Uncletopia | New York City | 2 | All Maps | STV","players":[{"user_id":222,"name":"turd ferguson","steam_id":76561198071620782,"connected_time":195000000000,"state":"active","ping":69},{"user_id":224,"name":"Bother","steam_id":76561198336750909,"connected_time":45000000000,"state":"spawning","ping":49},{"user_id":199,"name":"Gailus","steam_id":76561198319509387,"connected_time":1289000000000,"state":"active","ping":57},{"user_id":186,"name":"fred durst (real)","steam_id":76561198202436474,"connected_time":2336000000000,"state":"active","ping":90},{"user_id":167,"name":"Brenda Delam","steam_id":76561198006983771,"connected_time":3963000000000,"state":"active","ping":75},{"user_id":225,"name":"Miro","steam_id":76561198936412406,"connected_time":45000000000,"state":"active","ping":106},{"user_id":178,"name":"GaiBerd","steam_id":76561198177100634,"connected_time":2848000000000,"state":"active","ping":54},{"user_id":214,"name":"kermit","steam_id":76561198099928281,"connected_time":651000000000,"state":"active","ping":86},{"user_id":210,"name":"Sea raider","steam_id":76561198123982355,"connected_time":732000000000,"state":"active","ping":115},{"user_id":208,"name":"cppie","steam_id":76561198418564403,"connected_time":780000000000,"state":"active","ping":71},{"user_id":193,"name":"Blobbyfish","steam_id":76561198822962650,"connected_time":1697000000000,"state":"active","ping":53},{"user_id":185,"name":"Norman","steam_id":76561198850363221,"connected_time":2346000000000,"state":"active","ping":75},{"user_id":209,"name":"dingus","steam_id":76561198966767200,"connected_time":750000000000,"state":"active","ping":72},{"user_id":220,"name":"Plieop","steam_id":76561198199493917,"connected_time":264000000000,"state":"active","ping":45},{"user_id":211,"name":"engiqueer69","steam_id":76561199153261850,"connected_time":728000000000,"state":"active","ping":122},{"user_id":223,"name":"sub_infinite_","steam_id":76561199090299296,"connected_time":168000000000,"state":"active","ping":78},{"user_id":213,"name":"doctorbowl","steam_id":76561198398475350,"connected_time":709000000000,"state":"active","ping":57},{"user_id":215,"name":"CoralBlue","steam_id":76561199085138970,"connected_time":630000000000,"state":"active","ping":134},{"user_id":216,"name":"Wash bucket","steam_id":76561198104177419,"connected_time":625000000000,"state":"active","ping":71},{"user_id":203,"name":"artichoke","steam_id":76561198980994364,"connected_time":923000000000,"state":"active","ping":87},{"user_id":190,"name":"Mike","steam_id":76561198827756158,"connected_time":2314000000000,"state":"active","ping":152},{"user_id":217,"name":"Sire Salty","steam_id":76561198079639072,"connected_time":617000000000,"state":"active","ping":64},{"user_id":195,"name":"tydogzilla","steam_id":76561198054254518,"connected_time":1603000000000,"state":"active","ping":46},{"user_id":219,"name":"Nephi","steam_id":76561198031525122,"connected_time":323000000000,"state":"active","ping":85}]},{"server_id":15,"name":"Uncletopia | New York City | 3 | Stopwatch Beta","name_short":"nyc-3","host":"nyc-1.us.uncletopia.com","port":27035,"enabled":true,"region":"us-east","cc":"us","latitude":40.73061,"longitude":-73.93524,"reserved":0,"last_update":"0001-01-01T00:00:00Z","name_a2s":"Uncletopia | New York City | 3 | Stopwatch Beta","protocol":17,"map":"pl_upward","folder":"tf","game":"Team Fortress","app_id":440,"player_count":24,"max_players":24,"Bots":0,"server_type":"Dedicated","server_os":"Linux","password":true,"vac":true,"version":"7961495","steam_id":85568392924742820,"keywords":["nocrits","nodmgspread","payload","uncletopia"],"game_id":440,"stv_port":27036,"stv_name":"Uncletopia | New York City | 3 | Stopwatch Beta | STV","players":[{"user_id":62,"name":"the pigeonkicker","steam_id":76561199078815637,"connected_time":570000000000,"state":"active","ping":54},{"user_id":67,"name":"ssjrone600","steam_id":76561199208263809,"connected_time":85000000000,"state":"active","ping":60},{"user_id":7,"name":"yer_nerd","steam_id":76561199435454093,"connected_time":3979000000000,"state":"active","ping":55},{"user_id":64,"name":"Post nut clarity","steam_id":76561198060246831,"connected_time":223000000000,"state":"active","ping":71},{"user_id":56,"name":"the.land.of.avalon","steam_id":76561198245431668,"connected_time":1178000000000,"state":"active","ping":89},{"user_id":10,"name":"Muffn","steam_id":76561198797691753,"connected_time":3733000000000,"state":"active","ping":71},{"user_id":18,"name":"Make u rage","steam_id":76561198262094900,"connected_time":3103000000000,"state":"active","ping":58},{"user_id":63,"name":"Gary Budussy","steam_id":76561197969793969,"connected_time":391000000000,"state":"active","ping":84},{"user_id":53,"name":"Scrux","steam_id":76561198129763115,"connected_time":1317000000000,"state":"active","ping":131},{"user_id":65,"name":"The Balls Scratcher","steam_id":76561198878732910,"connected_time":177000000000,"state":"active","ping":93},{"user_id":60,"name":"Caboose","steam_id":76561198119221840,"connected_time":634000000000,"state":"active","ping":84},{"user_id":68,"name":"Phillazer","steam_id":76561198396714987,"connected_time":78000000000,"state":"active","ping":115},{"user_id":44,"name":"tasty","steam_id":76561198083839061,"connected_time":1711000000000,"state":"active","ping":60},{"user_id":23,"name":"Shattered Glass","steam_id":76561198116835391,"connected_time":2953000000000,"state":"active","ping":89},{"user_id":25,"name":"NewerGuy","steam_id":76561198968058652,"connected_time":2875000000000,"state":"active","ping":117},{"user_id":59,"name":"Yengozi","steam_id":76561198448764748,"connected_time":757000000000,"state":"connecting","ping":753},{"user_id":66,"name":"Wizard worm","steam_id":76561198843498034,"connected_time":98000000000,"state":"active","ping":59},{"user_id":45,"name":"jAIRO","steam_id":76561198317518864,"connected_time":1673000000000,"state":"active","ping":70},{"user_id":33,"name":"Anonymous_Cletus_TTV","steam_id":76561198243740340,"connected_time":2615000000000,"state":"active","ping":70},{"user_id":54,"name":"Kapu1178","steam_id":76561198107212766,"connected_time":1285000000000,"state":"active","ping":49},{"user_id":39,"name":"james may","steam_id":76561198043857339,"connected_time":2365000000000,"state":"active","ping":106},{"user_id":55,"name":"GuyGoom","steam_id":76561198254522178,"connected_time":1220000000000,"state":"active","ping":88},{"user_id":47,"name":"IanTheAwsm","steam_id":76561198093031738,"connected_time":1651000000000,"state":"active","ping":90},{"user_id":61,"name":"[SK] Punish ♥ 牧濑红莉栖","steam_id":76561198207987376,"connected_time":622000000000,"state":"active","ping":60}]},{"server_id":16,"name":"Uncletopia | New York City | 4 | Community","name_short":"nyc-4","host":"nyc-1.us.uncletopia.com","port":27045,"enabled":true,"region":"us-east","cc":"us","latitude":40.73061,"longitude":-73.93524,"reserved":0,"last_update":"0001-01-01T00:00:00Z","name_a2s":"Uncletopia | New York City | 4 | Community","protocol":17,"map":"koth_lakeside_final","folder":"tf","game":"Team Fortress","app_id":440,"player_count":0,"max_players":24,"Bots":0,"server_type":"Dedicated","server_os":"Linux","password":true,"vac":true,"version":"7961495","steam_id":85568392924742821,"keywords":["cp","nocrits","nodmgspread","uncletopia"],"game_id":440,"stv_port":27046,"stv_name":"Uncletopia | New York City | 4 | Community | STV","players":null},{"server_id":142,"name":"Uncletopia | São Paulo | 1 | All Maps","name_short":"sao-1","host":"sao-1.br.uncletopia.com","port":27015,"enabled":true,"region":"sa","cc":"br","latitude":-23.533773,"longitude":-46.62529,"reserved":0,"last_update":"0001-01-01T00:00:00Z","name_a2s":"Uncletopia | São Paulo | 1 | All Maps","protocol":17,"map":"koth_highpass","folder":"tf","game":"Team Fortress","app_id":440,"player_count":0,"max_players":24,"Bots":0,"server_type":"Dedicated","server_os":"Linux","password":true,"vac":true,"version":"7961495","steam_id":85568392924469996,"keywords":["cp","nocrits","nodmgspread","uncletopia"],"game_id":440,"stv_port":27016,"stv_name":"Uncletopia | São Paulo | 1 | All Maps | STV","players":null},{"server_id":143,"name":"Uncletopia | São Paulo | 2 | Community","name_short":"sao-2","host":"sao-2.br.uncletopia.com","port":27015,"enabled":true,"region":"sa","cc":"br","latitude":-23.533773,"longitude":-46.62529,"reserved":0,"last_update":"0001-01-01T00:00:00Z","name_a2s":"Uncletopia | São Paulo | 2 | Community","protocol":17,"map":"workshop/pl_barnblitz_pro7.ugc582280235","folder":"tf","game":"Team Fortress","app_id":440,"player_count":0,"max_players":24,"Bots":0,"server_type":"Dedicated","server_os":"Linux","password":true,"vac":true,"version":"7961495","steam_id":85568392924485349,"keywords":["nocrits","nodmgspread","payload","uncletopia"],"game_id":440,"stv_port":27016,"stv_name":"Uncletopia | São Paulo | 2 | Community | STV","players":null},{"server_id":7,"name":"Uncletopia | Seattle | 1 | All Maps","name_short":"sea-1","host":"sea-1.us.uncletopia.com","port":27015,"enabled":true,"region":"us-west","cc":"us","latitude":47.608013,"longitude":-122.33517,"reserved":0,"last_update":"0001-01-01T00:00:00Z","name_a2s":"Uncletopia | Seattle | 1 | All Maps","protocol":17,"map":"cp_sunshine","folder":"tf","game":"Team Fortress","app_id":440,"player_count":24,"max_players":24,"Bots":0,"server_type":"Dedicated","server_os":"Linux","password":true,"vac":true,"version":"7961495","steam_id":85568392924469997,"keywords":["cp","nocrits","nodmgspread","uncletopia"],"game_id":440,"stv_port":27016,"stv_name":"Uncletopia | Seattle | 1 | All Maps | STV","players":[{"user_id":146,"name":"Lesbian Futa Mommy","steam_id":76561198130479030,"connected_time":2794000000000,"state":"active","ping":59},{"user_id":147,"name":"big fish","steam_id":76561198186479818,"connected_time":2772000000000,"state":"active","ping":85},{"user_id":137,"name":"cthonic cvnt","steam_id":76561198039604491,"connected_time":3538000000000,"state":"active","ping":52},{"user_id":150,"name":"Starkiller","steam_id":76561198101643120,"connected_time":2592000000000,"state":"active","ping":53},{"user_id":159,"name":"Ashanti Clan","steam_id":76561198032651105,"connected_time":1799000000000,"state":"active","ping":57},{"user_id":161,"name":"Saccaed","steam_id":76561197977151640,"connected_time":1615000000000,"state":"active","ping":45},{"user_id":99,"name":"Daz","steam_id":76561198041431938,"connected_time":4808000000000,"state":"active","ping":53},{"user_id":163,"name":"blue duck the 2nd","steam_id":76561198263142765,"connected_time":1503000000000,"state":"active","ping":93},{"user_id":165,"name":"Emily50AE","steam_id":76561198088619665,"connected_time":1449000000000,"state":"active","ping":87},{"user_id":156,"name":"Dreamzapp","steam_id":76561199084936632,"connected_time":2165000000000,"state":"active","ping":91},{"user_id":149,"name":"De Monki","steam_id":76561198964210411,"connected_time":2652000000000,"state":"active","ping":87},{"user_id":158,"name":"Meet The Kazoo","steam_id":76561199229748300,"connected_time":2066000000000,"state":"active","ping":88},{"user_id":171,"name":"TheMagicMrWaffle","steam_id":76561198104357256,"connected_time":816000000000,"state":"active","ping":79},{"user_id":153,"name":"Meso","steam_id":76561199088153190,"connected_time":2546000000000,"state":"active","ping":58},{"user_id":173,"name":"Mr_Web (He/They)","steam_id":76561198815562258,"connected_time":588000000000,"state":"active","ping":128},{"user_id":174,"name":"Skinny pete","steam_id":76561198801608576,"connected_time":508000000000,"state":"active","ping":111},{"user_id":167,"name":"e doctor","steam_id":76561198081851446,"connected_time":1404000000000,"state":"active","ping":95},{"user_id":96,"name":"Skoad","steam_id":76561198104650528,"connected_time":5461000000000,"state":"active","ping":70},{"user_id":175,"name":"meow_the_cat","steam_id":76561198294347721,"connected_time":208000000000,"state":"active","ping":75},{"user_id":125,"name":"Laney","steam_id":76561199048555878,"connected_time":3749000000000,"state":"active","ping":56},{"user_id":172,"name":"ms. anthrope","steam_id":76561198063533082,"connected_time":794000000000,"state":"active","ping":37},{"user_id":176,"name":"Ash Of Ruins","steam_id":76561198017744507,"connected_time":10000000000,"state":"spawning","ping":45},{"user_id":169,"name":"Mr. DeLarge","steam_id":76561198336820066,"connected_time":1379000000000,"state":"active","ping":61},{"user_id":157,"name":"♥ President Shitfart ♥","steam_id":76561198141819053,"connected_time":2100000000000,"state":"active","ping":67}]},{"server_id":119,"name":"Uncletopia | Seattle | 2 | All Maps","name_short":"sea-2","host":"sea-1.us.uncletopia.com","port":27025,"enabled":true,"region":"us-west","cc":"us","latitude":47.608013,"longitude":-122.33517,"reserved":0,"last_update":"0001-01-01T00:00:00Z","name_a2s":"Uncletopia | Seattle | 2 | All Maps","protocol":17,"map":"cp_process_final","folder":"tf","game":"Team Fortress","app_id":440,"player_count":0,"max_players":24,"Bots":0,"server_type":"Dedicated","server_os":"Linux","password":true,"vac":true,"version":"7961495","steam_id":85568392924469998,"keywords":["cp","nocrits","nodmgspread","uncletopia"],"game_id":440,"stv_port":27026,"stv_name":"Uncletopia | Seattle | 2 | All Maps | STV","players":null},{"server_id":406,"name":"Uncletopia | Seattle | 3 | Stopwatch Beta","name_short":"sea-3","host":"sea-1.us.uncletopia.com","port":27035,"enabled":true,"region":"us-west","cc":"us","latitude":47.608013,"longitude":-122.33517,"reserved":0,"last_update":"0001-01-01T00:00:00Z","name_a2s":"Uncletopia | Seattle | 3 | Stopwatch Beta","protocol":17,"map":"koth_lakeside_final","folder":"tf","game":"Team Fortress","app_id":440,"player_count":0,"max_players":24,"Bots":0,"server_type":"Dedicated","server_os":"Linux","password":true,"vac":true,"version":"7961495","steam_id":85568392924515217,"keywords":["cp","nocrits","nodmgspread","uncletopia"],"game_id":440,"stv_port":27036,"stv_name":"Uncletopia | Seattle | 3 | Stopwatch Beta | STV","players":null},{"server_id":17,"name":"Uncletopia | San Francisco | 1 | All Maps","name_short":"sfo-1","host":"sfo-1.us.uncletopia.com","port":27015,"enabled":true,"region":"us-west","cc":"us","latitude":37.77397,"longitude":-122.4313,"reserved":0,"last_update":"0001-01-01T00:00:00Z","name_a2s":"Uncletopia | San Francisco | 1 | All Maps","protocol":17,"map":"koth_viaduct","folder":"tf","game":"Team Fortress","app_id":440,"player_count":0,"max_players":24,"Bots":0,"server_type":"Dedicated","server_os":"Linux","password":true,"vac":true,"version":"7961495","steam_id":85568392924469999,"keywords":["cp","nocrits","nodmgspread","uncletopia"],"game_id":440,"stv_port":27016,"stv_name":"Uncletopia | San Francisco | 1 | All Maps | STV","players":null},{"server_id":18,"name":"Uncletopia | San Francisco | 2 | All Maps","name_short":"sfo-2","host":"sfo-1.us.uncletopia.com","port":27025,"enabled":true,"region":"us-west","cc":"us","latitude":37.77397,"longitude":-122.4313,"reserved":0,"last_update":"0001-01-01T00:00:00Z","name_a2s":"Uncletopia | San Francisco | 2 | All Maps","protocol":17,"map":"pl_pier","folder":"tf","game":"Team Fortress","app_id":440,"player_count":0,"max_players":24,"Bots":0,"server_type":"Dedicated","server_os":"Linux","password":true,"vac":true,"version":"7961495","steam_id":85568392924470000,"keywords":["nocrits","nodmgspread","payload","uncletopia"],"game_id":440,"stv_port":27026,"stv_name":"Uncletopia | San Francisco | 2 | All Maps | STV","players":null},{"server_id":19,"name":"Uncletopia | San Francisco | 3 | Stopwatch Beta","name_short":"sfo-3","host":"sfo-1.us.uncletopia.com","port":27035,"enabled":true,"region":"us-west","cc":"us","latitude":37.77397,"longitude":-122.4313,"reserved":0,"last_update":"0001-01-01T00:00:00Z","name_a2s":"Uncletopia | San Francisco | 3 | Stopwatch Beta","protocol":17,"map":"pl_borneo","folder":"tf","game":"Team Fortress","app_id":440,"player_count":0,"max_players":24,"Bots":0,"server_type":"Dedicated","server_os":"Linux","password":true,"vac":true,"version":"7961495","steam_id":85568392924742824,"keywords":["nocrits","nodmgspread","payload","uncletopia"],"game_id":440,"stv_port":27036,"stv_name":"Uncletopia | San Francisco | 3 | Stopwatch Beta | STV","players":null},{"server_id":20,"name":"Uncletopia | San Francisco | 4 | Community","name_short":"sfo-4","host":"sfo-1.us.uncletopia.com","port":27045,"enabled":true,"region":"us-west","cc":"us","latitude":37.77397,"longitude":-122.4313,"reserved":0,"last_update":"0001-01-01T00:00:00Z","name_a2s":"Uncletopia | San Francisco | 4 | Community","protocol":17,"map":"koth_viaduct","folder":"tf","game":"Team Fortress","app_id":440,"player_count":0,"max_players":24,"Bots":0,"server_type":"Dedicated","server_os":"Linux","password":true,"vac":true,"version":"7961495","steam_id":85568392924742826,"keywords":["cp","nocrits","nodmgspread","uncletopia"],"game_id":440,"stv_port":27046,"stv_name":"Uncletopia | San Francisco | 4 | Community | STV","players":null},{"server_id":141,"name":"Uncletopia | Sydney | 1 | All Maps","name_short":"syd-1","host":"syd-1.au.uncletopia.com","port":27015,"enabled":true,"region":"au","cc":"au","latitude":-33.865143,"longitude":151.2099,"reserved":0,"last_update":"0001-01-01T00:00:00Z","name_a2s":"Uncletopia | Sydney | 1 | All Maps","protocol":17,"map":"plr_hightower","folder":"tf","game":"Team Fortress","app_id":440,"player_count":0,"max_players":24,"Bots":0,"server_type":"Dedicated","server_os":"Linux","password":true,"vac":true,"version":"7961495","steam_id":85568392924470001,"keywords":["nocrits","nodmgspread","payload","uncletopia"],"game_id":440,"stv_port":27016,"stv_name":"Uncletopia | Sydney | 1 | All Maps | STV","players":null},{"server_id":123,"name":"Uncletopia | Sydney | 2 | All Maps","name_short":"syd-2","host":"syd-1.au.uncletopia.com","port":27025,"enabled":true,"region":"au","cc":"au","latitude":-33.865143,"longitude":151.2099,"reserved":0,"last_update":"0001-01-01T00:00:00Z","name_a2s":"Uncletopia | Sydney | 2 | All Maps","protocol":17,"map":"pl_swiftwater_final1","folder":"tf","game":"Team Fortress","app_id":440,"player_count":0,"max_players":24,"Bots":0,"server_type":"Dedicated","server_os":"Linux","password":true,"vac":true,"version":"7961495","steam_id":85568392924470002,"keywords":["nocrits","nodmgspread","payload","uncletopia"],"game_id":440,"stv_port":27026,"stv_name":"Uncletopia | Sydney | 2 | All Maps | STV","players":null},{"server_id":395,"name":"Uncletopia | Sydney | 3 | All Maps","name_short":"syd-3","host":"syd-1.au.uncletopia.com","port":27035,"enabled":true,"region":"au","cc":"au","latitude":-33.865143,"longitude":151.2099,"reserved":0,"last_update":"0001-01-01T00:00:00Z","name_a2s":"Uncletopia | Sydney | 3 | All Maps","protocol":17,"map":"cp_dustbowl","folder":"tf","game":"Team Fortress","app_id":440,"player_count":0,"max_players":24,"Bots":0,"server_type":"Dedicated","server_os":"Linux","password":true,"vac":true,"version":"7961495","steam_id":85568392925194467,"keywords":["cp","nocrits","nodmgspread","uncletopia"],"game_id":440,"stv_port":27036,"stv_name":"Uncletopia | Sydney | 3 | All Maps | STV","players":null},{"server_id":396,"name":"Uncletopia | Sydney | 4 | All Maps","name_short":"syd-4","host":"syd-1.au.uncletopia.com","port":27045,"enabled":true,"region":"au","cc":"au","latitude":-33.865143,"longitude":151.2099,"reserved":0,"last_update":"0001-01-01T00:00:00Z","name_a2s":"Uncletopia | Sydney | 4 | All Maps","protocol":17,"map":"cp_mountainlab","folder":"tf","game":"Team Fortress","app_id":440,"player_count":0,"max_players":24,"Bots":0,"server_type":"Dedicated","server_os":"Linux","password":true,"vac":true,"version":"7961495","steam_id":85568392925397958,"keywords":["cp","nocrits","nodmgspread","uncletopia"],"game_id":440,"stv_port":27046,"stv_name":"Uncletopia | Sydney | 4 | All Maps | STV","players":null},{"server_id":58,"name":"Uncletopia | Sydney | 5 | Stopwatch Beta","name_short":"syd-5","host":"syd-1.au.uncletopia.com","port":27055,"enabled":true,"region":"au","cc":"au","latitude":-33.865143,"longitude":151.2099,"reserved":0,"last_update":"0001-01-01T00:00:00Z","name_a2s":"Uncletopia | Sydney | 5 | Stopwatch Beta","protocol":17,"map":"koth_viaduct","folder":"tf","game":"Team Fortress","app_id":440,"player_count":0,"max_players":24,"Bots":0,"server_type":"Dedicated","server_os":"Linux","password":true,"vac":true,"version":"7961495","steam_id":85568392925397959,"keywords":["cp","nocrits","nodmgspread","uncletopia"],"game_id":440,"stv_port":27056,"stv_name":"Uncletopia | Sydney | 5 | Stopwatch Beta | STV","players":null},{"server_id":59,"name":"Uncletopia | Sydney | 6 | Community","name_short":"syd-6","host":"syd-1.au.uncletopia.com","port":27065,"enabled":true,"region":"au","cc":"au","latitude":-33.865143,"longitude":151.2099,"reserved":0,"last_update":"0001-01-01T00:00:00Z","name_a2s":"Uncletopia | Sydney | 6 | Community","protocol":17,"map":"koth_cascade","folder":"tf","game":"Team Fortress","app_id":440,"player_count":0,"max_players":24,"Bots":0,"server_type":"Dedicated","server_os":"Linux","password":true,"vac":true,"version":"7961495","steam_id":85568392925397960,"keywords":["cp","nocrits","nodmgspread","uncletopia"],"game_id":440,"stv_port":27066,"stv_name":"Uncletopia | Sydney | 6 | Community | STV","players":null},{"server_id":49,"name":"Uncletopia | Warsaw | 1 | All Maps","name_short":"waw-1","host":"waw-1.pl.uncletopia.com","port":27015,"enabled":true,"region":"eu","cc":"pl","latitude":52.2297,"longitude":21.017532,"reserved":0,"last_update":"0001-01-01T00:00:00Z","name_a2s":"Uncletopia | Warsaw | 1 | All Maps","protocol":17,"map":"koth_highpass","folder":"tf","game":"Team Fortress","app_id":440,"player_count":0,"max_players":24,"Bots":0,"server_type":"Dedicated","server_os":"Linux","password":true,"vac":true,"version":"7961495","steam_id":85568392925397850,"keywords":["cp","nocrits","nodmgspread","uncletopia"],"game_id":440,"stv_port":27016,"stv_name":"Uncletopia | Warsaw | 1 | All Maps | STV","players":null},{"server_id":50,"name":"Uncletopia | Warsaw | 2 | All Maps","name_short":"waw-2","host":"waw-1.pl.uncletopia.com","port":27025,"enabled":true,"region":"eu","cc":"pl","latitude":52.2297,"longitude":21.017532,"reserved":0,"last_update":"0001-01-01T00:00:00Z","name_a2s":"Uncletopia | Warsaw | 2 | All Maps","protocol":17,"map":"cp_dustbowl","folder":"tf","game":"Team Fortress","app_id":440,"player_count":24,"max_players":24,"Bots":0,"server_type":"Dedicated","server_os":"Linux","password":true,"vac":true,"version":"7961495","steam_id":85568392925397851,"keywords":["cp","nocrits","nodmgspread","uncletopia"],"game_id":440,"stv_port":27026,"stv_name":"Uncletopia | Warsaw | 2 | All Maps | STV","players":[{"user_id":431,"name":"McMonty","steam_id":76561198028973788,"connected_time":1372000000000,"state":"active","ping":89},{"user_id":434,"name":"c0mpaz","steam_id":76561198165292894,"connected_time":1132000000000,"state":"active","ping":101},{"user_id":450,"name":"Even Rüüd","steam_id":76561197981144291,"connected_time":761000000000,"state":"active","ping":101},{"user_id":438,"name":"tired","steam_id":76561198046838168,"connected_time":1002000000000,"state":"active","ping":62},{"user_id":278,"name":"Rambi","steam_id":76561199058078505,"connected_time":10808000000000,"state":"active","ping":133},{"user_id":448,"name":"♥ Cirno ♥","steam_id":76561198834982738,"connected_time":819000000000,"state":"active","ping":74},{"user_id":439,"name":"gup","steam_id":76561198311044984,"connected_time":989000000000,"state":"active","ping":76},{"user_id":451,"name":"hhhhhh","steam_id":76561198031982574,"connected_time":691000000000,"state":"active","ping":79},{"user_id":252,"name":"Baiterz","steam_id":76561198030815786,"connected_time":13040000000000,"state":"active","ping":75},{"user_id":426,"name":"Fiurius","steam_id":76561198151910950,"connected_time":2515000000000,"state":"active","ping":45},{"user_id":396,"name":"Nor1h_l1zard","steam_id":76561198250011918,"connected_time":4265000000000,"state":"active","ping":92},{"user_id":455,"name":"Amon Gus","steam_id":76561199094540960,"connected_time":130000000000,"state":"active","ping":79},{"user_id":387,"name":"tjeeena gubbbnnn","steam_id":76561199163884827,"connected_time":4698000000000,"state":"active","ping":115},{"user_id":429,"name":"skippy","steam_id":76561198171958773,"connected_time":1771000000000,"state":"active","ping":86},{"user_id":443,"name":"Irme","steam_id":76561198161590299,"connected_time":962000000000,"state":"active","ping":89},{"user_id":364,"name":"♂ Animan ♂ Studios ♂","steam_id":76561198308302932,"connected_time":6028000000000,"state":"active","ping":79},{"user_id":452,"name":"Average meme enjoyer","steam_id":76561199087566663,"connected_time":529000000000,"state":"active","ping":62},{"user_id":446,"name":"RandoART","steam_id":76561198818165503,"connected_time":936000000000,"state":"active","ping":117},{"user_id":293,"name":"Ixsus\u003c3","steam_id":76561198094756869,"connected_time":10267000000000,"state":"active","ping":76},{"user_id":405,"name":"The Daniella","steam_id":76561198023075547,"connected_time":3554000000000,"state":"active","ping":76},{"user_id":457,"name":"Na záchodě","steam_id":76561198383952144,"connected_time":85000000000,"state":"active","ping":110},{"user_id":419,"name":"domek","steam_id":76561198048447632,"connected_time":2860000000000,"state":"active","ping":42},{"user_id":417,"name":"Cookies and Bakies","steam_id":76561198017442928,"connected_time":2881000000000,"state":"active","ping":84},{"user_id":423,"name":"jeezource 2","steam_id":76561198123592400,"connected_time":2820000000000,"state":"active","ping":83}]},{"server_id":51,"name":"Uncletopia | Warsaw | 3 | All Maps","name_short":"waw-3","host":"waw-1.pl.uncletopia.com","port":27035,"enabled":true,"region":"eu","cc":"pl","latitude":52.2297,"longitude":21.017532,"reserved":0,"last_update":"0001-01-01T00:00:00Z","name_a2s":"Uncletopia | Warsaw | 3 | All Maps","protocol":17,"map":"koth_viaduct","folder":"tf","game":"Team Fortress","app_id":440,"player_count":0,"max_players":24,"Bots":0,"server_type":"Dedicated","server_os":"Linux","password":true,"vac":true,"version":"7961495","steam_id":85568392925397852,"keywords":["cp","nocrits","nodmgspread","uncletopia"],"game_id":440,"stv_port":27036,"stv_name":"Uncletopia | Warsaw | 3 | All Maps | STV","players":null},{"server_id":52,"name":"Uncletopia | Warsaw | 4 | All Maps","name_short":"waw-4","host":"waw-1.pl.uncletopia.com","port":27045,"enabled":true,"region":"eu","cc":"pl","latitude":52.2297,"longitude":21.017532,"reserved":0,"last_update":"0001-01-01T00:00:00Z","name_a2s":"Uncletopia | Warsaw | 4 | All Maps","protocol":17,"map":"koth_highpass","folder":"tf","game":"Team Fortress","app_id":440,"player_count":0,"max_players":24,"Bots":0,"server_type":"Dedicated","server_os":"Linux","password":true,"vac":true,"version":"7961495","steam_id":85568392925397853,"keywords":["cp","nocrits","nodmgspread","uncletopia"],"game_id":440,"stv_port":27046,"stv_name":"Uncletopia | Warsaw | 4 | All Maps | STV","players":null},{"server_id":53,"name":"Uncletopia | Warsaw | 5 | Stopwatch Beta","name_short":"waw-5","host":"waw-1.pl.uncletopia.com","port":27055,"enabled":true,"region":"eu","cc":"pl","latitude":52.2297,"longitude":21.017532,"reserved":0,"last_update":"0001-01-01T00:00:00Z","name_a2s":"Uncletopia | Warsaw | 5 | Stopwatch Beta","protocol":17,"map":"workshop/pl_barnblitz_pro7.ugc582280235","folder":"tf","game":"Team Fortress","app_id":440,"player_count":0,"max_players":24,"Bots":0,"server_type":"Dedicated","server_os":"Linux","password":true,"vac":true,"version":"7961495","steam_id":85568392925397854,"keywords":["nocrits","nodmgspread","payload","uncletopia"],"game_id":440,"stv_port":27056,"stv_name":"Uncletopia | Warsaw | 5 | Stopwatch Beta | STV","players":null},{"server_id":54,"name":"Uncletopia | Warsaw | 6 | Community","name_short":"waw-6","host":"waw-1.pl.uncletopia.com","port":27065,"enabled":true,"region":"eu","cc":"pl","latitude":52.2297,"longitude":21.017532,"reserved":0,"last_update":"0001-01-01T00:00:00Z","name_a2s":"Uncletopia | Warsaw | 6 | Community","protocol":17,"map":"workshop/pl_fifthcurve_rc1.ugc648227046","folder":"tf","game":"Team Fortress","app_id":440,"player_count":0,"max_players":24,"Bots":0,"server_type":"Dedicated","server_os":"Linux","password":true,"vac":true,"version":"7961495","steam_id":85568392925397856,"keywords":["nocrits","nodmgspread","payload","uncletopia"],"game_id":440,"stv_port":27066,"stv_name":"Uncletopia | Warsaw | 6 | Community | STV","players":null}]}