{"status":true,"message":"","result":[{"server_id":9,"name":"Uncletopia | Atlanta | 1 | All Maps","name_short":"atl-1","host":"atl-1.us.uncletopia.com","port":27015,"enabled":true,"region":"us-east","cc":"us","latitude":33.753746,"longitude":-84.38633,"reserved":0,"last_update":"0001-01-01T00:00:00Z","name_a2s":"Uncletopia | Atlanta | 1 | All Maps","protocol":17,"map":"cp_dustbowl","folder":"tf","game":"Team Fortress","app_id":440,"player_count":24,"max_players":24,"Bots":0,"server_type":"Dedicated","server_os":"Linux","password":true,"vac":true,"version":"7757534","steam_id":85568392924469982,"keywords":["cp","nocrits","nodmgspread","uncletopia"],"game_id":440,"stv_port":27016,"stv_name":"Uncletopia | Atlanta | 1 | All Maps | STV","players":[{"user_id":190,"name":"ShiYor","steam_id":76561199117260032,"connected_time":3276000000000,"state":"active","ping":137},{"user_id":222,"name":"silentpieceofbacon","steam_id":76561198869323351,"connected_time":549000000000,"state":"active","ping":86},{"user_id":226,"name":"ly","steam_id":76561198062922146,"connected_time":303000000000,"state":"active","ping":61},{"user_id":199,"name":"BLU1 | stink","steam_id":76561198099318923,"connected_time":2174000000000,"state":"active","ping":75},{"user_id":219,"name":"ATL1 | Kramer","steam_id":76561198083595936,"connected_time":673000000000,"state":"active","ping":74},{"user_id":180,"name":"RED1 | Lancer Fan Club","steam_id":76561198355495948,"connected_time":4053000000000,"state":"active","ping":74},{"user_id":187,"name":"ash","steam_id":76561198127890645,"connected_time":3481000000000,"state":"active","ping":60},{"user_id":138,"name":"eish","steam_id":76561198089463603,"connected_time":9159000000000,"state":"active","ping":117},{"user_id":213,"name":"jstrickland8333","steam_id":76561199090181466,"connected_time":1616000000000,"state":"active","ping":80},{"user_id":113,"name":"Karma","steam_id":76561198030565234,"connected_time":11660000000000,"state":"active","ping":66},{"user_id":185,"name":"BLU1 | Pango","steam_id":76561198069811545,"connected_time":3541000000000,"state":"active","ping":46},{"user_id":220,"name":"Epifiny","steam_id":76561198027958086,"connected_time":558000000000,"state":"active","ping":89},{"user_id":71,"name":"Ashes!","steam_id":76561197998475441,"connected_time":13615000000000,"state":"active","ping":91},{"user_id":99,"name":"{[F.H]} Hydroida","steam_id":76561197999797274,"connected_time":12321000000000,"state":"active","ping":74},{"user_id":196,"name":"Mage","steam_id":76561198285026879,"connected_time":2528000000000,"state":"active","ping":80},{"user_id":216,"name":"CapnKris22","steam_id":76561198049010994,"connected_time":1346000000000,"state":"active","ping":81},{"user_id":218,"name":"BLU1 | Krissy","steam_id":76561197960848174,"connected_time":1321000000000,"state":"active","ping":68},{"user_id":227,"name":"rose","steam_id":76561198048882285,"connected_time":165000000000,"state":"active","ping":61},{"user_id":214,"name":"BLU1 | Shame","steam_id":76561198100490994,"connected_time":1541000000000,"state":"active","ping":61},{"user_id":221,"name":"NACHO_","steam_id":76561198076618089,"connected_time":557000000000,"state":"active","ping":61},{"user_id":203,"name":"BLU1 | SparkStorm","steam_id":76561198095817025,"connected_time":1895000000000,"state":"active","ping":41},{"user_id":208,"name":"Little Minty","steam_id":76561198070061535,"connected_time":1795000000000,"state":"active","ping":77},{"user_id":225,"name":"Megadesk","steam_id":76561198078219641,"connected_time":394000000000,"state":"active","ping":86},{"user_id":163,"name":"Stuart Little 2","steam_id":76561198097272509,"connected_time":7031000000000,"state":"active","ping":36}]},{"server_id":400,"name":"Uncletopia | Atlanta | 3 | Stopwatch Beta","name_short":"atl-3","host":"atl-1.us.uncletopia.com","port":27035,"enabled":true,"region":"us-east","cc":"us","latitude":33.753746,"longitude":-84.38633,"reserved":0,"last_update":"0001-01-01T00:00:00Z","name_a2s":"Uncletopia | Atlanta | 3 | Stopwatch Beta","protocol":17,"map":"pl_upward","folder":"tf","game":"Team Fortress","app_id":440,"player_count":0,"max_players":24,"Bots":0,"server_type":"Dedicated","server_os":"Linux","password":true,"vac":true,"version":"7757534","steam_id":85568392924515187,"keywords":["nocrits","nodmgspread","payload","uncletopia"],"game_id":440,"stv_port":27036,"stv_name":"Uncletopia | Atlanta | 3 | Stopwatch Beta | STV","players":null},{"server_id":401,"name":"Uncletopia | Atlanta | 4 | No Payload","name_short":"atl-4","host":"atl-1.us.uncletopia.com","port":27045,"enabled":true,"region":"us-east","cc":"us","latitude":33.753746,"longitude":-84.38633,"reserved":0,"last_update":"0001-01-01T00:00:00Z","name_a2s":"Uncletopia | Atlanta | 4 | No Payload","protocol":17,"map":"pl_pier","folder":"tf","game":"Team Fortress","app_id":440,"player_count":0,"max_players":24,"Bots":0,"server_type":"Dedicated","server_os":"Linux","password":true,"vac":true,"version":"7723704","steam_id":85568392924515188,"keywords":["nocrits","nodmgspread","payload","uncletopia"],"game_id":440,"stv_port":27046,"stv_name":"Uncletopia | Atlanta | 4 | No Payload | STV","players":null},{"server_id":2,"name":"Uncletopia | Chicago | 1 | All Maps","name_short":"chi-1","host":"chi-1.us.uncletopia.com","port":27015,"enabled":true,"region":"us-central","cc":"us","latitude":41.881832,"longitude":-87.62318,"reserved":0,"last_update":"0001-01-01T00:00:00Z","name_a2s":"Uncletopia | Chicago | 1 | All Maps","protocol":17,"map":"pl_badwater","folder":"tf","game":"Team Fortress","app_id":440,"player_count":24,"max_players":24,"Bots":0,"server_type":"Dedicated","server_os":"Linux","password":true,"vac":true,"version":"7757534","steam_id":85568392924469984,"keywords":["nocrits","nodmgspread","payload","uncletopia"],"game_id":440,"stv_port":27016,"stv_name":"Uncletopia | Chicago | 1 | All Maps | STV","players":[{"user_id":282,"name":"The Great Karizma!","steam_id":76561198346191193,"connected_time":1563000000000,"state":"active","ping":93},{"user_id":296,"name":"Banes","steam_id":76561198083485876,"connected_time":940000000000,"state":"active","ping":71},{"user_id":291,"name":"squaggles!","steam_id":76561197994995011,"connected_time":1216000000000,"state":"active","ping":46},{"user_id":287,"name":"Catboy Potemkin","steam_id":76561198078474420,"connected_time":1330000000000,"state":"active","ping":65},{"user_id":239,"name":"Squid121","steam_id":76561198038832034,"connected_time":5308000000000,"state":"active","ping":103},{"user_id":286,"name":"AER0.exe","steam_id":76561198062940197,"connected_time":1360000000000,"state":"active","ping":48},{"user_id":299,"name":"YourFriendJessie #savetf2","steam_id":76561198176883097,"connected_time":389000000000,"state":"active","ping":56},{"user_id":215,"name":"the deadliest pyroshark","steam_id":76561198374227766,"connected_time":7839000000000,"state":"active","ping":71},{"user_id":281,"name":"agentish","steam_id":76561198055088122,"connected_time":1674000000000,"state":"active","ping":53},{"user_id":290,"name":"Brain in a vat gaming","steam_id":76561199216756079,"connected_time":1234000000000,"state":"active","ping":97},{"user_id":292,"name":"Iggy Dogg","steam_id":76561198059602545,"connected_time":1210000000000,"state":"active","ping":48},{"user_id":300,"name":"Silly Scientist","steam_id":76561199199886079,"connected_time":54000000000,"state":"active","ping":72},{"user_id":297,"name":"Grundle Thunder","steam_id":76561197960790338,"connected_time":753000000000,"state":"active","ping":72},{"user_id":210,"name":"Shovel (Demon Arc)","steam_id":76561198082922382,"connected_time":8502000000000,"state":"active","ping":92},{"user_id":150,"name":"Fuzzama","steam_id":76561198253369815,"connected_time":11894000000000,"state":"active","ping":45},{"user_id":236,"name":"Baka!⑨⑨⑨⑨","steam_id":76561198152948254,"connected_time":5533000000000,"state":"active","ping":68},{"user_id":264,"name":"MintyPawz","steam_id":76561198111430103,"connected_time":3186000000000,"state":"active","ping":76},{"user_id":253,"name":"Ras","steam_id":76561198123546775,"connected_time":4241000000000,"state":"active","ping":68},{"user_id":293,"name":"KevCraft","steam_id":76561199000622939,"connected_time":1208000000000,"state":"spawning","ping":44},{"user_id":219,"name":"Enzo","steam_id":76561197975076681,"connected_time":7599000000000,"state":"active","ping":43},{"user_id":285,"name":"kablong","steam_id":76561199094392047,"connected_time":1514000000000,"state":"active","ping":106},{"user_id":294,"name":"HavocGDI","steam_id":76561199388371914,"connected_time":983000000000,"state":"active","ping":171},{"user_id":244,"name":"hyuck","steam_id":76561198319990195,"connected_time":4755000000000,"state":"active","ping":79},{"user_id":274,"name":"p00l","steam_id":76561198060142652,"connected_time":2404000000000,"state":"active","ping":61}]},{"server_id":106,"name":"Uncletopia | Chicago | 2 | All Maps","name_short":"chi-2","host":"chi-1.us.uncletopia.com","port":27025,"enabled":true,"region":"us-central","cc":"us","latitude":41.881832,"longitude":-87.62318,"reserved":0,"last_update":"0001-01-01T00:00:00Z","name_a2s":"Uncletopia | Chicago | 2 | All Maps","protocol":17,"map":"koth_highpass","folder":"tf","game":"Team Fortress","app_id":440,"player_count":24,"max_players":24,"Bots":0,"server_type":"Dedicated","server_os":"Linux","password":true,"vac":true,"version":"7757534","steam_id":85568392924469985,"keywords":["cp","nocrits","nodmgspread","uncletopia"],"game_id":440,"stv_port":27026,"stv_name":"Uncletopia | Chicago | 2 | All Maps | STV","players":[{"user_id":36,"name":"themankeys","steam_id":76561198149339536,"connected_time":578000000000,"state":"active","ping":66},{"user_id":33,"name":"Rugbmilk","steam_id":76561199389283507,"connected_time":896000000000,"state":"active","ping":70},{"user_id":34,"name":"StuartBell511","steam_id":76561198060931721,"connected_time":700000000000,"state":"active","ping":78},{"user_id":35,"name":"A Fucking Degenerate","steam_id":76561198093261788,"connected_time":659000000000,"state":"active","ping":90},{"user_id":37,"name":"Amazingamerhawk","steam_id":76561199064935924,"connected_time":539000000000,"state":"active","ping":57},{"user_id":38,"name":"Lavender","steam_id":76561198142770666,"connected_time":529000000000,"state":"active","ping":52},{"user_id":42,"name":"Dunkin","steam_id":76561198827050447,"connected_time":426000000000,"state":"active","ping":47},{"user_id":40,"name":"Sen4248","steam_id":76561198088573978,"connected_time":476000000000,"state":"active","ping":161},{"user_id":41,"name":"Beyond Trash","steam_id":76561198835198281,"connected_time":451000000000,"state":"active","ping":53},{"user_id":43,"name":"jeff the kawaii","steam_id":76561198079119793,"connected_time":388000000000,"state":"active","ping":62},{"user_id":44,"name":"Joe Burning","steam_id":76561198208623275,"connected_time":378000000000,"state":"active","ping":72},{"user_id":62,"name":"edwinbrood","steam_id":76561198044848769,"connected_time":57000000000,"state":"active","ping":59},{"user_id":58,"name":"Wahooka","steam_id":76561197962240925,"connected_time":185000000000,"state":"active","ping":59},{"user_id":47,"name":"zeredis","steam_id":76561198076596689,"connected_time":335000000000,"state":"active","ping":64},{"user_id":48,"name":"♥ Violet ♥","steam_id":76561198146988881,"connected_time":333000000000,"state":"active","ping":71},{"user_id":49,"name":"Mug Moment Gaming","steam_id":76561198233098136,"connected_time":330000000000,"state":"active","ping":70},{"user_id":50,"name":"wrost tf2 player ever","steam_id":76561199439477857,"connected_time":305000000000,"state":"active","ping":86},{"user_id":51,"name":"Hey Kid","steam_id":76561198087089023,"connected_time":290000000000,"state":"active","ping":67},{"user_id":52,"name":"Lane","steam_id":76561197965828506,"connected_time":285000000000,"state":"active","ping":33},{"user_id":53,"name":"rebelpilotwedge","steam_id":76561198264889145,"connected_time":281000000000,"state":"active","ping":117},{"user_id":54,"name":"Lucille_Bluth","steam_id":76561198206133916,"connected_time":281000000000,"state":"active","ping":75},{"user_id":55,"name":"venomew2","steam_id":76561198327081077,"connected_time":276000000000,"state":"active","ping":86},{"user_id":60,"name":"Snaky","steam_id":76561199389427774,"connected_time":142000000000,"state":"active","ping":113},{"user_id":61,"name":"Insurance Frog","steam_id":76561198067556825,"connected_time":129000000000,"state":"active","ping":91}]},{"server_id":402,"name":"Uncletopia | Chicago | 3 | All Maps","name_short":"chi-3","host":"chi-1.us.uncletopia.com","port":27035,"enabled":true,"region":"us-central","cc":"us","latitude":41.881832,"longitude":-87.62318,"reserved":0,"last_update":"0001-01-01T00:00:00Z","name_a2s":"Uncletopia | Chicago | 3 | All Maps","protocol":17,"map":"pl_barnblitz","folder":"tf","game":"Team Fortress","app_id":440,"player_count":24,"max_players":24,"Bots":0,"server_type":"Dedicated","server_os":"Linux","password":true,"vac":true,"version":"7757534","steam_id":85568392924515191,"keywords":["nocrits","nodmgspread","payload","uncletopia"],"game_id":440,"stv_port":27036,"stv_name":"Uncletopia | Chicago | 3 | All Maps | STV","players":[{"user_id":564,"name":"wcyv","steam_id":76561198956707902,"connected_time":1859000000000,"state":"active","ping":70},{"user_id":571,"name":"Strangelove","steam_id":76561198353773611,"connected_time":1334000000000,"state":"active","ping":80},{"user_id":514,"name":"superx","steam_id":76561198044976613,"connected_time":5674000000000,"state":"active","ping":70},{"user_id":522,"name":"4d4","steam_id":76561198402360789,"connected_time":5133000000000,"state":"active","ping":75},{"user_id":565,"name":"Nigel","steam_id":76561198115574712,"connected_time":1735000000000,"state":"active","ping":48},{"user_id":569,"name":"Winter the Witchie","steam_id":76561198151971178,"connected_time":1450000000000,"state":"active","ping":57},{"user_id":542,"name":"The Incident","steam_id":76561198062763756,"connected_time":3752000000000,"state":"active","ping":49},{"user_id":567,"name":"jrdoran","steam_id":76561197984753094,"connected_time":1608000000000,"state":"active","ping":55},{"user_id":563,"name":"Rec","steam_id":76561198022813906,"connected_time":1895000000000,"state":"active","ping":50},{"user_id":580,"name":"Giddy","steam_id":76561198103183739,"connected_time":470000000000,"state":"active","ping":63},{"user_id":572,"name":"K2f","steam_id":76561198049600563,"connected_time":1334000000000,"state":"active","ping":115},{"user_id":481,"name":"aqua","steam_id":76561199407709552,"connected_time":6937000000000,"state":"active","ping":44},{"user_id":559,"name":"doctor sex md","steam_id":76561198150678175,"connected_time":2124000000000,"state":"active","ping":100},{"user_id":516,"name":"Drippin Jimmy","steam_id":76561198161241865,"connected_time":5651000000000,"state":"active","ping":88},{"user_id":568,"name":"DenverDSnail","steam_id":76561198182543578,"connected_time":1536000000000,"state":"active","ping":67},{"user_id":581,"name":"supcupman","steam_id":76561198051513866,"connected_time":34000000000,"state":"active","ping":265},{"user_id":573,"name":"hunky dory","steam_id":76561198030422254,"connected_time":1296000000000,"state":"active","ping":80},{"user_id":553,"name":"Dictatorial Karelian","steam_id":76561198196736457,"connected_time":3511000000000,"state":"active","ping":152},{"user_id":556,"name":"Captain Red","steam_id":76561198191587983,"connected_time":3216000000000,"state":"active","ping":79},{"user_id":554,"name":"McNamJam","steam_id":76561198028128686,"connected_time":3509000000000,"state":"active","ping":89},{"user_id":555,"name":"Strawburrr","steam_id":76561199208694620,"connected_time":3469000000000,"state":"active","ping":80},{"user_id":578,"name":"Deltaflame","steam_id":76561198060339773,"connected_time":657000000000,"state":"active","ping":140},{"user_id":558,"name":"Jak(i)","steam_id":76561198076823144,"connected_time":2144000000000,"state":"active","ping":69},{"user_id":575,"name":"Jelqing Table","steam_id":76561198051373750,"connected_time":892000000000,"state":"active","ping":119}]},{"server_id":403,"name":"Uncletopia | Chicago | 4 | All Maps","name_short":"chi-4","host":"chi-1.us.uncletopia.com","port":27045,"enabled":true,"region":"us-central","cc":"us","latitude":41.881832,"longitude":-87.62318,"reserved":0,"last_update":"0001-01-01T00:00:00Z","name_a2s":"Uncletopia | Chicago | 4 | All Maps","protocol":17,"map":"koth_viaduct","folder":"tf","game":"Team Fortress","app_id":440,"player_count":0,"max_players":24,"Bots":0,"server_type":"Dedicated","server_os":"Linux","password":true,"vac":true,"version":"7757534","steam_id":85568392924515193,"keywords":["cp","nocrits","nodmgspread","uncletopia"],"game_id":440,"stv_port":27046,"stv_name":"Uncletopia | Chicago | 4 | All Maps | STV","players":null},{"server_id":36,"name":"Uncletopia | Chicago | 5 | All Maps","name_short":"chi-5","host":"chi-2.us.uncletopia.com","port":27015,"enabled":true,"region":"us-central","cc":"us","latitude":41.881832,"longitude":-87.62318,"reserved":0,"last_update":"0001-01-01T00:00:00Z","name_a2s":"Uncletopia | Chicago | 5 | All Maps","protocol":17,"map":"koth_cascade","folder":"tf","game":"Team Fortress","app_id":440,"player_count":0,"max_players":24,"Bots":0,"server_type":"Dedicated","server_os":"Linux","password":true,"vac":true,"version":"7757534","steam_id":85568392924866362,"keywords":["cp","nocrits","nodmgspread","uncletopia"],"game_id":440,"stv_port":27016,"stv_name":"Uncletopia | Chicago | 5 | All Maps | STV","players":null},{"server_id":37,"name":"Uncletopia | Chicago | 6 | All Maps","name_short":"chi-6","host":"chi-2.us.uncletopia.com","port":27025,"enabled":true,"region":"us-central","cc":"us","latitude":41.881832,"longitude":-87.62318,"reserved":0,"last_update":"0001-01-01T00:00:00Z","name_a2s":"Uncletopia | Chicago | 6 | All Maps","protocol":17,"map":"cp_process_final","folder":"tf","game":"Team Fortress","app_id":440,"player_count":21,"max_players":24,"Bots":0,"server_type":"Dedicated","server_os":"Linux","password":true,"vac":true,"version":"7757534","steam_id":85568392924866363,"keywords":["cp","nocrits","nodmgspread","uncletopia"],"game_id":440,"stv_port":27026,"stv_name":"Uncletopia | Chicago | 6 | All Maps | STV","players":[{"user_id":258,"name":"LerN","steam_id":76561198083463877,"connected_time":278000000000,"state":"active","ping":59},{"user_id":205,"name":"cheese.","steam_id":76561198093688740,"connected_time":3301000000000,"state":"active","ping":75},{"user_id":241,"name":"Majestic-A","steam_id":76561198988062101,"connected_time":1575000000000,"state":"active","ping":88},{"user_id":260,"name":"EvilsConscience","steam_id":76561198073451760,"connected_time":71000000000,"state":"active","ping":55},{"user_id":251,"name":"復讐","steam_id":76561199104000767,"connected_time":990000000000,"state":"active","ping":89},{"user_id":263,"name":"QuarticalPhysics","steam_id":76561198061386266,"connected_time":12000000000,"state":"spawning","ping":101},{"user_id":183,"name":"Bartolomew Jackson","steam_id":76561198306596853,"connected_time":4436000000000,"state":"active","ping":55},{"user_id":252,"name":"pop","steam_id":76561199151206130,"connected_time":978000000000,"state":"active","ping":54},{"user_id":246,"name":"[DEEP] Fitts1099","steam_id":76561198044986906,"connected_time":1014000000000,"state":"active","ping":45},{"user_id":181,"name":"an inebriated newt fancier","steam_id":76561197985428155,"connected_time":4497000000000,"state":"active","ping":58},{"user_id":261,"name":"Jango","steam_id":76561198121922413,"connected_time":60000000000,"state":"active","ping":105},{"user_id":255,"name":"Saikou!!!","steam_id":76561198044045406,"connected_time":781000000000,"state":"active","ping":75},{"user_id":262,"name":"Candy Sparkles","steam_id":76561198126871264,"connected_time":48000000000,"state":"active","ping":76},{"user_id":239,"name":"mentally deficient gamer","steam_id":76561198334357092,"connected_time":1646000000000,"state":"active","ping":63},{"user_id":248,"name":"Back with the milk","steam_id":76561199020105501,"connected_time":1001000000000,"state":"active","ping":72},{"user_id":253,"name":"exlhk7","steam_id":76561199468136783,"connected_time":964000000000,"state":"active","ping":98},{"user_id":259,"name":"Dirtin","steam_id":76561198082291174,"connected_time":88000000000,"state":"active","ping":60},{"user_id":249,"name":"Owl Pacino","steam_id":76561197979970666,"connected_time":998000000000,"state":"active","ping":56},{"user_id":257,"name":"carcin","steam_id":76561198042271448,"connected_time":624000000000,"state":"active","ping":60},{"user_id":228,"name":"Furry Saul Goodman","steam_id":76561198069580305,"connected_time":1937000000000,"state":"active","ping":52},{"user_id":245,"name":"Crabo Stabbo","steam_id":76561198061227228,"connected_time":1135000000000,"state":"active","ping":55}]},{"server_id":38,"name":"Uncletopia | Chicago | 7 | Stopwatch Beta","name_short":"chi-7","host":"chi-2.us.uncletopia.com","port":27035,"enabled":true,"region":"us-central","cc":"us","latitude":41.881832,"longitude":-87.62318,"reserved":0,"last_update":"0001-01-01T00:00:00Z","name_a2s":"Uncletopia | Chicago | 7 | Stopwatch Beta","protocol":17,"map":"pl_upward","folder":"tf","game":"Team Fortress","app_id":440,"player_count":0,"max_players":24,"Bots":0,"server_type":"Dedicated","server_os":"Linux","password":true,"vac":true,"version":"7757534","steam_id":85568392924866364,"keywords":["nocrits","nodmgspread","payload","uncletopia"],"game_id":440,"stv_port":27036,"stv_name":"Uncletopia | Chicago | 7 | Stopwatch Beta | STV","players":null},{"server_id":39,"name":"Uncletopia | Chicago | 8 | Community","name_short":"chi-8","host":"chi-2.us.uncletopia.com","port":27045,"enabled":true,"region":"us-central","cc":"us","latitude":41.881832,"longitude":-87.62318,"reserved":0,"last_update":"0001-01-01T00:00:00Z","name_a2s":"Uncletopia | Chicago | 8 | Community","protocol":17,"map":"workshop/cp_villa_b19.ugc2113052569","folder":"tf","game":"Team Fortress","app_id":440,"player_count":24,"max_players":24,"Bots":0,"server_type":"Dedicated","server_os":"Linux","password":true,"vac":true,"version":"7757534","steam_id":85568392924866365,"keywords":["cp","nocrits","nodmgspread","uncletopia"],"game_id":440,"stv_port":27046,"stv_name":"Uncletopia | Chicago | 8 | Community | STV","players":[{"user_id":98,"name":"Daz","steam_id":76561198041431938,"connected_time":20033000000000,"state":"active","ping":76},{"user_id":354,"name":"Carson","steam_id":76561198076771071,"connected_time":1208000000000,"state":"active","ping":52},{"user_id":337,"name":"bopob","steam_id":76561198177092939,"connected_time":2059000000000,"state":"active","ping":63},{"user_id":349,"name":"J.U.N.I.","steam_id":76561198269171463,"connected_time":1643000000000,"state":"active","ping":60},{"user_id":364,"name":"Obama F. Kennedy","steam_id":76561198282499318,"connected_time":34000000000,"state":"active","ping":67},{"user_id":315,"name":"Zoawsome","steam_id":76561198018758753,"connected_time":3219000000000,"state":"active","ping":57},{"user_id":284,"name":"DAS SCHNITZELSTIEN","steam_id":76561198051137159,"connected_time":4830000000000,"state":"active","ping":99},{"user_id":285,"name":"Harold","steam_id":76561198057317770,"connected_time":4807000000000,"state":"active","ping":87},{"user_id":363,"name":"Пес Патрон","steam_id":76561198273199378,"connected_time":470000000000,"state":"active","ping":165},{"user_id":358,"name":"JAKandBEL","steam_id":76561198213060931,"connected_time":866000000000,"state":"active","ping":63},{"user_id":338,"name":"Banana Dispenser","steam_id":76561198446549451,"connected_time":2054000000000,"state":"active","ping":153},{"user_id":333,"name":"Berries","steam_id":76561198109312962,"connected_time":2237000000000,"state":"active","ping":85},{"user_id":348,"name":"St4pps","steam_id":76561198449842958,"connected_time":1705000000000,"state":"active","ping":89},{"user_id":341,"name":"Soju","steam_id":76561198044130442,"connected_time":1789000000000,"state":"active","ping":68},{"user_id":323,"name":"sentry turret","steam_id":76561198327057433,"connected_time":2665000000000,"state":"active","ping":93},{"user_id":355,"name":"the cow from 2fort","steam_id":76561198435910422,"connected_time":1159000000000,"state":"active","ping":73},{"user_id":353,"name":"DolphiN | RGL.gg","steam_id":76561198048614515,"connected_time":1227000000000,"state":"active","ping":59},{"user_id":291,"name":"Ellen Baker","steam_id":76561198065712435,"connected_time":4724000000000,"state":"active","ping":117},{"user_id":326,"name":"SEGNO","steam_id":76561198102780113,"connected_time":2606000000000,"state":"active","ping":66},{"user_id":356,"name":"kiwiichie ₍ᐢᐢ₎","steam_id":76561198315449521,"connected_time":1028000000000,"state":"active","ping":101},{"user_id":361,"name":"BangusHonkle","steam_id":76561198218887511,"connected_time":613000000000,"state":"active","ping":92},{"user_id":347,"name":"BLACK MAN FROM JOJO","steam_id":76561198272948471,"connected_time":1723000000000,"state":"active","ping":60},{"user_id":346,"name":"Choco","steam_id":76561198051146422,"connected_time":1752000000000,"state":"active","ping":77},{"user_id":362,"name":"skipper","steam_id":76561198395965181,"connected_time":601000000000,"state":"active","ping":61}]},{"server_id":8,"name":"Uncletopia | Dallas | 1 | All Maps","name_short":"dal-1","host":"dal-1.us.uncletopia.com","port":27015,"enabled":true,"region":"us-central","cc":"us","latitude":32.779167,"longitude":-96.80889,"reserved":0,"last_update":"0001-01-01T00:00:00Z","name_a2s":"Uncletopia | Dallas | 1 | All Maps","protocol":17,"map":"pl_badwater","folder":"tf","game":"Team Fortress","app_id":440,"player_count":24,"max_players":24,"Bots":0,"server_type":"Dedicated","server_os":"Linux","password":true,"vac":true,"version":"7757534","steam_id":85568392924469986,"keywords":["nocrits","nodmgspread","payload","uncletopia"],"game_id":440,"stv_port":27016,"stv_name":"Uncletopia | Dallas | 1 | All Maps | STV","players":[{"user_id":358,"name":"TheBucketBoy","steam_id":76561199260245925,"connected_time":3432000000000,"state":"active","ping":88},{"user_id":365,"name":"TManEz","steam_id":76561198825581880,"connected_time":3063000000000,"state":"active","ping":85},{"user_id":390,"name":"gamer gup","steam_id":76561198055117995,"connected_time":944000000000,"state":"active","ping":95},{"user_id":381,"name":"Artistic","steam_id":76561198118159566,"connected_time":1829000000000,"state":"active","ping":107},{"user_id":398,"name":"landohickman10","steam_id":76561199396893327,"connected_time":365000000000,"state":"active","ping":117},{"user_id":347,"name":"webaline","steam_id":76561199052450127,"connected_time":4059000000000,"state":"active","ping":79},{"user_id":395,"name":"Octoburst","steam_id":76561198940646233,"connected_time":385000000000,"state":"active","ping":101},{"user_id":396,"name":"Mouth Tea","steam_id":76561198285054047,"connected_time":380000000000,"state":"active","ping":70},{"user_id":353,"name":"Pungabot","steam_id":76561198009088243,"connected_time":3546000000000,"state":"active","ping":80},{"user_id":388,"name":"sheamus the dank engine","steam_id":76561198161824724,"connected_time":1498000000000,"state":"active","ping":91},{"user_id":284,"name":"Shortbane","steam_id":76561198247166584,"connected_time":8021000000000,"state":"active","ping":61},{"user_id":384,"name":"Sam the Toaster (She/Her)","steam_id":76561198076818163,"connected_time":1706000000000,"state":"active","ping":80},{"user_id":401,"name":"Lost","steam_id":76561198025933206,"connected_time":196000000000,"state":"active","ping":58},{"user_id":379,"name":"sollarious101","steam_id":76561199086649385,"connected_time":1965000000000,"state":"active","ping":35},{"user_id":378,"name":"Evil little man","steam_id":76561198311053471,"connected_time":1967000000000,"state":"active","ping":52},{"user_id":394,"name":"Critical","steam_id":76561198123744966,"connected_time":763000000000,"state":"active","ping":96},{"user_id":389,"name":"(TWoN Adric)","steam_id":76561197999304024,"connected_time":1316000000000,"state":"active","ping":45},{"user_id":350,"name":"Sexyrevolver","steam_id":76561199058132505,"connected_time":3979000000000,"state":"active","ping":90},{"user_id":361,"name":"Dictator Noodle","steam_id":76561198277243768,"connected_time":3419000000000,"state":"active","ping":83},{"user_id":385,"name":"Batso","steam_id":76561198106589452,"connected_time":1622000000000,"state":"active","ping":91},{"user_id":324,"name":"sebjzy","steam_id":76561198009959034,"connected_time":5116000000000,"state":"active","ping":62},{"user_id":397,"name":"Turtle","steam_id":76561198262110064,"connected_time":377000000000,"state":"active","ping":70},{"user_id":377,"name":"wheresgeorge","steam_id":76561198986281248,"connected_time":2052000000000,"state":"active","ping":93},{"user_id":400,"name":"resh","steam_id":76561198066619792,"connected_time":359000000000,"state":"active","ping":65}]},{"server_id":108,"name":"Uncletopia | Dallas | 2 | All Maps","name_short":"dal-2","host":"dal-1.us.uncletopia.com","port":27025,"enabled":true,"region":"us-central","cc":"us","latitude":32.779167,"longitude":-96.80889,"reserved":0,"last_update":"0001-01-01T00:00:00Z","name_a2s":"Uncletopia | Dallas | 2 | All Maps","protocol":17,"map":"cp_process_final","folder":"tf","game":"Team Fortress","app_id":440,"player_count":23,"max_players":24,"Bots":0,"server_type":"Dedicated","server_os":"Linux","password":true,"vac":true,"version":"7757534","steam_id":85568392924469988,"keywords":["cp","nocrits","nodmgspread","uncletopia"],"game_id":440,"stv_port":27026,"stv_name":"Uncletopia | Dallas | 2 | All Maps | STV","players":[{"user_id":21,"name":"Ivy","steam_id":76561198047758442,"connected_time":4130000000000,"state":"active","ping":86},{"user_id":22,"name":"John Madden","steam_id":76561198099820768,"connected_time":4122000000000,"state":"active","ping":62},{"user_id":23,"name":"AdamAntine","steam_id":76561198093845314,"connected_time":4115000000000,"state":"active","ping":146},{"user_id":62,"name":"NickP","steam_id":76561198066025076,"connected_time":1027000000000,"state":"active","ping":48},{"user_id":26,"name":"BuhByeFalecia","steam_id":76561198364710587,"connected_time":3869000000000,"state":"active","ping":79},{"user_id":65,"name":"awesome","steam_id":76561198248656836,"connected_time":391000000000,"state":"active","ping":95},{"user_id":48,"name":"Ass Blaster, Disaster Master","steam_id":76561197997774469,"connected_time":2715000000000,"state":"active","ping":70},{"user_id":35,"name":"Cad","steam_id":76561198312145232,"connected_time":3420000000000,"state":"active","ping":115},{"user_id":31,"name":"mikey | I'm Burning Bright!","steam_id":76561198985847893,"connected_time":3520000000000,"state":"active","ping":45},{"user_id":56,"name":"Recursive Gamer","steam_id":76561198042102952,"connected_time":2168000000000,"state":"active","ping":83},{"user_id":33,"name":"Kingsnake","steam_id":76561198033203389,"connected_time":3468000000000,"state":"active","ping":90},{"user_id":57,"name":"lost in spaaaaace","steam_id":76561199085974120,"connected_time":2119000000000,"state":"active","ping":91},{"user_id":38,"name":"hauntaholic","steam_id":76561198095051652,"connected_time":3062000000000,"state":"active","ping":45},{"user_id":39,"name":"AquaEclipse","steam_id":76561198225964744,"connected_time":3040000000000,"state":"active","ping":88},{"user_id":40,"name":"LukaPalooza","steam_id":76561198856708121,"connected_time":3035000000000,"state":"active","ping":89},{"user_id":41,"name":"Pink","steam_id":76561198181361438,"connected_time":3001000000000,"state":"active","ping":101},{"user_id":47,"name":"cody","steam_id":76561198847749278,"connected_time":2725000000000,"state":"active","ping":43},{"user_id":45,"name":"ansoonii","steam_id":76561198092494136,"connected_time":2800000000000,"state":"active","ping":56},{"user_id":64,"name":"SpinnerSpecial","steam_id":76561198065661869,"connected_time":535000000000,"state":"active","ping":101},{"user_id":49,"name":"Jarryl97","steam_id":76561198055451373,"connected_time":2668000000000,"state":"active","ping":60},{"user_id":51,"name":"Wacky Hijinks","steam_id":76561198052961473,"connected_time":2654000000000,"state":"active","ping":99},{"user_id":52,"name":"Big_John.exe","steam_id":76561198149587627,"connected_time":2626000000000,"state":"active","ping":94},{"user_id":61,"name":"BeerPowder","steam_id":76561198058129400,"connected_time":1248000000000,"state":"active","ping":86}]},{"server_id":5,"name":"Uncletopia | Frankfurt | 1 | All Maps","name_short":"frk-1","host":"frk-1.de.uncletopia.com","port":27015,"enabled":true,"region":"eu","cc":"de","latitude":50.110924,"longitude":8.682127,"reserved":0,"last_update":"0001-01-01T00:00:00Z","name_a2s":"Uncletopia | Frankfurt | 1 | All Maps","protocol":17,"map":"pl_snowycoast","folder":"tf","game":"Team Fortress","app_id":440,"player_count":24,"max_players":24,"Bots":0,"server_type":"Dedicated","server_os":"Linux","password":true,"vac":true,"version":"7757534","steam_id":85568392924469989,"keywords":["nocrits","nodmgspread","payload","uncletopia"],"game_id":440,"stv_port":27016,"stv_name":"Uncletopia | Frankfurt | 1 | All Maps | STV","players":[{"user_id":678,"name":"Marco Fraggaro","steam_id":76561198047375585,"connected_time":3213000000000,"state":"active","ping":101},{"user_id":680,"name":"Arturias","steam_id":76561198188720263,"connected_time":2988000000000,"state":"active","ping":91},{"user_id":700,"name":"Sigmar's Weakest Soldier","steam_id":76561198320506848,"connected_time":1349000000000,"state":"active","ping":85},{"user_id":711,"name":"Lukas","steam_id":76561198009118452,"connected_time":674000000000,"state":"active","ping":58},{"user_id":716,"name":"DM_Tiz","steam_id":76561198061478257,"connected_time":293000000000,"state":"active","ping":44},{"user_id":705,"name":"Xiqui","steam_id":76561198818386611,"connected_time":1251000000000,"state":"active","ping":108},{"user_id":712,"name":"Element-118","steam_id":76561198303170872,"connected_time":548000000000,"state":"active","ping":48},{"user_id":706,"name":"SoupER","steam_id":76561198063056668,"connected_time":1167000000000,"state":"spawning","ping":40},{"user_id":714,"name":"North Central Positronics Rep","steam_id":76561198133718360,"connected_time":407000000000,"state":"active","ping":159},{"user_id":719,"name":"GoodGorilla","steam_id":76561198034356064,"connected_time":4000000000,"state":"spawning","ping":58},{"user_id":675,"name":"Noodle","steam_id":76561198306486695,"connected_time":3301000000000,"state":"active","ping":70},{"user_id":701,"name":"Gernhardt Reinlunzen #savetf2","steam_id":76561198147571688,"connected_time":1347000000000,"state":"active","ping":45},{"user_id":715,"name":"Caber gaming","steam_id":76561199002278481,"connected_time":406000000000,"state":"spawning","ping":38},{"user_id":697,"name":"cosmo kramer, lord of the manor","steam_id":76561198074979596,"connected_time":1466000000000,"state":"active","ping":864},{"user_id":688,"name":"s a i","steam_id":76561197970379754,"connected_time":2704000000000,"state":"active","ping":58},{"user_id":689,"name":"Mario3ghj","steam_id":76561198069804561,"connected_time":2676000000000,"state":"active","ping":91},{"user_id":698,"name":"•stepbro•","steam_id":76561198119607160,"connected_time":1439000000000,"state":"spawning","ping":65},{"user_id":718,"name":"Kupusari d.o.o.","steam_id":76561198320880046,"connected_time":40000000000,"state":"spawning","ping":62},{"user_id":693,"name":"mohemmedmokhter2005","steam_id":76561199197650506,"connected_time":2586000000000,"state":"spawning","ping":123},{"user_id":708,"name":"justgvbe","steam_id":76561199193230375,"connected_time":1106000000000,"state":"active","ping":55},{"user_id":677,"name":"bloons tower defense 6","steam_id":76561198281682473,"connected_time":3300000000000,"state":"spawning","ping":122},{"user_id":709,"name":"tralalaOuiOui","steam_id":76561197963471507,"connected_time":1085000000000,"state":"active","ping":75},{"user_id":694,"name":"YeetusFeetus","steam_id":76561199043598948,"connected_time":2583000000000,"state":"spawning","ping":125},{"user_id":696,"name":"El Raiden","steam_id":76561198808819694,"connected_time":2359000000000,"state":"active","ping":43}]},{"server_id":110,"name":"Uncletopia | Frankfurt | 2 | All Maps","name_short":"frk-2","host":"frk-1.de.uncletopia.com","port":27025,"enabled":true,"region":"eu","cc":"de","latitude":50.110924,"longitude":8.682127,"reserved":0,"last_update":"0001-01-01T00:00:00Z","name_a2s":"Uncletopia | Frankfurt | 2 | All Maps","protocol":17,"map":"pl_snowycoast","folder":"tf","game":"Team Fortress","app_id":440,"player_count":23,"max_players":24,"Bots":0,"server_type":"Dedicated","server_os":"Linux","password":true,"vac":true,"version":"7757534","steam_id":85568392924469990,"keywords":["nocrits","nodmgspread","payload","uncletopia"],"game_id":440,"stv_port":27026,"stv_name":"Uncletopia | Frankfurt | 2 | All Maps | STV","players":[{"user_id":352,"name":"joona","steam_id":76561198156305446,"connected_time":608000000000,"state":"active","ping":98},{"user_id":279,"name":"Homicidal Tendencies","steam_id":76561198828681043,"connected_time":5880000000000,"state":"active","ping":54},{"user_id":282,"name":"Piteras","steam_id":76561198858532207,"connected_time":5673000000000,"state":"active","ping":73},{"user_id":313,"name":"( ͡w ͜+ ͡m1)","steam_id":76561198031899043,"connected_time":3723000000000,"state":"active","ping":87},{"user_id":340,"name":"yoshzzz","steam_id":76561199316310715,"connected_time":1534000000000,"state":"active","ping":86},{"user_id":312,"name":"ivanmixo","steam_id":76561198160213989,"connected_time":3894000000000,"state":"active","ping":61},{"user_id":343,"name":"pansexual LFT Open/Low","steam_id":76561198047778351,"connected_time":1205000000000,"state":"active","ping":61},{"user_id":353,"name":"prodbyepic","steam_id":76561198853066534,"connected_time":585000000000,"state":"active","ping":132},{"user_id":328,"name":"AndLogin","steam_id":76561198108601962,"connected_time":2862000000000,"state":"active","ping":102},{"user_id":338,"name":"Nameless_Mann","steam_id":76561198015543601,"connected_time":1981000000000,"state":"active","ping":74},{"user_id":349,"name":"Valfezant","steam_id":76561199063983797,"connected_time":978000000000,"state":"active","ping":61},{"user_id":347,"name":"garlic toast","steam_id":76561198101603592,"connected_time":1030000000000,"state":"active","ping":104},{"user_id":307,"name":"Nohudi","steam_id":76561198073367240,"connected_time":4416000000000,"state":"active","ping":83},{"user_id":356,"name":"viktor610126","steam_id":76561198386462300,"connected_time":468000000000,"state":"active","ping":105},{"user_id":358,"name":"ophaso","steam_id":76561198322362986,"connected_time":72000000000,"state":"active","ping":58},{"user_id":348,"name":"Mellon","steam_id":76561198092509893,"connected_time":1022000000000,"state":"active","ping":169},{"user_id":322,"name":"Silent Person","steam_id":76561198107763537,"connected_time":3051000000000,"state":"active","ping":71},{"user_id":354,"name":"ev1lboyo","steam_id":76561199199499453,"connected_time":537000000000,"state":"active","ping":73},{"user_id":293,"name":"gagalak","steam_id":76561198089979108,"connected_time":5255000000000,"state":"active","ping":90},{"user_id":346,"name":"midnight_heat","steam_id":76561199076696513,"connected_time":1169000000000,"state":"active","ping":76},{"user_id":355,"name":"neeezy","steam_id":76561198084307068,"connected_time":529000000000,"state":"active","ping":46},{"user_id":324,"name":"Posture Check","steam_id":76561198053897197,"connected_time":3015000000000,"state":"active","ping":57},{"user_id":327,"name":"vabur","steam_id":76561198119102601,"connected_time":2963000000000,"state":"active","ping":90}]},{"server_id":308,"name":"Uncletopia | Frankfurt | 3 | All Maps","name_short":"frk-3","host":"frk-1.de.uncletopia.com","port":27035,"enabled":true,"region":"eu","cc":"de","latitude":50.110924,"longitude":8.682127,"reserved":0,"last_update":"0001-01-01T00:00:00Z","name_a2s":"Uncletopia | Frankfurt | 3 | All Maps","protocol":17,"map":"cp_snakewater_final1","folder":"tf","game":"Team Fortress","app_id":440,"player_count":0,"max_players":24,"Bots":0,"server_type":"Dedicated","server_os":"Linux","password":true,"vac":true,"version":"7757534","steam_id":85568392924504274,"keywords":["cp","nocrits","nodmgspread","uncletopia"],"game_id":440,"stv_port":27036,"stv_name":"Uncletopia | Frankfurt | 3 | All Maps | STV","players":null},{"server_id":309,"name":"Uncletopia | Frankfurt | 4 | All Maps","name_short":"frk-4","host":"frk-1.de.uncletopia.com","port":27045,"enabled":true,"region":"eu","cc":"de","latitude":50.110924,"longitude":8.682127,"reserved":0,"last_update":"0001-01-01T00:00:00Z","name_a2s":"Uncletopia | Frankfurt | 4 | All Maps","protocol":17,"map":"pl_frontier_final","folder":"tf","game":"Team Fortress","app_id":440,"player_count":0,"max_players":24,"Bots":0,"server_type":"Dedicated","server_os":"Linux","password":true,"vac":true,"version":"7757534","steam_id":85568392924504275,"keywords":["nocrits","nodmgspread","payload","uncletopia"],"game_id":440,"stv_port":27046,"stv_name":"Uncletopia | Frankfurt | 4 | All Maps | STV","players":null},{"server_id":310,"name":"Uncletopia | Frankfurt | 5 | All Maps","name_short":"frk-5","host":"frk-1.de.uncletopia.com","port":27055,"enabled":true,"region":"eu","cc":"de","latitude":50.110924,"longitude":8.682127,"reserved":0,"last_update":"0001-01-01T00:00:00Z","name_a2s":"Uncletopia | Frankfurt | 5 | All Maps","protocol":17,"map":"pl_borneo","folder":"tf","game":"Team Fortress","app_id":440,"player_count":0,"max_players":24,"Bots":0,"server_type":"Dedicated","server_os":"Linux","password":true,"vac":true,"version":"7757534","steam_id":85568392924504277,"keywords":["nocrits","nodmgspread","payload","uncletopia"],"game_id":440,"stv_port":27056,"stv_name":"Uncletopia | Frankfurt | 5 | All Maps | STV","players":null},{"server_id":311,"name":"Uncletopia | Frankfurt | 6 | All Maps","name_short":"frk-6","host":"frk-1.de.uncletopia.com","port":27065,"enabled":true,"region":"eu","cc":"de","latitude":50.110924,"longitude":8.682127,"reserved":0,"last_update":"0001-01-01T00:00:00Z","name_a2s":"Uncletopia | Frankfurt | 6 | All Maps","protocol":17,"map":"koth_lakeside_final","folder":"tf","game":"Team Fortress","app_id":440,"player_count":0,"max_players":24,"Bots":0,"server_type":"Dedicated","server_os":"Linux","password":true,"vac":true,"version":"7757534","steam_id":85568392924504278,"keywords":["cp","nocrits","nodmgspread","uncletopia"],"game_id":440,"stv_port":27066,"stv_name":"Uncletopia | Frankfurt | 6 | All Maps | STV","players":null},{"server_id":23,"name":"Uncletopia | Frankfurt | 7 | Stopwatch Beta","name_short":"frk-7","host":"frk-1.de.uncletopia.com","port":27075,"enabled":true,"region":"eu","cc":"de","latitude":50.110924,"longitude":8.682127,"reserved":0,"last_update":"0001-01-01T00:00:00Z","name_a2s":"Uncletopia | Frankfurt | 7 | Stopwatch Beta","protocol":17,"map":"pl_borneo","folder":"tf","game":"Team Fortress","app_id":440,"player_count":0,"max_players":24,"Bots":0,"server_type":"Dedicated","server_os":"Linux","password":true,"vac":true,"version":"7757534","steam_id":85568392924742827,"keywords":["nocrits","nodmgspread","payload","uncletopia"],"game_id":440,"stv_port":27076,"stv_name":"Uncletopia | Frankfurt | 7 | Stopwatch Beta | STV","players":null},{"server_id":24,"name":"Uncletopia | Frankfurt | 8 | Community","name_short":"frk-8","host":"frk-1.de.uncletopia.com","port":27085,"enabled":true,"region":"eu","cc":"de","latitude":50.110924,"longitude":8.682127,"reserved":0,"last_update":"0001-01-01T00:00:00Z","name_a2s":"Uncletopia | Frankfurt | 8 | Community","protocol":17,"map":"workshop/cp_villa_b19.ugc2113052569","folder":"tf","game":"Team Fortress","app_id":440,"player_count":0,"max_players":24,"Bots":0,"server_type":"Dedicated","server_os":"Linux","password":true,"vac":true,"version":"7757534","steam_id":85568392924742828,"keywords":["cp","nocrits","nodmgspread","uncletopia"],"game_id":440,"stv_port":27086,"stv_name":"Uncletopia | Frankfurt | 8 | Community | STV","players":null},{"server_id":202,"name":"Uncletopia | Hong Kong | 1 | All Maps","name_short":"hgk-1","host":"hgk-1.hk.uncletopia.com","port":27015,"enabled":true,"region":"asia","cc":"hk","latitude":22.302711,"longitude":114.177216,"reserved":0,"last_update":"0001-01-01T00:00:00Z","name_a2s":"Uncletopia | Hong Kong | 1 | All Maps","protocol":17,"map":"pl_frontier_final","folder":"tf","game":"Team Fortress","app_id":440,"player_count":0,"max_players":24,"Bots":0,"server_type":"Dedicated","server_os":"Linux","password":true,"vac":true,"version":"7757534","steam_id":85568392924494504,"keywords":["nocrits","nodmgspread","payload","uncletopia"],"game_id":440,"stv_port":27016,"stv_name":"Uncletopia | Hong Kong | 1 | All Maps | STV","players":null},{"server_id":1,"name":"Uncletopia | Los Angeles | 1 | All Maps","name_short":"lax-1","host":"lax-1.us.uncletopia.com","port":27015,"enabled":true,"region":"us-west","cc":"us","latitude":33.94279,"longitude":-118.41004,"reserved":0,"last_update":"0001-01-01T00:00:00Z","name_a2s":"Uncletopia | Los Angeles | 1 | All Maps","protocol":17,"map":"plr_nightfall_final","folder":"tf","game":"Team Fortress","app_id":440,"player_count":0,"max_players":24,"Bots":0,"server_type":"Dedicated","server_os":"Linux","password":true,"vac":true,"version":"7757534","steam_id":85568392924469991,"keywords":["nocrits","nodmgspread","payload","uncletopia"],"game_id":440,"stv_port":27016,"stv_name":"Uncletopia | Los Angeles | 1 | All Maps | STV","players":null},{"server_id":112,"name":"Uncletopia | Los Angeles | 2 | All Maps","name_short":"lax-2","host":"lax-1.us.uncletopia.com","port":27025,"enabled":true,"region":"us-west","cc":"us","latitude":33.94279,"longitude":-118.41004,"reserved":0,"last_update":"0001-01-01T00:00:00Z","name_a2s":"Uncletopia | Los Angeles | 2 | All Maps","protocol":17,"map":"cp_process_final","folder":"tf","game":"Team Fortress","app_id":440,"player_count":0,"max_players":24,"Bots":0,"server_type":"Dedicated","server_os":"Linux","password":true,"vac":true,"version":"7757534","steam_id":85568392924469992,"keywords":["cp","nocrits","nodmgspread","uncletopia"],"game_id":440,"stv_port":27026,"stv_name":"Uncletopia | Los Angeles | 2 | All Maps | STV","players":null},{"server_id":324,"name":"Uncletopia | Los Angeles | 3 | All Maps","name_short":"lax-3","host":"lax-1.us.uncletopia.com","port":27035,"enabled":true,"region":"us-west","cc":"us","latitude":33.94279,"longitude":-118.41004,"reserved":0,"last_update":"0001-01-01T00:00:00Z","name_a2s":"Uncletopia | Los Angeles | 3 | All Maps","protocol":17,"map":"koth_highpass","folder":"tf","game":"Team Fortress","app_id":440,"player_count":2,"max_players":24,"Bots":0,"server_type":"Dedicated","server_os":"Linux","password":true,"vac":true,"version":"7757534","steam_id":85568392924510198,"keywords":["cp","nocrits","nodmgspread","uncletopia"],"game_id":440,"stv_port":27036,"stv_name":"Uncletopia | Los Angeles | 3 | All Maps | STV","players":[{"user_id":4,"name":"JamesR","steam_id":76561199436941161,"connected_time":552000000000,"state":"active","ping":98},{"user_id":5,"name":"Chickenwing","steam_id":76561199347103141,"connected_time":537000000000,"state":"active","ping":99}]},{"server_id":25,"name":"Uncletopia | Los Angeles | 4 | Stopwatch Beta","name_short":"lax-4","host":"lax-1.us.uncletopia.com","port":27045,"enabled":true,"region":"us-west","cc":"us","latitude":33.94279,"longitude":-118.41004,"reserved":0,"last_update":"0001-01-01T00:00:00Z","name_a2s":"Uncletopia | Los Angeles | 4 | Stopwatch Beta","protocol":17,"map":"koth_viaduct","folder":"tf","game":"Team Fortress","app_id":440,"player_count":0,"max_players":24,"Bots":0,"server_type":"Dedicated","server_os":"Linux","password":true,"vac":true,"version":"7757534","steam_id":85568392924510199,"keywords":["cp","nocrits","nodmgspread","uncletopia"],"game_id":440,"stv_port":27046,"stv_name":"Uncletopia | Los Angeles | 4 | Stopwatch Beta | STV","players":null},{"server_id":11,"name":"Uncletopia | London | 1 | All Maps","name_short":"lon-1","host":"lon-1.uk.uncletopia.com","port":27015,"enabled":true,"region":"eu","cc":"gb","latitude":51.509865,"longitude":-0.118092,"reserved":0,"last_update":"0001-01-01T00:00:00Z","name_a2s":"Uncletopia | London | 1 | All Maps","protocol":17,"map":"pl_frontier_final","folder":"tf","game":"Team Fortress","app_id":440,"player_count":24,"max_players":24,"Bots":0,"server_type":"Dedicated","server_os":"Linux","password":true,"vac":true,"version":"7757534","steam_id":85568392924367362,"keywords":["nocrits","nodmgspread","payload","uncletopia"],"game_id":440,"stv_port":27016,"stv_name":"Uncletopia | London | 1 | All Maps | STV","players":[{"user_id":813,"name":"big al","steam_id":76561198800662675,"connected_time":9742000000000,"state":"active","ping":80},{"user_id":917,"name":"Adam Sandler","steam_id":76561198310408309,"connected_time":642000000000,"state":"active","ping":66},{"user_id":890,"name":"anime drug dealer","steam_id":76561198235739036,"connected_time":3303000000000,"state":"active","ping":76},{"user_id":897,"name":"teddy","steam_id":76561198007436837,"connected_time":3221000000000,"state":"active","ping":44},{"user_id":916,"name":"Refurbished Boy","steam_id":76561197995834697,"connected_time":797000000000,"state":"active","ping":96},{"user_id":904,"name":"Vezage","steam_id":76561198064916164,"connected_time":1737000000000,"state":"active","ping":74},{"user_id":817,"name":"Sam","steam_id":76561198203070687,"connected_time":9621000000000,"state":"active","ping":54},{"user_id":911,"name":"A Succulent Chinese Meal","steam_id":76561198069472440,"connected_time":1694000000000,"state":"active","ping":66},{"user_id":912,"name":"Gen","steam_id":76561198021775885,"connected_time":1692000000000,"state":"active","ping":58},{"user_id":898,"name":"XavierSweet","steam_id":76561198091781913,"connected_time":3220000000000,"state":"active","ping":51},{"user_id":889,"name":"Crinkly Doo","steam_id":76561198018898098,"connected_time":4422000000000,"state":"active","ping":44},{"user_id":900,"name":"Aaron","steam_id":76561197990046953,"connected_time":2471000000000,"state":"active","ping":70},{"user_id":907,"name":"Vershal Smershal","steam_id":76561198116223995,"connected_time":1721000000000,"state":"active","ping":59},{"user_id":895,"name":"Wicks","steam_id":76561198035709148,"connected_time":3265000000000,"state":"active","ping":66},{"user_id":919,"name":"Phrog","steam_id":76561197994499500,"connected_time":332000000000,"state":"active","ping":53},{"user_id":918,"name":"Tel Ltd.","steam_id":76561198045137670,"connected_time":632000000000,"state":"active","ping":59},{"user_id":915,"name":"Yangus","steam_id":76561198147796010,"connected_time":1436000000000,"state":"active","ping":58},{"user_id":903,"name":"Zoran Snajper","steam_id":76561198312564061,"connected_time":2164000000000,"state":"active","ping":74},{"user_id":909,"name":"@_@","steam_id":76561198076494034,"connected_time":1710000000000,"state":"active","ping":48},{"user_id":921,"name":"da gloop","steam_id":76561198298576765,"connected_time":108000000000,"state":"active","ping":66},{"user_id":884,"name":"Dee","steam_id":76561198257836694,"connected_time":4650000000000,"state":"active","ping":40},{"user_id":887,"name":"The Fellow Feller","steam_id":76561198188864306,"connected_time":4481000000000,"state":"active","ping":80},{"user_id":844,"name":"Hanzo (Poor)","steam_id":76561198041690676,"connected_time":8055000000000,"state":"active","ping":52},{"user_id":910,"name":"Piss_boy","steam_id":76561198082406639,"connected_time":1710000000000,"state":"active","ping":84}]},{"server_id":114,"name":"Uncletopia | London | 2 | All Maps","name_short":"lon-2","host":"lon-1.uk.uncletopia.com","port":27025,"enabled":true,"region":"eu","cc":"gb","latitude":51.509865,"longitude":-0.118092,"reserved":0,"last_update":"0001-01-01T00:00:00Z","name_a2s":"Uncletopia | London | 2 | All Maps","protocol":17,"map":"koth_viaduct","folder":"tf","game":"Team Fortress","app_id":440,"player_count":24,"max_players":24,"Bots":0,"server_type":"Dedicated","server_os":"Linux","password":true,"vac":true,"version":"7757534","steam_id":85568392924470941,"keywords":["cp","nocrits","nodmgspread","uncletopia"],"game_id":440,"stv_port":27026,"stv_name":"Uncletopia | London | 2 | All Maps | STV","players":[{"user_id":978,"name":"imperia400","steam_id":76561199036095993,"connected_time":911000000000,"state":"active","ping":89},{"user_id":976,"name":"Frazzle","steam_id":76561198262577951,"connected_time":1115000000000,"state":"active","ping":61},{"user_id":989,"name":"tomlarr__","steam_id":76561198989324446,"connected_time":205000000000,"state":"active","ping":75},{"user_id":961,"name":"Gety0","steam_id":76561198044387185,"connected_time":1827000000000,"state":"active","ping":87},{"user_id":962,"name":"Great recession of 2008","steam_id":76561198881151562,"connected_time":1803000000000,"state":"active","ping":86},{"user_id":958,"name":"KlevukaS™","steam_id":76561198312867604,"connected_time":1870000000000,"state":"active","ping":90},{"user_id":956,"name":"Jeikku","steam_id":76561198078651679,"connected_time":1903000000000,"state":"active","ping":38},{"user_id":896,"name":"Loud Pack","steam_id":76561198122181176,"connected_time":4790000000000,"state":"active","ping":42},{"user_id":988,"name":"Cheshireycat","steam_id":76561198067204908,"connected_time":261000000000,"state":"active","ping":57},{"user_id":968,"name":"Silverstorm","steam_id":76561198118175267,"connected_time":1646000000000,"state":"active","ping":79},{"user_id":963,"name":"GardenFungus","steam_id":76561198054894337,"connected_time":1784000000000,"state":"active","ping":40},{"user_id":840,"name":"Morseerman","steam_id":76561198040169391,"connected_time":7527000000000,"state":"active","ping":63},{"user_id":972,"name":"Rhysoo","steam_id":76561199012468443,"connected_time":1457000000000,"state":"active","ping":42},{"user_id":971,"name":"azzy","steam_id":76561198061293740,"connected_time":1478000000000,"state":"active","ping":78},{"user_id":974,"name":"Le Bon Toutou","steam_id":76561198300902712,"connected_time":1330000000000,"state":"active","ping":73},{"user_id":984,"name":"Zedifo","steam_id":76561198044032070,"connected_time":704000000000,"state":"active","ping":31},{"user_id":970,"name":"FELHEEE","steam_id":76561197987151150,"connected_time":1558000000000,"state":"active","ping":91},{"user_id":986,"name":"troglodyke","steam_id":76561199400809482,"connected_time":614000000000,"state":"active","ping":53},{"user_id":987,"name":"jaMie","steam_id":76561198170148783,"connected_time":380000000000,"state":"active","ping":38},{"user_id":983,"name":"Videogamer","steam_id":76561198106012909,"connected_time":749000000000,"state":"active","ping":81},{"user_id":853,"name":"Doog","steam_id":76561198072081731,"connected_time":7268000000000,"state":"active","ping":66},{"user_id":975,"name":"Royal","steam_id":76561198157621024,"connected_time":1301000000000,"state":"active","ping":46},{"user_id":928,"name":"Failsafe","steam_id":76561198090751331,"connected_time":3102000000000,"state":"active","ping":70},{"user_id":985,"name":"Mr.Cupcake","steam_id":76561198152711174,"connected_time":684000000000,"state":"active","ping":79}]},{"server_id":320,"name":"Uncletopia | London | 3 | All Maps","name_short":"lon-3","host":"lon-1.uk.uncletopia.com","port":27035,"enabled":true,"region":"eu","cc":"gb","latitude":51.509865,"longitude":-0.118092,"reserved":0,"last_update":"0001-01-01T00:00:00Z","name_a2s":"Uncletopia | London | 3 | All Maps","protocol":17,"map":"pl_pier","folder":"tf","game":"Team Fortress","app_id":440,"player_count":24,"max_players":24,"Bots":0,"server_type":"Dedicated","server_os":"Linux","password":true,"vac":true,"version":"7757534","steam_id":85568392924510192,"keywords":["nocrits","nodmgspread","payload","uncletopia"],"game_id":440,"stv_port":27036,"stv_name":"Uncletopia | London | 3 | All Maps | STV","players":[{"user_id":249,"name":"Aurora","steam_id":76561199385280253,"connected_time":1847000000000,"state":"active","ping":119},{"user_id":259,"name":"Ze","steam_id":76561198314901652,"connected_time":419000000000,"state":"active","ping":69},{"user_id":182,"name":"shekels","steam_id":76561199218838411,"connected_time":5131000000000,"state":"active","ping":55},{"user_id":251,"name":"Superiumentarius","steam_id":76561198081642249,"connected_time":1570000000000,"state":"active","ping":64},{"user_id":244,"name":"nytronytronytro","steam_id":76561198080496833,"connected_time":2451000000000,"state":"active","ping":88},{"user_id":184,"name":"zoinks!","steam_id":76561198068645362,"connected_time":5104000000000,"state":"active","ping":62},{"user_id":207,"name":"r06u3","steam_id":76561198254099253,"connected_time":4612000000000,"state":"active","ping":176},{"user_id":242,"name":"RoXeUr-KaMiKaZe","steam_id":76561197998204782,"connected_time":2500000000000,"state":"active","ping":55},{"user_id":257,"name":"wickEd_","steam_id":76561198048068999,"connected_time":733000000000,"state":"active","ping":163},{"user_id":235,"name":"Shads","steam_id":76561198080817039,"connected_time":2855000000000,"state":"active","ping":43},{"user_id":254,"name":"Johnny Cockroach","steam_id":76561198049648277,"connected_time":1071000000000,"state":"active","ping":96},{"user_id":231,"name":"Osiris x Saint-14 9k Page Fanfi","steam_id":76561198133063760,"connected_time":2906000000000,"state":"active","ping":87},{"user_id":248,"name":"AsuX","steam_id":76561197990333289,"connected_time":2283000000000,"state":"active","ping":60},{"user_id":238,"name":"Wet Bread","steam_id":76561198157870714,"connected_time":2806000000000,"state":"active","ping":55},{"user_id":204,"name":"Snowmotion","steam_id":76561198075022454,"connected_time":4689000000000,"state":"active","ping":71},{"user_id":240,"name":"Hotgamerdad","steam_id":76561198085940613,"connected_time":2679000000000,"state":"active","ping":65},{"user_id":232,"name":"Mark 'The Beast' Labbett","steam_id":76561198118892116,"connected_time":2904000000000,"state":"active","ping":57},{"user_id":253,"name":"Harrison256","steam_id":76561198078975210,"connected_time":1554000000000,"state":"active","ping":57},{"user_id":241,"name":"The Bean Man","steam_id":76561198046932811,"connected_time":2676000000000,"state":"active","ping":55},{"user_id":245,"name":"ᗜ˰ᗜ","steam_id":76561198148074472,"connected_time":2449000000000,"state":"active","ping":48},{"user_id":260,"name":"pepper","steam_id":76561198059782462,"connected_time":351000000000,"state":"active","ping":60},{"user_id":255,"name":"Rain","steam_id":76561198186993269,"connected_time":821000000000,"state":"active","ping":68},{"user_id":229,"name":"Space Rimmer","steam_id":76561198069243201,"connected_time":3298000000000,"state":"active","ping":51},{"user_id":247,"name":"raaaaaaaaaaaaz","steam_id":76561198147277460,"connected_time":2433000000000,"state":"active","ping":68}]},{"server_id":321,"name":"Uncletopia | London | 4 | All Maps","name_short":"lon-4","host":"lon-1.uk.uncletopia.com","port":27045,"enabled":true,"region":"eu","cc":"gb","latitude":51.509865,"longitude":-0.118092,"reserved":0,"last_update":"0001-01-01T00:00:00Z","name_a2s":"Uncletopia | London | 4 | All Maps","protocol":17,"map":"pl_pier","folder":"tf","game":"Team Fortress","app_id":440,"player_count":24,"max_players":24,"Bots":0,"server_type":"Dedicated","server_os":"Linux","password":true,"vac":true,"version":"7757534","steam_id":85568392924510193,"keywords":["nocrits","nodmgspread","payload","uncletopia"],"game_id":440,"stv_port":27046,"stv_name":"Uncletopia | London | 4 | All Maps | STV","players":[{"user_id":534,"name":"Star in a pond","steam_id":76561198205501279,"connected_time":299000000000,"state":"active","ping":90},{"user_id":537,"name":"Joseph Stalin","steam_id":76561198033199746,"connected_time":157000000000,"state":"active","ping":45},{"user_id":482,"name":"David Random","steam_id":76561198144497918,"connected_time":3449000000000,"state":"active","ping":71},{"user_id":535,"name":"Bean","steam_id":76561199103766971,"connected_time":207000000000,"state":"active","ping":157},{"user_id":523,"name":"Mūn","steam_id":76561198389852292,"connected_time":743000000000,"state":"active","ping":120},{"user_id":485,"name":"Nikcha","steam_id":76561198253300222,"connected_time":2331000000000,"state":"active","ping":59},{"user_id":532,"name":"MG TF 2004!","steam_id":76561198042975907,"connected_time":315000000000,"state":"active","ping":58},{"user_id":529,"name":"Mankind","steam_id":76561197999362239,"connected_time":333000000000,"state":"active","ping":109},{"user_id":488,"name":"SooS","steam_id":76561198058943929,"connected_time":2286000000000,"state":"active","ping":70},{"user_id":490,"name":"WolFFinE","steam_id":76561198125790408,"connected_time":2141000000000,"state":"active","ping":83},{"user_id":514,"name":"[PBTB] Jonestones.vzwdp","steam_id":76561198328082426,"connected_time":1491000000000,"state":"active","ping":34},{"user_id":536,"name":"IceDreamer","steam_id":76561197997569989,"connected_time":203000000000,"state":"active","ping":44},{"user_id":499,"name":"Limewere","steam_id":76561198101751967,"connected_time":1926000000000,"state":"active","ping":61},{"user_id":494,"name":"lone wolf","steam_id":76561198373351056,"connected_time":2068000000000,"state":"active","ping":60},{"user_id":496,"name":"g","steam_id":76561198070962612,"connected_time":2034000000000,"state":"active","ping":45},{"user_id":518,"name":"Windows Vista Cruiser","steam_id":76561198064102233,"connected_time":1321000000000,"state":"active","ping":66},{"user_id":525,"name":"skull","steam_id":76561198269491159,"connected_time":736000000000,"state":"active","ping":58},{"user_id":533,"name":"Chris","steam_id":76561198313494507,"connected_time":314000000000,"state":"active","ping":69},{"user_id":506,"name":"ϟ suguse1","steam_id":76561198344120559,"connected_time":1739000000000,"state":"active","ping":79},{"user_id":510,"name":"[PBTB]GRIZZLY.Hallowasniet.vzwd","steam_id":76561198168485956,"connected_time":1534000000000,"state":"active","ping":61},{"user_id":516,"name":"Cabbe","steam_id":76561198019915094,"connected_time":1397000000000,"state":"active","ping":83},{"user_id":513,"name":"Citrus","steam_id":76561198090650837,"connected_time":1497000000000,"state":"active","ping":49},{"user_id":519,"name":"Milk","steam_id":76561198125876588,"connected_time":1318000000000,"state":"active","ping":44},{"user_id":521,"name":"vexo","steam_id":76561198186680410,"connected_time":1058000000000,"state":"active","ping":42}]},{"server_id":21,"name":"Uncletopia | London | 5 | All Maps","name_short":"lon-5","host":"lon-1.uk.uncletopia.com","port":27055,"enabled":true,"region":"eu","cc":"gb","latitude":51.509865,"longitude":-0.118092,"reserved":0,"last_update":"0001-01-01T00:00:00Z","name_a2s":"Uncletopia | London | 5 | All Maps","protocol":17,"map":"cp_sunshine","folder":"tf","game":"Team Fortress","app_id":440,"player_count":0,"max_players":24,"Bots":0,"server_type":"Dedicated","server_os":"Linux","password":true,"vac":true,"version":"7757534","steam_id":85568392924742829,"keywords":["cp","nocrits","nodmgspread","uncletopia"],"game_id":440,"stv_port":27056,"stv_name":"Uncletopia | London | 5 | All Maps | STV","players":null},{"server_id":22,"name":"Uncletopia | London | 6 | All Maps","name_short":"lon-6","host":"lon-1.uk.uncletopia.com","port":27065,"enabled":true,"region":"eu","cc":"gb","latitude":51.509865,"longitude":-0.118092,"reserved":0,"last_update":"0001-01-01T00:00:00Z","name_a2s":"Uncletopia | London | 6 | All Maps","protocol":17,"map":"pl_borneo","folder":"tf","game":"Team Fortress","app_id":440,"player_count":0,"max_players":24,"Bots":0,"server_type":"Dedicated","server_os":"Linux","password":true,"vac":true,"version":"7757534","steam_id":85568392924742830,"keywords":["nocrits","nodmgspread","payload","uncletopia"],"game_id":440,"stv_port":27066,"stv_name":"Uncletopia | London | 6 | All Maps | STV","players":null},{"server_id":40,"name":"Uncletopia | London | 7 | No Payload","name_short":"lon-7","host":"lon-1.uk.uncletopia.com","port":27075,"enabled":true,"region":"eu","cc":"gb","latitude":51.509865,"longitude":-0.118092,"reserved":0,"last_update":"0001-01-01T00:00:00Z","name_a2s":"Uncletopia | London | 7 | No Payload","protocol":17,"map":"cp_sunshine","folder":"tf","game":"Team Fortress","app_id":440,"player_count":0,"max_players":24,"Bots":0,"server_type":"Dedicated","server_os":"Linux","password":true,"vac":true,"version":"7757534","steam_id":85568392924964314,"keywords":["cp","nocrits","nodmgspread","uncletopia"],"game_id":440,"stv_port":27076,"stv_name":"Uncletopia | London | 7 | No Payload | STV","players":null},{"server_id":41,"name":"Uncletopia | London | 8 | Community","name_short":"lon-8","host":"lon-1.uk.uncletopia.com","port":27085,"enabled":true,"region":"eu","cc":"gb","latitude":51.509865,"longitude":-0.118092,"reserved":0,"last_update":"0001-01-01T00:00:00Z","name_a2s":"Uncletopia | London | 8 | Community","protocol":17,"map":"workshop/koth_bagel_rc5.ugc2514036946","folder":"tf","game":"Team Fortress","app_id":440,"player_count":0,"max_players":24,"Bots":0,"server_type":"Dedicated","server_os":"Linux","password":true,"vac":true,"version":"7757534","steam_id":85568392924964315,"keywords":["cp","nocrits","nodmgspread","uncletopia"],"game_id":440,"stv_port":27086,"stv_name":"Uncletopia | London | 8 | Community | STV","players":null},{"server_id":300,"name":"Uncletopia | Montréal | 1 | All Maps","name_short":"mtl-1","host":"mtl-1.ca.uncletopia.com","port":27015,"enabled":true,"region":"us-east","cc":"ca","latitude":45.50889,"longitude":-73.56167,"reserved":0,"last_update":"0001-01-01T00:00:00Z","name_a2s":"Uncletopia | Montréal | 1 | All Maps","protocol":17,"map":"koth_cascade","folder":"tf","game":"Team Fortress","app_id":440,"player_count":0,"max_players":24,"Bots":0,"server_type":"Dedicated","server_os":"Linux","password":true,"vac":true,"version":"7757534","steam_id":85568392924500087,"keywords":["cp","nocrits","nodmgspread","uncletopia"],"game_id":440,"stv_port":27016,"stv_name":"Uncletopia | Montréal | 1 | All Maps | STV","players":null},{"server_id":301,"name":"Uncletopia | Montréal | 2 | All Maps","name_short":"mtl-2","host":"mtl-1.ca.uncletopia.com","port":27025,"enabled":true,"region":"us-east","cc":"ca","latitude":45.50889,"longitude":-73.56167,"reserved":0,"last_update":"0001-01-01T00:00:00Z","name_a2s":"Uncletopia | Montréal | 2 | All Maps","protocol":17,"map":"koth_viaduct","folder":"tf","game":"Team Fortress","app_id":440,"player_count":0,"max_players":24,"Bots":0,"server_type":"Dedicated","server_os":"Linux","password":true,"vac":true,"version":"7757534","steam_id":85568392924500088,"keywords":["cp","nocrits","nodmgspread","uncletopia"],"game_id":440,"stv_port":27026,"stv_name":"Uncletopia | Montréal | 2 | All Maps | STV","players":null},{"server_id":302,"name":"Uncletopia | Montréal | 3 | All Maps","name_short":"mtl-3","host":"mtl-1.ca.uncletopia.com","port":27035,"enabled":true,"region":"us-east","cc":"ca","latitude":45.50889,"longitude":-73.56167,"reserved":0,"last_update":"0001-01-01T00:00:00Z","name_a2s":"Uncletopia | Montréal | 3 | All Maps","protocol":17,"map":"koth_highpass","folder":"tf","game":"Team Fortress","app_id":440,"player_count":8,"max_players":24,"Bots":0,"server_type":"Dedicated","server_os":"Linux","password":true,"vac":true,"version":"7757534","steam_id":85568392924500089,"keywords":["cp","nocrits","nodmgspread","uncletopia"],"game_id":440,"stv_port":27036,"stv_name":"Uncletopia | Montréal | 3 | All Maps | STV","players":[{"user_id":6,"name":"uVeins","steam_id":76561198067445528,"connected_time":2712000000000,"state":"active","ping":40},{"user_id":16,"name":"AmirKhaan","steam_id":76561198992403254,"connected_time":48000000000,"state":"active","ping":66},{"user_id":10,"name":"Weezing_Gecko","steam_id":76561198044102022,"connected_time":641000000000,"state":"active","ping":62},{"user_id":11,"name":"gravid baby","steam_id":76561198318646867,"connected_time":497000000000,"state":"active","ping":40},{"user_id":12,"name":"QubicaAMF Bowling Systems LLC","steam_id":76561199134895220,"connected_time":378000000000,"state":"active","ping":66},{"user_id":13,"name":"may (punished)","steam_id":76561198195828454,"connected_time":159000000000,"state":"active","ping":74},{"user_id":14,"name":"autumn !","steam_id":76561199207081631,"connected_time":137000000000,"state":"active","ping":114},{"user_id":15,"name":"Congcrab","steam_id":76561198078687685,"connected_time":50000000000,"state":"active","ping":102}]},{"server_id":303,"name":"Uncletopia | Montréal | 4 | No Payload","name_short":"mtl-4","host":"mtl-1.ca.uncletopia.com","port":27045,"enabled":true,"region":"us-east","cc":"ca","latitude":45.50889,"longitude":-73.56167,"reserved":0,"last_update":"0001-01-01T00:00:00Z","name_a2s":"Uncletopia | Montréal | 4 | No Payload","protocol":17,"map":"koth_lakeside_final","folder":"tf","game":"Team Fortress","app_id":440,"player_count":0,"max_players":24,"Bots":0,"server_type":"Dedicated","server_os":"Linux","password":true,"vac":true,"version":"7757534","steam_id":85568392924500090,"keywords":["cp","nocrits","nodmgspread","uncletopia"],"game_id":440,"stv_port":27046,"stv_name":"Uncletopia | Montréal | 4 | No Payload | STV","players":null},{"server_id":13,"name":"Uncletopia | New York City | 1 | All Maps","name_short":"nyc-1","host":"nyc-1.us.uncletopia.com","port":27015,"enabled":true,"region":"us-east","cc":"us","latitude":40.73061,"longitude":-73.93524,"reserved":0,"last_update":"0001-01-01T00:00:00Z","name_a2s":"Uncletopia | New York City | 1 | All Maps","protocol":17,"map":"pl_upward","folder":"tf","game":"Team Fortress","app_id":440,"player_count":24,"max_players":24,"Bots":0,"server_type":"Dedicated","server_os":"Linux","password":true,"vac":true,"version":"7757534","steam_id":85568392924469993,"keywords":["nocrits","nodmgspread","payload","uncletopia"],"game_id":440,"stv_port":27016,"stv_name":"Uncletopia | New York City | 1 | All Maps | STV","players":[{"user_id":151,"name":"Ripley","steam_id":76561198080766916,"connected_time":83000000000,"state":"active","ping":67},{"user_id":137,"name":"Xavibite","steam_id":76561198209380493,"connected_time":1389000000000,"state":"active","ping":42},{"user_id":139,"name":"Bait","steam_id":76561198336489647,"connected_time":1096000000000,"state":"active","ping":66},{"user_id":147,"name":"call me qt","steam_id":76561198959379863,"connected_time":144000000000,"state":"active","ping":298},{"user_id":111,"name":"white ray","steam_id":76561198026664629,"connected_time":2858000000000,"state":"active","ping":45},{"user_id":117,"name":"mzjosef","steam_id":76561197985742638,"connected_time":2666000000000,"state":"active","ping":71},{"user_id":82,"name":"StraySheep","steam_id":76561198256003811,"connected_time":5523000000000,"state":"active","ping":53},{"user_id":144,"name":"uberslak","steam_id":76561198064715241,"connected_time":741000000000,"state":"active","ping":114},{"user_id":148,"name":"Gues","steam_id":76561198058022955,"connected_time":127000000000,"state":"active","ping":59},{"user_id":119,"name":"PinkLemonade","steam_id":76561198799286228,"connected_time":2328000000000,"state":"active","ping":61},{"user_id":121,"name":"bape man","steam_id":76561198059128837,"connected_time":2275000000000,"state":"active","ping":46},{"user_id":122,"name":"super mario","steam_id":76561198311704368,"connected_time":1912000000000,"state":"active","ping":59},{"user_id":68,"name":"PizzaPasta","steam_id":76561199125109082,"connected_time":6492000000000,"state":"active","ping":61},{"user_id":127,"name":"Viokik","steam_id":76561198408846602,"connected_time":1796000000000,"state":"active","ping":57},{"user_id":114,"name":"Mattron1","steam_id":76561198012270524,"connected_time":2828000000000,"state":"active","ping":71},{"user_id":149,"name":"SoulsBorneRingDieTwice","steam_id":76561198175648029,"connected_time":126000000000,"state":"active","ping":81},{"user_id":150,"name":"drdoofus123","steam_id":76561198016826181,"connected_time":125000000000,"state":"active","ping":62},{"user_id":153,"name":"blue drink","steam_id":76561199260739414,"connected_time":31000000000,"state":"active","ping":82},{"user_id":146,"name":"catrinaisahuman","steam_id":76561198281355729,"connected_time":176000000000,"state":"active","ping":77},{"user_id":125,"name":"Primitive","steam_id":76561198060500671,"connected_time":1863000000000,"state":"active","ping":34},{"user_id":152,"name":":)","steam_id":76561198093921290,"connected_time":82000000000,"state":"active","ping":68},{"user_id":142,"name":"Vobo","steam_id":76561199159418598,"connected_time":893000000000,"state":"active","ping":132},{"user_id":52,"name":"dairy","steam_id":76561198117033273,"connected_time":8064000000000,"state":"active","ping":121},{"user_id":93,"name":"eWVra2Vy","steam_id":76561198453565942,"connected_time":4528000000000,"state":"active","ping":76}]},{"server_id":14,"name":"Uncletopia | New York City | 2 | All Maps","name_short":"nyc-2","host":"nyc-1.us.uncletopia.com","port":27025,"enabled":true,"region":"us-east","cc":"us","latitude":40.73061,"longitude":-73.93524,"reserved":0,"last_update":"0001-01-01T00:00:00Z","name_a2s":"Uncletopia | New York City | 2 | All Maps","protocol":17,"map":"pl_swiftwater_final1","folder":"tf","game":"Team Fortress","app_id":440,"player_count":0,"max_players":24,"Bots":0,"server_type":"Dedicated","server_os":"Linux","password":true,"vac":true,"version":"7757534","steam_id":85568392924469994,"keywords":["nocrits","nodmgspread","payload","uncletopia"],"game_id":440,"stv_port":27026,"stv_name":"Uncletopia | New York City | 2 | All Maps | STV","players":null},{"server_id":15,"name":"Uncletopia | New York City | 3 | Stopwatch Beta","name_short":"nyc-3","host":"nyc-1.us.uncletopia.com","port":27035,"enabled":true,"region":"us-east","cc":"us","latitude":40.73061,"longitude":-73.93524,"reserved":0,"last_update":"0001-01-01T00:00:00Z","name_a2s":"Uncletopia | New York City | 3 | Stopwatch Beta","protocol":17,"map":"workshop/pl_barnblitz_pro7.ugc582280235","folder":"tf","game":"Team Fortress","app_id":440,"player_count":0,"max_players":24,"Bots":0,"server_type":"Dedicated","server_os":"Linux","password":true,"vac":true,"version":"7757534","steam_id":85568392924742820,"keywords":["nocrits","nodmgspread","payload","uncletopia"],"game_id":440,"stv_port":27036,"stv_name":"Uncletopia | New York City | 3 | Stopwatch Beta | STV","players":null},{"server_id":16,"name":"Uncletopia | New York City | 4 | Community","name_short":"nyc-4","host":"nyc-1.us.uncletopia.com","port":27045,"enabled":true,"region":"us-east","cc":"us","latitude":40.73061,"longitude":-73.93524,"reserved":0,"last_update":"0001-01-01T00:00:00Z","name_a2s":"Uncletopia | New York City | 4 | Community","protocol":17,"map":"workshop/koth_synthetic_rc6a.ugc1549817316","folder":"tf","game":"Team Fortress","app_id":440,"player_count":0,"max_players":24,"Bots":0,"server_type":"Dedicated","server_os":"Linux","password":true,"vac":true,"version":"7757534","steam_id":85568392924742821,"keywords":["cp","nocrits","nodmgspread","uncletopia"],"game_id":440,"stv_port":27046,"stv_name":"Uncletopia | New York City | 4 | Community | STV","players":null},{"server_id":142,"name":"Uncletopia | São Paulo | 1 | All Maps","name_short":"sao-1","host":"sao-1.br.uncletopia.com","port":27015,"enabled":true,"region":"sa","cc":"br","latitude":-23.533773,"longitude":-46.62529,"reserved":0,"last_update":"0001-01-01T00:00:00Z","name_a2s":"Uncletopia | São Paulo | 1 | All Maps","protocol":17,"map":"pl_barnblitz","folder":"tf","game":"Team Fortress","app_id":440,"player_count":0,"max_players":24,"Bots":0,"server_type":"Dedicated","server_os":"Linux","password":true,"vac":true,"version":"7757534","steam_id":85568392924469996,"keywords":["nocrits","nodmgspread","payload","uncletopia"],"game_id":440,"stv_port":27016,"stv_name":"Uncletopia | São Paulo | 1 | All Maps | STV","players":null},{"server_id":143,"name":"Uncletopia | São Paulo | 2 | All Maps","name_short":"sao-2","host":"sao-2.br.uncletopia.com","port":27015,"enabled":true,"region":"sa","cc":"br","latitude":-23.533773,"longitude":-46.62529,"reserved":0,"last_update":"0001-01-01T00:00:00Z","name_a2s":"Uncletopia | São Paulo | 2 | All Maps","protocol":17,"map":"koth_highpass","folder":"tf","game":"Team Fortress","app_id":440,"player_count":0,"max_players":24,"Bots":0,"server_type":"Dedicated","server_os":"Linux","password":true,"vac":true,"version":"7757534","steam_id":85568392924485349,"keywords":["cp","nocrits","nodmgspread","uncletopia"],"game_id":440,"stv_port":27016,"stv_name":"Uncletopia | São Paulo | 2 | All Maps | STV","players":null},{"server_id":7,"name":"Uncletopia | Seattle | 1 | All Maps","name_short":"sea-1","host":"sea-1.us.uncletopia.com","port":27015,"enabled":true,"region":"us-west","cc":"us","latitude":47.608013,"longitude":-122.33517,"reserved":0,"last_update":"0001-01-01T00:00:00Z","name_a2s":"Uncletopia | Seattle | 1 | All Maps","protocol":17,"map":"pl_thundermountain","folder":"tf","game":"Team Fortress","app_id":440,"player_count":22,"max_players":24,"Bots":0,"server_type":"Dedicated","server_os":"Linux","password":true,"vac":true,"version":"7757534","steam_id":85568392924469997,"keywords":["nocrits","nodmgspread","payload","uncletopia"],"game_id":440,"stv_port":27016,"stv_name":"Uncletopia | Seattle | 1 | All Maps | STV","players":[{"user_id":455,"name":"Mr. Call You Back","steam_id":76561198025172811,"connected_time":118000000000,"state":"active","ping":77},{"user_id":399,"name":"jungus","steam_id":76561198129862008,"connected_time":4447000000000,"state":"active","ping":81},{"user_id":401,"name":"Gordon Ramsay","steam_id":76561198123893900,"connected_time":4372000000000,"state":"active","ping":141},{"user_id":452,"name":"Ch4rl33","steam_id":76561198037008621,"connected_time":158000000000,"state":"active","ping":99},{"user_id":448,"name":"Lemonade Juice","steam_id":76561198402892608,"connected_time":837000000000,"state":"active","ping":74},{"user_id":453,"name":"Alfronjo","steam_id":76561199026407575,"connected_time":157000000000,"state":"active","ping":84},{"user_id":361,"name":"EEBIGAA","steam_id":76561198056535988,"connected_time":7478000000000,"state":"active","ping":77},{"user_id":454,"name":"another breloom","steam_id":76561198006938024,"connected_time":154000000000,"state":"active","ping":67},{"user_id":441,"name":"PersonMan","steam_id":76561198153426326,"connected_time":1417000000000,"state":"active","ping":69},{"user_id":414,"name":"Sam","steam_id":76561198146472900,"connected_time":3543000000000,"state":"active","ping":65},{"user_id":308,"name":"me","steam_id":76561199468285784,"connected_time":11588000000000,"state":"active","ping":55},{"user_id":440,"name":"Derblitz","steam_id":76561198040953176,"connected_time":1490000000000,"state":"active","ping":91},{"user_id":456,"name":"anderson","steam_id":76561198163234247,"connected_time":10000000000,"state":"spawning","ping":74},{"user_id":380,"name":"Lolxdloldx","steam_id":76561198136887125,"connected_time":5790000000000,"state":"active","ping":99},{"user_id":388,"name":"Mignyanne :3","steam_id":76561198048754056,"connected_time":5273000000000,"state":"active","ping":71},{"user_id":420,"name":"Scampy","steam_id":76561198001506924,"connected_time":3295000000000,"state":"active","ping":59},{"user_id":431,"name":"Mike Hawk","steam_id":76561198045053326,"connected_time":2330000000000,"state":"active","ping":47},{"user_id":443,"name":"Jeb is a MESS","steam_id":76561198044331477,"connected_time":1326000000000,"state":"active","ping":110},{"user_id":444,"name":"Username","steam_id":76561198855586261,"connected_time":1205000000000,"state":"active","ping":62},{"user_id":439,"name":"cdizzy","steam_id":76561198050554098,"connected_time":1700000000000,"state":"active","ping":123},{"user_id":422,"name":"Cave Dweller","steam_id":76561198374825685,"connected_time":3213000000000,"state":"active","ping":79},{"user_id":438,"name":"TTV/ChadMorningWood","steam_id":76561198139832291,"connected_time":1878000000000,"state":"active","ping":89}]},{"server_id":119,"name":"Uncletopia | Seattle | 2 | All Maps","name_short":"sea-2","host":"sea-1.us.uncletopia.com","port":27025,"enabled":true,"region":"us-west","cc":"us","latitude":47.608013,"longitude":-122.33517,"reserved":0,"last_update":"0001-01-01T00:00:00Z","name_a2s":"Uncletopia | Seattle | 2 | All Maps","protocol":17,"map":"pl_badwater","folder":"tf","game":"Team Fortress","app_id":440,"player_count":24,"max_players":24,"Bots":0,"server_type":"Dedicated","server_os":"Linux","password":true,"vac":true,"version":"7757534","steam_id":85568392924469998,"keywords":["nocrits","nodmgspread","payload","uncletopia"],"game_id":440,"stv_port":27026,"stv_name":"Uncletopia | Seattle | 2 | All Maps | STV","players":[{"user_id":212,"name":"Autogyro","steam_id":76561198047943679,"connected_time":1185000000000,"state":"active","ping":62},{"user_id":138,"name":"NeoN","steam_id":76561198117608366,"connected_time":4120000000000,"state":"active","ping":39},{"user_id":162,"name":"Matt","steam_id":76561198008108521,"connected_time":3116000000000,"state":"active","ping":122},{"user_id":156,"name":"The Backstabbing Bastard","steam_id":76561198112635823,"connected_time":3193000000000,"state":"active","ping":46},{"user_id":189,"name":"Blitzy","steam_id":76561198149472890,"connected_time":2308000000000,"state":"active","ping":60},{"user_id":208,"name":"Popedesu","steam_id":76561198064206331,"connected_time":1260000000000,"state":"active","ping":75},{"user_id":219,"name":"Vetresol","steam_id":76561198174828486,"connected_time":644000000000,"state":"active","ping":49},{"user_id":216,"name":"barflord","steam_id":76561198114148891,"connected_time":853000000000,"state":"active","ping":90},{"user_id":196,"name":"BackToSchoolAds","steam_id":76561198870281128,"connected_time":1819000000000,"state":"active","ping":89},{"user_id":220,"name":"Mike's Pimento Cheese Sandwich","steam_id":76561198978499219,"connected_time":603000000000,"state":"active","ping":77},{"user_id":164,"name":"Kevin McCarthy","steam_id":76561198014574925,"connected_time":3092000000000,"state":"active","ping":126},{"user_id":179,"name":"ZRMicrowave","steam_id":76561198288574525,"connected_time":2614000000000,"state":"active","ping":109},{"user_id":167,"name":"Fanout","steam_id":76561198075619480,"connected_time":2980000000000,"state":"active","ping":87},{"user_id":217,"name":"Skabbety","steam_id":76561198168044257,"connected_time":845000000000,"state":"active","ping":42},{"user_id":221,"name":"Gordo ♥","steam_id":76561198824033215,"connected_time":591000000000,"state":"active","ping":166},{"user_id":222,"name":"grub","steam_id":76561198202273263,"connected_time":514000000000,"state":"active","ping":105},{"user_id":218,"name":"Danny Fentanyl","steam_id":76561197970791798,"connected_time":749000000000,"state":"active","ping":42},{"user_id":199,"name":"AAAAAAAAAAAAAAAAAAAAAAAAAAAAAAA","steam_id":76561198817866879,"connected_time":1662000000000,"state":"active","ping":130},{"user_id":200,"name":"Nikofreaker","steam_id":76561198320604061,"connected_time":1622000000000,"state":"active","ping":123},{"user_id":223,"name":"epec gaymer","steam_id":76561198274274539,"connected_time":508000000000,"state":"active","ping":87},{"user_id":173,"name":"LATINO BEAST UNIT 75","steam_id":76561198077789424,"connected_time":2735000000000,"state":"active","ping":97},{"user_id":201,"name":"Timon's high on crack cocaine!","steam_id":76561198180396430,"connected_time":1593000000000,"state":"active","ping":82},{"user_id":210,"name":"Scut","steam_id":76561198973734291,"connected_time":1227000000000,"state":"active","ping":67},{"user_id":224,"name":"Justin","steam_id":76561198110865423,"connected_time":490000000000,"state":"active","ping":77}]},{"server_id":406,"name":"Uncletopia | Seattle | 3 | Stopwatch Beta","name_short":"sea-3","host":"sea-1.us.uncletopia.com","port":27035,"enabled":true,"region":"us-west","cc":"us","latitude":47.608013,"longitude":-122.33517,"reserved":0,"last_update":"0001-01-01T00:00:00Z","name_a2s":"Uncletopia | Seattle | 3 | Stopwatch Beta","protocol":17,"map":"workshop/koth_ramjam_rc1.ugc459778887","folder":"tf","game":"Team Fortress","app_id":440,"player_count":0,"max_players":24,"Bots":0,"server_type":"Dedicated","server_os":"Linux","password":true,"vac":true,"version":"7757534","steam_id":85568392924515217,"keywords":["cp","nocrits","nodmgspread","uncletopia"],"game_id":440,"stv_port":27036,"stv_name":"Uncletopia | Seattle | 3 | Stopwatch Beta | STV","players":null},{"server_id":17,"name":"Uncletopia | San Francisco | 1 | All Maps","name_short":"sfo-1","host":"sfo-1.us.uncletopia.com","port":27015,"enabled":true,"region":"us-west","cc":"us","latitude":37.77397,"longitude":-122.4313,"reserved":0,"last_update":"0001-01-01T00:00:00Z","name_a2s":"Uncletopia | San Francisco | 1 | All Maps","protocol":17,"map":"pl_frontier_final","folder":"tf","game":"Team Fortress","app_id":440,"player_count":0,"max_players":24,"Bots":0,"server_type":"Dedicated","server_os":"Linux","password":true,"vac":true,"version":"7757534","steam_id":85568392924469999,"keywords":["nocrits","nodmgspread","payload","uncletopia"],"game_id":440,"stv_port":27016,"stv_name":"Uncletopia | San Francisco | 1 | All Maps | STV","players":null},{"server_id":18,"name":"Uncletopia | San Francisco | 2 | All Maps","name_short":"sfo-2","host":"sfo-1.us.uncletopia.com","port":27025,"enabled":true,"region":"us-west","cc":"us","latitude":37.77397,"longitude":-122.4313,"reserved":0,"last_update":"0001-01-01T00:00:00Z","name_a2s":"Uncletopia | San Francisco | 2 | All Maps","protocol":17,"map":"cp_dustbowl","folder":"tf","game":"Team Fortress","app_id":440,"player_count":24,"max_players":24,"Bots":0,"server_type":"Dedicated","server_os":"Linux","password":true,"vac":true,"version":"7757534","steam_id":85568392924470000,"keywords":["cp","nocrits","nodmgspread","uncletopia"],"game_id":440,"stv_port":27026,"stv_name":"Uncletopia | San Francisco | 2 | All Maps | STV","players":[{"user_id":85,"name":"Type Three Dabeetus","steam_id":76561198062710038,"connected_time":2087000000000,"state":"active","ping":64},{"user_id":98,"name":"namosay","steam_id":76561198176885822,"connected_time":931000000000,"state":"active","ping":121},{"user_id":102,"name":"CaptainGold1","steam_id":76561198104967772,"connected_time":790000000000,"state":"active","ping":76},{"user_id":91,"name":"xerro","steam_id":76561198323340524,"connected_time":1437000000000,"state":"active","ping":99},{"user_id":12,"name":"Altruisticailuridae","steam_id":76561198335295596,"connected_time":6997000000000,"state":"active","ping":64},{"user_id":18,"name":"TheMagicMrWaffle","steam_id":76561198104357256,"connected_time":6468000000000,"state":"active","ping":58},{"user_id":87,"name":"Rhutebeer","steam_id":76561198018302761,"connected_time":1734000000000,"state":"active","ping":135},{"user_id":108,"name":"ScoutBox","steam_id":76561198111539895,"connected_time":340000000000,"state":"active","ping":59},{"user_id":103,"name":"Filthy Hobo","steam_id":76561198174373015,"connected_time":769000000000,"state":"active","ping":148},{"user_id":95,"name":"AgentEpsilon","steam_id":76561198043705715,"connected_time":1010000000000,"state":"active","ping":100},{"user_id":104,"name":"WARM_CAN_OF_BUSH!","steam_id":76561199445099321,"connected_time":754000000000,"state":"active","ping":68},{"user_id":96,"name":"e_the_cat","steam_id":76561198214264483,"connected_time":955000000000,"state":"active","ping":77},{"user_id":60,"name":"Porytal","steam_id":76561198306101889,"connected_time":4080000000000,"state":"active","ping":69},{"user_id":90,"name":"madturtle3","steam_id":76561198146953474,"connected_time":1683000000000,"state":"active","ping":87},{"user_id":81,"name":"girr","steam_id":76561198995114110,"connected_time":2655000000000,"state":"active","ping":72},{"user_id":93,"name":"CDMacK","steam_id":76561198043909070,"connected_time":1309000000000,"state":"active","ping":83},{"user_id":105,"name":"gnome","steam_id":76561198262275475,"connected_time":743000000000,"state":"active","ping":132},{"user_id":61,"name":"SherbieDaSnake","steam_id":76561198290363665,"connected_time":4073000000000,"state":"active","ping":71},{"user_id":79,"name":"Discourse","steam_id":76561198984286678,"connected_time":2868000000000,"state":"active","ping":109},{"user_id":99,"name":"Oh No! It's Twister!","steam_id":76561198016791916,"connected_time":895000000000,"state":"active","ping":113},{"user_id":69,"name":"NOM","steam_id":76561198362874591,"connected_time":3438000000000,"state":"active","ping":95},{"user_id":67,"name":"MAK","steam_id":76561198089361823,"connected_time":3669000000000,"state":"active","ping":102},{"user_id":109,"name":"Vevo","steam_id":76561198316753540,"connected_time":92000000000,"state":"active","ping":75},{"user_id":82,"name":"Gundam Guy","steam_id":76561198178453993,"connected_time":2382000000000,"state":"active","ping":76}]},{"server_id":19,"name":"Uncletopia | San Francisco | 3 | Stopwatch Beta","name_short":"sfo-3","host":"sfo-1.us.uncletopia.com","port":27035,"enabled":true,"region":"us-west","cc":"us","latitude":37.77397,"longitude":-122.4313,"reserved":0,"last_update":"0001-01-01T00:00:00Z","name_a2s":"Uncletopia | San Francisco | 3 | Stopwatch Beta","protocol":17,"map":"koth_viaduct","folder":"tf","game":"Team Fortress","app_id":440,"player_count":0,"max_players":24,"Bots":0,"server_type":"Dedicated","server_os":"Linux","password":true,"vac":true,"version":"7757534","steam_id":85568392924742824,"keywords":["cp","nocrits","nodmgspread","uncletopia"],"game_id":440,"stv_port":27036,"stv_name":"Uncletopia | San Francisco | 3 | Stopwatch Beta | STV","players":null},{"server_id":20,"name":"Uncletopia | San Francisco | 4 | Community","name_short":"sfo-4","host":"sfo-1.us.uncletopia.com","port":27045,"enabled":true,"region":"us-west","cc":"us","latitude":37.77397,"longitude":-122.4313,"reserved":0,"last_update":"0001-01-01T00:00:00Z","name_a2s":"Uncletopia | San Francisco | 4 | Community","protocol":17,"map":"workshop/rd_asteroid_redux_b1.ugc2154902912","folder":"tf","game":"Team Fortress","app_id":440,"player_count":0,"max_players":24,"Bots":0,"server_type":"Dedicated","server_os":"Linux","password":true,"vac":true,"version":"7757534","steam_id":85568392924742826,"keywords":["beta","nocrits","nodmgspread","rd","uncletopia"],"game_id":440,"stv_port":27046,"stv_name":"Uncletopia | San Francisco | 4 | Community | STV","players":null},{"server_id":141,"name":"Uncletopia | Sydney | 1 | All Maps","name_short":"syd-1","host":"syd-1.au.uncletopia.com","port":27015,"enabled":true,"region":"au","cc":"au","latitude":-33.865143,"longitude":151.2099,"reserved":0,"last_update":"0001-01-01T00:00:00Z","name_a2s":"Uncletopia | Sydney | 1 | All Maps","protocol":17,"map":"pl_pier","folder":"tf","game":"Team Fortress","app_id":440,"player_count":14,"max_players":24,"Bots":0,"server_type":"Dedicated","server_os":"Linux","password":true,"vac":true,"version":"7757534","steam_id":85568392924470001,"keywords":["nocrits","nodmgspread","payload","uncletopia"],"game_id":440,"stv_port":27016,"stv_name":"Uncletopia | Sydney | 1 | All Maps | STV","players":[{"user_id":6,"name":"BilboSwaggins79","steam_id":76561198984446872,"connected_time":5140000000000,"state":"active","ping":59},{"user_id":8,"name":"AzureFox","steam_id":76561198108179408,"connected_time":4821000000000,"state":"active","ping":98},{"user_id":46,"name":"λlex","steam_id":76561198181194862,"connected_time":15000000000,"state":"spawning","ping":60},{"user_id":10,"name":"osiris","steam_id":76561198172640226,"connected_time":4685000000000,"state":"active","ping":55},{"user_id":39,"name":"Detergent Burger","steam_id":76561198362462506,"connected_time":718000000000,"state":"active","ping":52},{"user_id":47,"name":"pos1tve","steam_id":76561199087124672,"connected_time":9000000000,"state":"spawning","ping":68},{"user_id":22,"name":"Jetfire","steam_id":76561198047370036,"connected_time":2348000000000,"state":"active","ping":74},{"user_id":44,"name":"lemur","steam_id":76561198278239170,"connected_time":425000000000,"state":"active","ping":85},{"user_id":41,"name":"ANiceCupOfJam","steam_id":76561199256914958,"connected_time":655000000000,"state":"active","ping":62},{"user_id":25,"name":"Lincoln2603","steam_id":76561198170236666,"connected_time":2214000000000,"state":"active","ping":44},{"user_id":45,"name":"Sparky","steam_id":76561198117687688,"connected_time":249000000000,"state":"active","ping":59},{"user_id":29,"name":"Eswamp","steam_id":76561198852898296,"connected_time":1723000000000,"state":"active","ping":37},{"user_id":33,"name":"clout","steam_id":76561198073310502,"connected_time":1532000000000,"state":"active","ping":75},{"user_id":36,"name":"Esiotrot101","steam_id":76561199017575950,"connected_time":1281000000000,"state":"active","ping":42}]},{"server_id":123,"name":"Uncletopia | Sydney | 2 | All Maps","name_short":"syd-2","host":"syd-1.au.uncletopia.com","port":27025,"enabled":true,"region":"au","cc":"au","latitude":-33.865143,"longitude":151.2099,"reserved":0,"last_update":"0001-01-01T00:00:00Z","name_a2s":"Uncletopia | Sydney | 2 | All Maps","protocol":17,"map":"koth_viaduct","folder":"tf","game":"Team Fortress","app_id":440,"player_count":2,"max_players":24,"Bots":0,"server_type":"Dedicated","server_os":"Linux","password":true,"vac":true,"version":"7757534","steam_id":85568392924470002,"keywords":["cp","nocrits","nodmgspread","uncletopia"],"game_id":440,"stv_port":27026,"stv_name":"Uncletopia | Sydney | 2 | All Maps | STV","players":[{"user_id":3,"name":"zeaphg","steam_id":76561199014878539,"connected_time":1497000000000,"state":"active","ping":82},{"user_id":4,"name":"Cubitonic","steam_id":76561199109012216,"connected_time":1422000000000,"state":"active","ping":81}]},{"server_id":395,"name":"Uncletopia | Sydney | 3 | All Maps","name_short":"syd-3","host":"syd-1.au.uncletopia.com","port":27035,"enabled":true,"region":"au","cc":"au","latitude":-33.865143,"longitude":151.2099,"reserved":0,"last_update":"0001-01-01T00:00:00Z","name_a2s":"Uncletopia | Sydney | 3 | All Maps","protocol":17,"map":"koth_viaduct","folder":"tf","game":"Team Fortress","app_id":440,"player_count":2,"max_players":24,"Bots":0,"server_type":"Dedicated","server_os":"Linux","password":true,"vac":true,"version":"7757534","steam_id":85568392925194467,"keywords":["cp","nocrits","nodmgspread","uncletopia"],"game_id":440,"stv_port":27036,"stv_name":"Uncletopia | Sydney | 3 | All Maps | STV","players":[{"user_id":4,"name":"Gelso","steam_id":76561199015726106,"connected_time":898000000000,"state":"active","ping":255},{"user_id":5,"name":"Tater","steam_id":76561199021777839,"connected_time":886000000000,"state":"active","ping":72}]},{"server_id":396,"name":"Uncletopia | Sydney | 4 | All Maps","name_short":"syd-4","host":"syd-1.au.uncletopia.com","port":27045,"enabled":true,"region":"au","cc":"au","latitude":-33.865143,"longitude":151.2099,"reserved":0,"last_update":"0001-01-01T00:00:00Z","name_a2s":"Uncletopia | Sydney | 4 | All Maps","protocol":17,"map":"cp_snakewater_final1","folder":"tf","game":"Team Fortress","app_id":440,"player_count":0,"max_players":24,"Bots":0,"server_type":"Dedicated","server_os":"Linux","password":true,"vac":true,"version":"7757534","steam_id":85568392925397958,"keywords":["cp","nocrits","nodmgspread","uncletopia"],"game_id":440,"stv_port":27046,"stv_name":"Uncletopia | Sydney | 4 | All Maps | STV","players":null},{"server_id":58,"name":"Uncletopia | Sydney | 5 | Stopwatch Beta","name_short":"syd-5","host":"syd-1.au.uncletopia.com","port":27055,"enabled":true,"region":"au","cc":"au","latitude":-33.865143,"longitude":151.2099,"reserved":0,"last_update":"0001-01-01T00:00:00Z","name_a2s":"Uncletopia | Sydney | 5 | Stopwatch Beta","protocol":17,"map":"pl_barnblitz","folder":"tf","game":"Team Fortress","app_id":440,"player_count":0,"max_players":24,"Bots":0,"server_type":"Dedicated","server_os":"Linux","password":true,"vac":true,"version":"7757534","steam_id":85568392925397959,"keywords":["nocrits","nodmgspread","payload","uncletopia"],"game_id":440,"stv_port":27056,"stv_name":"Uncletopia | Sydney | 5 | Stopwatch Beta | STV","players":null},{"server_id":59,"name":"Uncletopia | Sydney | 6 | Community","name_short":"syd-6","host":"syd-1.au.uncletopia.com","port":27065,"enabled":true,"region":"au","cc":"au","latitude":-33.865143,"longitude":151.2099,"reserved":0,"last_update":"0001-01-01T00:00:00Z","name_a2s":"Uncletopia | Sydney | 6 | Community","protocol":17,"map":"cp_mountainlab","folder":"tf","game":"Team Fortress","app_id":440,"player_count":0,"max_players":24,"Bots":0,"server_type":"Dedicated","server_os":"Linux","password":true,"vac":true,"version":"7757534","steam_id":85568392925397960,"keywords":["cp","nocrits","nodmgspread","uncletopia"],"game_id":440,"stv_port":27066,"stv_name":"Uncletopia | Sydney | 6 | Community | STV","players":null},{"server_id":49,"name":"Uncletopia | Warsaw | 1 | All Maps","name_short":"waw-1","host":"waw-1.pl.uncletopia.com","port":27015,"enabled":true,"region":"eu","cc":"pl","latitude":52.2297,"longitude":21.017532,"reserved":0,"last_update":"0001-01-01T00:00:00Z","name_a2s":"","protocol":0,"map":"","folder":"","game":"","app_id":0,"player_count":0,"max_players":0,"Bots":0,"server_type":"","server_os":"","password":false,"vac":false,"version":"","steam_id":0,"keywords":null,"game_id":0,"stv_port":0,"stv_name":"","players":null},{"server_id":50,"name":"Uncletopia | Warsaw | 2 | All Maps","name_short":"waw-2","host":"waw-1.pl.uncletopia.com","port":27025,"enabled":true,"region":"eu","cc":"pl","latitude":52.2297,"longitude":21.017532,"reserved":0,"last_update":"0001-01-01T00:00:00Z","name_a2s":"Uncletopia | Warsaw | 2 | All Maps","protocol":17,"map":"pl_badwater","folder":"tf","game":"Team Fortress","app_id":440,"player_count":0,"max_players":24,"Bots":0,"server_type":"Dedicated","server_os":"Linux","password":true,"vac":true,"version":"7757534","steam_id":85568392925397851,"keywords":["nocrits","nodmgspread","payload","uncletopia"],"game_id":440,"stv_port":27026,"stv_name":"Uncletopia | Warsaw | 2 | All Maps | STV","players":null},{"server_id":51,"name":"Uncletopia | Warsaw | 3 | All Maps","name_short":"waw-3","host":"waw-1.pl.uncletopia.com","port":27035,"enabled":true,"region":"eu","cc":"pl","latitude":52.2297,"longitude":21.017532,"reserved":0,"last_update":"0001-01-01T00:00:00Z","name_a2s":"Uncletopia | Warsaw | 3 | All Maps","protocol":17,"map":"pl_badwater","folder":"tf","game":"Team Fortress","app_id":440,"player_count":0,"max_players":24,"Bots":0,"server_type":"Dedicated","server_os":"Linux","password":true,"vac":true,"version":"7757534","steam_id":85568392925397852,"keywords":["nocrits","nodmgspread","payload","uncletopia"],"game_id":440,"stv_port":27036,"stv_name":"Uncletopia | Warsaw | 3 | All Maps | STV","players":null},{"server_id":52,"name":"Uncletopia | Warsaw | 4 | All Maps","name_short":"waw-4","host":"waw-1.pl.uncletopia.com","port":27045,"enabled":true,"region":"eu","cc":"pl","latitude":52.2297,"longitude":21.017532,"reserved":0,"last_update":"0001-01-01T00:00:00Z","name_a2s":"Uncletopia | Warsaw | 4 | All Maps","protocol":17,"map":"koth_cascade","folder":"tf","game":"Team Fortress","app_id":440,"player_count":0,"max_players":24,"Bots":0,"server_type":"Dedicated","server_os":"Linux","password":true,"vac":true,"version":"7757534","steam_id":85568392925397853,"keywords":["cp","nocrits","nodmgspread","uncletopia"],"game_id":440,"stv_port":27046,"stv_name":"Uncletopia | Warsaw | 4 | All Maps | STV","players":null},{"server_id":53,"name":"Uncletopia | Warsaw | 5 | Stopwatch Beta","name_short":"waw-5","host":"waw-1.pl.uncletopia.com","port":27055,"enabled":true,"region":"eu","cc":"pl","latitude":52.2297,"longitude":21.017532,"reserved":0,"last_update":"0001-01-01T00:00:00Z","name_a2s":"Uncletopia | Warsaw | 5 | Stopwatch Beta","protocol":17,"map":"workshop/koth_ashville_final.ugc2130459942","folder":"tf","game":"Team Fortress","app_id":440,"player_count":0,"max_players":24,"Bots":0,"server_type":"Dedicated","server_os":"Linux","password":true,"vac":true,"version":"7757534","steam_id":85568392925397854,"keywords":["cp","nocrits","nodmgspread","uncletopia"],"game_id":440,"stv_port":27056,"stv_name":"Uncletopia | Warsaw | 5 | Stopwatch Beta | STV","players":null},{"server_id":54,"name":"Uncletopia | Warsaw | 6 | Community","name_short":"waw-6","host":"waw-1.pl.uncletopia.com","port":27065,"enabled":true,"region":"eu","cc":"pl","latitude":52.2297,"longitude":21.017532,"reserved":0,"last_update":"0001-01-01T00:00:00Z","name_a2s":"Uncletopia | Warsaw | 6 | Community","protocol":17,"map":"workshop/pl_barnblitz_pro7.ugc582280235","folder":"tf","game":"Team Fortress","app_id":440,"player_count":0,"max_players":24,"Bots":0,"server_type":"Dedicated","server_os":"Linux","password":true,"vac":true,"version":"7757534","steam_id":85568392925397856,"keywords":["nocrits","nodmgspread","payload","uncletopia"],"game_id":440,"stv_port":27066,"stv_name":"Uncletopia | Warsaw | 6 | Community | STV","players":null}]}