{"status":true,"message":"","result":[{"server_id":9,"name":"Uncletopia | Atlanta | 1 | All Maps","name_short":"atl-1","host":"atl-1.us.uncletopia.com","port":27015,"enabled":true,"region":"us-east","cc":"us","latitude":33.753746,"longitude":-84.38633,"reserved":0,"last_update":"0001-01-01T00:00:00Z","name_a2s":"Uncletopia | Atlanta | 1 | All Maps","protocol":17,"map":"pl_upward","folder":"tf","game":"Team Fortress","app_id":440,"player_count":24,"max_players":24,"Bots":0,"server_type":"Dedicated","server_os":"Linux","password":true,"vac":true,"version":"7961495","steam_id":85568392924469982,"keywords":["nocrits","nodmgspread","payload","uncletopia"],"game_id":440,"stv_port":27016,"stv_name":"Uncletopia | Atlanta | 1 | All Maps | STV","players":null},{"server_id":104,"name":"Uncletopia | Atlanta | 2 | All Maps","name_short":"atl-2","host":"atl-1.us.uncletopia.com","port":27025,"enabled":true,"region":"us-east","cc":"us","latitude":33.753746,"longitude":-84.38633,"reserved":0,"last_update":"0001-01-01T00:00:00Z","name_a2s":"Uncletopia | Atlanta | 2 | All Maps","protocol":17,"map":"ctf_2fort","folder":"tf","game":"Team Fortress","app_id":440,"player_count":24,"max_players":24,"Bots":0,"server_type":"Dedicated","server_os":"Linux","password":true,"vac":true,"version":"7961495","steam_id":85568392924469983,"keywords":["ctf","nocrits","nodmgspread","uncletopia"],"game_id":440,"stv_port":27026,"stv_name":"Uncletopia | Atlanta | 2 | All Maps | STV","players":null},{"server_id":400,"name":"Uncletopia | Atlanta | 3 | All Maps","name_short":"atl-3","host":"atl-1.us.uncletopia.com","port":27035,"enabled":true,"region":"us-east","cc":"us","latitude":33.753746,"longitude":-84.38633,"reserved":0,"last_update":"0001-01-01T00:00:00Z","name_a2s":"Uncletopia | Atlanta | 3 | All Maps","protocol":17,"map":"pl_barnblitz","folder":"tf","game":"Team Fortress","app_id":440,"player_count":24,"max_players":24,"Bots":0,"server_type":"Dedicated","server_os":"Linux","password":true,"vac":true,"version":"7961495","steam_id":85568392924515187,"keywords":["nocrits","nodmgspread","payload","uncletopia"],"game_id":440,"stv_port":27036,"stv_name":"Uncletopia | Atlanta | 3 | All Maps | STV","players":null},{"server_id":401,"name":"Uncletopia | Atlanta | 4 | Community","name_short":"atl-4","host":"atl-1.us.uncletopia.com","port":27045,"enabled":true,"region":"us-east","cc":"us","latitude":33.753746,"longitude":-84.38633,"reserved":0,"last_update":"0001-01-01T00:00:00Z","name_a2s":"Uncletopia | Atlanta | 4 | Community","protocol":17,"map":"koth_trenchfoot_b1a","folder":"tf","game":"Team Fortress","app_id":440,"player_count":1,"max_players":24,"Bots":0,"server_type":"Dedicated","server_os":"Linux","password":true,"vac":true,"version":"7961495","steam_id":85568392924515188,"keywords":["cp","nocrits","nodmgspread","uncletopia"],"game_id":440,"stv_port":27046,"stv_name":"Uncletopia | Atlanta | 4 | Community | STV","players":null},{"server_id":2,"name":"Uncletopia | Chicago | 1 | All Maps","name_short":"chi-1","host":"chi-1.us.uncletopia.com","port":27015,"enabled":true,"region":"us-central","cc":"us","latitude":41.881832,"longitude":-87.62318,"reserved":0,"last_update":"0001-01-01T00:00:00Z","name_a2s":"Uncletopia | Chicago | 1 | All Maps","protocol":17,"map":"pl_swiftwater_final1","folder":"tf","game":"Team Fortress","app_id":440,"player_count":0,"max_players":24,"Bots":0,"server_type":"Dedicated","server_os":"Linux","password":true,"vac":true,"version":"7961495","steam_id":85568392924469984,"keywords":["nocrits","nodmgspread","payload","uncletopia"],"game_id":440,"stv_port":27016,"stv_name":"Uncletopia | Chicago | 1 | All Maps | STV","players":null},{"server_id":106,"name":"Uncletopia | Chicago | 2 | All Maps","name_short":"chi-2","host":"chi-1.us.uncletopia.com","port":27025,"enabled":true,"region":"us-central","cc":"us","latitude":41.881832,"longitude":-87.62318,"reserved":0,"last_update":"0001-01-01T00:00:00Z","name_a2s":"Uncletopia | Chicago | 2 | All Maps","protocol":17,"map":"pl_upward","folder":"tf","game":"Team Fortress","app_id":440,"player_count":24,"max_players":24,"Bots":0,"server_type":"Dedicated","server_os":"Linux","password":true,"vac":true,"version":"7961495","steam_id":85568392924469985,"keywords":["nocrits","nodmgspread","payload","uncletopia"],"game_id":440,"stv_port":27026,"stv_name":"Uncletopia | Chicago | 2 | All Maps | STV","players":[{"user_id":311,"name":"Bon Gripper","steam_id":76561198090074621,"connected_time":1850000000000,"state":"active","ping":42},{"user_id":322,"name":"Srg-Waffle","steam_id":76561198204555116,"connected_time":1416000000000,"state":"active","ping":84},{"user_id":195,"name":"TTV Hunter","steam_id":76561198115812405,"connected_time":8972000000000,"state":"active","ping":72},{"user_id":306,"name":"DaNuke","steam_id":76561198067866914,"connected_time":2293000000000,"state":"active","ping":76},{"user_id":101,"name":"the headphones you lost","steam_id":76561199201098634,"connected_time":12428000000000,"state":"active","ping":60},{"user_id":321,"name":"Cloud","steam_id":76561198954987128,"connected_time":1491000000000,"state":"active","ping":73},{"user_id":283,"name":"Yongle","steam_id":76561198068591156,"connected_time":3931000000000,"state":"active","ping":52},{"user_id":13,"name":"Bobato Chaps","steam_id":76561198065103552,"connected_time":16621000000000,"state":"active","ping":74},{"user_id":307,"name":"BerdlyIsTrans","steam_id":76561198126097557,"connected_time":2197000000000,"state":"active","ping":53},{"user_id":215,"name":"0100101101100001011100100110110","steam_id":76561198034028769,"connected_time":6874000000000,"state":"active","ping":66},{"user_id":272,"name":"Waffle Wannabe","steam_id":76561198064510650,"connected_time":4920000000000,"state":"active","ping":54},{"user_id":225,"name":"filthy white trash","steam_id":76561198154176367,"connected_time":6170000000000,"state":"active","ping":85},{"user_id":297,"name":"zeeette","steam_id":76561198325344637,"connected_time":3116000000000,"state":"active","ping":89},{"user_id":319,"name":"det lft","steam_id":76561198170859755,"connected_time":1673000000000,"state":"active","ping":45},{"user_id":328,"name":"DeadErebus","steam_id":76561198286117045,"connected_time":581000000000,"state":"active","ping":32},{"user_id":296,"name":"the rizzler","steam_id":76561198012917426,"connected_time":3195000000000,"state":"active","ping":69},{"user_id":331,"name":"Antoni","steam_id":76561198090577320,"connected_time":536000000000,"state":"active","ping":59},{"user_id":188,"name":"Stonks","steam_id":76561199490085068,"connected_time":10212000000000,"state":"active","ping":84},{"user_id":338,"name":"BIG mini crit","steam_id":76561199049071249,"connected_time":246000000000,"state":"active","ping":58},{"user_id":333,"name":"Plieop","steam_id":76561198199493917,"connected_time":517000000000,"state":"active","ping":55},{"user_id":329,"name":"Sergeant Snowflake","steam_id":76561198041474489,"connected_time":576000000000,"state":"active","ping":56},{"user_id":335,"name":"H C N","steam_id":76561198106290021,"connected_time":500000000000,"state":"active","ping":82},{"user_id":326,"name":"hoofheroo","steam_id":76561198990914989,"connected_time":858000000000,"state":"active","ping":69},{"user_id":240,"name":"Ejaculation Zach","steam_id":76561198203765200,"connected_time":5535000000000,"state":"active","ping":61}]},{"server_id":402,"name":"Uncletopia | Chicago | 3 | All Maps","name_short":"chi-3","host":"chi-1.us.uncletopia.com","port":27035,"enabled":true,"region":"us-central","cc":"us","latitude":41.881832,"longitude":-87.62318,"reserved":0,"last_update":"0001-01-01T00:00:00Z","name_a2s":"Uncletopia | Chicago | 3 | All Maps","protocol":17,"map":"pl_upward","folder":"tf","game":"Team Fortress","app_id":440,"player_count":0,"max_players":24,"Bots":0,"server_type":"Dedicated","server_os":"Linux","password":true,"vac":true,"version":"7961495","steam_id":85568392924515191,"keywords":["nocrits","nodmgspread","payload","uncletopia"],"game_id":440,"stv_port":27036,"stv_name":"Uncletopia | Chicago | 3 | All Maps | STV","players":null},{"server_id":403,"name":"Uncletopia | Chicago | 4 | All Maps","name_short":"chi-4","host":"chi-1.us.uncletopia.com","port":27045,"enabled":true,"region":"us-central","cc":"us","latitude":41.881832,"longitude":-87.62318,"reserved":0,"last_update":"0001-01-01T00:00:00Z","name_a2s":"Uncletopia | Chicago | 4 | All Maps","protocol":17,"map":"cp_snakewater_final1","folder":"tf","game":"Team Fortress","app_id":440,"player_count":0,"max_players":24,"Bots":0,"server_type":"Dedicated","server_os":"Linux","password":true,"vac":true,"version":"7961495","steam_id":85568392924515193,"keywords":["cp","nocrits","nodmgspread","uncletopia"],"game_id":440,"stv_port":27046,"stv_name":"Uncletopia | Chicago | 4 | All Maps | STV","players":null},{"server_id":36,"name":"Uncletopia | Chicago | 5 | All Maps","name_short":"chi-5","host":"chi-2.us.uncletopia.com","port":27015,"enabled":true,"region":"us-central","cc":"us","latitude":41.881832,"longitude":-87.62318,"reserved":0,"last_update":"0001-01-01T00:00:00Z","name_a2s":"Uncletopia | Chicago | 5 | All Maps","protocol":17,"map":"pl_upward","folder":"tf","game":"Team Fortress","app_id":440,"player_count":24,"max_players":24,"Bots":0,"server_type":"Dedicated","server_os":"Linux","password":true,"vac":true,"version":"7961495","steam_id":85568392924866362,"keywords":["nocrits","nodmgspread","payload","uncletopia"],"game_id":440,"stv_port":27016,"stv_name":"Uncletopia | Chicago | 5 | All Maps | STV","players":[{"user_id":4,"name":"glankinator","steam_id":76561198354077256,"connected_time":2663000000000,"state":"active","ping":51},{"user_id":41,"name":"kasper","steam_id":76561198263271697,"connected_time":231000000000,"state":"active","ping":40},{"user_id":38,"name":"Zeek","steam_id":76561197987204351,"connected_time":560000000000,"state":"active","ping":52},{"user_id":39,"name":"Nasteen27","steam_id":76561199159513164,"connected_time":547000000000,"state":"active","ping":84},{"user_id":31,"name":"Dr. Maybe","steam_id":76561198268304564,"connected_time":750000000000,"state":"active","ping":64},{"user_id":42,"name":"An Electric Blue Lobster","steam_id":76561198303125229,"connected_time":128000000000,"state":"active","ping":53},{"user_id":34,"name":"Brumpo Tungus","steam_id":76561198054669779,"connected_time":727000000000,"state":"active","ping":50},{"user_id":35,"name":"Spectre","steam_id":76561198025652246,"connected_time":690000000000,"state":"active","ping":51},{"user_id":22,"name":"Phoobi","steam_id":76561198036688003,"connected_time":1090000000000,"state":"active","ping":122},{"user_id":14,"name":"Calamity-Sanity","steam_id":76561199412529989,"connected_time":1378000000000,"state":"active","ping":117},{"user_id":43,"name":"Female Gamer","steam_id":76561199366482682,"connected_time":92000000000,"state":"active","ping":102},{"user_id":16,"name":"D4","steam_id":76561197980016915,"connected_time":1312000000000,"state":"active","ping":64},{"user_id":17,"name":"Willem Dafoe","steam_id":76561198037453253,"connected_time":1287000000000,"state":"active","ping":64},{"user_id":36,"name":"Brian","steam_id":76561198144650969,"connected_time":679000000000,"state":"active","ping":75},{"user_id":20,"name":"skent6621","steam_id":76561199210134404,"connected_time":1148000000000,"state":"active","ping":82},{"user_id":21,"name":"hoOmIN","steam_id":76561198334947079,"connected_time":1128000000000,"state":"active","ping":90},{"user_id":37,"name":"dak","steam_id":76561198076596506,"connected_time":660000000000,"state":"active","ping":61},{"user_id":24,"name":"Nordie","steam_id":76561198102297774,"connected_time":1071000000000,"state":"active","ping":54},{"user_id":25,"name":"dumbie","steam_id":76561198180000325,"connected_time":1056000000000,"state":"active","ping":47},{"user_id":26,"name":"SIN K4RMA","steam_id":76561198869287223,"connected_time":1033000000000,"state":"active","ping":76},{"user_id":27,"name":"Neacrock","steam_id":76561199178338856,"connected_time":1005000000000,"state":"active","ping":65},{"user_id":28,"name":"Jack-O-Bonnie Gaming","steam_id":76561199122465263,"connected_time":962000000000,"state":"active","ping":66},{"user_id":40,"name":"cow","steam_id":76561198117331762,"connected_time":246000000000,"state":"active","ping":44},{"user_id":30,"name":"goober","steam_id":76561198344499440,"connected_time":935000000000,"state":"active","ping":77}]},{"server_id":37,"name":"Uncletopia | Chicago | 6 | All Maps","name_short":"chi-6","host":"chi-2.us.uncletopia.com","port":27025,"enabled":true,"region":"us-central","cc":"us","latitude":41.881832,"longitude":-87.62318,"reserved":0,"last_update":"0001-01-01T00:00:00Z","name_a2s":"Uncletopia | Chicago | 6 | All Maps","protocol":17,"map":"pl_pier","folder":"tf","game":"Team Fortress","app_id":440,"player_count":24,"max_players":24,"Bots":0,"server_type":"Dedicated","server_os":"Linux","password":true,"vac":true,"version":"7961495","steam_id":85568392924866363,"keywords":["nocrits","nodmgspread","payload","uncletopia"],"game_id":440,"stv_port":27026,"stv_name":"Uncletopia | Chicago | 6 | All Maps | STV","players":[{"user_id":158,"name":"Fooberticus","steam_id":76561198004104607,"connected_time":764000000000,"state":"active","ping":60},{"user_id":120,"name":"the keebler","steam_id":76561199486326945,"connected_time":2896000000000,"state":"active","ping":99},{"user_id":136,"name":"Dededoo","steam_id":76561198279033471,"connected_time":2080000000000,"state":"active","ping":92},{"user_id":146,"name":"Walfools","steam_id":76561198798909928,"connected_time":1286000000000,"state":"active","ping":52},{"user_id":147,"name":"baby","steam_id":76561198401942740,"connected_time":1277000000000,"state":"active","ping":72},{"user_id":141,"name":"honch","steam_id":76561198832647822,"connected_time":1458000000000,"state":"active","ping":77},{"user_id":160,"name":"triple_range_merge","steam_id":76561198991225026,"connected_time":637000000000,"state":"active","ping":78},{"user_id":157,"name":"TATARA","steam_id":76561199098759517,"connected_time":845000000000,"state":"active","ping":112},{"user_id":142,"name":"demoknight tf2","steam_id":76561198070393998,"connected_time":1436000000000,"state":"active","ping":60},{"user_id":148,"name":"Ak5intow","steam_id":76561198082485930,"connected_time":1268000000000,"state":"active","ping":89},{"user_id":80,"name":"Zelith","steam_id":76561198234980480,"connected_time":5205000000000,"state":"active","ping":52},{"user_id":161,"name":"TheDude","steam_id":76561198314764519,"connected_time":599000000000,"state":"active","ping":111},{"user_id":143,"name":"dr spwewps","steam_id":76561198144784420,"connected_time":1431000000000,"state":"active","ping":62},{"user_id":159,"name":"hammy","steam_id":76561198035751911,"connected_time":762000000000,"state":"active","ping":66},{"user_id":96,"name":"Spy (I Love spy)","steam_id":76561199138738952,"connected_time":4130000000000,"state":"active","ping":76},{"user_id":165,"name":"BiggsyBoy","steam_id":76561198119656147,"connected_time":54000000000,"state":"active","ping":62},{"user_id":149,"name":"SadVeggie","steam_id":76561198163430099,"connected_time":1236000000000,"state":"active","ping":114},{"user_id":150,"name":"6t26j","steam_id":76561198278282836,"connected_time":1233000000000,"state":"active","ping":57},{"user_id":140,"name":"Sychke","steam_id":76561198067144055,"connected_time":1511000000000,"state":"active","ping":57},{"user_id":135,"name":"Lucon","steam_id":76561198067147724,"connected_time":2136000000000,"state":"active","ping":56},{"user_id":125,"name":"Peter Popoff","steam_id":76561198027171160,"connected_time":2725000000000,"state":"active","ping":34},{"user_id":129,"name":"Wall Designer","steam_id":76561198444456721,"connected_time":2544000000000,"state":"active","ping":64},{"user_id":164,"name":"lutican","steam_id":76561198215383452,"connected_time":506000000000,"state":"active","ping":61},{"user_id":155,"name":"drift","steam_id":76561198093781093,"connected_time":1041000000000,"state":"active","ping":58}]},{"server_id":38,"name":"Uncletopia | Chicago | 7 | Stopwatch Beta","name_short":"chi-7","host":"chi-2.us.uncletopia.com","port":27035,"enabled":true,"region":"us-central","cc":"us","latitude":41.881832,"longitude":-87.62318,"reserved":0,"last_update":"0001-01-01T00:00:00Z","name_a2s":"Uncletopia | Chicago | 7 | Stopwatch Beta","protocol":17,"map":"pl_badwater","folder":"tf","game":"Team Fortress","app_id":440,"player_count":0,"max_players":24,"Bots":0,"server_type":"Dedicated","server_os":"Linux","password":true,"vac":true,"version":"7961495","steam_id":85568392924866364,"keywords":["nocrits","nodmgspread","payload","uncletopia"],"game_id":440,"stv_port":27036,"stv_name":"Uncletopia | Chicago | 7 | Stopwatch Beta | STV","players":null},{"server_id":39,"name":"Uncletopia | Chicago | 8 | Community","name_short":"chi-8","host":"chi-2.us.uncletopia.com","port":27045,"enabled":true,"region":"us-central","cc":"us","latitude":41.881832,"longitude":-87.62318,"reserved":0,"last_update":"0001-01-01T00:00:00Z","name_a2s":"Uncletopia | Chicago | 8 | Community","protocol":17,"map":"workshop/pl_shoreleave_rc2.ugc1238849347","folder":"tf","game":"Team Fortress","app_id":440,"player_count":23,"max_players":24,"Bots":0,"server_type":"Dedicated","server_os":"Linux","password":true,"vac":true,"version":"7961495","steam_id":85568392924866365,"keywords":["nocrits","nodmgspread","payload","uncletopia"],"game_id":440,"stv_port":27046,"stv_name":"Uncletopia | Chicago | 8 | Community | STV","players":[{"user_id":81,"name":"Souperkool","steam_id":76561198280409165,"connected_time":635000000000,"state":"active","ping":62},{"user_id":20,"name":"feenman","steam_id":76561199383834799,"connected_time":3590000000000,"state":"active","ping":86},{"user_id":82,"name":"White_Wizard_Named_Corona","steam_id":76561198055652735,"connected_time":576000000000,"state":"active","ping":97},{"user_id":49,"name":"Fuzzy","steam_id":76561199100612353,"connected_time":2011000000000,"state":"active","ping":53},{"user_id":80,"name":"JC","steam_id":76561198135307995,"connected_time":667000000000,"state":"active","ping":74},{"user_id":83,"name":"Madlag","steam_id":76561199481854201,"connected_time":549000000000,"state":"active","ping":70},{"user_id":14,"name":"Miner2495","steam_id":76561198445904523,"connected_time":4163000000000,"state":"active","ping":71},{"user_id":59,"name":"MutatedOnion","steam_id":76561198239096480,"connected_time":1715000000000,"state":"active","ping":91},{"user_id":39,"name":"jolo","steam_id":76561198042831480,"connected_time":2400000000000,"state":"active","ping":69},{"user_id":31,"name":"i am not sleep","steam_id":76561198178494502,"connected_time":2914000000000,"state":"active","ping":89},{"user_id":92,"name":"Ender","steam_id":76561198819439451,"connected_time":272000000000,"state":"active","ping":62},{"user_id":58,"name":"{FITH}™ SmittyWun {FM}","steam_id":76561198079531938,"connected_time":1735000000000,"state":"active","ping":74},{"user_id":60,"name":"YEET BOY THE GREAT","steam_id":76561198197991343,"connected_time":1708000000000,"state":"active","ping":96},{"user_id":61,"name":"Acro","steam_id":76561198092451804,"connected_time":1707000000000,"state":"active","ping":70},{"user_id":95,"name":"metal fingers","steam_id":76561198823526581,"connected_time":163000000000,"state":"active","ping":77},{"user_id":86,"name":"John16Mark","steam_id":76561198119445407,"connected_time":420000000000,"state":"active","ping":90},{"user_id":91,"name":"small troll","steam_id":76561198327079359,"connected_time":285000000000,"state":"active","ping":81},{"user_id":87,"name":"It_do_go_down","steam_id":76561199007746307,"connected_time":411000000000,"state":"active","ping":89},{"user_id":89,"name":"Dusty Ashes","steam_id":76561199089236336,"connected_time":351000000000,"state":"active","ping":97},{"user_id":77,"name":"Poberl","steam_id":76561198823051158,"connected_time":836000000000,"state":"active","ping":65},{"user_id":74,"name":"Cody","steam_id":76561199083577583,"connected_time":962000000000,"state":"active","ping":62},{"user_id":69,"name":"THORNFIELDGAMER","steam_id":76561199087167473,"connected_time":1419000000000,"state":"active","ping":85},{"user_id":72,"name":"Mr. Call You Back","steam_id":76561198025172811,"connected_time":1241000000000,"state":"active","ping":56}]},{"server_id":8,"name":"Uncletopia | Dallas | 1 | All Maps","name_short":"dal-1","host":"dal-1.us.uncletopia.com","port":27015,"enabled":true,"region":"us-central","cc":"us","latitude":32.779167,"longitude":-96.80889,"reserved":0,"last_update":"0001-01-01T00:00:00Z","name_a2s":"Uncletopia | Dallas | 1 | All Maps","protocol":17,"map":"cp_snakewater_final1","folder":"tf","game":"Team Fortress","app_id":440,"player_count":24,"max_players":24,"Bots":0,"server_type":"Dedicated","server_os":"Linux","password":true,"vac":true,"version":"7961495","steam_id":85568392924469986,"keywords":["cp","nocrits","nodmgspread","uncletopia"],"game_id":440,"stv_port":27016,"stv_name":"Uncletopia | Dallas | 1 | All Maps | STV","players":[{"user_id":219,"name":"PKBEAST_7","steam_id":76561198177136537,"connected_time":5246000000000,"state":"active","ping":88},{"user_id":229,"name":"SackOfPotatoes","steam_id":76561198799020069,"connected_time":4526000000000,"state":"active","ping":88},{"user_id":272,"name":"Quomples","steam_id":76561198140996628,"connected_time":115000000000,"state":"active","ping":62},{"user_id":254,"name":"King Sans","steam_id":76561198294198517,"connected_time":1768000000000,"state":"active","ping":75},{"user_id":183,"name":"CeLeb144","steam_id":76561199089907740,"connected_time":7884000000000,"state":"active","ping":70},{"user_id":168,"name":"Darling","steam_id":76561198127525888,"connected_time":8693000000000,"state":"active","ping":53},{"user_id":269,"name":"manbearswineflu","steam_id":76561198083945137,"connected_time":456000000000,"state":"active","ping":89},{"user_id":276,"name":"MayKaye","steam_id":76561199016092265,"connected_time":83000000000,"state":"active","ping":80},{"user_id":237,"name":"Pines","steam_id":76561199377898917,"connected_time":2905000000000,"state":"active","ping":56},{"user_id":277,"name":"evegioyidechadab","steam_id":76561198075991626,"connected_time":70000000000,"state":"active","ping":188},{"user_id":253,"name":"Echolu","steam_id":76561198158613750,"connected_time":1913000000000,"state":"active","ping":86},{"user_id":274,"name":"Lucky","steam_id":76561198418262145,"connected_time":104000000000,"state":"active","ping":136},{"user_id":259,"name":"ReDiculous22","steam_id":76561198038391383,"connected_time":1237000000000,"state":"active","ping":41},{"user_id":209,"name":"Sahbi ʕ •ᴥ•ʔ (she/they)","steam_id":76561199196292242,"connected_time":6288000000000,"state":"active","ping":65},{"user_id":260,"name":"OG Coach Player","steam_id":76561198070465100,"connected_time":1233000000000,"state":"active","ping":76},{"user_id":278,"name":"Zycron0","steam_id":76561199122983789,"connected_time":47000000000,"state":"active","ping":99},{"user_id":251,"name":"HUESO","steam_id":76561198276383681,"connected_time":1972000000000,"state":"active","ping":81},{"user_id":275,"name":"Gamba","steam_id":76561198069264650,"connected_time":100000000000,"state":"active","ping":83},{"user_id":188,"name":"Lincs","steam_id":76561198049851872,"connected_time":7799000000000,"state":"active","ping":93},{"user_id":241,"name":"Morkubine Porcupine","steam_id":76561199172053891,"connected_time":2742000000000,"state":"active","ping":61},{"user_id":263,"name":"Applesauce","steam_id":76561198047011689,"connected_time":1165000000000,"state":"active","ping":88},{"user_id":270,"name":"Rowdyshark101","steam_id":76561199019123695,"connected_time":128000000000,"state":"active","ping":61},{"user_id":271,"name":"banana gaming","steam_id":76561198334907218,"connected_time":128000000000,"state":"active","ping":56},{"user_id":244,"name":"7K","steam_id":76561198869173071,"connected_time":2399000000000,"state":"active","ping":92}]},{"server_id":108,"name":"Uncletopia | Dallas | 2 | All Maps","name_short":"dal-2","host":"dal-1.us.uncletopia.com","port":27025,"enabled":true,"region":"us-central","cc":"us","latitude":32.779167,"longitude":-96.80889,"reserved":0,"last_update":"0001-01-01T00:00:00Z","name_a2s":"Uncletopia | Dallas | 2 | All Maps","protocol":17,"map":"koth_highpass","folder":"tf","game":"Team Fortress","app_id":440,"player_count":0,"max_players":24,"Bots":0,"server_type":"Dedicated","server_os":"Linux","password":true,"vac":true,"version":"7961495","steam_id":85568392924469988,"keywords":["cp","nocrits","nodmgspread","uncletopia"],"game_id":440,"stv_port":27026,"stv_name":"Uncletopia | Dallas | 2 | All Maps | STV","players":null},{"server_id":404,"name":"Uncletopia | Dallas | 3 | All Maps","name_short":"dal-3","host":"dal-1.us.uncletopia.com","port":27035,"enabled":true,"region":"us-central","cc":"us","latitude":32.779167,"longitude":-96.80889,"reserved":0,"last_update":"0001-01-01T00:00:00Z","name_a2s":"Uncletopia | Dallas | 3 | All Maps","protocol":17,"map":"cp_altitude","folder":"tf","game":"Team Fortress","app_id":440,"player_count":2,"max_players":24,"Bots":0,"server_type":"Dedicated","server_os":"Linux","password":true,"vac":true,"version":"7961495","steam_id":85568392924515219,"keywords":["cp","nocrits","nodmgspread","uncletopia"],"game_id":440,"stv_port":27036,"stv_name":"Uncletopia | Dallas | 3 | All Maps | STV","players":[{"user_id":5,"name":"Annette Ball","steam_id":76561198874956671,"connected_time":186000000000,"state":"active","ping":208},{"user_id":6,"name":"teddyplayzgames","steam_id":76561199055741408,"connected_time":135000000000,"state":"active","ping":161}]},{"server_id":405,"name":"Uncletopia | Dallas | 4 | Community","name_short":"dal-4","host":"dal-1.us.uncletopia.com","port":27045,"enabled":true,"region":"us-central","cc":"us","latitude":32.779167,"longitude":-96.80889,"reserved":0,"last_update":"0001-01-01T00:00:00Z","name_a2s":"Uncletopia | Dallas | 4 | Community","protocol":17,"map":"pl_badwater","folder":"tf","game":"Team Fortress","app_id":440,"player_count":0,"max_players":24,"Bots":0,"server_type":"Dedicated","server_os":"Linux","password":true,"vac":true,"version":"7961495","steam_id":85568392924515220,"keywords":["nocrits","nodmgspread","payload","uncletopia"],"game_id":440,"stv_port":27046,"stv_name":"Uncletopia | Dallas | 4 | Community | STV","players":null},{"server_id":5,"name":"Uncletopia | Frankfurt | 1 | All Maps","name_short":"frk-1","host":"frk-1.de.uncletopia.com","port":27015,"enabled":true,"region":"eu","cc":"de","latitude":50.110924,"longitude":8.682127,"reserved":0,"last_update":"0001-01-01T00:00:00Z","name_a2s":"Uncletopia | Frankfurt | 1 | All Maps","protocol":17,"map":"pl_badwater","folder":"tf","game":"Team Fortress","app_id":440,"player_count":24,"max_players":24,"Bots":0,"server_type":"Dedicated","server_os":"Linux","password":true,"vac":true,"version":"7961495","steam_id":85568392924469989,"keywords":["nocrits","nodmgspread","payload","uncletopia"],"game_id":440,"stv_port":27016,"stv_name":"Uncletopia | Frankfurt | 1 | All Maps | STV","players":[{"user_id":361,"name":"please do not the cat","steam_id":76561198089003514,"connected_time":204000000000,"state":"active","ping":44},{"user_id":336,"name":"Gruset","steam_id":76561198327512432,"connected_time":2022000000000,"state":"active","ping":75},{"user_id":362,"name":"Koli","steam_id":76561197992428783,"connected_time":187000000000,"state":"active","ping":46},{"user_id":358,"name":"Accident","steam_id":76561198115160396,"connected_time":385000000000,"state":"active","ping":71},{"user_id":273,"name":"robsan","steam_id":76561198137375391,"connected_time":5883000000000,"state":"active","ping":97},{"user_id":364,"name":"Engie's best friend","steam_id":76561197961707932,"connected_time":57000000000,"state":"active","ping":45},{"user_id":360,"name":"socaramel","steam_id":76561197984480336,"connected_time":215000000000,"state":"active","ping":80},{"user_id":350,"name":"PASTAMANIA!","steam_id":76561197967858558,"connected_time":1540000000000,"state":"active","ping":62},{"user_id":329,"name":"lexe","steam_id":76561198009811197,"connected_time":2740000000000,"state":"active","ping":108},{"user_id":346,"name":"Vratis","steam_id":76561198062957725,"connected_time":1672000000000,"state":"active","ping":64},{"user_id":354,"name":"GermanBoy","steam_id":76561199230176650,"connected_time":806000000000,"state":"active","ping":59},{"user_id":357,"name":"FoxyTheFish","steam_id":76561199074190919,"connected_time":556000000000,"state":"active","ping":53},{"user_id":266,"name":"Carter","steam_id":76561198005243938,"connected_time":6180000000000,"state":"active","ping":78},{"user_id":280,"name":"Infinithil","steam_id":76561198041273639,"connected_time":5131000000000,"state":"active","ping":63},{"user_id":333,"name":"smell_my_cheese","steam_id":76561198008517427,"connected_time":2680000000000,"state":"active","ping":68},{"user_id":363,"name":"Noob_with_source","steam_id":76561198870362103,"connected_time":175000000000,"state":"active","ping":61},{"user_id":323,"name":"nobodyy","steam_id":76561198027735766,"connected_time":3078000000000,"state":"active","ping":75},{"user_id":341,"name":"rets","steam_id":76561198061551392,"connected_time":1886000000000,"state":"active","ping":47},{"user_id":343,"name":"chronos","steam_id":76561199077776159,"connected_time":1753000000000,"state":"active","ping":99},{"user_id":313,"name":"cunt","steam_id":76561199052690012,"connected_time":3316000000000,"state":"active","ping":78},{"user_id":314,"name":"After8","steam_id":76561198090750865,"connected_time":3312000000000,"state":"active","ping":66},{"user_id":319,"name":"Aimy","steam_id":76561198798548854,"connected_time":3251000000000,"state":"active","ping":48},{"user_id":355,"name":"Sza","steam_id":76561198022132105,"connected_time":669000000000,"state":"active","ping":57},{"user_id":352,"name":"Real (Real)","steam_id":76561198323425034,"connected_time":1315000000000,"state":"active","ping":78}]},{"server_id":110,"name":"Uncletopia | Frankfurt | 2 | All Maps","name_short":"frk-2","host":"frk-1.de.uncletopia.com","port":27025,"enabled":true,"region":"eu","cc":"de","latitude":50.110924,"longitude":8.682127,"reserved":0,"last_update":"0001-01-01T00:00:00Z","name_a2s":"Uncletopia | Frankfurt | 2 | All Maps","protocol":17,"map":"cp_snakewater_final1","folder":"tf","game":"Team Fortress","app_id":440,"player_count":24,"max_players":24,"Bots":0,"server_type":"Dedicated","server_os":"Linux","password":true,"vac":true,"version":"7961495","steam_id":85568392924469990,"keywords":["cp","nocrits","nodmgspread","uncletopia"],"game_id":440,"stv_port":27026,"stv_name":"Uncletopia | Frankfurt | 2 | All Maps | STV","players":[{"user_id":257,"name":"WHUSSKEY","steam_id":76561198137827441,"connected_time":1210000000000,"state":"active","ping":64},{"user_id":244,"name":"WinRAR™","steam_id":76561198056522270,"connected_time":1938000000000,"state":"active","ping":53},{"user_id":227,"name":"Mr.Schnittlauch","steam_id":76561198295868113,"connected_time":3365000000000,"state":"active","ping":47},{"user_id":274,"name":"Random_Deutschbag","steam_id":76561199129218371,"connected_time":230000000000,"state":"active","ping":63},{"user_id":268,"name":"XuMuK","steam_id":76561198102102340,"connected_time":468000000000,"state":"active","ping":77},{"user_id":265,"name":"Master Of Noob","steam_id":76561198217926783,"connected_time":500000000000,"state":"active","ping":62},{"user_id":230,"name":"Richard_HUN","steam_id":76561198299050967,"connected_time":3054000000000,"state":"active","ping":91},{"user_id":273,"name":"Yamie","steam_id":76561198130141507,"connected_time":319000000000,"state":"active","ping":84},{"user_id":264,"name":"Jughead","steam_id":76561198000355410,"connected_time":525000000000,"state":"active","ping":57},{"user_id":212,"name":"Penis Contortionist","steam_id":76561198073663784,"connected_time":4236000000000,"state":"active","ping":46},{"user_id":266,"name":"Venenakki","steam_id":76561198311526482,"connected_time":499000000000,"state":"active","ping":68},{"user_id":269,"name":"Memnyatta","steam_id":76561198805980996,"connected_time":452000000000,"state":"active","ping":110},{"user_id":251,"name":"Varsk","steam_id":76561198061398890,"connected_time":1494000000000,"state":"active","ping":50},{"user_id":253,"name":"Just Navlis","steam_id":76561198090479609,"connected_time":1379000000000,"state":"active","ping":45},{"user_id":270,"name":"TJ1212","steam_id":76561199013575313,"connected_time":434000000000,"state":"active","ping":63},{"user_id":241,"name":"2ndOFtheWWY","steam_id":76561198190936635,"connected_time":2647000000000,"state":"active","ping":69},{"user_id":148,"name":"Amoru","steam_id":76561198798161817,"connected_time":9872000000000,"state":"active","ping":75},{"user_id":235,"name":"Lukas","steam_id":76561198009118452,"connected_time":2910000000000,"state":"active","ping":60},{"user_id":271,"name":"Wizard","steam_id":76561198194684381,"connected_time":431000000000,"state":"active","ping":89},{"user_id":256,"name":"Filthy Jones","steam_id":76561198053784101,"connected_time":1238000000000,"state":"active","ping":115},{"user_id":272,"name":"dragonos451","steam_id":76561198041146385,"connected_time":366000000000,"state":"active","ping":59},{"user_id":220,"name":"hyvakii705","steam_id":76561198086630552,"connected_time":3854000000000,"state":"active","ping":90},{"user_id":260,"name":"BlueBlaster","steam_id":76561197995684708,"connected_time":1107000000000,"state":"active","ping":77},{"user_id":262,"name":"finbar","steam_id":76561198056812396,"connected_time":1091000000000,"state":"active","ping":76}]},{"server_id":308,"name":"Uncletopia | Frankfurt | 3 | All Maps","name_short":"frk-3","host":"frk-1.de.uncletopia.com","port":27035,"enabled":true,"region":"eu","cc":"de","latitude":50.110924,"longitude":8.682127,"reserved":0,"last_update":"0001-01-01T00:00:00Z","name_a2s":"Uncletopia | Frankfurt | 3 | All Maps","protocol":17,"map":"pl_swiftwater_final1","folder":"tf","game":"Team Fortress","app_id":440,"player_count":24,"max_players":24,"Bots":0,"server_type":"Dedicated","server_os":"Linux","password":true,"vac":true,"version":"7961495","steam_id":85568392924504274,"keywords":["nocrits","nodmgspread","payload","uncletopia"],"game_id":440,"stv_port":27036,"stv_name":"Uncletopia | Frankfurt | 3 | All Maps | STV","players":[{"user_id":234,"name":"Krios","steam_id":76561199198145670,"connected_time":1913000000000,"state":"active","ping":51},{"user_id":233,"name":"silly penguin guy","steam_id":76561198123592400,"connected_time":2002000000000,"state":"active","ping":116},{"user_id":274,"name":"Erection Man","steam_id":76561198021714542,"connected_time":3000000000,"state":"spawning","ping":60},{"user_id":273,"name":"ScampSixteen","steam_id":76561198021771000,"connected_time":199000000000,"state":"active","ping":68},{"user_id":261,"name":"он","steam_id":76561198172046813,"connected_time":981000000000,"state":"active","ping":65},{"user_id":271,"name":"Compot enjoer","steam_id":76561198271350885,"connected_time":240000000000,"state":"active","ping":82},{"user_id":199,"name":"ornithology 1:1","steam_id":76561198097239850,"connected_time":4251000000000,"state":"active","ping":57},{"user_id":272,"name":"waj","steam_id":76561198053628243,"connected_time":227000000000,"state":"active","ping":57},{"user_id":258,"name":"Nipa5000","steam_id":76561199027332005,"connected_time":1052000000000,"state":"active","ping":81},{"user_id":264,"name":"lolgast210(NL)","steam_id":76561198118817234,"connected_time":894000000000,"state":"active","ping":55},{"user_id":213,"name":"squib","steam_id":76561198049170360,"connected_time":3368000000000,"state":"active","ping":54},{"user_id":248,"name":"Traylie","steam_id":76561198050797796,"connected_time":1278000000000,"state":"active","ping":72},{"user_id":266,"name":"Paper","steam_id":76561199037749675,"connected_time":552000000000,"state":"active","ping":45},{"user_id":249,"name":"Blenderman179","steam_id":76561198091096668,"connected_time":1274000000000,"state":"active","ping":81},{"user_id":268,"name":"mh3","steam_id":76561198192204191,"connected_time":373000000000,"state":"active","ping":71},{"user_id":207,"name":"Flight of the Blonde Giraffes","steam_id":76561198451585571,"connected_time":3738000000000,"state":"active","ping":74},{"user_id":253,"name":"Dimitri_612","steam_id":76561199223984137,"connected_time":1081000000000,"state":"active","ping":56},{"user_id":267,"name":"Doriian","steam_id":76561198071438810,"connected_time":526000000000,"state":"active","ping":75},{"user_id":269,"name":"EGirl | Klarra","steam_id":76561198077745407,"connected_time":344000000000,"state":"active","ping":60},{"user_id":259,"name":"Uguyguy","steam_id":76561198348140423,"connected_time":1050000000000,"state":"active","ping":136},{"user_id":257,"name":"\u003c blank \u003e","steam_id":76561198059375315,"connected_time":1055000000000,"state":"active","ping":69},{"user_id":270,"name":"Max","steam_id":76561198138959361,"connected_time":256000000000,"state":"active","ping":60},{"user_id":262,"name":"Bajas","steam_id":76561198179339326,"connected_time":961000000000,"state":"active","ping":75},{"user_id":265,"name":"tompp","steam_id":76561198143529110,"connected_time":876000000000,"state":"active","ping":46}]},{"server_id":309,"name":"Uncletopia | Frankfurt | 4 | All Maps","name_short":"frk-4","host":"frk-1.de.uncletopia.com","port":27045,"enabled":true,"region":"eu","cc":"de","latitude":50.110924,"longitude":8.682127,"reserved":0,"last_update":"0001-01-01T00:00:00Z","name_a2s":"Uncletopia | Frankfurt | 4 | All Maps","protocol":17,"map":"pl_borneo","folder":"tf","game":"Team Fortress","app_id":440,"player_count":24,"max_players":24,"Bots":0,"server_type":"Dedicated","server_os":"Linux","password":true,"vac":true,"version":"7961495","steam_id":85568392924504275,"keywords":["nocrits","nodmgspread","payload","uncletopia"],"game_id":440,"stv_port":27046,"stv_name":"Uncletopia | Frankfurt | 4 | All Maps | STV","players":[{"user_id":318,"name":"Joejee","steam_id":76561199122423976,"connected_time":374000000000,"state":"active","ping":79},{"user_id":293,"name":"LivEssense","steam_id":76561198052476979,"connected_time":2146000000000,"state":"active","ping":76},{"user_id":137,"name":"SneaK","steam_id":76561198280344773,"connected_time":12779000000000,"state":"active","ping":86},{"user_id":319,"name":"Himalaya","steam_id":76561198016644553,"connected_time":282000000000,"state":"active","ping":71},{"user_id":316,"name":"GrzMik","steam_id":76561198061951968,"connected_time":612000000000,"state":"active","ping":83},{"user_id":291,"name":"Optimist 50","steam_id":76561198039631442,"connected_time":2207000000000,"state":"active","ping":75},{"user_id":320,"name":"Mockey Mouse","steam_id":76561198001646654,"connected_time":265000000000,"state":"active","ping":96},{"user_id":331,"name":"Jara.","steam_id":76561197992207165,"connected_time":78000000000,"state":"active","ping":93},{"user_id":321,"name":"Dr Schwul","steam_id":76561198043103441,"connected_time":263000000000,"state":"active","ping":62},{"user_id":322,"name":"concentrate pomidorowy","steam_id":76561198252035180,"connected_time":181000000000,"state":"active","ping":61},{"user_id":323,"name":"Rambi","steam_id":76561199058078505,"connected_time":160000000000,"state":"active","ping":145},{"user_id":250,"name":"BigChunk","steam_id":76561198215962313,"connected_time":4182000000000,"state":"active","ping":35},{"user_id":324,"name":"aidux86","steam_id":76561198975008961,"connected_time":160000000000,"state":"active","ping":70},{"user_id":308,"name":"***** ***","steam_id":76561198048037379,"connected_time":1177000000000,"state":"active","ping":84},{"user_id":325,"name":"Val","steam_id":76561198016402553,"connected_time":146000000000,"state":"active","ping":106},{"user_id":326,"name":"PapaMaxy","steam_id":76561198256362726,"connected_time":121000000000,"state":"active","ping":87},{"user_id":327,"name":"Guwop","steam_id":76561197970425737,"connected_time":116000000000,"state":"active","ping":166},{"user_id":332,"name":"puncake4you","steam_id":76561198366512937,"connected_time":41000000000,"state":"active","ping":67},{"user_id":328,"name":"Trendyboy","steam_id":76561197994908436,"connected_time":110000000000,"state":"active","ping":64},{"user_id":329,"name":"dakkafex","steam_id":76561198020254869,"connected_time":109000000000,"state":"active","ping":52},{"user_id":309,"name":"kastanomata","steam_id":76561198271832763,"connected_time":1175000000000,"state":"active","ping":65},{"user_id":330,"name":"Cheesi","steam_id":76561199417190840,"connected_time":91000000000,"state":"active","ping":167},{"user_id":284,"name":"tequila sunset","steam_id":76561198315969106,"connected_time":2686000000000,"state":"active","ping":95},{"user_id":310,"name":"Basinox","steam_id":76561198019628384,"connected_time":1081000000000,"state":"active","ping":67}]},{"server_id":310,"name":"Uncletopia | Frankfurt | 5 | All Maps","name_short":"frk-5","host":"frk-1.de.uncletopia.com","port":27055,"enabled":true,"region":"eu","cc":"de","latitude":50.110924,"longitude":8.682127,"reserved":0,"last_update":"0001-01-01T00:00:00Z","name_a2s":"Uncletopia | Frankfurt | 5 | All Maps","protocol":17,"map":"pl_borneo","folder":"tf","game":"Team Fortress","app_id":440,"player_count":24,"max_players":24,"Bots":0,"server_type":"Dedicated","server_os":"Linux","password":true,"vac":true,"version":"7961495","steam_id":85568392924504277,"keywords":["nocrits","nodmgspread","payload","uncletopia"],"game_id":440,"stv_port":27056,"stv_name":"Uncletopia | Frankfurt | 5 | All Maps | STV","players":[{"user_id":274,"name":"Hugee  くコ:彡","steam_id":76561198245495152,"connected_time":743000000000,"state":"active","ping":62},{"user_id":265,"name":"thomas3003","steam_id":76561198209860039,"connected_time":1320000000000,"state":"active","ping":46},{"user_id":258,"name":"Largo","steam_id":76561198844368927,"connected_time":2149000000000,"state":"active","ping":73},{"user_id":269,"name":"Mr.Twinkls","steam_id":76561197980803560,"connected_time":1162000000000,"state":"active","ping":78},{"user_id":220,"name":"Bruschetta","steam_id":76561198251927162,"connected_time":5026000000000,"state":"active","ping":65},{"user_id":273,"name":"Niko","steam_id":76561198436817109,"connected_time":751000000000,"state":"active","ping":79},{"user_id":253,"name":"WebChill","steam_id":76561199137238941,"connected_time":2245000000000,"state":"active","ping":153},{"user_id":271,"name":"Da Big Bumby","steam_id":76561198044511738,"connected_time":952000000000,"state":"active","ping":182},{"user_id":190,"name":"edgebug Eric","steam_id":76561197984918636,"connected_time":6947000000000,"state":"active","ping":62},{"user_id":261,"name":"Gender Offender","steam_id":76561198369227367,"connected_time":1907000000000,"state":"active","ping":88},{"user_id":277,"name":"Dapper","steam_id":76561198081694974,"connected_time":631000000000,"state":"active","ping":59},{"user_id":254,"name":"Pandaa","steam_id":76561198399207154,"connected_time":2233000000000,"state":"active","ping":49},{"user_id":275,"name":"galaxy","steam_id":76561198164819022,"connected_time":729000000000,"state":"active","ping":63},{"user_id":279,"name":"Speed Wagon","steam_id":76561198064444787,"connected_time":61000000000,"state":"active","ping":120},{"user_id":270,"name":"Popop","steam_id":76561198004793795,"connected_time":1139000000000,"state":"active","ping":47},{"user_id":276,"name":"SpeedY bucuresti.llg.ro","steam_id":76561199238207915,"connected_time":725000000000,"state":"active","ping":92},{"user_id":255,"name":"trans rights","steam_id":76561199305428573,"connected_time":2225000000000,"state":"active","ping":84},{"user_id":278,"name":"Archive","steam_id":76561198071255385,"connected_time":557000000000,"state":"active","ping":92},{"user_id":280,"name":"realness","steam_id":76561199129226935,"connected_time":49000000000,"state":"active","ping":78},{"user_id":221,"name":"Coja","steam_id":76561198083974982,"connected_time":4966000000000,"state":"active","ping":84},{"user_id":262,"name":"Jimmy","steam_id":76561198236833426,"connected_time":1907000000000,"state":"active","ping":93},{"user_id":257,"name":"lulu","steam_id":76561199147764133,"connected_time":2182000000000,"state":"active","ping":76},{"user_id":248,"name":"Jonno","steam_id":76561198023443744,"connected_time":2813000000000,"state":"active","ping":67},{"user_id":232,"name":"『 G e n k i 』 ⚙","steam_id":76561198126559952,"connected_time":4187000000000,"state":"active","ping":72}]},{"server_id":311,"name":"Uncletopia | Frankfurt | 6 | All Maps","name_short":"frk-6","host":"frk-1.de.uncletopia.com","port":27065,"enabled":true,"region":"eu","cc":"de","latitude":50.110924,"longitude":8.682127,"reserved":0,"last_update":"0001-01-01T00:00:00Z","name_a2s":"Uncletopia | Frankfurt | 6 | All Maps","protocol":17,"map":"koth_viaduct","folder":"tf","game":"Team Fortress","app_id":440,"player_count":0,"max_players":24,"Bots":0,"server_type":"Dedicated","server_os":"Linux","password":true,"vac":true,"version":"7961495","steam_id":85568392924504278,"keywords":["cp","nocrits","nodmgspread","uncletopia"],"game_id":440,"stv_port":27066,"stv_name":"Uncletopia | Frankfurt | 6 | All Maps | STV","players":null},{"server_id":23,"name":"Uncletopia | Frankfurt | 7 | Stopwatch Beta","name_short":"frk-7","host":"frk-1.de.uncletopia.com","port":27075,"enabled":true,"region":"eu","cc":"de","latitude":50.110924,"longitude":8.682127,"reserved":0,"last_update":"0001-01-01T00:00:00Z","name_a2s":"Uncletopia | Frankfurt | 7 | Stopwatch Beta","protocol":17,"map":"koth_highpass","folder":"tf","game":"Team Fortress","app_id":440,"player_count":0,"max_players":24,"Bots":0,"server_type":"Dedicated","server_os":"Linux","password":true,"vac":true,"version":"7961495","steam_id":85568392924742827,"keywords":["cp","nocrits","nodmgspread","uncletopia"],"game_id":440,"stv_port":27076,"stv_name":"Uncletopia | Frankfurt | 7 | Stopwatch Beta | STV","players":null},{"server_id":24,"name":"Uncletopia | Frankfurt | 8 | Community","name_short":"frk-8","host":"frk-1.de.uncletopia.com","port":27085,"enabled":true,"region":"eu","cc":"de","latitude":50.110924,"longitude":8.682127,"reserved":0,"last_update":"0001-01-01T00:00:00Z","name_a2s":"Uncletopia | Frankfurt | 8 | Community","protocol":17,"map":"workshop/cp_villa_b19.ugc2113052569","folder":"tf","game":"Team Fortress","app_id":440,"player_count":0,"max_players":24,"Bots":0,"server_type":"Dedicated","server_os":"Linux","password":true,"vac":true,"version":"7961495","steam_id":85568392924742828,"keywords":["cp","nocrits","nodmgspread","uncletopia"],"game_id":440,"stv_port":27086,"stv_name":"Uncletopia | Frankfurt | 8 | Community | STV","players":null},{"server_id":202,"name":"Uncletopia | Hong Kong | 1 | All Maps","name_short":"hgk-1","host":"hgk-1.hk.uncletopia.com","port":27015,"enabled":true,"region":"asia","cc":"hk","latitude":22.302711,"longitude":114.177216,"reserved":0,"last_update":"0001-01-01T00:00:00Z","name_a2s":"Uncletopia | Hong Kong | 1 | All Maps","protocol":17,"map":"plr_hightower","folder":"tf","game":"Team Fortress","app_id":440,"player_count":17,"max_players":24,"Bots":0,"server_type":"Dedicated","server_os":"Linux","password":true,"vac":true,"version":"7961495","steam_id":85568392924494504,"keywords":["nocrits","nodmgspread","payload","uncletopia"],"game_id":440,"stv_port":27016,"stv_name":"Uncletopia | Hong Kong | 1 | All Maps | STV","players":[{"user_id":512,"name":"J.C. Nicko","steam_id":76561199224681062,"connected_time":250000000000,"state":"active","ping":172},{"user_id":506,"name":"_Persona.","steam_id":76561198151844635,"connected_time":490000000000,"state":"active","ping":49},{"user_id":479,"name":"쿠키","steam_id":76561197997220367,"connected_time":2875000000000,"state":"active","ping":53},{"user_id":491,"name":"ookii","steam_id":76561198323938215,"connected_time":1772000000000,"state":"active","ping":91},{"user_id":225,"name":"Milf (The fan O'Milk)","steam_id":76561198213031155,"connected_time":24723000000000,"state":"active","ping":93},{"user_id":480,"name":"mole","steam_id":76561198378829574,"connected_time":2801000000000,"state":"active","ping":60},{"user_id":492,"name":"김광만","steam_id":76561198295279503,"connected_time":1686000000000,"state":"active","ping":83},{"user_id":463,"name":"nyakky","steam_id":76561198927779787,"connected_time":3904000000000,"state":"active","ping":88},{"user_id":482,"name":"Run fast, hit fast, die fast","steam_id":76561198386748174,"connected_time":2502000000000,"state":"active","ping":100},{"user_id":508,"name":"yong dong","steam_id":76561198342233196,"connected_time":471000000000,"state":"active","ping":57},{"user_id":495,"name":"CoochieDestroyer69420","steam_id":76561198992661922,"connected_time":1515000000000,"state":"active","ping":100},{"user_id":390,"name":"silverhouse7","steam_id":76561198349634906,"connected_time":12052000000000,"state":"active","ping":65},{"user_id":481,"name":"John Pork","steam_id":76561199162404661,"connected_time":2798000000000,"state":"active","ping":100},{"user_id":488,"name":"Pinkman","steam_id":76561198376736258,"connected_time":2046000000000,"state":"active","ping":110},{"user_id":392,"name":"Vortex Swagger","steam_id":76561198833527091,"connected_time":11586000000000,"state":"active","ping":91},{"user_id":501,"name":"13MAN","steam_id":76561198900023603,"connected_time":1201000000000,"state":"active","ping":92},{"user_id":428,"name":"Kurtie","steam_id":76561198144737876,"connected_time":8760000000000,"state":"active","ping":65}]},{"server_id":1,"name":"Uncletopia | Los Angeles | 1 | All Maps","name_short":"lax-1","host":"lax-1.us.uncletopia.com","port":27015,"enabled":true,"region":"us-west","cc":"us","latitude":33.94279,"longitude":-118.41004,"reserved":0,"last_update":"0001-01-01T00:00:00Z","name_a2s":"Uncletopia | Los Angeles | 1 | All Maps","protocol":17,"map":"cp_dustbowl","folder":"tf","game":"Team Fortress","app_id":440,"player_count":7,"max_players":24,"Bots":0,"server_type":"Dedicated","server_os":"Linux","password":true,"vac":true,"version":"7961495","steam_id":85568392924469991,"keywords":["cp","nocrits","nodmgspread","uncletopia"],"game_id":440,"stv_port":27016,"stv_name":"Uncletopia | Los Angeles | 1 | All Maps | STV","players":[{"user_id":19,"name":"EmptyM1nd","steam_id":76561198054390505,"connected_time":337000000000,"state":"active","ping":101},{"user_id":21,"name":"OrangeSodaMachine","steam_id":76561198079230156,"connected_time":302000000000,"state":"active","ping":102},{"user_id":24,"name":"*The* Wardoug41","steam_id":76561198255780869,"connected_time":75000000000,"state":"active","ping":96},{"user_id":14,"name":"Knock on the sky and listen","steam_id":76561198077597130,"connected_time":444000000000,"state":"active","ping":64},{"user_id":15,"name":"Zach Reeee","steam_id":76561198096698210,"connected_time":416000000000,"state":"active","ping":74},{"user_id":16,"name":"Edwardplayz","steam_id":76561198964762883,"connected_time":402000000000,"state":"active","ping":56},{"user_id":17,"name":"Teeth?","steam_id":76561198284821342,"connected_time":365000000000,"state":"active","ping":94}]},{"server_id":112,"name":"Uncletopia | Los Angeles | 2 | All Maps","name_short":"lax-2","host":"lax-1.us.uncletopia.com","port":27025,"enabled":true,"region":"us-west","cc":"us","latitude":33.94279,"longitude":-118.41004,"reserved":0,"last_update":"0001-01-01T00:00:00Z","name_a2s":"Uncletopia | Los Angeles | 2 | All Maps","protocol":17,"map":"pl_borneo","folder":"tf","game":"Team Fortress","app_id":440,"player_count":0,"max_players":24,"Bots":0,"server_type":"Dedicated","server_os":"Linux","password":true,"vac":true,"version":"7961495","steam_id":85568392924469992,"keywords":["nocrits","nodmgspread","payload","uncletopia"],"game_id":440,"stv_port":27026,"stv_name":"Uncletopia | Los Angeles | 2 | All Maps | STV","players":null},{"server_id":324,"name":"Uncletopia | Los Angeles | 3 | All Maps","name_short":"lax-3","host":"lax-1.us.uncletopia.com","port":27035,"enabled":true,"region":"us-west","cc":"us","latitude":33.94279,"longitude":-118.41004,"reserved":0,"last_update":"0001-01-01T00:00:00Z","name_a2s":"Uncletopia | Los Angeles | 3 | All Maps","protocol":17,"map":"cp_altitude","folder":"tf","game":"Team Fortress","app_id":440,"player_count":24,"max_players":24,"Bots":0,"server_type":"Dedicated","server_os":"Linux","password":true,"vac":true,"version":"7961495","steam_id":85568392924510198,"keywords":["cp","nocrits","nodmgspread","uncletopia"],"game_id":440,"stv_port":27036,"stv_name":"Uncletopia | Los Angeles | 3 | All Maps | STV","players":[{"user_id":196,"name":"Ygitor","steam_id":76561198328114476,"connected_time":483000000000,"state":"active","ping":59},{"user_id":4,"name":"Biden Blast","steam_id":76561198366729030,"connected_time":14034000000000,"state":"active","ping":45},{"user_id":190,"name":"Brain damage squirrel","steam_id":76561198846344452,"connected_time":1050000000000,"state":"active","ping":46},{"user_id":194,"name":"Relic","steam_id":76561198071200441,"connected_time":566000000000,"state":"active","ping":83},{"user_id":158,"name":"Sisko Mode","steam_id":76561198036236893,"connected_time":2646000000000,"state":"active","ping":82},{"user_id":146,"name":"Denzel McFlurry","steam_id":76561199231296521,"connected_time":3232000000000,"state":"active","ping":113},{"user_id":173,"name":"FI LO","steam_id":76561198976530881,"connected_time":2159000000000,"state":"active","ping":40},{"user_id":184,"name":"BobBallin","steam_id":76561198355299724,"connected_time":1477000000000,"state":"active","ping":57},{"user_id":197,"name":"Dr. Anonymous","steam_id":76561198061654197,"connected_time":371000000000,"state":"active","ping":104},{"user_id":198,"name":"hurry! sheva! come on! hurry!","steam_id":76561198939932486,"connected_time":363000000000,"state":"active","ping":69},{"user_id":188,"name":"Toasterduds","steam_id":76561198163477584,"connected_time":1209000000000,"state":"active","ping":54},{"user_id":119,"name":"Limp Pumpo Discography Fan Club","steam_id":76561198145748479,"connected_time":5885000000000,"state":"active","ping":84},{"user_id":185,"name":"reddit mod (r/dirtyfeetpics)","steam_id":76561198131567365,"connected_time":1325000000000,"state":"active","ping":59},{"user_id":152,"name":"your local xbox 360 slim","steam_id":76561199243489976,"connected_time":3055000000000,"state":"active","ping":75},{"user_id":161,"name":"BIG OUNCE","steam_id":76561198074811764,"connected_time":2604000000000,"state":"active","ping":110},{"user_id":178,"name":"mega knight","steam_id":76561199176211866,"connected_time":2025000000000,"state":"active","ping":116},{"user_id":201,"name":"axellinag15","steam_id":76561199188113751,"connected_time":55000000000,"state":"active","ping":113},{"user_id":199,"name":"Dr Dino D. Diplodocus","steam_id":76561198269645882,"connected_time":357000000000,"state":"active","ping":76},{"user_id":200,"name":"AT✪MIC","steam_id":76561198100385184,"connected_time":356000000000,"state":"active","ping":56},{"user_id":191,"name":"giga meo","steam_id":76561199480436391,"connected_time":820000000000,"state":"active","ping":107},{"user_id":181,"name":"TheMedic","steam_id":76561198092612990,"connected_time":1851000000000,"state":"active","ping":62},{"user_id":177,"name":"sunflowerofwar","steam_id":76561198940058271,"connected_time":2073000000000,"state":"active","ping":68},{"user_id":186,"name":"SD","steam_id":76561198217410988,"connected_time":1277000000000,"state":"active","ping":46},{"user_id":192,"name":"Ockulus","steam_id":76561199069638460,"connected_time":787000000000,"state":"active","ping":37}]},{"server_id":25,"name":"Uncletopia | Los Angeles | 4 | Stopwatch Beta","name_short":"lax-4","host":"lax-1.us.uncletopia.com","port":27045,"enabled":true,"region":"us-west","cc":"us","latitude":33.94279,"longitude":-118.41004,"reserved":0,"last_update":"0001-01-01T00:00:00Z","name_a2s":"Uncletopia | Los Angeles | 4 | Stopwatch Beta","protocol":17,"map":"pl_upward","folder":"tf","game":"Team Fortress","app_id":440,"player_count":0,"max_players":24,"Bots":0,"server_type":"Dedicated","server_os":"Linux","password":true,"vac":true,"version":"7961495","steam_id":85568392924510199,"keywords":["nocrits","nodmgspread","payload","uncletopia"],"game_id":440,"stv_port":27046,"stv_name":"Uncletopia | Los Angeles | 4 | Stopwatch Beta | STV","players":null},{"server_id":11,"name":"Uncletopia | London | 1 | All Maps","name_short":"lon-1","host":"lon-1.uk.uncletopia.com","port":27015,"enabled":true,"region":"eu","cc":"gb","latitude":51.509865,"longitude":-0.118092,"reserved":0,"last_update":"0001-01-01T00:00:00Z","name_a2s":"Uncletopia | London | 1 | All Maps","protocol":17,"map":"pl_swiftwater_final1","folder":"tf","game":"Team Fortress","app_id":440,"player_count":24,"max_players":24,"Bots":0,"server_type":"Dedicated","server_os":"Linux","password":true,"vac":true,"version":"7961495","steam_id":85568392924367362,"keywords":["nocrits","nodmgspread","payload","uncletopia"],"game_id":440,"stv_port":27016,"stv_name":"Uncletopia | London | 1 | All Maps | STV","players":[{"user_id":354,"name":"Cotton Eye Joe","steam_id":76561198080594207,"connected_time":1818000000000,"state":"active","ping":53},{"user_id":324,"name":"Bonkovich","steam_id":76561198256800084,"connected_time":3170000000000,"state":"active","ping":119},{"user_id":373,"name":"Filipesko","steam_id":76561198831347261,"connected_time":87000000000,"state":"active","ping":70},{"user_id":375,"name":"Loqic","steam_id":76561198001766156,"connected_time":74000000000,"state":"active","ping":62},{"user_id":372,"name":"Kahvi","steam_id":76561198723244199,"connected_time":110000000000,"state":"active","ping":74},{"user_id":333,"name":"Kekster","steam_id":76561198302448192,"connected_time":2685000000000,"state":"active","ping":31},{"user_id":366,"name":"Owenter","steam_id":76561198083201886,"connected_time":798000000000,"state":"active","ping":43},{"user_id":299,"name":"SuntanPikachu","steam_id":76561198121242476,"connected_time":4978000000000,"state":"active","ping":89},{"user_id":374,"name":"Hannü","steam_id":76561197969886128,"connected_time":85000000000,"state":"active","ping":55},{"user_id":285,"name":"Snake-chan","steam_id":76561199044755854,"connected_time":6308000000000,"state":"active","ping":83},{"user_id":266,"name":"halow","steam_id":76561198061505163,"connected_time":8725000000000,"state":"active","ping":112},{"user_id":365,"name":"REN","steam_id":76561198000596385,"connected_time":882000000000,"state":"active","ping":77},{"user_id":343,"name":"Tails8521","steam_id":76561198051747164,"connected_time":2511000000000,"state":"active","ping":54},{"user_id":364,"name":"ein'd","steam_id":76561198152162834,"connected_time":919000000000,"state":"active","ping":101},{"user_id":376,"name":"Portal2Player","steam_id":76561198062870114,"connected_time":70000000000,"state":"spawning","ping":105},{"user_id":377,"name":"Anonymous47007","steam_id":76561199005211417,"connected_time":61000000000,"state":"active","ping":38},{"user_id":370,"name":"pokemonsuper9","steam_id":76561198120530545,"connected_time":541000000000,"state":"active","ping":62},{"user_id":344,"name":"Fish","steam_id":76561198152128484,"connected_time":2506000000000,"state":"active","ping":55},{"user_id":350,"name":"jermany","steam_id":76561198126599355,"connected_time":1959000000000,"state":"active","ping":37},{"user_id":378,"name":"Send dudes","steam_id":76561198184360615,"connected_time":58000000000,"state":"active","ping":91},{"user_id":379,"name":"Cheers Mate!","steam_id":76561198265192382,"connected_time":46000000000,"state":"active","ping":60},{"user_id":371,"name":"Lifeup Ω","steam_id":76561198004561929,"connected_time":304000000000,"state":"active","ping":46},{"user_id":321,"name":"SpacePig","steam_id":76561198044662873,"connected_time":3865000000000,"state":"active","ping":95},{"user_id":346,"name":"romaingallo","steam_id":76561198268112907,"connected_time":2493000000000,"state":"active","ping":59}]},{"server_id":114,"name":"Uncletopia | London | 2 | All Maps","name_short":"lon-2","host":"lon-1.uk.uncletopia.com","port":27025,"enabled":true,"region":"eu","cc":"gb","latitude":51.509865,"longitude":-0.118092,"reserved":0,"last_update":"0001-01-01T00:00:00Z","name_a2s":"Uncletopia | London | 2 | All Maps","protocol":17,"map":"ctf_2fort","folder":"tf","game":"Team Fortress","app_id":440,"player_count":20,"max_players":24,"Bots":0,"server_type":"Dedicated","server_os":"Linux","password":true,"vac":true,"version":"7961495","steam_id":85568392924470941,"keywords":["ctf","nocrits","nodmgspread","uncletopia"],"game_id":440,"stv_port":27026,"stv_name":"Uncletopia | London | 2 | All Maps | STV","players":[{"user_id":394,"name":"40mg of Elvanse","steam_id":76561198303429751,"connected_time":180000000000,"state":"active","ping":45},{"user_id":396,"name":"SmearierGold7","steam_id":76561198065689410,"connected_time":102000000000,"state":"active","ping":127},{"user_id":383,"name":"Ziemniaczki","steam_id":76561198061866742,"connected_time":1622000000000,"state":"active","ping":77},{"user_id":358,"name":"Ferrariracer5f1","steam_id":76561199229815098,"connected_time":3300000000000,"state":"active","ping":53},{"user_id":356,"name":"Julen","steam_id":76561198371879846,"connected_time":3409000000000,"state":"active","ping":85},{"user_id":382,"name":"Stage 5 Autism","steam_id":76561198370485227,"connected_time":1718000000000,"state":"active","ping":68},{"user_id":385,"name":"tj.fox","steam_id":76561198160752951,"connected_time":1255000000000,"state":"active","ping":56},{"user_id":397,"name":"Jink","steam_id":76561197972822389,"connected_time":88000000000,"state":"active","ping":30},{"user_id":376,"name":"Ricey","steam_id":76561198832961307,"connected_time":1859000000000,"state":"active","ping":45},{"user_id":371,"name":"your stepdad","steam_id":76561198887179028,"connected_time":2544000000000,"state":"active","ping":115},{"user_id":386,"name":"Wario","steam_id":76561198356089255,"connected_time":1145000000000,"state":"active","ping":73},{"user_id":398,"name":"IS3BITEL","steam_id":76561199178060325,"connected_time":85000000000,"state":"active","ping":78},{"user_id":399,"name":"MajorKlebstoff","steam_id":76561198035489363,"connected_time":75000000000,"state":"active","ping":59},{"user_id":325,"name":"RickRoller","steam_id":76561199221172552,"connected_time":4261000000000,"state":"active","ping":60},{"user_id":400,"name":"Cool_kidd07","steam_id":76561198976803302,"connected_time":73000000000,"state":"active","ping":159},{"user_id":390,"name":"stoneflower","steam_id":76561198046250873,"connected_time":221000000000,"state":"active","ping":78},{"user_id":342,"name":"Джекет","steam_id":76561198327897125,"connected_time":3848000000000,"state":"active","ping":95},{"user_id":384,"name":"Topia","steam_id":76561198163571788,"connected_time":1532000000000,"state":"active","ping":96},{"user_id":372,"name":"say gex","steam_id":76561198060530483,"connected_time":2457000000000,"state":"active","ping":69},{"user_id":381,"name":"Blar","steam_id":76561198042438229,"connected_time":1773000000000,"state":"active","ping":55}]},{"server_id":320,"name":"Uncletopia | London | 3 | All Maps","name_short":"lon-3","host":"lon-1.uk.uncletopia.com","port":27035,"enabled":true,"region":"eu","cc":"gb","latitude":51.509865,"longitude":-0.118092,"reserved":0,"last_update":"0001-01-01T00:00:00Z","name_a2s":"Uncletopia | London | 3 | All Maps","protocol":17,"map":"koth_cascade","folder":"tf","game":"Team Fortress","app_id":440,"player_count":3,"max_players":24,"Bots":0,"server_type":"Dedicated","server_os":"Linux","password":true,"vac":true,"version":"7961495","steam_id":85568392924510192,"keywords":["cp","nocrits","nodmgspread","uncletopia"],"game_id":440,"stv_port":27036,"stv_name":"Uncletopia | London | 3 | All Maps | STV","players":[{"user_id":39,"name":"resu eht","steam_id":76561198978262040,"connected_time":22000000000,"state":"active","ping":80},{"user_id":34,"name":"Zoey The Trans Hoey","steam_id":76561199171843194,"connected_time":631000000000,"state":"active","ping":50},{"user_id":25,"name":"AFairFew","steam_id":76561198194484645,"connected_time":1508000000000,"state":"active","ping":55}]},{"server_id":321,"name":"Uncletopia | London | 4 | All Maps","name_short":"lon-4","host":"lon-1.uk.uncletopia.com","port":27045,"enabled":true,"region":"eu","cc":"gb","latitude":51.509865,"longitude":-0.118092,"reserved":0,"last_update":"0001-01-01T00:00:00Z","name_a2s":"Uncletopia | London | 4 | All Maps","protocol":17,"map":"pl_borneo","folder":"tf","game":"Team Fortress","app_id":440,"player_count":24,"max_players":24,"Bots":0,"server_type":"Dedicated","server_os":"Linux","password":true,"vac":true,"version":"7961495","steam_id":85568392924510193,"keywords":["nocrits","nodmgspread","payload","uncletopia"],"game_id":440,"stv_port":27046,"stv_name":"Uncletopia | London | 4 | All Maps | STV","players":[{"user_id":302,"name":"Vv","steam_id":76561199052196750,"connected_time":1344000000000,"state":"active","ping":155},{"user_id":310,"name":"Skeletros","steam_id":76561198130969152,"connected_time":712000000000,"state":"active","ping":154},{"user_id":300,"name":"jmp","steam_id":76561198168283286,"connected_time":1482000000000,"state":"active","ping":75},{"user_id":312,"name":"Kiogeki","steam_id":76561197996707843,"connected_time":359000000000,"state":"active","ping":37},{"user_id":225,"name":"Ixsus\u003c3","steam_id":76561198094756869,"connected_time":6070000000000,"state":"active","ping":62},{"user_id":313,"name":"Lightboom","steam_id":76561198104645103,"connected_time":358000000000,"state":"active","ping":87},{"user_id":309,"name":"mesλ","steam_id":76561198324582918,"connected_time":761000000000,"state":"active","ping":100},{"user_id":299,"name":"Gaxkang","steam_id":76561198125768571,"connected_time":1502000000000,"state":"active","ping":56},{"user_id":304,"name":"jikkelsnikkel","steam_id":76561198086682821,"connected_time":1291000000000,"state":"active","ping":45},{"user_id":314,"name":"yuck","steam_id":76561197987249568,"connected_time":352000000000,"state":"active","ping":109},{"user_id":303,"name":"harper","steam_id":76561198188642265,"connected_time":1324000000000,"state":"active","ping":56},{"user_id":95,"name":"Ullr","steam_id":76561198140547483,"connected_time":15776000000000,"state":"active","ping":44},{"user_id":276,"name":"FireDog2000","steam_id":76561198328824242,"connected_time":2484000000000,"state":"active","ping":64},{"user_id":311,"name":"Mr_Pulse_","steam_id":76561198095001602,"connected_time":672000000000,"state":"active","ping":105},{"user_id":318,"name":"bigmazi","steam_id":76561198133276643,"connected_time":65000000000,"state":"active","ping":94},{"user_id":288,"name":"Max Andrew","steam_id":76561198158955194,"connected_time":2104000000000,"state":"active","ping":55},{"user_id":278,"name":"nvmHastee","steam_id":76561199371458295,"connected_time":2419000000000,"state":"active","ping":84},{"user_id":317,"name":"rachel aldana's massive milkers","steam_id":76561198025916703,"connected_time":144000000000,"state":"active","ping":80},{"user_id":316,"name":"Tort","steam_id":76561198329646769,"connected_time":338000000000,"state":"active","ping":56},{"user_id":297,"name":"hipster_doofus","steam_id":76561197970902697,"connected_time":1642000000000,"state":"active","ping":56},{"user_id":308,"name":"Northvy","steam_id":76561198136732563,"connected_time":771000000000,"state":"active","ping":48},{"user_id":283,"name":"IcePuppy2000","steam_id":76561198056158882,"connected_time":2371000000000,"state":"active","ping":135},{"user_id":298,"name":"Chikapu_Xek","steam_id":76561198428023493,"connected_time":1605000000000,"state":"active","ping":70},{"user_id":305,"name":"sareena","steam_id":76561198810194062,"connected_time":977000000000,"state":"active","ping":66}]},{"server_id":21,"name":"Uncletopia | London | 5 | All Maps","name_short":"lon-5","host":"lon-1.uk.uncletopia.com","port":27055,"enabled":true,"region":"eu","cc":"gb","latitude":51.509865,"longitude":-0.118092,"reserved":0,"last_update":"0001-01-01T00:00:00Z","name_a2s":"Uncletopia | London | 5 | All Maps","protocol":17,"map":"cp_snakewater_final1","folder":"tf","game":"Team Fortress","app_id":440,"player_count":15,"max_players":24,"Bots":0,"server_type":"Dedicated","server_os":"Linux","password":true,"vac":true,"version":"7961495","steam_id":85568392924742829,"keywords":["cp","nocrits","nodmgspread","uncletopia"],"game_id":440,"stv_port":27056,"stv_name":"Uncletopia | London | 5 | All Maps | STV","players":[{"user_id":275,"name":"PirateMole","steam_id":76561198071461487,"connected_time":572000000000,"state":"active","ping":57},{"user_id":277,"name":"Sheen (Khang)","steam_id":76561198371062974,"connected_time":435000000000,"state":"active","ping":95},{"user_id":276,"name":"lidl","steam_id":76561198895235231,"connected_time":559000000000,"state":"active","ping":45},{"user_id":273,"name":"UnusedEngine","steam_id":76561199281868902,"connected_time":832000000000,"state":"active","ping":96},{"user_id":283,"name":"CBT","steam_id":76561199439141531,"connected_time":115000000000,"state":"active","ping":65},{"user_id":191,"name":"gayboi farti","steam_id":76561199121999431,"connected_time":6823000000000,"state":"active","ping":45},{"user_id":246,"name":"n174","steam_id":76561199465285458,"connected_time":2989000000000,"state":"active","ping":60},{"user_id":278,"name":"shadow wizard money gang","steam_id":76561199062586342,"connected_time":430000000000,"state":"active","ping":53},{"user_id":279,"name":"Crusader","steam_id":76561198239172686,"connected_time":295000000000,"state":"active","ping":76},{"user_id":281,"name":"Swift_Baguette","steam_id":76561199230477090,"connected_time":230000000000,"state":"active","ping":51},{"user_id":282,"name":"slug","steam_id":76561198065902089,"connected_time":131000000000,"state":"active","ping":60},{"user_id":284,"name":"elasone","steam_id":76561199477858093,"connected_time":101000000000,"state":"active","ping":179},{"user_id":285,"name":"Ablativus","steam_id":76561198025698470,"connected_time":39000000000,"state":"active","ping":72},{"user_id":286,"name":"Scrooge Mc Clunk","steam_id":76561198885945084,"connected_time":22000000000,"state":"spawning","ping":36},{"user_id":270,"name":"mista white","steam_id":76561199387233667,"connected_time":1269000000000,"state":"active","ping":70}]},{"server_id":22,"name":"Uncletopia | London | 6 | All Maps","name_short":"lon-6","host":"lon-1.uk.uncletopia.com","port":27065,"enabled":true,"region":"eu","cc":"gb","latitude":51.509865,"longitude":-0.118092,"reserved":0,"last_update":"0001-01-01T00:00:00Z","name_a2s":"Uncletopia | London | 6 | All Maps","protocol":17,"map":"pl_barnblitz","folder":"tf","game":"Team Fortress","app_id":440,"player_count":24,"max_players":24,"Bots":0,"server_type":"Dedicated","server_os":"Linux","password":true,"vac":true,"version":"7961495","steam_id":85568392924742830,"keywords":["nocrits","nodmgspread","payload","uncletopia"],"game_id":440,"stv_port":27066,"stv_name":"Uncletopia | London | 6 | All Maps | STV","players":[{"user_id":62,"name":"fernandobmwm355555","steam_id":76561198086609447,"connected_time":5197000000000,"state":"active","ping":59},{"user_id":99,"name":"DANDELION","steam_id":76561198038451376,"connected_time":2307000000000,"state":"active","ping":42},{"user_id":53,"name":"{TPF}Badaabing","steam_id":76561197996161449,"connected_time":5581000000000,"state":"active","ping":65},{"user_id":96,"name":"punchmypotatoes","steam_id":76561198091255731,"connected_time":2665000000000,"state":"active","ping":54},{"user_id":117,"name":"shablool","steam_id":76561199192795613,"connected_time":920000000000,"state":"active","ping":100},{"user_id":112,"name":"Flint","steam_id":76561197995920776,"connected_time":1134000000000,"state":"active","ping":47},{"user_id":24,"name":"Eggcracker","steam_id":76561199274850641,"connected_time":6869000000000,"state":"active","ping":76},{"user_id":80,"name":"Ark-e","steam_id":76561198261870909,"connected_time":3993000000000,"state":"active","ping":57},{"user_id":98,"name":"Habimbi","steam_id":76561198047271252,"connected_time":2451000000000,"state":"active","ping":72},{"user_id":90,"name":"W  A  T  E  R","steam_id":76561198069846520,"connected_time":3065000000000,"state":"active","ping":50},{"user_id":107,"name":"I sell exotic parrots","steam_id":76561199192434258,"connected_time":1534000000000,"state":"active","ping":93},{"user_id":113,"name":"darkwater","steam_id":76561197986978738,"connected_time":1070000000000,"state":"active","ping":58},{"user_id":106,"name":"Tampon Lollipop","steam_id":76561198042593027,"connected_time":1573000000000,"state":"active","ping":94},{"user_id":120,"name":"iq drops","steam_id":76561198035795130,"connected_time":622000000000,"state":"active","ping":61},{"user_id":114,"name":"zoinks!","steam_id":76561198068645362,"connected_time":1041000000000,"state":"active","ping":41},{"user_id":121,"name":"MMMMMMMMMMMMMM","steam_id":76561198073372975,"connected_time":619000000000,"state":"active","ping":110},{"user_id":115,"name":"maymaymaster","steam_id":76561198180896059,"connected_time":1015000000000,"state":"active","ping":57},{"user_id":110,"name":"ABC555ABC666ABC555","steam_id":76561197995676953,"connected_time":1227000000000,"state":"active","ping":59},{"user_id":71,"name":"john fortress","steam_id":76561198013237629,"connected_time":4972000000000,"state":"active","ping":99},{"user_id":123,"name":"Wade Wilson's Spoilt C4","steam_id":76561198013884709,"connected_time":42000000000,"state":"active","ping":76},{"user_id":103,"name":"TomNoSocks","steam_id":76561198114071046,"connected_time":1652000000000,"state":"active","ping":63},{"user_id":72,"name":"Nugget","steam_id":76561198338916407,"connected_time":4952000000000,"state":"active","ping":76},{"user_id":78,"name":"Bear Burger Meat Rage","steam_id":76561199012566222,"connected_time":4105000000000,"state":"active","ping":65},{"user_id":119,"name":"deez","steam_id":76561198831476915,"connected_time":824000000000,"state":"active","ping":56}]},{"server_id":40,"name":"Uncletopia | London | 7 | No Payload","name_short":"lon-7","host":"lon-1.uk.uncletopia.com","port":27075,"enabled":true,"region":"eu","cc":"gb","latitude":51.509865,"longitude":-0.118092,"reserved":0,"last_update":"0001-01-01T00:00:00Z","name_a2s":"Uncletopia | London | 7 | No Payload","protocol":17,"map":"cp_5gorge","folder":"tf","game":"Team Fortress","app_id":440,"player_count":0,"max_players":24,"Bots":0,"server_type":"Dedicated","server_os":"Linux","password":true,"vac":true,"version":"7961495","steam_id":85568392924964314,"keywords":["cp","nocrits","nodmgspread","uncletopia"],"game_id":440,"stv_port":27076,"stv_name":"Uncletopia | London | 7 | No Payload | STV","players":null},{"server_id":41,"name":"Uncletopia | London | 8 | Community","name_short":"lon-8","host":"lon-1.uk.uncletopia.com","port":27085,"enabled":true,"region":"eu","cc":"gb","latitude":51.509865,"longitude":-0.118092,"reserved":0,"last_update":"0001-01-01T00:00:00Z","name_a2s":"Uncletopia | London | 8 | Community","protocol":17,"map":"workshop/cp_bruhstbowl_b6.ugc2878604990","folder":"tf","game":"Team Fortress","app_id":440,"player_count":0,"max_players":24,"Bots":0,"server_type":"Dedicated","server_os":"Linux","password":true,"vac":true,"version":"7961495","steam_id":85568392924964315,"keywords":["cp","nocrits","nodmgspread","uncletopia"],"game_id":440,"stv_port":27086,"stv_name":"Uncletopia | London | 8 | Community | STV","players":null},{"server_id":300,"name":"Uncletopia | Montréal | 1 | All Maps","name_short":"mtl-1","host":"mtl-1.ca.uncletopia.com","port":27015,"enabled":true,"region":"us-east","cc":"ca","latitude":45.50889,"longitude":-73.56167,"reserved":0,"last_update":"0001-01-01T00:00:00Z","name_a2s":"","protocol":0,"map":"","folder":"","game":"","app_id":0,"player_count":0,"max_players":0,"Bots":0,"server_type":"","server_os":"","password":false,"vac":false,"version":"","steam_id":0,"keywords":null,"game_id":0,"stv_port":0,"stv_name":"","players":null},{"server_id":301,"name":"Uncletopia | Montréal | 2 | All Maps","name_short":"mtl-2","host":"mtl-1.ca.uncletopia.com","port":27025,"enabled":true,"region":"us-east","cc":"ca","latitude":45.50889,"longitude":-73.56167,"reserved":0,"last_update":"0001-01-01T00:00:00Z","name_a2s":"","protocol":0,"map":"","folder":"","game":"","app_id":0,"player_count":0,"max_players":0,"Bots":0,"server_type":"","server_os":"","password":false,"vac":false,"version":"","steam_id":0,"keywords":null,"game_id":0,"stv_port":0,"stv_name":"","players":null},{"server_id":302,"name":"Uncletopia | Montréal | 3 | All Maps","name_short":"mtl-3","host":"mtl-1.ca.uncletopia.com","port":27035,"enabled":true,"region":"us-east","cc":"ca","latitude":45.50889,"longitude":-73.56167,"reserved":0,"last_update":"0001-01-01T00:00:00Z","name_a2s":"","protocol":0,"map":"","folder":"","game":"","app_id":0,"player_count":0,"max_players":0,"Bots":0,"server_type":"","server_os":"","password":false,"vac":false,"version":"","steam_id":0,"keywords":null,"game_id":0,"stv_port":0,"stv_name":"","players":null},{"server_id":303,"name":"Uncletopia | Montréal | 4 | No Payload","name_short":"mtl-4","host":"mtl-1.ca.uncletopia.com","port":27045,"enabled":true,"region":"us-east","cc":"ca","latitude":45.50889,"longitude":-73.56167,"reserved":0,"last_update":"0001-01-01T00:00:00Z","name_a2s":"","protocol":0,"map":"","folder":"","game":"","app_id":0,"player_count":0,"max_players":0,"Bots":0,"server_type":"","server_os":"","password":false,"vac":false,"version":"","steam_id":0,"keywords":null,"game_id":0,"stv_port":0,"stv_name":"","players":null},{"server_id":13,"name":"Uncletopia | New York City | 1 | All Maps","name_short":"nyc-1","host":"nyc-1.us.uncletopia.com","port":27015,"enabled":true,"region":"us-east","cc":"us","latitude":40.73061,"longitude":-73.93524,"reserved":0,"last_update":"0001-01-01T00:00:00Z","name_a2s":"Uncletopia | New York City | 1 | All Maps","protocol":17,"map":"pl_upward","folder":"tf","game":"Team Fortress","app_id":440,"player_count":24,"max_players":24,"Bots":0,"server_type":"Dedicated","server_os":"Linux","password":true,"vac":true,"version":"7961495","steam_id":85568392924469993,"keywords":["nocrits","nodmgspread","payload","uncletopia"],"game_id":440,"stv_port":27016,"stv_name":"Uncletopia | New York City | 1 | All Maps | STV","players":[{"user_id":116,"name":"riley","steam_id":76561198169715679,"connected_time":1561000000000,"state":"active","ping":84},{"user_id":126,"name":"Captain Bad-Satan","steam_id":76561198090086597,"connected_time":838000000000,"state":"active","ping":67},{"user_id":103,"name":"when gritty","steam_id":76561198165567310,"connected_time":2424000000000,"state":"active","ping":45},{"user_id":117,"name":"Fiend","steam_id":76561198190106735,"connected_time":1279000000000,"state":"active","ping":55},{"user_id":119,"name":"Timmy Linguine","steam_id":76561198327703300,"connected_time":1229000000000,"state":"active","ping":51},{"user_id":98,"name":"Defragmented","steam_id":76561198854210081,"connected_time":2666000000000,"state":"active","ping":68},{"user_id":112,"name":"Glue","steam_id":76561198047931749,"connected_time":2109000000000,"state":"active","ping":115},{"user_id":127,"name":"Pawwots","steam_id":76561198799663345,"connected_time":741000000000,"state":"active","ping":74},{"user_id":110,"name":"Pinhead Larry","steam_id":76561199088542196,"connected_time":2144000000000,"state":"active","ping":139},{"user_id":128,"name":"Mecha","steam_id":76561198251728758,"connected_time":707000000000,"state":"active","ping":86},{"user_id":132,"name":"Kurt Biscuitmaker","steam_id":76561198331701823,"connected_time":584000000000,"state":"active","ping":58},{"user_id":107,"name":"Snugboo","steam_id":76561198147970327,"connected_time":2231000000000,"state":"active","ping":37},{"user_id":133,"name":"capeeKo","steam_id":76561197970346623,"connected_time":327000000000,"state":"active","ping":61},{"user_id":53,"name":"Chris","steam_id":76561198044278802,"connected_time":4953000000000,"state":"active","ping":44},{"user_id":120,"name":"rackrisss","steam_id":76561199380864529,"connected_time":1226000000000,"state":"active","ping":67},{"user_id":78,"name":"Rornir","steam_id":76561198081829615,"connected_time":3203000000000,"state":"active","ping":56},{"user_id":130,"name":"urinal burglar","steam_id":76561198978665598,"connected_time":666000000000,"state":"active","ping":95},{"user_id":89,"name":"Yami","steam_id":76561198116546266,"connected_time":2979000000000,"state":"active","ping":68},{"user_id":82,"name":"Jimbei","steam_id":76561198081630453,"connected_time":3102000000000,"state":"active","ping":105},{"user_id":111,"name":"Mr. Hankey","steam_id":76561198872852200,"connected_time":2141000000000,"state":"active","ping":139},{"user_id":113,"name":"Chezaus","steam_id":76561198317397837,"connected_time":2109000000000,"state":"active","ping":71},{"user_id":135,"name":"Carl, Good to see you","steam_id":76561198070574075,"connected_time":147000000000,"state":"active","ping":76},{"user_id":125,"name":"Skipikip","steam_id":76561198125019458,"connected_time":1137000000000,"state":"active","ping":33},{"user_id":131,"name":"MrBlank","steam_id":76561199093616345,"connected_time":663000000000,"state":"active","ping":74}]},{"server_id":14,"name":"Uncletopia | New York City | 2 | All Maps","name_short":"nyc-2","host":"nyc-1.us.uncletopia.com","port":27025,"enabled":true,"region":"us-east","cc":"us","latitude":40.73061,"longitude":-73.93524,"reserved":0,"last_update":"0001-01-01T00:00:00Z","name_a2s":"Uncletopia | New York City | 2 | All Maps","protocol":17,"map":"pl_pier","folder":"tf","game":"Team Fortress","app_id":440,"player_count":0,"max_players":24,"Bots":0,"server_type":"Dedicated","server_os":"Linux","password":true,"vac":true,"version":"7961495","steam_id":85568392924469994,"keywords":["nocrits","nodmgspread","payload","uncletopia"],"game_id":440,"stv_port":27026,"stv_name":"Uncletopia | New York City | 2 | All Maps | STV","players":null},{"server_id":15,"name":"Uncletopia | New York City | 3 | Stopwatch Beta","name_short":"nyc-3","host":"nyc-1.us.uncletopia.com","port":27035,"enabled":true,"region":"us-east","cc":"us","latitude":40.73061,"longitude":-73.93524,"reserved":0,"last_update":"0001-01-01T00:00:00Z","name_a2s":"Uncletopia | New York City | 3 | Stopwatch Beta","protocol":17,"map":"cp_mountainlab","folder":"tf","game":"Team Fortress","app_id":440,"player_count":0,"max_players":24,"Bots":0,"server_type":"Dedicated","server_os":"Linux","password":true,"vac":true,"version":"7961495","steam_id":85568392924742820,"keywords":["cp","nocrits","nodmgspread","uncletopia"],"game_id":440,"stv_port":27036,"stv_name":"Uncletopia | New York City | 3 | Stopwatch Beta | STV","players":null},{"server_id":16,"name":"Uncletopia | New York City | 4 | Community","name_short":"nyc-4","host":"nyc-1.us.uncletopia.com","port":27045,"enabled":true,"region":"us-east","cc":"us","latitude":40.73061,"longitude":-73.93524,"reserved":0,"last_update":"0001-01-01T00:00:00Z","name_a2s":"Uncletopia | New York City | 4 | Community","protocol":17,"map":"koth_lakeside_final","folder":"tf","game":"Team Fortress","app_id":440,"player_count":0,"max_players":24,"Bots":0,"server_type":"Dedicated","server_os":"Linux","password":true,"vac":true,"version":"7961495","steam_id":85568392924742821,"keywords":["cp","nocrits","nodmgspread","uncletopia"],"game_id":440,"stv_port":27046,"stv_name":"Uncletopia | New York City | 4 | Community | STV","players":null},{"server_id":142,"name":"Uncletopia | São Paulo | 1 | All Maps","name_short":"sao-1","host":"sao-1.br.uncletopia.com","port":27015,"enabled":true,"region":"sa","cc":"br","latitude":-23.533773,"longitude":-46.62529,"reserved":0,"last_update":"0001-01-01T00:00:00Z","name_a2s":"Uncletopia | São Paulo | 1 | All Maps","protocol":17,"map":"koth_highpass","folder":"tf","game":"Team Fortress","app_id":440,"player_count":0,"max_players":24,"Bots":0,"server_type":"Dedicated","server_os":"Linux","password":true,"vac":true,"version":"7961495","steam_id":85568392924469996,"keywords":["cp","nocrits","nodmgspread","uncletopia"],"game_id":440,"stv_port":27016,"stv_name":"Uncletopia | São Paulo | 1 | All Maps | STV","players":null},{"server_id":143,"name":"Uncletopia | São Paulo | 2 | Community","name_short":"sao-2","host":"sao-2.br.uncletopia.com","port":27015,"enabled":true,"region":"sa","cc":"br","latitude":-23.533773,"longitude":-46.62529,"reserved":0,"last_update":"0001-01-01T00:00:00Z","name_a2s":"Uncletopia | São Paulo | 2 | Community","protocol":17,"map":"workshop/cp_fulgur_rc2a.ugc2068252300","folder":"tf","game":"Team Fortress","app_id":440,"player_count":0,"max_players":24,"Bots":0,"server_type":"Dedicated","server_os":"Linux","password":true,"vac":true,"version":"7961495","steam_id":85568392924485349,"keywords":["cp","nocrits","nodmgspread","uncletopia"],"game_id":440,"stv_port":27016,"stv_name":"Uncletopia | São Paulo | 2 | Community | STV","players":null},{"server_id":7,"name":"Uncletopia | Seattle | 1 | All Maps","name_short":"sea-1","host":"sea-1.us.uncletopia.com","port":27015,"enabled":true,"region":"us-west","cc":"us","latitude":47.608013,"longitude":-122.33517,"reserved":0,"last_update":"0001-01-01T00:00:00Z","name_a2s":"Uncletopia | Seattle | 1 | All Maps","protocol":17,"map":"pl_upward","folder":"tf","game":"Team Fortress","app_id":440,"player_count":25,"max_players":24,"Bots":0,"server_type":"Dedicated","server_os":"Linux","password":true,"vac":true,"version":"7961495","steam_id":85568392924469997,"keywords":["nocrits","nodmgspread","payload","uncletopia"],"game_id":440,"stv_port":27016,"stv_name":"Uncletopia | Seattle | 1 | All Maps | STV","players":[{"user_id":42,"name":"Gibby","steam_id":76561198359568579,"connected_time":1959000000000,"state":"active","ping":56},{"user_id":58,"name":"Freeza","steam_id":76561198050341005,"connected_time":1452000000000,"state":"active","ping":48},{"user_id":43,"name":"juan.png","steam_id":76561199276894516,"connected_time":1958000000000,"state":"active","ping":57},{"user_id":34,"name":"UnReLinked","steam_id":76561199366044663,"connected_time":3147000000000,"state":"active","ping":50},{"user_id":71,"name":"mia","steam_id":76561199382661194,"connected_time":870000000000,"state":"active","ping":61},{"user_id":59,"name":"Manfred von Richthofen","steam_id":76561198881106202,"connected_time":1430000000000,"state":"active","ping":106},{"user_id":82,"name":"poopguy #1","steam_id":76561198238691206,"connected_time":73000000000,"state":"active","ping":39},{"user_id":26,"name":"ThePriceIsRice","steam_id":76561198079069543,"connected_time":3595000000000,"state":"active","ping":63},{"user_id":50,"name":"oo","steam_id":76561198119626492,"connected_time":1761000000000,"state":"active","ping":81},{"user_id":83,"name":"O","steam_id":76561198450073779,"connected_time":51000000000,"state":"active","ping":48},{"user_id":52,"name":"I am a human","steam_id":76561198211511400,"connected_time":1722000000000,"state":"active","ping":153},{"user_id":48,"name":"Wholesale Socks","steam_id":76561198169911945,"connected_time":1837000000000,"state":"active","ping":67},{"user_id":60,"name":"rad killl raccoon","steam_id":76561198980975595,"connected_time":1383000000000,"state":"active","ping":60},{"user_id":61,"name":"Big Yoshi","steam_id":76561199160576376,"connected_time":1294000000000,"state":"active","ping":86},{"user_id":75,"name":"Gashing.goo","steam_id":76561198068050645,"connected_time":753000000000,"state":"active","ping":75},{"user_id":63,"name":"liam","steam_id":76561198046239819,"connected_time":1243000000000,"state":"active","ping":54},{"user_id":64,"name":"Quon Grene for Vice Prez","steam_id":76561198127545817,"connected_time":1069000000000,"state":"active","ping":84},{"user_id":81,"name":"Fajita Master","steam_id":76561198329150962,"connected_time":139000000000,"state":"active","ping":110},{"user_id":66,"name":"Syntesa","steam_id":76561198068955620,"connected_time":1032000000000,"state":"active","ping":121},{"user_id":79,"name":"els","steam_id":76561199112000229,"connected_time":265000000000,"state":"active","ping":91},{"user_id":69,"name":"American freedom bird","steam_id":76561198366142388,"connected_time":969000000000,"state":"active","ping":90},{"user_id":80,"name":"PrinterLights","steam_id":76561198145909722,"connected_time":258000000000,"state":"active","ping":75},{"user_id":73,"name":"Contraband","steam_id":76561198089204658,"connected_time":838000000000,"state":"active","ping":75},{"user_id":74,"name":"Dreamzapp","steam_id":76561199084936632,"connected_time":831000000000,"state":"active","ping":96},{"user_id":84,"name":"Why does glass taste like blood","steam_id":76561198253922494,"connected_time":24000000000,"state":"spawning","ping":74}]},{"server_id":119,"name":"Uncletopia | Seattle | 2 | All Maps","name_short":"sea-2","host":"sea-1.us.uncletopia.com","port":27025,"enabled":true,"region":"us-west","cc":"us","latitude":47.608013,"longitude":-122.33517,"reserved":0,"last_update":"0001-01-01T00:00:00Z","name_a2s":"Uncletopia | Seattle | 2 | All Maps","protocol":17,"map":"cp_snakewater_final1","folder":"tf","game":"Team Fortress","app_id":440,"player_count":0,"max_players":24,"Bots":0,"server_type":"Dedicated","server_os":"Linux","password":true,"vac":true,"version":"7961495","steam_id":85568392924469998,"keywords":["cp","nocrits","nodmgspread","uncletopia"],"game_id":440,"stv_port":27026,"stv_name":"Uncletopia | Seattle | 2 | All Maps | STV","players":null},{"server_id":406,"name":"Uncletopia | Seattle | 3 | Stopwatch Beta","name_short":"sea-3","host":"sea-1.us.uncletopia.com","port":27035,"enabled":true,"region":"us-west","cc":"us","latitude":47.608013,"longitude":-122.33517,"reserved":0,"last_update":"0001-01-01T00:00:00Z","name_a2s":"Uncletopia | Seattle | 3 | Stopwatch Beta","protocol":17,"map":"koth_lakeside_final","folder":"tf","game":"Team Fortress","app_id":440,"player_count":0,"max_players":24,"Bots":0,"server_type":"Dedicated","server_os":"Linux","password":true,"vac":true,"version":"7961495","steam_id":85568392924515217,"keywords":["cp","nocrits","nodmgspread","uncletopia"],"game_id":440,"stv_port":27036,"stv_name":"Uncletopia | Seattle | 3 | Stopwatch Beta | STV","players":null},{"server_id":17,"name":"Uncletopia | San Francisco | 1 | All Maps","name_short":"sfo-1","host":"sfo-1.us.uncletopia.com","port":27015,"enabled":true,"region":"us-west","cc":"us","latitude":37.77397,"longitude":-122.4313,"reserved":0,"last_update":"0001-01-01T00:00:00Z","name_a2s":"Uncletopia | San Francisco | 1 | All Maps","protocol":17,"map":"pl_snowycoast","folder":"tf","game":"Team Fortress","app_id":440,"player_count":0,"max_players":24,"Bots":0,"server_type":"Dedicated","server_os":"Linux","password":true,"vac":true,"version":"7961495","steam_id":85568392924469999,"keywords":["nocrits","nodmgspread","payload","uncletopia"],"game_id":440,"stv_port":27016,"stv_name":"Uncletopia | San Francisco | 1 | All Maps | STV","players":null},{"server_id":18,"name":"Uncletopia | San Francisco | 2 | All Maps","name_short":"sfo-2","host":"sfo-1.us.uncletopia.com","port":27025,"enabled":true,"region":"us-west","cc":"us","latitude":37.77397,"longitude":-122.4313,"reserved":0,"last_update":"0001-01-01T00:00:00Z","name_a2s":"Uncletopia | San Francisco | 2 | All Maps","protocol":17,"map":"koth_highpass","folder":"tf","game":"Team Fortress","app_id":440,"player_count":0,"max_players":24,"Bots":0,"server_type":"Dedicated","server_os":"Linux","password":true,"vac":true,"version":"7961495","steam_id":85568392924470000,"keywords":["cp","nocrits","nodmgspread","uncletopia"],"game_id":440,"stv_port":27026,"stv_name":"Uncletopia | San Francisco | 2 | All Maps | STV","players":null},{"server_id":19,"name":"Uncletopia | San Francisco | 3 | Stopwatch Beta","name_short":"sfo-3","host":"sfo-1.us.uncletopia.com","port":27035,"enabled":true,"region":"us-west","cc":"us","latitude":37.77397,"longitude":-122.4313,"reserved":0,"last_update":"0001-01-01T00:00:00Z","name_a2s":"Uncletopia | San Francisco | 3 | Stopwatch Beta","protocol":17,"map":"pl_borneo","folder":"tf","game":"Team Fortress","app_id":440,"player_count":0,"max_players":24,"Bots":0,"server_type":"Dedicated","server_os":"Linux","password":true,"vac":true,"version":"7961495","steam_id":85568392924742824,"keywords":["nocrits","nodmgspread","payload","uncletopia"],"game_id":440,"stv_port":27036,"stv_name":"Uncletopia | San Francisco | 3 | Stopwatch Beta | STV","players":null},{"server_id":20,"name":"Uncletopia | San Francisco | 4 | Community","name_short":"sfo-4","host":"sfo-1.us.uncletopia.com","port":27045,"enabled":true,"region":"us-west","cc":"us","latitude":37.77397,"longitude":-122.4313,"reserved":0,"last_update":"0001-01-01T00:00:00Z","name_a2s":"Uncletopia | San Francisco | 4 | Community","protocol":17,"map":"koth_viaduct","folder":"tf","game":"Team Fortress","app_id":440,"player_count":0,"max_players":24,"Bots":0,"server_type":"Dedicated","server_os":"Linux","password":true,"vac":true,"version":"7961495","steam_id":85568392924742826,"keywords":["cp","nocrits","nodmgspread","uncletopia"],"game_id":440,"stv_port":27046,"stv_name":"Uncletopia | San Francisco | 4 | Community | STV","players":null},{"server_id":141,"name":"Uncletopia | Sydney | 1 | All Maps","name_short":"syd-1","host":"syd-1.au.uncletopia.com","port":27015,"enabled":true,"region":"au","cc":"au","latitude":-33.865143,"longitude":151.2099,"reserved":0,"last_update":"0001-01-01T00:00:00Z","name_a2s":"Uncletopia | Sydney | 1 | All Maps","protocol":17,"map":"cp_altitude","folder":"tf","game":"Team Fortress","app_id":440,"player_count":0,"max_players":24,"Bots":0,"server_type":"Dedicated","server_os":"Linux","password":true,"vac":true,"version":"7961495","steam_id":85568392924470001,"keywords":["cp","nocrits","nodmgspread","uncletopia"],"game_id":440,"stv_port":27016,"stv_name":"Uncletopia | Sydney | 1 | All Maps | STV","players":null},{"server_id":123,"name":"Uncletopia | Sydney | 2 | All Maps","name_short":"syd-2","host":"syd-1.au.uncletopia.com","port":27025,"enabled":true,"region":"au","cc":"au","latitude":-33.865143,"longitude":151.2099,"reserved":0,"last_update":"0001-01-01T00:00:00Z","name_a2s":"Uncletopia | Sydney | 2 | All Maps","protocol":17,"map":"pl_snowycoast","folder":"tf","game":"Team Fortress","app_id":440,"player_count":0,"max_players":24,"Bots":0,"server_type":"Dedicated","server_os":"Linux","password":true,"vac":true,"version":"7961495","steam_id":85568392924470002,"keywords":["nocrits","nodmgspread","payload","uncletopia"],"game_id":440,"stv_port":27026,"stv_name":"Uncletopia | Sydney | 2 | All Maps | STV","players":null},{"server_id":395,"name":"Uncletopia | Sydney | 3 | All Maps","name_short":"syd-3","host":"syd-1.au.uncletopia.com","port":27035,"enabled":true,"region":"au","cc":"au","latitude":-33.865143,"longitude":151.2099,"reserved":0,"last_update":"0001-01-01T00:00:00Z","name_a2s":"Uncletopia | Sydney | 3 | All Maps","protocol":17,"map":"koth_viaduct","folder":"tf","game":"Team Fortress","app_id":440,"player_count":0,"max_players":24,"Bots":0,"server_type":"Dedicated","server_os":"Linux","password":true,"vac":true,"version":"7961495","steam_id":85568392925194467,"keywords":["cp","nocrits","nodmgspread","uncletopia"],"game_id":440,"stv_port":27036,"stv_name":"Uncletopia | Sydney | 3 | All Maps | STV","players":null},{"server_id":396,"name":"Uncletopia | Sydney | 4 | All Maps","name_short":"syd-4","host":"syd-1.au.uncletopia.com","port":27045,"enabled":true,"region":"au","cc":"au","latitude":-33.865143,"longitude":151.2099,"reserved":0,"last_update":"0001-01-01T00:00:00Z","name_a2s":"Uncletopia | Sydney | 4 | All Maps","protocol":17,"map":"pl_frontier_final","folder":"tf","game":"Team Fortress","app_id":440,"player_count":0,"max_players":24,"Bots":0,"server_type":"Dedicated","server_os":"Linux","password":true,"vac":true,"version":"7961495","steam_id":85568392925397958,"keywords":["nocrits","nodmgspread","payload","uncletopia"],"game_id":440,"stv_port":27046,"stv_name":"Uncletopia | Sydney | 4 | All Maps | STV","players":null},{"server_id":58,"name":"Uncletopia | Sydney | 5 | Stopwatch Beta","name_short":"syd-5","host":"syd-1.au.uncletopia.com","port":27055,"enabled":true,"region":"au","cc":"au","latitude":-33.865143,"longitude":151.2099,"reserved":0,"last_update":"0001-01-01T00:00:00Z","name_a2s":"Uncletopia | Sydney | 5 | Stopwatch Beta","protocol":17,"map":"koth_viaduct","folder":"tf","game":"Team Fortress","app_id":440,"player_count":0,"max_players":24,"Bots":0,"server_type":"Dedicated","server_os":"Linux","password":true,"vac":true,"version":"7961495","steam_id":85568392925397959,"keywords":["cp","nocrits","nodmgspread","uncletopia"],"game_id":440,"stv_port":27056,"stv_name":"Uncletopia | Sydney | 5 | Stopwatch Beta | STV","players":null},{"server_id":59,"name":"Uncletopia | Sydney | 6 | Community","name_short":"syd-6","host":"syd-1.au.uncletopia.com","port":27065,"enabled":true,"region":"au","cc":"au","latitude":-33.865143,"longitude":151.2099,"reserved":0,"last_update":"0001-01-01T00:00:00Z","name_a2s":"Uncletopia | Sydney | 6 | Community","protocol":17,"map":"koth_cascade","folder":"tf","game":"Team Fortress","app_id":440,"player_count":0,"max_players":24,"Bots":0,"server_type":"Dedicated","server_os":"Linux","password":true,"vac":true,"version":"7961495","steam_id":85568392925397960,"keywords":["cp","nocrits","nodmgspread","uncletopia"],"game_id":440,"stv_port":27066,"stv_name":"Uncletopia | Sydney | 6 | Community | STV","players":null},{"server_id":49,"name":"Uncletopia | Warsaw | 1 | All Maps","name_short":"waw-1","host":"waw-1.pl.uncletopia.com","port":27015,"enabled":true,"region":"eu","cc":"pl","latitude":52.2297,"longitude":21.017532,"reserved":0,"last_update":"0001-01-01T00:00:00Z","name_a2s":"Uncletopia | Warsaw | 1 | All Maps","protocol":17,"map":"pl_borneo","folder":"tf","game":"Team Fortress","app_id":440,"player_count":0,"max_players":24,"Bots":0,"server_type":"Dedicated","server_os":"Linux","password":true,"vac":true,"version":"7961495","steam_id":85568392925397850,"keywords":["nocrits","nodmgspread","payload","uncletopia"],"game_id":440,"stv_port":27016,"stv_name":"Uncletopia | Warsaw | 1 | All Maps | STV","players":null},{"server_id":50,"name":"Uncletopia | Warsaw | 2 | All Maps","name_short":"waw-2","host":"waw-1.pl.uncletopia.com","port":27025,"enabled":true,"region":"eu","cc":"pl","latitude":52.2297,"longitude":21.017532,"reserved":0,"last_update":"0001-01-01T00:00:00Z","name_a2s":"Uncletopia | Warsaw | 2 | All Maps","protocol":17,"map":"koth_viaduct","folder":"tf","game":"Team Fortress","app_id":440,"player_count":0,"max_players":24,"Bots":0,"server_type":"Dedicated","server_os":"Linux","password":true,"vac":true,"version":"7961495","steam_id":85568392925397851,"keywords":["cp","nocrits","nodmgspread","uncletopia"],"game_id":440,"stv_port":27026,"stv_name":"Uncletopia | Warsaw | 2 | All Maps | STV","players":null},{"server_id":51,"name":"Uncletopia | Warsaw | 3 | All Maps","name_short":"waw-3","host":"waw-1.pl.uncletopia.com","port":27035,"enabled":true,"region":"eu","cc":"pl","latitude":52.2297,"longitude":21.017532,"reserved":0,"last_update":"0001-01-01T00:00:00Z","name_a2s":"Uncletopia | Warsaw | 3 | All Maps","protocol":17,"map":"koth_viaduct","folder":"tf","game":"Team Fortress","app_id":440,"player_count":0,"max_players":24,"Bots":0,"server_type":"Dedicated","server_os":"Linux","password":true,"vac":true,"version":"7961495","steam_id":85568392925397852,"keywords":["cp","nocrits","nodmgspread","uncletopia"],"game_id":440,"stv_port":27036,"stv_name":"Uncletopia | Warsaw | 3 | All Maps | STV","players":null},{"server_id":52,"name":"Uncletopia | Warsaw | 4 | All Maps","name_short":"waw-4","host":"waw-1.pl.uncletopia.com","port":27045,"enabled":true,"region":"eu","cc":"pl","latitude":52.2297,"longitude":21.017532,"reserved":0,"last_update":"0001-01-01T00:00:00Z","name_a2s":"Uncletopia | Warsaw | 4 | All Maps","protocol":17,"map":"pl_swiftwater_final1","folder":"tf","game":"Team Fortress","app_id":440,"player_count":0,"max_players":24,"Bots":0,"server_type":"Dedicated","server_os":"Linux","password":true,"vac":true,"version":"7961495","steam_id":85568392925397853,"keywords":["nocrits","nodmgspread","payload","uncletopia"],"game_id":440,"stv_port":27046,"stv_name":"Uncletopia | Warsaw | 4 | All Maps | STV","players":null},{"server_id":53,"name":"Uncletopia | Warsaw | 5 | Stopwatch Beta","name_short":"waw-5","host":"waw-1.pl.uncletopia.com","port":27055,"enabled":true,"region":"eu","cc":"pl","latitude":52.2297,"longitude":21.017532,"reserved":0,"last_update":"0001-01-01T00:00:00Z","name_a2s":"Uncletopia | Warsaw | 5 | Stopwatch Beta","protocol":17,"map":"workshop/koth_ramjam_rc1.ugc459778887","folder":"tf","game":"Team Fortress","app_id":440,"player_count":0,"max_players":24,"Bots":0,"server_type":"Dedicated","server_os":"Linux","password":true,"vac":true,"version":"7961495","steam_id":85568392925397854,"keywords":["cp","nocrits","nodmgspread","uncletopia"],"game_id":440,"stv_port":27056,"stv_name":"Uncletopia | Warsaw | 5 | Stopwatch Beta | STV","players":null},{"server_id":54,"name":"Uncletopia | Warsaw | 6 | Community","name_short":"waw-6","host":"waw-1.pl.uncletopia.com","port":27065,"enabled":true,"region":"eu","cc":"pl","latitude":52.2297,"longitude":21.017532,"reserved":0,"last_update":"0001-01-01T00:00:00Z","name_a2s":"Uncletopia | Warsaw | 6 | Community","protocol":17,"map":"workshop/pl_vigil_rc9.ugc1266210012","folder":"tf","game":"Team Fortress","app_id":440,"player_count":0,"max_players":24,"Bots":0,"server_type":"Dedicated","server_os":"Linux","password":true,"vac":true,"version":"7961495","steam_id":85568392925397856,"keywords":["nocrits","nodmgspread","payload","uncletopia"],"game_id":440,"stv_port":27066,"stv_name":"Uncletopia | Warsaw | 6 | Community | STV","players":null}]}