{"status":true,"message":"","result":[{"server_id":9,"name":"Uncletopia | Atlanta | 1 | All Maps","name_short":"atl-1","host":"atl-1.us.uncletopia.com","port":27015,"enabled":true,"region":"us-east","cc":"us","latitude":33.753746,"longitude":-84.38633,"reserved":0,"last_update":"0001-01-01T00:00:00Z","name_a2s":"Uncletopia | Atlanta | 1 | All Maps","protocol":17,"map":"cp_snakewater_final1","folder":"tf","game":"Team Fortress","app_id":440,"player_count":19,"max_players":24,"Bots":0,"server_type":"Dedicated","server_os":"Linux","password":true,"vac":true,"version":"7932396","steam_id":85568392924469982,"keywords":["cp","nocrits","nodmgspread","uncletopia"],"game_id":440,"stv_port":27016,"stv_name":"Uncletopia | Atlanta | 1 | All Maps | STV","players":[{"user_id":306,"name":"Yo Yo Irish Joe","steam_id":76561198374930532,"connected_time":9000000000,"state":"spawning","ping":123},{"user_id":299,"name":"Emmanuel McCoy","steam_id":76561198077260966,"connected_time":105000000000,"state":"active","ping":114},{"user_id":288,"name":"❀TheFlyingSpaghettiMonster❀","steam_id":76561198094145477,"connected_time":420000000000,"state":"active","ping":77},{"user_id":298,"name":"Axel Beoulve","steam_id":76561198126511231,"connected_time":161000000000,"state":"active","ping":161},{"user_id":285,"name":"Hey","steam_id":76561198447517893,"connected_time":871000000000,"state":"active","ping":94},{"user_id":289,"name":"Chef","steam_id":76561198086523798,"connected_time":396000000000,"state":"active","ping":70},{"user_id":290,"name":"mayoratheone","steam_id":76561199013353434,"connected_time":366000000000,"state":"active","ping":143},{"user_id":291,"name":"Horse","steam_id":76561198004583631,"connected_time":354000000000,"state":"active","ping":118},{"user_id":292,"name":"Squid1562","steam_id":76561198090861689,"connected_time":336000000000,"state":"active","ping":109},{"user_id":293,"name":"igotswag.com","steam_id":76561198083851689,"connected_time":326000000000,"state":"active","ping":78},{"user_id":174,"name":"Lucide","steam_id":76561197998530400,"connected_time":4174000000000,"state":"active","ping":129},{"user_id":294,"name":"lost in spaaaaace","steam_id":76561199085974120,"connected_time":317000000000,"state":"active","ping":108},{"user_id":276,"name":"The Milkman #DefendHomeDepot","steam_id":76561199387783793,"connected_time":1122000000000,"state":"active","ping":119},{"user_id":197,"name":"dark souls boss","steam_id":76561198316610724,"connected_time":3422000000000,"state":"active","ping":123},{"user_id":295,"name":"mr.edderkopper","steam_id":76561198152614478,"connected_time":205000000000,"state":"active","ping":100},{"user_id":304,"name":"Null | Crack Clan","steam_id":76561198895762836,"connected_time":20000000000,"state":"active","ping":232},{"user_id":301,"name":"RoboWarrior0410a","steam_id":76561199106531261,"connected_time":52000000000,"state":"active","ping":85},{"user_id":198,"name":"ThinkingMonk112","steam_id":76561198432516310,"connected_time":3397000000000,"state":"active","ping":92},{"user_id":305,"name":"The_RainbowTrout","steam_id":76561199309554436,"connected_time":12000000000,"state":"spawning","ping":136}]},{"server_id":104,"name":"Uncletopia | Atlanta | 2 | All Maps","name_short":"atl-2","host":"atl-1.us.uncletopia.com","port":27025,"enabled":true,"region":"us-east","cc":"us","latitude":33.753746,"longitude":-84.38633,"reserved":0,"last_update":"0001-01-01T00:00:00Z","name_a2s":"Uncletopia | Atlanta | 2 | All Maps","protocol":17,"map":"pl_barnblitz","folder":"tf","game":"Team Fortress","app_id":440,"player_count":17,"max_players":24,"Bots":0,"server_type":"Dedicated","server_os":"Linux","password":true,"vac":true,"version":"7932396","steam_id":85568392924469983,"keywords":["nocrits","nodmgspread","payload","uncletopia"],"game_id":440,"stv_port":27026,"stv_name":"Uncletopia | Atlanta | 2 | All Maps | STV","players":[{"user_id":165,"name":"Muffin","steam_id":76561199156302434,"connected_time":382000000000,"state":"active","ping":103},{"user_id":155,"name":"MjrMovnTARGET","steam_id":76561199125908849,"connected_time":548000000000,"state":"active","ping":88},{"user_id":179,"name":"Cousin Balki","steam_id":76561198070496395,"connected_time":58000000000,"state":"active","ping":112},{"user_id":171,"name":"SoupyCoopey","steam_id":76561198300785543,"connected_time":268000000000,"state":"active","ping":111},{"user_id":180,"name":"BlindingLight","steam_id":76561198289560742,"connected_time":56000000000,"state":"active","ping":100},{"user_id":111,"name":"Viennetta","steam_id":76561198044088335,"connected_time":1198000000000,"state":"active","ping":89},{"user_id":121,"name":"IT Guy","steam_id":76561198071790583,"connected_time":1088000000000,"state":"active","ping":70},{"user_id":166,"name":"Demonica","steam_id":76561198841858340,"connected_time":367000000000,"state":"active","ping":124},{"user_id":113,"name":"thai","steam_id":76561198052462287,"connected_time":1181000000000,"state":"active","ping":136},{"user_id":162,"name":"Prestoneon003","steam_id":76561198348279581,"connected_time":445000000000,"state":"active","ping":68},{"user_id":173,"name":"Angelripper","steam_id":76561198858392741,"connected_time":256000000000,"state":"active","ping":127},{"user_id":137,"name":"DaMultiversalist","steam_id":76561198239552412,"connected_time":814000000000,"state":"active","ping":105},{"user_id":182,"name":"Wumbologist","steam_id":76561198188729514,"connected_time":20000000000,"state":"spawning","ping":98},{"user_id":125,"name":"Bleok -???-","steam_id":76561198078212322,"connected_time":1036000000000,"state":"active","ping":147},{"user_id":167,"name":"MantisToboggan","steam_id":76561197969447887,"connected_time":359000000000,"state":"active","ping":190},{"user_id":158,"name":"Grentac","steam_id":76561198140435841,"connected_time":542000000000,"state":"active","ping":80},{"user_id":168,"name":"soof","steam_id":76561198043762955,"connected_time":358000000000,"state":"active","ping":91}]},{"server_id":400,"name":"Uncletopia | Atlanta | 3 | Community","name_short":"atl-3","host":"atl-1.us.uncletopia.com","port":27035,"enabled":true,"region":"us-east","cc":"us","latitude":33.753746,"longitude":-84.38633,"reserved":0,"last_update":"0001-01-01T00:00:00Z","name_a2s":"Uncletopia | Atlanta | 3 | Community","protocol":17,"map":"workshop/pl_divulgence_b4b.ugc2884808746","folder":"tf","game":"Team Fortress","app_id":440,"player_count":0,"max_players":24,"Bots":0,"server_type":"Dedicated","server_os":"Linux","password":true,"vac":true,"version":"7932396","steam_id":85568392924515187,"keywords":["nocrits","nodmgspread","payload","uncletopia"],"game_id":440,"stv_port":27036,"stv_name":"Uncletopia | Atlanta | 3 | Community | STV","players":null},{"server_id":401,"name":"Uncletopia | Atlanta | 4 | No Payload","name_short":"atl-4","host":"atl-1.us.uncletopia.com","port":27045,"enabled":true,"region":"us-east","cc":"us","latitude":33.753746,"longitude":-84.38633,"reserved":0,"last_update":"0001-01-01T00:00:00Z","name_a2s":"","protocol":0,"map":"","folder":"","game":"","app_id":0,"player_count":0,"max_players":0,"Bots":0,"server_type":"","server_os":"","password":false,"vac":false,"version":"","steam_id":0,"keywords":null,"game_id":0,"stv_port":0,"stv_name":"","players":null},{"server_id":2,"name":"Uncletopia | Chicago | 1 | All Maps","name_short":"chi-1","host":"chi-1.us.uncletopia.com","port":27015,"enabled":true,"region":"us-central","cc":"us","latitude":41.881832,"longitude":-87.62318,"reserved":0,"last_update":"0001-01-01T00:00:00Z","name_a2s":"Uncletopia | Chicago | 1 | All Maps","protocol":17,"map":"pl_frontier_final","folder":"tf","game":"Team Fortress","app_id":440,"player_count":24,"max_players":24,"Bots":0,"server_type":"Dedicated","server_os":"Linux","password":true,"vac":true,"version":"7932396","steam_id":85568392924469984,"keywords":["nocrits","nodmgspread","payload","uncletopia"],"game_id":440,"stv_port":27016,"stv_name":"Uncletopia | Chicago | 1 | All Maps | STV","players":[{"user_id":209,"name":"swaggdood","steam_id":76561198076173018,"connected_time":2282000000000,"state":"active","ping":91},{"user_id":203,"name":"Adam (Cursed Confetti Creature)","steam_id":76561198317690197,"connected_time":2793000000000,"state":"active","ping":41},{"user_id":211,"name":"Maverick","steam_id":76561198322829814,"connected_time":1841000000000,"state":"active","ping":77},{"user_id":231,"name":"Testimony","steam_id":76561198151363063,"connected_time":602000000000,"state":"active","ping":59},{"user_id":158,"name":"Artemy Burakh (FASTING)","steam_id":76561198257038275,"connected_time":5323000000000,"state":"active","ping":79},{"user_id":227,"name":"blushcolors","steam_id":76561198382326295,"connected_time":730000000000,"state":"active","ping":77},{"user_id":225,"name":"PyroEagle","steam_id":76561198296434231,"connected_time":777000000000,"state":"active","ping":69},{"user_id":217,"name":"fish man","steam_id":76561198085668153,"connected_time":1049000000000,"state":"active","ping":126},{"user_id":228,"name":"incredirocks","steam_id":76561198061079993,"connected_time":691000000000,"state":"active","ping":51},{"user_id":213,"name":"Spygie","steam_id":76561198218573049,"connected_time":1453000000000,"state":"active","ping":53},{"user_id":230,"name":"richard clock","steam_id":76561198048455671,"connected_time":604000000000,"state":"active","ping":58},{"user_id":156,"name":"Admiral Crumbs (Fasting)","steam_id":76561198108791583,"connected_time":5327000000000,"state":"active","ping":62},{"user_id":229,"name":"StevieNicholai","steam_id":76561198327310266,"connected_time":678000000000,"state":"active","ping":60},{"user_id":216,"name":"sneakyboy32","steam_id":76561198341537452,"connected_time":1060000000000,"state":"active","ping":76},{"user_id":221,"name":"Alexgo","steam_id":76561198044430542,"connected_time":1034000000000,"state":"active","ping":98},{"user_id":219,"name":"McGangBang","steam_id":76561198862379865,"connected_time":1041000000000,"state":"active","ping":52},{"user_id":200,"name":"burdllomu (no vac/buy lollichop","steam_id":76561199142477846,"connected_time":2920000000000,"state":"active","ping":116},{"user_id":185,"name":"Sneaky_Tank","steam_id":76561198078814793,"connected_time":4111000000000,"state":"active","ping":56},{"user_id":220,"name":"AYAYA!!!","steam_id":76561198992102180,"connected_time":1038000000000,"state":"active","ping":47},{"user_id":215,"name":"vince","steam_id":76561198054144974,"connected_time":1115000000000,"state":"active","ping":81},{"user_id":168,"name":"Takyon","steam_id":76561198240014196,"connected_time":5122000000000,"state":"active","ping":102},{"user_id":208,"name":"Lia_Rein","steam_id":76561198151569597,"connected_time":2493000000000,"state":"active","ping":148},{"user_id":223,"name":"Tylody (fasting)","steam_id":76561198229690552,"connected_time":1013000000000,"state":"active","ping":103},{"user_id":188,"name":"Space","steam_id":76561198350489754,"connected_time":3954000000000,"state":"active","ping":52}]},{"server_id":106,"name":"Uncletopia | Chicago | 2 | All Maps","name_short":"chi-2","host":"chi-1.us.uncletopia.com","port":27025,"enabled":true,"region":"us-central","cc":"us","latitude":41.881832,"longitude":-87.62318,"reserved":0,"last_update":"0001-01-01T00:00:00Z","name_a2s":"Uncletopia | Chicago | 2 | All Maps","protocol":17,"map":"pl_snowycoast","folder":"tf","game":"Team Fortress","app_id":440,"player_count":24,"max_players":24,"Bots":0,"server_type":"Dedicated","server_os":"Linux","password":true,"vac":true,"version":"7932396","steam_id":85568392924469985,"keywords":["nocrits","nodmgspread","payload","uncletopia"],"game_id":440,"stv_port":27026,"stv_name":"Uncletopia | Chicago | 2 | All Maps | STV","players":[{"user_id":191,"name":"Big Daddy's Worst Nightmare","steam_id":76561198087155304,"connected_time":907000000000,"state":"active","ping":64},{"user_id":196,"name":"Mr. Cheesey","steam_id":76561198153462183,"connected_time":786000000000,"state":"active","ping":56},{"user_id":194,"name":"Tophu","steam_id":76561198380229671,"connected_time":797000000000,"state":"active","ping":64},{"user_id":203,"name":"Mattron1","steam_id":76561198012270524,"connected_time":256000000000,"state":"active","ping":91},{"user_id":164,"name":"-π- BakaD","steam_id":76561197960559169,"connected_time":3311000000000,"state":"active","ping":55},{"user_id":107,"name":"Killroy NQP ❤","steam_id":76561198006983771,"connected_time":7871000000000,"state":"active","ping":79},{"user_id":195,"name":"fapasaurusrex","steam_id":76561197994951255,"connected_time":791000000000,"state":"active","ping":42},{"user_id":199,"name":"gravid baby","steam_id":76561198318646867,"connected_time":559000000000,"state":"active","ping":58},{"user_id":189,"name":"illsian","steam_id":76561198005722077,"connected_time":1080000000000,"state":"active","ping":81},{"user_id":115,"name":"beefmachine","steam_id":76561198001196512,"connected_time":7231000000000,"state":"active","ping":60},{"user_id":201,"name":"BrendenMad","steam_id":76561198031250581,"connected_time":339000000000,"state":"active","ping":55},{"user_id":200,"name":"CoconutNeutral","steam_id":76561198277110108,"connected_time":524000000000,"state":"active","ping":83},{"user_id":205,"name":"FHC | Nyle","steam_id":76561198045652639,"connected_time":103000000000,"state":"active","ping":128},{"user_id":177,"name":"Letters","steam_id":76561198035508148,"connected_time":1883000000000,"state":"active","ping":102},{"user_id":146,"name":"Sunfly","steam_id":76561198034307439,"connected_time":5234000000000,"state":"active","ping":39},{"user_id":202,"name":"Hadvar","steam_id":76561198081681234,"connected_time":281000000000,"state":"active","ping":81},{"user_id":159,"name":"TheGuyWhoPlays","steam_id":76561198277363002,"connected_time":4525000000000,"state":"active","ping":60},{"user_id":67,"name":"bachphong760","steam_id":76561199433780443,"connected_time":10377000000000,"state":"active","ping":98},{"user_id":192,"name":"innhaagen","steam_id":76561198835382385,"connected_time":866000000000,"state":"active","ping":89},{"user_id":109,"name":"LordGandalf23","steam_id":76561198086928298,"connected_time":7717000000000,"state":"active","ping":89},{"user_id":190,"name":"Lil' Diabeetus","steam_id":76561198330119627,"connected_time":957000000000,"state":"active","ping":76},{"user_id":176,"name":"HOTA","steam_id":76561199002778841,"connected_time":2000000000000,"state":"active","ping":78},{"user_id":174,"name":"Gaiduk","steam_id":76561198112323877,"connected_time":2398000000000,"state":"active","ping":76},{"user_id":197,"name":"Lynx","steam_id":76561198322363286,"connected_time":786000000000,"state":"active","ping":77}]},{"server_id":402,"name":"Uncletopia | Chicago | 3 | All Maps","name_short":"chi-3","host":"chi-1.us.uncletopia.com","port":27035,"enabled":true,"region":"us-central","cc":"us","latitude":41.881832,"longitude":-87.62318,"reserved":0,"last_update":"0001-01-01T00:00:00Z","name_a2s":"Uncletopia | Chicago | 3 | All Maps","protocol":17,"map":"pl_borneo","folder":"tf","game":"Team Fortress","app_id":440,"player_count":23,"max_players":24,"Bots":0,"server_type":"Dedicated","server_os":"Linux","password":true,"vac":true,"version":"7932396","steam_id":85568392924515191,"keywords":["nocrits","nodmgspread","payload","uncletopia"],"game_id":440,"stv_port":27036,"stv_name":"Uncletopia | Chicago | 3 | All Maps | STV","players":[{"user_id":599,"name":"Try Gardening","steam_id":76561198120311340,"connected_time":812000000000,"state":"active","ping":43},{"user_id":552,"name":"Wild_Rumpus","steam_id":76561198066393719,"connected_time":2748000000000,"state":"active","ping":51},{"user_id":589,"name":"Walrusto","steam_id":76561198829644616,"connected_time":1320000000000,"state":"active","ping":71},{"user_id":605,"name":"The Domb Loid","steam_id":76561198295791203,"connected_time":159000000000,"state":"active","ping":51},{"user_id":600,"name":"Boomer Gaming","steam_id":76561198037803087,"connected_time":749000000000,"state":"active","ping":63},{"user_id":509,"name":"Norman","steam_id":76561198154715990,"connected_time":5418000000000,"state":"active","ping":91},{"user_id":575,"name":"Sariff","steam_id":76561198136446352,"connected_time":2082000000000,"state":"active","ping":52},{"user_id":580,"name":"GUP SUPERFAN.!! ツ","steam_id":76561198196769297,"connected_time":1699000000000,"state":"active","ping":60},{"user_id":582,"name":"PigPig","steam_id":76561198068190834,"connected_time":1663000000000,"state":"active","ping":103},{"user_id":606,"name":"Jezzus","steam_id":76561199289676387,"connected_time":15000000000,"state":"spawning","ping":94},{"user_id":512,"name":"JDM Street Cred","steam_id":76561198033035560,"connected_time":5256000000000,"state":"active","ping":61},{"user_id":598,"name":"sheep man shaun","steam_id":76561198994349483,"connected_time":868000000000,"state":"active","ping":95},{"user_id":590,"name":"OWEENIE","steam_id":76561198083135927,"connected_time":1245000000000,"state":"active","ping":44},{"user_id":587,"name":"frostedflakes99","steam_id":76561199049292578,"connected_time":1425000000000,"state":"active","ping":104},{"user_id":559,"name":"Tree45","steam_id":76561198143698408,"connected_time":2661000000000,"state":"active","ping":68},{"user_id":586,"name":"AdorableMew","steam_id":76561198186706405,"connected_time":1530000000000,"state":"active","ping":70},{"user_id":603,"name":"Prog Rug","steam_id":76561197998665860,"connected_time":275000000000,"state":"active","ping":45},{"user_id":569,"name":"taka","steam_id":76561198117237068,"connected_time":2381000000000,"state":"active","ping":71},{"user_id":595,"name":"MTGbigdog","steam_id":76561198838760637,"connected_time":1041000000000,"state":"active","ping":77},{"user_id":577,"name":"SackOfPotatoes","steam_id":76561198799020069,"connected_time":2050000000000,"state":"active","ping":73},{"user_id":607,"name":"Shady Businessman","steam_id":76561198143855968,"connected_time":3000000000,"state":"spawning","ping":67},{"user_id":585,"name":"Cawa","steam_id":76561198208782225,"connected_time":1632000000000,"state":"active","ping":65},{"user_id":597,"name":"saint martin","steam_id":76561198173047169,"connected_time":950000000000,"state":"active","ping":60}]},{"server_id":403,"name":"Uncletopia | Chicago | 4 | All Maps","name_short":"chi-4","host":"chi-1.us.uncletopia.com","port":27045,"enabled":true,"region":"us-central","cc":"us","latitude":41.881832,"longitude":-87.62318,"reserved":0,"last_update":"0001-01-01T00:00:00Z","name_a2s":"Uncletopia | Chicago | 4 | All Maps","protocol":17,"map":"pl_frontier_final","folder":"tf","game":"Team Fortress","app_id":440,"player_count":23,"max_players":24,"Bots":0,"server_type":"Dedicated","server_os":"Linux","password":true,"vac":true,"version":"7932396","steam_id":85568392924515193,"keywords":["nocrits","nodmgspread","payload","uncletopia"],"game_id":440,"stv_port":27046,"stv_name":"Uncletopia | Chicago | 4 | All Maps | STV","players":[{"user_id":270,"name":"nhbiker","steam_id":76561198081277675,"connected_time":2187000000000,"state":"active","ping":48},{"user_id":306,"name":"WitchKing999","steam_id":76561198338154458,"connected_time":534000000000,"state":"active","ping":58},{"user_id":312,"name":"BobRossDaMobBoss","steam_id":76561198799262066,"connected_time":73000000000,"state":"active","ping":80},{"user_id":313,"name":"the real big sips","steam_id":76561197999945358,"connected_time":61000000000,"state":"active","ping":60},{"user_id":290,"name":"Speedsterboom","steam_id":76561198159807287,"connected_time":946000000000,"state":"active","ping":73},{"user_id":310,"name":"Hamzom","steam_id":76561198335474854,"connected_time":294000000000,"state":"active","ping":75},{"user_id":234,"name":"reis","steam_id":76561199232952016,"connected_time":4694000000000,"state":"active","ping":181},{"user_id":263,"name":"Haveltherock27","steam_id":76561199219844391,"connected_time":2406000000000,"state":"active","ping":106},{"user_id":294,"name":"RarestGuide","steam_id":76561198050338923,"connected_time":913000000000,"state":"active","ping":72},{"user_id":302,"name":"Spamジャム","steam_id":76561198070733498,"connected_time":601000000000,"state":"active","ping":80},{"user_id":305,"name":"Daddy Topps","steam_id":76561198203594332,"connected_time":551000000000,"state":"active","ping":91},{"user_id":289,"name":"IRS Spec Ops","steam_id":76561198129148160,"connected_time":952000000000,"state":"active","ping":64},{"user_id":218,"name":"brains","steam_id":76561198197388678,"connected_time":6293000000000,"state":"active","ping":76},{"user_id":276,"name":"Also Known As Assteeth","steam_id":76561198049837377,"connected_time":1529000000000,"state":"active","ping":51},{"user_id":267,"name":"[DATS➡] Sugar Meowth","steam_id":76561197995251793,"connected_time":2362000000000,"state":"active","ping":80},{"user_id":315,"name":"Sychke","steam_id":76561198067144055,"connected_time":27000000000,"state":"active","ping":45},{"user_id":292,"name":"toastman","steam_id":76561198207073088,"connected_time":923000000000,"state":"active","ping":86},{"user_id":160,"name":"YoursTruely","steam_id":76561198072129131,"connected_time":10975000000000,"state":"active","ping":82},{"user_id":317,"name":"Samurai JackOff","steam_id":76561198165160011,"connected_time":0,"state":"connecting","ping":0},{"user_id":314,"name":"DonoC","steam_id":76561198274473338,"connected_time":53000000000,"state":"active","ping":83},{"user_id":300,"name":"TheSnipersHat","steam_id":76561198057684066,"connected_time":836000000000,"state":"active","ping":47},{"user_id":309,"name":"PheebsyDeebsy","steam_id":76561198101509436,"connected_time":473000000000,"state":"active","ping":94},{"user_id":280,"name":"welp","steam_id":76561199378725225,"connected_time":1482000000000,"state":"active","ping":103}]},{"server_id":36,"name":"Uncletopia | Chicago | 5 | All Maps","name_short":"chi-5","host":"chi-2.us.uncletopia.com","port":27015,"enabled":true,"region":"us-central","cc":"us","latitude":41.881832,"longitude":-87.62318,"reserved":0,"last_update":"0001-01-01T00:00:00Z","name_a2s":"Uncletopia | Chicago | 5 | All Maps","protocol":17,"map":"koth_sawmill","folder":"tf","game":"Team Fortress","app_id":440,"player_count":24,"max_players":24,"Bots":0,"server_type":"Dedicated","server_os":"Linux","password":true,"vac":true,"version":"7932396","steam_id":85568392924866362,"keywords":["cp","nocrits","nodmgspread","uncletopia"],"game_id":440,"stv_port":27016,"stv_name":"Uncletopia | Chicago | 5 | All Maps | STV","players":[{"user_id":221,"name":"moe","steam_id":76561198929586245,"connected_time":3542000000000,"state":"active","ping":102},{"user_id":228,"name":"Retro Phoenix","steam_id":76561198077176271,"connected_time":2746000000000,"state":"active","ping":56},{"user_id":196,"name":"The GrillMaster","steam_id":76561199088154401,"connected_time":6844000000000,"state":"active","ping":64},{"user_id":245,"name":"berserker_tf2 yt","steam_id":76561198303464488,"connected_time":1330000000000,"state":"active","ping":48},{"user_id":256,"name":"The local hobo","steam_id":76561198289650060,"connected_time":313000000000,"state":"active","ping":81},{"user_id":147,"name":"Versuski","steam_id":76561198085193084,"connected_time":9647000000000,"state":"active","ping":67},{"user_id":220,"name":"TheSnoringAki","steam_id":76561199049120809,"connected_time":3550000000000,"state":"active","ping":87},{"user_id":242,"name":"François Viète","steam_id":76561198072975518,"connected_time":1362000000000,"state":"active","ping":71},{"user_id":251,"name":"Crunchy","steam_id":76561198060342804,"connected_time":620000000000,"state":"active","ping":70},{"user_id":214,"name":"ShellBug","steam_id":76561198144187527,"connected_time":4466000000000,"state":"active","ping":68},{"user_id":205,"name":"Monolith Soldier","steam_id":76561198171898155,"connected_time":6330000000000,"state":"active","ping":59},{"user_id":185,"name":"Casual Costanza","steam_id":76561198024409325,"connected_time":8076000000000,"state":"active","ping":64},{"user_id":240,"name":"imng","steam_id":76561198014988031,"connected_time":1726000000000,"state":"active","ping":69},{"user_id":239,"name":"Daperlin (Hybrid Theory)","steam_id":76561198091299113,"connected_time":1793000000000,"state":"active","ping":92},{"user_id":246,"name":"Sprucelass","steam_id":76561197998391724,"connected_time":1318000000000,"state":"active","ping":73},{"user_id":219,"name":"Mr.Crabapples","steam_id":76561199082148884,"connected_time":3579000000000,"state":"active","ping":115},{"user_id":237,"name":"Dead_Stranger","steam_id":76561198120804563,"connected_time":1841000000000,"state":"active","ping":88},{"user_id":247,"name":"ADRIEN BRODY","steam_id":76561198009299473,"connected_time":1318000000000,"state":"active","ping":68},{"user_id":249,"name":"ThatGamingKiwi","steam_id":76561199170522237,"connected_time":1192000000000,"state":"active","ping":76},{"user_id":257,"name":"ඞ#savetf2","steam_id":76561198432226673,"connected_time":156000000000,"state":"active","ping":99},{"user_id":241,"name":"CHAIRMAN MAO GAMING","steam_id":76561198066018972,"connected_time":1558000000000,"state":"active","ping":82},{"user_id":204,"name":"TheSky4lif","steam_id":76561198871331139,"connected_time":6508000000000,"state":"active","ping":74},{"user_id":250,"name":"Blue⛧Melon","steam_id":76561197970926435,"connected_time":1188000000000,"state":"active","ping":76},{"user_id":232,"name":"basil du bois","steam_id":76561198119590214,"connected_time":2500000000000,"state":"active","ping":64}]},{"server_id":37,"name":"Uncletopia | Chicago | 6 | All Maps","name_short":"chi-6","host":"chi-2.us.uncletopia.com","port":27025,"enabled":true,"region":"us-central","cc":"us","latitude":41.881832,"longitude":-87.62318,"reserved":0,"last_update":"0001-01-01T00:00:00Z","name_a2s":"Uncletopia | Chicago | 6 | All Maps","protocol":17,"map":"koth_viaduct","folder":"tf","game":"Team Fortress","app_id":440,"player_count":0,"max_players":24,"Bots":0,"server_type":"Dedicated","server_os":"Linux","password":true,"vac":true,"version":"7932396","steam_id":85568392924866363,"keywords":["cp","nocrits","nodmgspread","uncletopia"],"game_id":440,"stv_port":27026,"stv_name":"Uncletopia | Chicago | 6 | All Maps | STV","players":null},{"server_id":38,"name":"Uncletopia | Chicago | 7 | Stopwatch Beta","name_short":"chi-7","host":"chi-2.us.uncletopia.com","port":27035,"enabled":true,"region":"us-central","cc":"us","latitude":41.881832,"longitude":-87.62318,"reserved":0,"last_update":"0001-01-01T00:00:00Z","name_a2s":"Uncletopia | Chicago | 7 | Stopwatch Beta","protocol":17,"map":"workshop/koth_ashville_final.ugc2130459942","folder":"tf","game":"Team Fortress","app_id":440,"player_count":0,"max_players":24,"Bots":0,"server_type":"Dedicated","server_os":"Linux","password":true,"vac":true,"version":"7932396","steam_id":85568392924866364,"keywords":["cp","nocrits","nodmgspread","uncletopia"],"game_id":440,"stv_port":27036,"stv_name":"Uncletopia | Chicago | 7 | Stopwatch Beta | STV","players":null},{"server_id":39,"name":"Uncletopia | Chicago | 8 | Community","name_short":"chi-8","host":"chi-2.us.uncletopia.com","port":27045,"enabled":true,"region":"us-central","cc":"us","latitude":41.881832,"longitude":-87.62318,"reserved":0,"last_update":"0001-01-01T00:00:00Z","name_a2s":"Uncletopia | Chicago | 8 | Community","protocol":17,"map":"workshop/cp_villa_b19.ugc2113052569","folder":"tf","game":"Team Fortress","app_id":440,"player_count":0,"max_players":24,"Bots":0,"server_type":"Dedicated","server_os":"Linux","password":true,"vac":true,"version":"7932396","steam_id":85568392924866365,"keywords":["cp","nocrits","nodmgspread","uncletopia"],"game_id":440,"stv_port":27046,"stv_name":"Uncletopia | Chicago | 8 | Community | STV","players":null},{"server_id":8,"name":"Uncletopia | Dallas | 1 | All Maps","name_short":"dal-1","host":"dal-1.us.uncletopia.com","port":27015,"enabled":true,"region":"us-central","cc":"us","latitude":32.779167,"longitude":-96.80889,"reserved":0,"last_update":"0001-01-01T00:00:00Z","name_a2s":"Uncletopia | Dallas | 1 | All Maps","protocol":17,"map":"pl_badwater","folder":"tf","game":"Team Fortress","app_id":440,"player_count":24,"max_players":24,"Bots":0,"server_type":"Dedicated","server_os":"Linux","password":true,"vac":true,"version":"7932396","steam_id":85568392924469986,"keywords":["nocrits","nodmgspread","payload","uncletopia"],"game_id":440,"stv_port":27016,"stv_name":"Uncletopia | Dallas | 1 | All Maps | STV","players":[{"user_id":596,"name":"Underscorn","steam_id":76561198374209415,"connected_time":572000000000,"state":"active","ping":57},{"user_id":599,"name":"Maniac9","steam_id":76561197960530967,"connected_time":538000000000,"state":"active","ping":82},{"user_id":606,"name":"Corpse01","steam_id":76561198153671643,"connected_time":473000000000,"state":"active","ping":89},{"user_id":604,"name":"seats","steam_id":76561197998756039,"connected_time":501000000000,"state":"active","ping":71},{"user_id":560,"name":"fernando","steam_id":76561198142586591,"connected_time":3285000000000,"state":"active","ping":60},{"user_id":594,"name":"Insizhen","steam_id":76561198051352605,"connected_time":818000000000,"state":"active","ping":47},{"user_id":586,"name":"Jack from Jack in The Box","steam_id":76561199083594971,"connected_time":1712000000000,"state":"active","ping":66},{"user_id":611,"name":"Town Dweller","steam_id":76561198013735714,"connected_time":16000000000,"state":"spawning","ping":119},{"user_id":610,"name":"albert jones","steam_id":76561198404271005,"connected_time":54000000000,"state":"active","ping":74},{"user_id":597,"name":"TechnoBear2099","steam_id":76561198238863596,"connected_time":568000000000,"state":"active","ping":49},{"user_id":595,"name":"Sahbi","steam_id":76561199196292242,"connected_time":641000000000,"state":"active","ping":63},{"user_id":600,"name":"Kid named download","steam_id":76561199192074448,"connected_time":536000000000,"state":"active","ping":98},{"user_id":584,"name":"bangy","steam_id":76561198043889301,"connected_time":1838000000000,"state":"active","ping":44},{"user_id":605,"name":"Xeno808","steam_id":76561198103758081,"connected_time":475000000000,"state":"active","ping":39},{"user_id":609,"name":"Doggo_Overlord","steam_id":76561198265468015,"connected_time":80000000000,"state":"active","ping":79},{"user_id":608,"name":"thequestion619","steam_id":76561198170181466,"connected_time":314000000000,"state":"active","ping":105},{"user_id":535,"name":"Publo","steam_id":76561198161777140,"connected_time":4591000000000,"state":"active","ping":57},{"user_id":556,"name":"Sup m8","steam_id":76561198081659121,"connected_time":3449000000000,"state":"active","ping":41},{"user_id":533,"name":"Spinch","steam_id":76561198296224166,"connected_time":4723000000000,"state":"active","ping":74},{"user_id":601,"name":"Strangelove","steam_id":76561198353773611,"connected_time":536000000000,"state":"active","ping":101},{"user_id":577,"name":"NoLights!","steam_id":76561197981106761,"connected_time":2438000000000,"state":"active","ping":92},{"user_id":593,"name":"thai tea","steam_id":76561198308290211,"connected_time":962000000000,"state":"active","ping":89},{"user_id":588,"name":"That wasn't milk","steam_id":76561198155294045,"connected_time":1690000000000,"state":"active","ping":108},{"user_id":603,"name":"Sumireko Gaming","steam_id":76561199013422135,"connected_time":522000000000,"state":"active","ping":72}]},{"server_id":108,"name":"Uncletopia | Dallas | 2 | All Maps","name_short":"dal-2","host":"dal-1.us.uncletopia.com","port":27025,"enabled":true,"region":"us-central","cc":"us","latitude":32.779167,"longitude":-96.80889,"reserved":0,"last_update":"0001-01-01T00:00:00Z","name_a2s":"Uncletopia | Dallas | 2 | All Maps","protocol":17,"map":"pl_swiftwater_final1","folder":"tf","game":"Team Fortress","app_id":440,"player_count":24,"max_players":24,"Bots":0,"server_type":"Dedicated","server_os":"Linux","password":true,"vac":true,"version":"7932396","steam_id":85568392924469988,"keywords":["nocrits","nodmgspread","payload","uncletopia"],"game_id":440,"stv_port":27026,"stv_name":"Uncletopia | Dallas | 2 | All Maps | STV","players":[{"user_id":422,"name":"Kirby.exe","steam_id":76561198242714582,"connected_time":2935000000000,"state":"active","ping":66},{"user_id":431,"name":"selvhat","steam_id":76561198114225509,"connected_time":2507000000000,"state":"active","ping":76},{"user_id":382,"name":"Onyx","steam_id":76561198275349640,"connected_time":5033000000000,"state":"active","ping":65},{"user_id":441,"name":"unknowledgeable","steam_id":76561199011185438,"connected_time":2247000000000,"state":"active","ping":63},{"user_id":421,"name":"Panda Loser","steam_id":76561198828745176,"connected_time":2946000000000,"state":"active","ping":85},{"user_id":439,"name":"crumbles","steam_id":76561198168707036,"connected_time":2380000000000,"state":"active","ping":87},{"user_id":450,"name":"Choppah","steam_id":76561198269193530,"connected_time":112000000000,"state":"active","ping":57},{"user_id":430,"name":"Aeris","steam_id":76561198287271028,"connected_time":2540000000000,"state":"active","ping":72},{"user_id":444,"name":"clownBSBR","steam_id":76561199230246701,"connected_time":1677000000000,"state":"active","ping":72},{"user_id":452,"name":"soupy","steam_id":76561197974283797,"connected_time":103000000000,"state":"active","ping":70},{"user_id":451,"name":"Agent Bowtie","steam_id":76561198175839279,"connected_time":107000000000,"state":"active","ping":57},{"user_id":448,"name":"mkl","steam_id":76561197986401685,"connected_time":431000000000,"state":"active","ping":61},{"user_id":433,"name":"Magma","steam_id":76561198108261173,"connected_time":2476000000000,"state":"active","ping":75},{"user_id":383,"name":"errant","steam_id":76561197961758410,"connected_time":5031000000000,"state":"active","ping":39},{"user_id":414,"name":"TheGFG","steam_id":76561198166150556,"connected_time":3287000000000,"state":"active","ping":68},{"user_id":449,"name":"[FOFS]billyburl","steam_id":76561198079535159,"connected_time":116000000000,"state":"active","ping":81},{"user_id":424,"name":"Homosexual Warmachine","steam_id":76561198040425096,"connected_time":2905000000000,"state":"active","ping":65},{"user_id":435,"name":"sammy","steam_id":76561199001307670,"connected_time":2456000000000,"state":"active","ping":107},{"user_id":358,"name":"Holly she/her","steam_id":76561198982631429,"connected_time":7203000000000,"state":"active","ping":71},{"user_id":446,"name":"nothowon","steam_id":76561198937601452,"connected_time":1166000000000,"state":"active","ping":73},{"user_id":453,"name":"bea","steam_id":76561199085645300,"connected_time":102000000000,"state":"spawning","ping":50},{"user_id":438,"name":"pl_deepthroatgulch_finalrc2","steam_id":76561198046802071,"connected_time":2402000000000,"state":"active","ping":56},{"user_id":454,"name":"doubleshare","steam_id":76561198024472046,"connected_time":85000000000,"state":"active","ping":89},{"user_id":455,"name":"Banjo","steam_id":76561198004652853,"connected_time":80000000000,"state":"active","ping":105}]},{"server_id":5,"name":"Uncletopia | Frankfurt | 1 | All Maps","name_short":"frk-1","host":"frk-1.de.uncletopia.com","port":27015,"enabled":true,"region":"eu","cc":"de","latitude":50.110924,"longitude":8.682127,"reserved":0,"last_update":"0001-01-01T00:00:00Z","name_a2s":"Uncletopia | Frankfurt | 1 | All Maps","protocol":17,"map":"cp_snakewater_final1","folder":"tf","game":"Team Fortress","app_id":440,"player_count":0,"max_players":24,"Bots":0,"server_type":"Dedicated","server_os":"Linux","password":true,"vac":true,"version":"7932396","steam_id":85568392924469989,"keywords":["cp","nocrits","nodmgspread","uncletopia"],"game_id":440,"stv_port":27016,"stv_name":"Uncletopia | Frankfurt | 1 | All Maps | STV","players":null},{"server_id":110,"name":"Uncletopia | Frankfurt | 2 | All Maps","name_short":"frk-2","host":"frk-1.de.uncletopia.com","port":27025,"enabled":true,"region":"eu","cc":"de","latitude":50.110924,"longitude":8.682127,"reserved":0,"last_update":"0001-01-01T00:00:00Z","name_a2s":"Uncletopia | Frankfurt | 2 | All Maps","protocol":17,"map":"koth_lakeside_final","folder":"tf","game":"Team Fortress","app_id":440,"player_count":21,"max_players":24,"Bots":0,"server_type":"Dedicated","server_os":"Linux","password":true,"vac":true,"version":"7932396","steam_id":85568392924469990,"keywords":["cp","nocrits","nodmgspread","uncletopia"],"game_id":440,"stv_port":27026,"stv_name":"Uncletopia | Frankfurt | 2 | All Maps | STV","players":[{"user_id":555,"name":"Worm","steam_id":76561198296497176,"connected_time":1049000000000,"state":"active","ping":56},{"user_id":570,"name":"Alhab Jafir Mohammed","steam_id":76561198152392309,"connected_time":394000000000,"state":"active","ping":46},{"user_id":547,"name":"Genesis","steam_id":76561198999652040,"connected_time":1512000000000,"state":"active","ping":40},{"user_id":511,"name":"tl.rybar","steam_id":76561197960377282,"connected_time":2852000000000,"state":"active","ping":60},{"user_id":524,"name":"rollingball8","steam_id":76561198807569809,"connected_time":2158000000000,"state":"active","ping":57},{"user_id":446,"name":"Antifaschistischer","steam_id":76561198452588605,"connected_time":8092000000000,"state":"active","ping":46},{"user_id":572,"name":"Rolloden","steam_id":76561198069414404,"connected_time":374000000000,"state":"active","ping":59},{"user_id":575,"name":"gabehemmelgarn","steam_id":76561199089671432,"connected_time":175000000000,"state":"active","ping":165},{"user_id":556,"name":"Shithead","steam_id":76561197977122134,"connected_time":1008000000000,"state":"active","ping":54},{"user_id":526,"name":"john stick","steam_id":76561198165998678,"connected_time":2133000000000,"state":"active","ping":56},{"user_id":521,"name":"humpyhump","steam_id":76561198142007160,"connected_time":2285000000000,"state":"active","ping":60},{"user_id":558,"name":"Tibro","steam_id":76561198833491513,"connected_time":893000000000,"state":"active","ping":77},{"user_id":579,"name":"Envy","steam_id":76561198132723219,"connected_time":28000000000,"state":"active","ping":96},{"user_id":559,"name":"❤Femboy boy❤","steam_id":76561198977980700,"connected_time":877000000000,"state":"active","ping":80},{"user_id":576,"name":"Moose","steam_id":76561198352381052,"connected_time":123000000000,"state":"active","ping":98},{"user_id":560,"name":"Scorpio127","steam_id":76561198188684019,"connected_time":849000000000,"state":"active","ping":64},{"user_id":561,"name":"Chaffy2125","steam_id":76561198232839260,"connected_time":842000000000,"state":"active","ping":49},{"user_id":577,"name":"what?","steam_id":76561198065721483,"connected_time":93000000000,"state":"active","ping":71},{"user_id":569,"name":"23","steam_id":76561198035747507,"connected_time":522000000000,"state":"active","ping":44},{"user_id":386,"name":"Dagda","steam_id":76561198871136698,"connected_time":12915000000000,"state":"active","ping":56},{"user_id":578,"name":"racecar37","steam_id":76561198985675604,"connected_time":71000000000,"state":"active","ping":76}]},{"server_id":308,"name":"Uncletopia | Frankfurt | 3 | All Maps","name_short":"frk-3","host":"frk-1.de.uncletopia.com","port":27035,"enabled":true,"region":"eu","cc":"de","latitude":50.110924,"longitude":8.682127,"reserved":0,"last_update":"0001-01-01T00:00:00Z","name_a2s":"Uncletopia | Frankfurt | 3 | All Maps","protocol":17,"map":"koth_highpass","folder":"tf","game":"Team Fortress","app_id":440,"player_count":0,"max_players":24,"Bots":0,"server_type":"Dedicated","server_os":"Linux","password":true,"vac":true,"version":"7932396","steam_id":85568392924504274,"keywords":["cp","nocrits","nodmgspread","uncletopia"],"game_id":440,"stv_port":27036,"stv_name":"Uncletopia | Frankfurt | 3 | All Maps | STV","players":null},{"server_id":309,"name":"Uncletopia | Frankfurt | 4 | All Maps","name_short":"frk-4","host":"frk-1.de.uncletopia.com","port":27045,"enabled":true,"region":"eu","cc":"de","latitude":50.110924,"longitude":8.682127,"reserved":0,"last_update":"0001-01-01T00:00:00Z","name_a2s":"Uncletopia | Frankfurt | 4 | All Maps","protocol":17,"map":"cp_process_final","folder":"tf","game":"Team Fortress","app_id":440,"player_count":24,"max_players":24,"Bots":0,"server_type":"Dedicated","server_os":"Linux","password":true,"vac":true,"version":"7932396","steam_id":85568392924504275,"keywords":["cp","nocrits","nodmgspread","uncletopia"],"game_id":440,"stv_port":27046,"stv_name":"Uncletopia | Frankfurt | 4 | All Maps | STV","players":[{"user_id":387,"name":"KingofCubes","steam_id":76561198258037513,"connected_time":1007000000000,"state":"active","ping":75},{"user_id":400,"name":"puck","steam_id":76561198121260981,"connected_time":156000000000,"state":"active","ping":56},{"user_id":375,"name":"Ch4bby","steam_id":76561198058792875,"connected_time":1730000000000,"state":"active","ping":59},{"user_id":379,"name":"Q U E E N A L E X","steam_id":76561198186341157,"connected_time":1615000000000,"state":"active","ping":62},{"user_id":334,"name":"cl","steam_id":76561199436640904,"connected_time":4305000000000,"state":"active","ping":70},{"user_id":394,"name":"Bread","steam_id":76561198145232617,"connected_time":253000000000,"state":"active","ping":50},{"user_id":380,"name":"GardenFungus","steam_id":76561198054894337,"connected_time":1614000000000,"state":"active","ping":56},{"user_id":327,"name":"Nyhde","steam_id":76561198012771416,"connected_time":5281000000000,"state":"active","ping":105},{"user_id":385,"name":"Sir Sandvich","steam_id":76561198213908089,"connected_time":1253000000000,"state":"active","ping":88},{"user_id":389,"name":"why rum gone","steam_id":76561198158484784,"connected_time":948000000000,"state":"active","ping":60},{"user_id":359,"name":"Traylie","steam_id":76561198050797796,"connected_time":2819000000000,"state":"active","ping":77},{"user_id":401,"name":"Baton De Leon","steam_id":76561198353944785,"connected_time":150000000000,"state":"active","ping":75},{"user_id":301,"name":"Yelowchy","steam_id":76561198199416121,"connected_time":6684000000000,"state":"active","ping":61},{"user_id":396,"name":"f0x","steam_id":76561198072921704,"connected_time":249000000000,"state":"active","ping":51},{"user_id":341,"name":"Dandroid7","steam_id":76561198947673092,"connected_time":3760000000000,"state":"active","ping":52},{"user_id":397,"name":"Welsh Corgi","steam_id":76561198367800260,"connected_time":241000000000,"state":"active","ping":63},{"user_id":382,"name":"Hyp3r #Savetf2","steam_id":76561198965043686,"connected_time":1581000000000,"state":"active","ping":73},{"user_id":398,"name":"kris","steam_id":76561198134746536,"connected_time":230000000000,"state":"active","ping":76},{"user_id":399,"name":"robu","steam_id":76561198113874116,"connected_time":213000000000,"state":"active","ping":71},{"user_id":384,"name":"Pestdoktor","steam_id":76561198058159271,"connected_time":1540000000000,"state":"active","ping":56},{"user_id":328,"name":"heavy TF2 live reaction","steam_id":76561198082502910,"connected_time":5165000000000,"state":"active","ping":57},{"user_id":402,"name":"paradise ✨","steam_id":76561198966057450,"connected_time":146000000000,"state":"active","ping":85},{"user_id":404,"name":"Mach","steam_id":76561198952487564,"connected_time":120000000000,"state":"active","ping":137},{"user_id":318,"name":"Piteras","steam_id":76561198858532207,"connected_time":5975000000000,"state":"active","ping":86}]},{"server_id":310,"name":"Uncletopia | Frankfurt | 5 | All Maps","name_short":"frk-5","host":"frk-1.de.uncletopia.com","port":27055,"enabled":true,"region":"eu","cc":"de","latitude":50.110924,"longitude":8.682127,"reserved":0,"last_update":"0001-01-01T00:00:00Z","name_a2s":"Uncletopia | Frankfurt | 5 | All Maps","protocol":17,"map":"koth_highpass","folder":"tf","game":"Team Fortress","app_id":440,"player_count":0,"max_players":24,"Bots":0,"server_type":"Dedicated","server_os":"Linux","password":true,"vac":true,"version":"7932396","steam_id":85568392924504277,"keywords":["cp","nocrits","nodmgspread","uncletopia"],"game_id":440,"stv_port":27056,"stv_name":"Uncletopia | Frankfurt | 5 | All Maps | STV","players":null},{"server_id":311,"name":"Uncletopia | Frankfurt | 6 | All Maps","name_short":"frk-6","host":"frk-1.de.uncletopia.com","port":27065,"enabled":true,"region":"eu","cc":"de","latitude":50.110924,"longitude":8.682127,"reserved":0,"last_update":"0001-01-01T00:00:00Z","name_a2s":"Uncletopia | Frankfurt | 6 | All Maps","protocol":17,"map":"pl_badwater","folder":"tf","game":"Team Fortress","app_id":440,"player_count":0,"max_players":24,"Bots":0,"server_type":"Dedicated","server_os":"Linux","password":true,"vac":true,"version":"7932396","steam_id":85568392924504278,"keywords":["nocrits","nodmgspread","payload","uncletopia"],"game_id":440,"stv_port":27066,"stv_name":"Uncletopia | Frankfurt | 6 | All Maps | STV","players":null},{"server_id":23,"name":"Uncletopia | Frankfurt | 7 | Stopwatch Beta","name_short":"frk-7","host":"frk-1.de.uncletopia.com","port":27075,"enabled":true,"region":"eu","cc":"de","latitude":50.110924,"longitude":8.682127,"reserved":0,"last_update":"0001-01-01T00:00:00Z","name_a2s":"Uncletopia | Frankfurt | 7 | Stopwatch Beta","protocol":17,"map":"pl_snowycoast","folder":"tf","game":"Team Fortress","app_id":440,"player_count":0,"max_players":24,"Bots":0,"server_type":"Dedicated","server_os":"Linux","password":true,"vac":true,"version":"7932396","steam_id":85568392924742827,"keywords":["nocrits","nodmgspread","payload","uncletopia"],"game_id":440,"stv_port":27076,"stv_name":"Uncletopia | Frankfurt | 7 | Stopwatch Beta | STV","players":null},{"server_id":24,"name":"Uncletopia | Frankfurt | 8 | Community","name_short":"frk-8","host":"frk-1.de.uncletopia.com","port":27085,"enabled":true,"region":"eu","cc":"de","latitude":50.110924,"longitude":8.682127,"reserved":0,"last_update":"0001-01-01T00:00:00Z","name_a2s":"Uncletopia | Frankfurt | 8 | Community","protocol":17,"map":"workshop/cp_bruhstbowl_b6.ugc2878604990","folder":"tf","game":"Team Fortress","app_id":440,"player_count":0,"max_players":24,"Bots":0,"server_type":"Dedicated","server_os":"Linux","password":true,"vac":true,"version":"7932396","steam_id":85568392924742828,"keywords":["cp","nocrits","nodmgspread","uncletopia"],"game_id":440,"stv_port":27086,"stv_name":"Uncletopia | Frankfurt | 8 | Community | STV","players":null},{"server_id":202,"name":"Uncletopia | Hong Kong | 1 | All Maps","name_short":"hgk-1","host":"hgk-1.hk.uncletopia.com","port":27015,"enabled":true,"region":"asia","cc":"hk","latitude":22.302711,"longitude":114.177216,"reserved":0,"last_update":"0001-01-01T00:00:00Z","name_a2s":"Uncletopia | Hong Kong | 1 | All Maps","protocol":17,"map":"cp_altitude","folder":"tf","game":"Team Fortress","app_id":440,"player_count":1,"max_players":24,"Bots":0,"server_type":"Dedicated","server_os":"Linux","password":true,"vac":true,"version":"7932396","steam_id":85568392924494504,"keywords":["cp","nocrits","nodmgspread","uncletopia"],"game_id":440,"stv_port":27016,"stv_name":"Uncletopia | Hong Kong | 1 | All Maps | STV","players":[{"user_id":3,"name":"MS PowerPoint","steam_id":76561198369523192,"connected_time":271000000000,"state":"active","ping":63}]},{"server_id":1,"name":"Uncletopia | Los Angeles | 1 | All Maps","name_short":"lax-1","host":"lax-1.us.uncletopia.com","port":27015,"enabled":true,"region":"us-west","cc":"us","latitude":33.94279,"longitude":-118.41004,"reserved":0,"last_update":"0001-01-01T00:00:00Z","name_a2s":"Uncletopia | Los Angeles | 1 | All Maps","protocol":17,"map":"koth_viaduct","folder":"tf","game":"Team Fortress","app_id":440,"player_count":24,"max_players":24,"Bots":0,"server_type":"Dedicated","server_os":"Linux","password":true,"vac":true,"version":"7932396","steam_id":85568392924469991,"keywords":["cp","nocrits","nodmgspread","uncletopia"],"game_id":440,"stv_port":27016,"stv_name":"Uncletopia | Los Angeles | 1 | All Maps | STV","players":[{"user_id":29,"name":"K2f","steam_id":76561198049600563,"connected_time":974000000000,"state":"active","ping":43},{"user_id":24,"name":"walrooos","steam_id":76561198024521839,"connected_time":1140000000000,"state":"active","ping":40},{"user_id":23,"name":"mrzachab0i","steam_id":76561199444911765,"connected_time":1167000000000,"state":"active","ping":93},{"user_id":33,"name":"Your Favorite Fearless Hero","steam_id":76561199127590316,"connected_time":725000000000,"state":"active","ping":54},{"user_id":38,"name":"the man","steam_id":76561199103120314,"connected_time":603000000000,"state":"active","ping":53},{"user_id":49,"name":"GAMEGAMING","steam_id":76561199222119901,"connected_time":424000000000,"state":"active","ping":73},{"user_id":39,"name":"slimjim557","steam_id":76561199094710853,"connected_time":561000000000,"state":"active","ping":110},{"user_id":35,"name":"Sgt. Eclair","steam_id":76561198156384194,"connected_time":662000000000,"state":"active","ping":49},{"user_id":36,"name":"riSygneD","steam_id":76561198331618687,"connected_time":652000000000,"state":"active","ping":32},{"user_id":37,"name":"Subject Delta","steam_id":76561199109118980,"connected_time":620000000000,"state":"active","ping":58},{"user_id":40,"name":"donke","steam_id":76561198828006787,"connected_time":525000000000,"state":"active","ping":110},{"user_id":41,"name":"Sandy","steam_id":76561198150108571,"connected_time":499000000000,"state":"active","ping":87},{"user_id":42,"name":"vera","steam_id":76561198318851246,"connected_time":472000000000,"state":"active","ping":46},{"user_id":43,"name":"Karkeys","steam_id":76561198041038215,"connected_time":469000000000,"state":"active","ping":182},{"user_id":44,"name":"mastercoms","steam_id":76561198046110893,"connected_time":468000000000,"state":"active","ping":89},{"user_id":45,"name":"Val0rx","steam_id":76561198050015770,"connected_time":466000000000,"state":"active","ping":116},{"user_id":46,"name":"Spy (I Love spy)","steam_id":76561199138738952,"connected_time":463000000000,"state":"active","ping":116},{"user_id":57,"name":"SneekiCheekiQbone","steam_id":76561198045077980,"connected_time":84000000000,"state":"active","ping":43},{"user_id":48,"name":"carrot cake","steam_id":76561198055174915,"connected_time":442000000000,"state":"active","ping":120},{"user_id":50,"name":"EPicat","steam_id":76561198107166028,"connected_time":385000000000,"state":"active","ping":46},{"user_id":56,"name":"Terror","steam_id":76561198188685728,"connected_time":165000000000,"state":"active","ping":104},{"user_id":53,"name":"♥ kiss me! ♥","steam_id":76561198014557455,"connected_time":344000000000,"state":"active","ping":101},{"user_id":54,"name":"asian girls add me","steam_id":76561199474493516,"connected_time":321000000000,"state":"active","ping":46},{"user_id":55,"name":"Frank","steam_id":76561198199258353,"connected_time":276000000000,"state":"active","ping":95}]},{"server_id":112,"name":"Uncletopia | Los Angeles | 2 | All Maps","name_short":"lax-2","host":"lax-1.us.uncletopia.com","port":27025,"enabled":true,"region":"us-west","cc":"us","latitude":33.94279,"longitude":-118.41004,"reserved":0,"last_update":"0001-01-01T00:00:00Z","name_a2s":"Uncletopia | Los Angeles | 2 | All Maps","protocol":17,"map":"cp_sunshine","folder":"tf","game":"Team Fortress","app_id":440,"player_count":0,"max_players":24,"Bots":0,"server_type":"Dedicated","server_os":"Linux","password":true,"vac":true,"version":"7932396","steam_id":85568392924469992,"keywords":["cp","nocrits","nodmgspread","uncletopia"],"game_id":440,"stv_port":27026,"stv_name":"Uncletopia | Los Angeles | 2 | All Maps | STV","players":null},{"server_id":324,"name":"Uncletopia | Los Angeles | 3 | All Maps","name_short":"lax-3","host":"lax-1.us.uncletopia.com","port":27035,"enabled":true,"region":"us-west","cc":"us","latitude":33.94279,"longitude":-118.41004,"reserved":0,"last_update":"0001-01-01T00:00:00Z","name_a2s":"Uncletopia | Los Angeles | 3 | All Maps","protocol":17,"map":"pl_pier","folder":"tf","game":"Team Fortress","app_id":440,"player_count":17,"max_players":24,"Bots":0,"server_type":"Dedicated","server_os":"Linux","password":true,"vac":true,"version":"7932396","steam_id":85568392924510198,"keywords":["nocrits","nodmgspread","payload","uncletopia"],"game_id":440,"stv_port":27036,"stv_name":"Uncletopia | Los Angeles | 3 | All Maps | STV","players":[{"user_id":326,"name":"St. Bimmius","steam_id":76561198013595716,"connected_time":2000000000,"state":"spawning","ping":54},{"user_id":314,"name":"Apetometrist","steam_id":76561198045391635,"connected_time":1653000000000,"state":"active","ping":115},{"user_id":308,"name":"Jimmy","steam_id":76561198857959855,"connected_time":2096000000000,"state":"spawning","ping":79},{"user_id":276,"name":"SanitysEdge","steam_id":76561198130732813,"connected_time":5093000000000,"state":"active","ping":65},{"user_id":274,"name":"Korn Dawg","steam_id":76561198026941076,"connected_time":5147000000000,"state":"active","ping":33},{"user_id":293,"name":"dave strider","steam_id":76561198065112186,"connected_time":3949000000000,"state":"spawning","ping":64},{"user_id":283,"name":"breakfast","steam_id":76561198043712978,"connected_time":4778000000000,"state":"active","ping":54},{"user_id":319,"name":"cringy","steam_id":76561198323000455,"connected_time":1178000000000,"state":"active","ping":56},{"user_id":322,"name":"catboy","steam_id":76561198298140571,"connected_time":1139000000000,"state":"active","ping":60},{"user_id":315,"name":"\u003c3","steam_id":76561198196829267,"connected_time":1646000000000,"state":"active","ping":47},{"user_id":311,"name":"catboy battery eater","steam_id":76561198067881981,"connected_time":1861000000000,"state":"active","ping":112},{"user_id":320,"name":"Hatchitis","steam_id":76561198320346037,"connected_time":1158000000000,"state":"active","ping":68},{"user_id":325,"name":"zuna","steam_id":76561199038981515,"connected_time":228000000000,"state":"active","ping":46},{"user_id":316,"name":"Pah-Wraith Gul Dukat","steam_id":76561198033918106,"connected_time":1642000000000,"state":"active","ping":37},{"user_id":317,"name":"Spookskeppnook","steam_id":76561199216336545,"connected_time":1640000000000,"state":"active","ping":112},{"user_id":324,"name":"fart","steam_id":76561198206922028,"connected_time":501000000000,"state":"active","ping":44},{"user_id":318,"name":"°Creamy Gilligan","steam_id":76561198001569384,"connected_time":1341000000000,"state":"active","ping":108}]},{"server_id":25,"name":"Uncletopia | Los Angeles | 4 | Stopwatch Beta","name_short":"lax-4","host":"lax-1.us.uncletopia.com","port":27045,"enabled":true,"region":"us-west","cc":"us","latitude":33.94279,"longitude":-118.41004,"reserved":0,"last_update":"0001-01-01T00:00:00Z","name_a2s":"Uncletopia | Los Angeles | 4 | Stopwatch Beta","protocol":17,"map":"cp_altitude","folder":"tf","game":"Team Fortress","app_id":440,"player_count":0,"max_players":24,"Bots":0,"server_type":"Dedicated","server_os":"Linux","password":true,"vac":true,"version":"7932396","steam_id":85568392924510199,"keywords":["cp","nocrits","nodmgspread","uncletopia"],"game_id":440,"stv_port":27046,"stv_name":"Uncletopia | Los Angeles | 4 | Stopwatch Beta | STV","players":null},{"server_id":11,"name":"Uncletopia | London | 1 | All Maps","name_short":"lon-1","host":"lon-1.uk.uncletopia.com","port":27015,"enabled":true,"region":"eu","cc":"gb","latitude":51.509865,"longitude":-0.118092,"reserved":0,"last_update":"0001-01-01T00:00:00Z","name_a2s":"Uncletopia | London | 1 | All Maps","protocol":17,"map":"pl_thundermountain","folder":"tf","game":"Team Fortress","app_id":440,"player_count":24,"max_players":24,"Bots":0,"server_type":"Dedicated","server_os":"Linux","password":true,"vac":true,"version":"7932396","steam_id":85568392924367362,"keywords":["nocrits","nodmgspread","payload","uncletopia"],"game_id":440,"stv_port":27016,"stv_name":"Uncletopia | London | 1 | All Maps | STV","players":[{"user_id":946,"name":"Urfangonultasadana","steam_id":76561199389286151,"connected_time":737000000000,"state":"active","ping":94},{"user_id":952,"name":"breakfast burrito","steam_id":76561198148606969,"connected_time":94000000000,"state":"active","ping":80},{"user_id":866,"name":"aminoxsos","steam_id":76561198839741609,"connected_time":8066000000000,"state":"active","ping":81},{"user_id":922,"name":"Grander","steam_id":76561198011492179,"connected_time":2299000000000,"state":"active","ping":84},{"user_id":925,"name":"fredu","steam_id":76561198107605938,"connected_time":2024000000000,"state":"active","ping":102},{"user_id":931,"name":"GŻYP","steam_id":76561198063170780,"connected_time":1658000000000,"state":"active","ping":63},{"user_id":950,"name":"slippin jimmy","steam_id":76561198090788590,"connected_time":406000000000,"state":"active","ping":33},{"user_id":918,"name":"mwr","steam_id":76561199129942647,"connected_time":2810000000000,"state":"active","ping":51},{"user_id":951,"name":"Night Fury","steam_id":76561197995207032,"connected_time":106000000000,"state":"active","ping":81},{"user_id":943,"name":"Pvt. Prinny","steam_id":76561198030278562,"connected_time":1297000000000,"state":"active","ping":44},{"user_id":897,"name":"A Pigeon","steam_id":76561198114090555,"connected_time":5479000000000,"state":"active","ping":72},{"user_id":927,"name":"Duskie","steam_id":76561198036695121,"connected_time":2006000000000,"state":"active","ping":56},{"user_id":926,"name":"♥ Emma ♥","steam_id":76561198046796406,"connected_time":2018000000000,"state":"active","ping":52},{"user_id":930,"name":"dobrekGolbin","steam_id":76561198074745885,"connected_time":1968000000000,"state":"active","ping":93},{"user_id":954,"name":"blade","steam_id":76561199308850812,"connected_time":10000000000,"state":"active","ping":142},{"user_id":944,"name":"Sandshee","steam_id":76561198088574666,"connected_time":786000000000,"state":"active","ping":36},{"user_id":919,"name":"Purps","steam_id":76561198053886680,"connected_time":2810000000000,"state":"active","ping":38},{"user_id":939,"name":"that fat croc from donkey kong","steam_id":76561198159172495,"connected_time":1510000000000,"state":"active","ping":89},{"user_id":893,"name":"UltimateAura","steam_id":76561198338361324,"connected_time":5675000000000,"state":"active","ping":45},{"user_id":878,"name":"i put rocks in your mattress","steam_id":76561198072892783,"connected_time":6581000000000,"state":"active","ping":69},{"user_id":937,"name":"snowycoast","steam_id":76561198346638308,"connected_time":1565000000000,"state":"active","ping":60},{"user_id":947,"name":"Suspicious Cabin","steam_id":76561198083261198,"connected_time":710000000000,"state":"active","ping":54},{"user_id":914,"name":"teddy","steam_id":76561198007436837,"connected_time":2845000000000,"state":"active","ping":42},{"user_id":915,"name":"Saucci","steam_id":76561198093495637,"connected_time":2845000000000,"state":"active","ping":80}]},{"server_id":114,"name":"Uncletopia | London | 2 | All Maps","name_short":"lon-2","host":"lon-1.uk.uncletopia.com","port":27025,"enabled":true,"region":"eu","cc":"gb","latitude":51.509865,"longitude":-0.118092,"reserved":0,"last_update":"0001-01-01T00:00:00Z","name_a2s":"Uncletopia | London | 2 | All Maps","protocol":17,"map":"pl_badwater","folder":"tf","game":"Team Fortress","app_id":440,"player_count":24,"max_players":24,"Bots":0,"server_type":"Dedicated","server_os":"Linux","password":true,"vac":true,"version":"7932396","steam_id":85568392924470941,"keywords":["nocrits","nodmgspread","payload","uncletopia"],"game_id":440,"stv_port":27026,"stv_name":"Uncletopia | London | 2 | All Maps | STV","players":[{"user_id":481,"name":"Roe Jogan","steam_id":76561199063262965,"connected_time":699000000000,"state":"active","ping":70},{"user_id":469,"name":"Lucker","steam_id":76561198079469430,"connected_time":1178000000000,"state":"active","ping":61},{"user_id":419,"name":"Weebot00","steam_id":76561199479204459,"connected_time":3080000000000,"state":"active","ping":65},{"user_id":486,"name":"Neiro👽ᗩYY ᒪᗰᗩO","steam_id":76561198046743985,"connected_time":317000000000,"state":"active","ping":74},{"user_id":477,"name":"bogan","steam_id":76561198121336735,"connected_time":784000000000,"state":"active","ping":35},{"user_id":478,"name":"Doctorglados","steam_id":76561198005312127,"connected_time":769000000000,"state":"active","ping":74},{"user_id":461,"name":"R. N. Gesus","steam_id":76561198002192211,"connected_time":1609000000000,"state":"active","ping":85},{"user_id":459,"name":"threesystem","steam_id":76561198092435877,"connected_time":1845000000000,"state":"active","ping":44},{"user_id":487,"name":"t0ast","steam_id":76561198141722573,"connected_time":232000000000,"state":"active","ping":44},{"user_id":450,"name":"dinorno","steam_id":76561198146276830,"connected_time":2187000000000,"state":"active","ping":87},{"user_id":466,"name":"XFACTOR | {Moshik Roth}","steam_id":76561198352842114,"connected_time":1341000000000,"state":"active","ping":119},{"user_id":483,"name":"TheRapist","steam_id":76561199020903774,"connected_time":539000000000,"state":"active","ping":61},{"user_id":444,"name":"big stewie","steam_id":76561198147173457,"connected_time":2325000000000,"state":"active","ping":77},{"user_id":425,"name":"beurgeur","steam_id":76561198872426314,"connected_time":2925000000000,"state":"active","ping":44},{"user_id":468,"name":"Gregor","steam_id":76561198047882679,"connected_time":1309000000000,"state":"active","ping":45},{"user_id":427,"name":"Vladimir Lenin","steam_id":76561199438120787,"connected_time":2902000000000,"state":"active","ping":56},{"user_id":465,"name":"samg10018","steam_id":76561198152081095,"connected_time":1348000000000,"state":"active","ping":49},{"user_id":448,"name":"gαвє ησëℓ","steam_id":76561198067342352,"connected_time":2237000000000,"state":"active","ping":60},{"user_id":429,"name":"Swedish Vegan","steam_id":76561198042775020,"connected_time":2877000000000,"state":"active","ping":83},{"user_id":457,"name":"Auro","steam_id":76561198224421624,"connected_time":2084000000000,"state":"active","ping":47},{"user_id":454,"name":"Archer","steam_id":76561198132860299,"connected_time":2119000000000,"state":"active","ping":60},{"user_id":442,"name":"Bobirulez","steam_id":76561198009125458,"connected_time":2432000000000,"state":"active","ping":69},{"user_id":467,"name":"bowchika wowa #SlavaUkraine","steam_id":76561198159564550,"connected_time":1337000000000,"state":"active","ping":72},{"user_id":480,"name":"Xiqui","steam_id":76561198818386611,"connected_time":763000000000,"state":"active","ping":64}]},{"server_id":320,"name":"Uncletopia | London | 3 | All Maps","name_short":"lon-3","host":"lon-1.uk.uncletopia.com","port":27035,"enabled":true,"region":"eu","cc":"gb","latitude":51.509865,"longitude":-0.118092,"reserved":0,"last_update":"0001-01-01T00:00:00Z","name_a2s":"Uncletopia | London | 3 | All Maps","protocol":17,"map":"koth_highpass","folder":"tf","game":"Team Fortress","app_id":440,"player_count":0,"max_players":24,"Bots":0,"server_type":"Dedicated","server_os":"Linux","password":true,"vac":true,"version":"7932396","steam_id":85568392924510192,"keywords":["cp","nocrits","nodmgspread","uncletopia"],"game_id":440,"stv_port":27036,"stv_name":"Uncletopia | London | 3 | All Maps | STV","players":null},{"server_id":321,"name":"Uncletopia | London | 4 | All Maps","name_short":"lon-4","host":"lon-1.uk.uncletopia.com","port":27045,"enabled":true,"region":"eu","cc":"gb","latitude":51.509865,"longitude":-0.118092,"reserved":0,"last_update":"0001-01-01T00:00:00Z","name_a2s":"Uncletopia | London | 4 | All Maps","protocol":17,"map":"pl_badwater","folder":"tf","game":"Team Fortress","app_id":440,"player_count":24,"max_players":24,"Bots":0,"server_type":"Dedicated","server_os":"Linux","password":true,"vac":true,"version":"7932396","steam_id":85568392924510193,"keywords":["nocrits","nodmgspread","payload","uncletopia"],"game_id":440,"stv_port":27046,"stv_name":"Uncletopia | London | 4 | All Maps | STV","players":[{"user_id":235,"name":"Puss in Boots","steam_id":76561198211599767,"connected_time":807000000000,"state":"active","ping":55},{"user_id":247,"name":"nobodyy","steam_id":76561198027735766,"connected_time":266000000000,"state":"active","ping":60},{"user_id":234,"name":"Lesbos Maximus","steam_id":76561198090160890,"connected_time":819000000000,"state":"active","ping":68},{"user_id":188,"name":"tigersonalex","steam_id":76561198197991235,"connected_time":5183000000000,"state":"active","ping":68},{"user_id":207,"name":"The Lady","steam_id":76561198029895809,"connected_time":3566000000000,"state":"active","ping":76},{"user_id":217,"name":"Jugg","steam_id":76561198384417257,"connected_time":2355000000000,"state":"active","ping":53},{"user_id":231,"name":"Aroo","steam_id":76561198132601368,"connected_time":1702000000000,"state":"active","ping":77},{"user_id":237,"name":"cheese88","steam_id":76561198103670631,"connected_time":778000000000,"state":"active","ping":158},{"user_id":183,"name":"John Noob","steam_id":76561197999170026,"connected_time":5246000000000,"state":"active","ping":80},{"user_id":232,"name":"Pebel","steam_id":76561198128639471,"connected_time":1653000000000,"state":"active","ping":56},{"user_id":245,"name":"Walrus","steam_id":76561198063217868,"connected_time":411000000000,"state":"active","ping":54},{"user_id":220,"name":"l'jarius sneed","steam_id":76561198088624259,"connected_time":2312000000000,"state":"active","ping":59},{"user_id":221,"name":"General Petrov","steam_id":76561198027204104,"connected_time":2298000000000,"state":"active","ping":86},{"user_id":193,"name":"Kyle","steam_id":76561198071181745,"connected_time":5086000000000,"state":"active","ping":59},{"user_id":222,"name":"BIG MEAN MOTHER HUBBARD","steam_id":76561198798803845,"connected_time":2285000000000,"state":"active","ping":45},{"user_id":229,"name":"1 / 3 - Smelly Unfortunate","steam_id":76561198307037169,"connected_time":1972000000000,"state":"active","ping":45},{"user_id":238,"name":"C.H.E.R.E.P.","steam_id":76561198026938595,"connected_time":746000000000,"state":"active","ping":75},{"user_id":239,"name":"Rapop101","steam_id":76561198125796030,"connected_time":682000000000,"state":"active","ping":94},{"user_id":240,"name":"Fangpyre from Lego Ninjago","steam_id":76561198953686773,"connected_time":661000000000,"state":"active","ping":135},{"user_id":241,"name":"medicinal man","steam_id":76561198202668788,"connected_time":653000000000,"state":"active","ping":70},{"user_id":208,"name":"Volcyy","steam_id":76561198063979124,"connected_time":3463000000000,"state":"active","ping":47},{"user_id":226,"name":"Lag","steam_id":76561198159360376,"connected_time":2236000000000,"state":"active","ping":46},{"user_id":242,"name":"TopHatWearingKoala","steam_id":76561198068192599,"connected_time":622000000000,"state":"active","ping":168},{"user_id":243,"name":"PHYSICIEN BLANC","steam_id":76561197974486633,"connected_time":598000000000,"state":"active","ping":48}]},{"server_id":21,"name":"Uncletopia | London | 5 | All Maps","name_short":"lon-5","host":"lon-1.uk.uncletopia.com","port":27055,"enabled":true,"region":"eu","cc":"gb","latitude":51.509865,"longitude":-0.118092,"reserved":0,"last_update":"0001-01-01T00:00:00Z","name_a2s":"Uncletopia | London | 5 | All Maps","protocol":17,"map":"koth_lakeside_final","folder":"tf","game":"Team Fortress","app_id":440,"player_count":0,"max_players":24,"Bots":0,"server_type":"Dedicated","server_os":"Linux","password":true,"vac":true,"version":"7932396","steam_id":85568392924742829,"keywords":["cp","nocrits","nodmgspread","uncletopia"],"game_id":440,"stv_port":27056,"stv_name":"Uncletopia | London | 5 | All Maps | STV","players":null},{"server_id":22,"name":"Uncletopia | London | 6 | All Maps","name_short":"lon-6","host":"lon-1.uk.uncletopia.com","port":27065,"enabled":true,"region":"eu","cc":"gb","latitude":51.509865,"longitude":-0.118092,"reserved":0,"last_update":"0001-01-01T00:00:00Z","name_a2s":"Uncletopia | London | 6 | All Maps","protocol":17,"map":"pl_hoodoo_final","folder":"tf","game":"Team Fortress","app_id":440,"player_count":24,"max_players":24,"Bots":0,"server_type":"Dedicated","server_os":"Linux","password":true,"vac":true,"version":"7932396","steam_id":85568392924742830,"keywords":["nocrits","nodmgspread","payload","uncletopia"],"game_id":440,"stv_port":27066,"stv_name":"Uncletopia | London | 6 | All Maps | STV","players":[{"user_id":289,"name":"Granny","steam_id":76561198335585737,"connected_time":243000000000,"state":"active","ping":51},{"user_id":247,"name":"Donny","steam_id":76561198317950036,"connected_time":3857000000000,"state":"active","ping":91},{"user_id":266,"name":"José Mourinho","steam_id":76561199488658027,"connected_time":2082000000000,"state":"active","ping":104},{"user_id":277,"name":"Mareaucanard","steam_id":76561198351406668,"connected_time":1377000000000,"state":"active","ping":60},{"user_id":248,"name":"Fatman","steam_id":76561197992925209,"connected_time":3705000000000,"state":"active","ping":56},{"user_id":279,"name":"Star in a pond","steam_id":76561198205501279,"connected_time":1372000000000,"state":"active","ping":102},{"user_id":245,"name":"martin","steam_id":76561198107039012,"connected_time":3931000000000,"state":"active","ping":40},{"user_id":258,"name":"mr beast","steam_id":76561199102090622,"connected_time":2322000000000,"state":"active","ping":87},{"user_id":268,"name":"bruh","steam_id":76561197993922244,"connected_time":2012000000000,"state":"active","ping":63},{"user_id":259,"name":"Dudepile","steam_id":76561198005831909,"connected_time":2309000000000,"state":"active","ping":72},{"user_id":280,"name":"HentaiEnjoyer","steam_id":76561198148361982,"connected_time":1372000000000,"state":"active","ping":59},{"user_id":260,"name":"The penis scooter","steam_id":76561198173218318,"connected_time":2300000000000,"state":"active","ping":51},{"user_id":285,"name":"Tweedle","steam_id":76561198160141785,"connected_time":865000000000,"state":"active","ping":44},{"user_id":273,"name":"KarlRanzeier","steam_id":76561198066281337,"connected_time":1850000000000,"state":"active","ping":62},{"user_id":213,"name":"Finn","steam_id":76561198179960193,"connected_time":6136000000000,"state":"active","ping":43},{"user_id":261,"name":"Costarona","steam_id":76561197989455970,"connected_time":2298000000000,"state":"active","ping":93},{"user_id":282,"name":"tone","steam_id":76561197975301462,"connected_time":1279000000000,"state":"active","ping":68},{"user_id":286,"name":"Obamna","steam_id":76561198094993151,"connected_time":826000000000,"state":"active","ping":41},{"user_id":271,"name":"pos","steam_id":76561198026132442,"connected_time":1955000000000,"state":"active","ping":87},{"user_id":272,"name":"DrExplosive","steam_id":76561198063678579,"connected_time":1953000000000,"state":"active","ping":33},{"user_id":290,"name":"1 toke 4 mars bars","steam_id":76561198056460000,"connected_time":111000000000,"state":"active","ping":51},{"user_id":281,"name":"[1stA]Zap Rowsdower","steam_id":76561197976656272,"connected_time":1370000000000,"state":"active","ping":68},{"user_id":255,"name":"teleporter main","steam_id":76561198851157897,"connected_time":3167000000000,"state":"active","ping":67},{"user_id":214,"name":"sarii ☆","steam_id":76561199155102111,"connected_time":5900000000000,"state":"active","ping":79}]},{"server_id":40,"name":"Uncletopia | London | 7 | No Payload","name_short":"lon-7","host":"lon-1.uk.uncletopia.com","port":27075,"enabled":true,"region":"eu","cc":"gb","latitude":51.509865,"longitude":-0.118092,"reserved":0,"last_update":"0001-01-01T00:00:00Z","name_a2s":"Uncletopia | London | 7 | No Payload","protocol":17,"map":"cp_freight_final1","folder":"tf","game":"Team Fortress","app_id":440,"player_count":5,"max_players":24,"Bots":0,"server_type":"Dedicated","server_os":"Linux","password":true,"vac":true,"version":"7932396","steam_id":85568392924964314,"keywords":["cp","nocrits","nodmgspread","uncletopia"],"game_id":440,"stv_port":27076,"stv_name":"Uncletopia | London | 7 | No Payload | STV","players":[{"user_id":687,"name":"joachym","steam_id":76561198428579761,"connected_time":423000000000,"state":"active","ping":61},{"user_id":679,"name":"Milca, One eye'd Drunkard","steam_id":76561198848650365,"connected_time":1922000000000,"state":"active","ping":97},{"user_id":669,"name":"Lord Tubbington","steam_id":76561198073237638,"connected_time":5037000000000,"state":"active","ping":81},{"user_id":673,"name":"Black Sheep","steam_id":76561198042244701,"connected_time":3395000000000,"state":"active","ping":60},{"user_id":683,"name":"13zombiekilla","steam_id":76561199122457055,"connected_time":1539000000000,"state":"active","ping":178}]},{"server_id":41,"name":"Uncletopia | London | 8 | Community","name_short":"lon-8","host":"lon-1.uk.uncletopia.com","port":27085,"enabled":true,"region":"eu","cc":"gb","latitude":51.509865,"longitude":-0.118092,"reserved":0,"last_update":"0001-01-01T00:00:00Z","name_a2s":"Uncletopia | London | 8 | Community","protocol":17,"map":"workshop/cp_propaganda_b18.ugc1603743849","folder":"tf","game":"Team Fortress","app_id":440,"player_count":0,"max_players":24,"Bots":0,"server_type":"Dedicated","server_os":"Linux","password":true,"vac":true,"version":"7932396","steam_id":85568392924964315,"keywords":["cp","nocrits","nodmgspread","uncletopia"],"game_id":440,"stv_port":27086,"stv_name":"Uncletopia | London | 8 | Community | STV","players":null},{"server_id":300,"name":"Uncletopia | Montréal | 1 | All Maps","name_short":"mtl-1","host":"mtl-1.ca.uncletopia.com","port":27015,"enabled":true,"region":"us-east","cc":"ca","latitude":45.50889,"longitude":-73.56167,"reserved":0,"last_update":"0001-01-01T00:00:00Z","name_a2s":"Uncletopia | Montréal | 1 | All Maps","protocol":17,"map":"cp_dustbowl","folder":"tf","game":"Team Fortress","app_id":440,"player_count":0,"max_players":24,"Bots":0,"server_type":"Dedicated","server_os":"Linux","password":true,"vac":true,"version":"7932396","steam_id":85568392924500087,"keywords":["cp","nocrits","nodmgspread","uncletopia"],"game_id":440,"stv_port":27016,"stv_name":"Uncletopia | Montréal | 1 | All Maps | STV","players":null},{"server_id":301,"name":"Uncletopia | Montréal | 2 | All Maps","name_short":"mtl-2","host":"mtl-1.ca.uncletopia.com","port":27025,"enabled":true,"region":"us-east","cc":"ca","latitude":45.50889,"longitude":-73.56167,"reserved":0,"last_update":"0001-01-01T00:00:00Z","name_a2s":"Uncletopia | Montréal | 2 | All Maps","protocol":17,"map":"cp_mountainlab","folder":"tf","game":"Team Fortress","app_id":440,"player_count":0,"max_players":24,"Bots":0,"server_type":"Dedicated","server_os":"Linux","password":true,"vac":true,"version":"7932396","steam_id":85568392924500088,"keywords":["cp","nocrits","nodmgspread","uncletopia"],"game_id":440,"stv_port":27026,"stv_name":"Uncletopia | Montréal | 2 | All Maps | STV","players":null},{"server_id":302,"name":"Uncletopia | Montréal | 3 | All Maps","name_short":"mtl-3","host":"mtl-1.ca.uncletopia.com","port":27035,"enabled":true,"region":"us-east","cc":"ca","latitude":45.50889,"longitude":-73.56167,"reserved":0,"last_update":"0001-01-01T00:00:00Z","name_a2s":"Uncletopia | Montréal | 3 | All Maps","protocol":17,"map":"cp_process_final","folder":"tf","game":"Team Fortress","app_id":440,"player_count":0,"max_players":24,"Bots":0,"server_type":"Dedicated","server_os":"Linux","password":true,"vac":true,"version":"7932396","steam_id":85568392924500089,"keywords":["cp","nocrits","nodmgspread","uncletopia"],"game_id":440,"stv_port":27036,"stv_name":"Uncletopia | Montréal | 3 | All Maps | STV","players":null},{"server_id":303,"name":"Uncletopia | Montréal | 4 | No Payload","name_short":"mtl-4","host":"mtl-1.ca.uncletopia.com","port":27045,"enabled":true,"region":"us-east","cc":"ca","latitude":45.50889,"longitude":-73.56167,"reserved":0,"last_update":"0001-01-01T00:00:00Z","name_a2s":"Uncletopia | Montréal | 4 | No Payload","protocol":17,"map":"cp_snakewater_final1","folder":"tf","game":"Team Fortress","app_id":440,"player_count":0,"max_players":24,"Bots":0,"server_type":"Dedicated","server_os":"Linux","password":true,"vac":true,"version":"7932396","steam_id":85568392924500090,"keywords":["cp","nocrits","nodmgspread","uncletopia"],"game_id":440,"stv_port":27046,"stv_name":"Uncletopia | Montréal | 4 | No Payload | STV","players":null},{"server_id":13,"name":"Uncletopia | New York City | 1 | All Maps","name_short":"nyc-1","host":"nyc-1.us.uncletopia.com","port":27015,"enabled":true,"region":"us-east","cc":"us","latitude":40.73061,"longitude":-73.93524,"reserved":0,"last_update":"0001-01-01T00:00:00Z","name_a2s":"Uncletopia | New York City | 1 | All Maps","protocol":17,"map":"ctf_2fort","folder":"tf","game":"Team Fortress","app_id":440,"player_count":22,"max_players":24,"Bots":0,"server_type":"Dedicated","server_os":"Linux","password":true,"vac":true,"version":"7932396","steam_id":85568392924469993,"keywords":["ctf","nocrits","nodmgspread","uncletopia"],"game_id":440,"stv_port":27016,"stv_name":"Uncletopia | New York City | 1 | All Maps | STV","players":[{"user_id":51,"name":"SnickerNoodle","steam_id":76561198064359644,"connected_time":6161000000000,"state":"active","ping":54},{"user_id":129,"name":"Myn","steam_id":76561198055438857,"connected_time":633000000000,"state":"active","ping":62},{"user_id":135,"name":"vanta","steam_id":76561198084317504,"connected_time":123000000000,"state":"active","ping":61},{"user_id":130,"name":"Poi","steam_id":76561198176914898,"connected_time":272000000000,"state":"active","ping":76},{"user_id":110,"name":"LegendaryMister151","steam_id":76561198064890524,"connected_time":1474000000000,"state":"active","ping":85},{"user_id":138,"name":"Nerrrd_","steam_id":76561198870129960,"connected_time":43000000000,"state":"active","ping":44},{"user_id":136,"name":"Ceej","steam_id":76561198416822503,"connected_time":111000000000,"state":"active","ping":82},{"user_id":105,"name":"wiiblob","steam_id":76561198109106242,"connected_time":2236000000000,"state":"active","ping":120},{"user_id":77,"name":"Jesse Bear","steam_id":76561198217075305,"connected_time":3985000000000,"state":"active","ping":66},{"user_id":114,"name":"J_Bug","steam_id":76561198163362175,"connected_time":1411000000000,"state":"active","ping":59},{"user_id":29,"name":"M249 | Spectre","steam_id":76561198118334485,"connected_time":7325000000000,"state":"active","ping":60},{"user_id":108,"name":"Bert.","steam_id":76561198140666346,"connected_time":1989000000000,"state":"active","ping":46},{"user_id":106,"name":"Protato","steam_id":76561198061182563,"connected_time":2132000000000,"state":"active","ping":62},{"user_id":132,"name":"Queso2469","steam_id":76561197993024580,"connected_time":195000000000,"state":"active","ping":39},{"user_id":75,"name":"Mally","steam_id":76561198025013765,"connected_time":4174000000000,"state":"active","ping":79},{"user_id":133,"name":"Waltz Leafington","steam_id":76561198055277053,"connected_time":191000000000,"state":"active","ping":45},{"user_id":137,"name":"Two-Teste Tommy","steam_id":76561198064308936,"connected_time":96000000000,"state":"active","ping":52},{"user_id":116,"name":"✿ teafi","steam_id":76561198406252824,"connected_time":1363000000000,"state":"active","ping":121},{"user_id":125,"name":"orange porridge","steam_id":76561198044102244,"connected_time":1000000000000,"state":"active","ping":47},{"user_id":67,"name":"its tombstooooone","steam_id":76561198103496593,"connected_time":4960000000000,"state":"active","ping":73},{"user_id":109,"name":"Bolty","steam_id":76561198084199165,"connected_time":1698000000000,"state":"active","ping":90},{"user_id":120,"name":"listerine","steam_id":76561198041104084,"connected_time":1245000000000,"state":"active","ping":58}]},{"server_id":14,"name":"Uncletopia | New York City | 2 | All Maps","name_short":"nyc-2","host":"nyc-1.us.uncletopia.com","port":27025,"enabled":true,"region":"us-east","cc":"us","latitude":40.73061,"longitude":-73.93524,"reserved":0,"last_update":"0001-01-01T00:00:00Z","name_a2s":"Uncletopia | New York City | 2 | All Maps","protocol":17,"map":"pl_barnblitz","folder":"tf","game":"Team Fortress","app_id":440,"player_count":23,"max_players":24,"Bots":0,"server_type":"Dedicated","server_os":"Linux","password":true,"vac":true,"version":"7932396","steam_id":85568392924469994,"keywords":["nocrits","nodmgspread","payload","uncletopia"],"game_id":440,"stv_port":27026,"stv_name":"Uncletopia | New York City | 2 | All Maps | STV","players":[{"user_id":126,"name":"Bulk","steam_id":76561199009814535,"connected_time":1347000000000,"state":"active","ping":44},{"user_id":69,"name":"FunnyUsernameWow","steam_id":76561198324177635,"connected_time":4912000000000,"state":"active","ping":50},{"user_id":114,"name":"Noahthecrazy1","steam_id":76561199152995909,"connected_time":2228000000000,"state":"active","ping":69},{"user_id":94,"name":"joe","steam_id":76561198045781320,"connected_time":3369000000000,"state":"active","ping":53},{"user_id":92,"name":"Wigl","steam_id":76561198019324464,"connected_time":3488000000000,"state":"active","ping":49},{"user_id":134,"name":"Kritzburgh","steam_id":76561198149466938,"connected_time":345000000000,"state":"active","ping":51},{"user_id":135,"name":"Lucille II","steam_id":76561198138543746,"connected_time":337000000000,"state":"active","ping":67},{"user_id":136,"name":"Candy Sparkles","steam_id":76561198126871264,"connected_time":306000000000,"state":"active","ping":79},{"user_id":101,"name":"CRAZY engineer","steam_id":76561198887937902,"connected_time":2817000000000,"state":"active","ping":65},{"user_id":138,"name":"Witness to the Faith","steam_id":76561198202018494,"connected_time":300000000000,"state":"active","ping":115},{"user_id":139,"name":"aiden","steam_id":76561198449527009,"connected_time":283000000000,"state":"active","ping":101},{"user_id":132,"name":"PinguEnjoyer6","steam_id":76561199186723516,"connected_time":637000000000,"state":"active","ping":108},{"user_id":128,"name":"Bottle","steam_id":76561198044031558,"connected_time":1194000000000,"state":"active","ping":54},{"user_id":99,"name":"Cloud","steam_id":76561198954987128,"connected_time":2970000000000,"state":"active","ping":73},{"user_id":93,"name":"Ccxr","steam_id":76561198075616549,"connected_time":3435000000000,"state":"active","ping":166},{"user_id":130,"name":"scrotal recall","steam_id":76561198135945598,"connected_time":729000000000,"state":"active","ping":105},{"user_id":131,"name":"El Güey","steam_id":76561197970450546,"connected_time":715000000000,"state":"active","ping":130},{"user_id":108,"name":"artichoke","steam_id":76561198980994364,"connected_time":2368000000000,"state":"active","ping":89},{"user_id":133,"name":"A_Malebolgia","steam_id":76561198097722818,"connected_time":369000000000,"state":"active","ping":88},{"user_id":140,"name":"tylr","steam_id":76561198128198748,"connected_time":269000000000,"state":"active","ping":66},{"user_id":125,"name":"Parth Makeo","steam_id":76561198002516581,"connected_time":1398000000000,"state":"active","ping":41},{"user_id":129,"name":"Discourse","steam_id":76561198984286678,"connected_time":732000000000,"state":"active","ping":78},{"user_id":117,"name":"Quansen","steam_id":76561198151594550,"connected_time":2176000000000,"state":"active","ping":63}]},{"server_id":15,"name":"Uncletopia | New York City | 3 | Stopwatch Beta","name_short":"nyc-3","host":"nyc-1.us.uncletopia.com","port":27035,"enabled":true,"region":"us-east","cc":"us","latitude":40.73061,"longitude":-73.93524,"reserved":0,"last_update":"0001-01-01T00:00:00Z","name_a2s":"Uncletopia | New York City | 3 | Stopwatch Beta","protocol":17,"map":"workshop/koth_ramjam_rc1.ugc459778887","folder":"tf","game":"Team Fortress","app_id":440,"player_count":0,"max_players":24,"Bots":0,"server_type":"Dedicated","server_os":"Linux","password":true,"vac":true,"version":"7932396","steam_id":85568392924742820,"keywords":["cp","nocrits","nodmgspread","uncletopia"],"game_id":440,"stv_port":27036,"stv_name":"Uncletopia | New York City | 3 | Stopwatch Beta | STV","players":null},{"server_id":16,"name":"Uncletopia | New York City | 4 | Community","name_short":"nyc-4","host":"nyc-1.us.uncletopia.com","port":27045,"enabled":true,"region":"us-east","cc":"us","latitude":40.73061,"longitude":-73.93524,"reserved":0,"last_update":"0001-01-01T00:00:00Z","name_a2s":"Uncletopia | New York City | 4 | Community","protocol":17,"map":"workshop/koth_product_final.ugc454272353","folder":"tf","game":"Team Fortress","app_id":440,"player_count":16,"max_players":24,"Bots":0,"server_type":"Dedicated","server_os":"Linux","password":true,"vac":true,"version":"7932396","steam_id":85568392924742821,"keywords":["cp","nocrits","nodmgspread","uncletopia"],"game_id":440,"stv_port":27046,"stv_name":"Uncletopia | New York City | 4 | Community | STV","players":[{"user_id":183,"name":"RedPenguin_55 [Soldier main]","steam_id":76561199330977723,"connected_time":1223000000000,"state":"active","ping":88},{"user_id":195,"name":"YellowCellPhone","steam_id":76561198015070315,"connected_time":89000000000,"state":"active","ping":55},{"user_id":184,"name":"Heavy Gaming(Gaming)[Gaming]","steam_id":76561199366955312,"connected_time":1147000000000,"state":"active","ping":84},{"user_id":197,"name":"neet","steam_id":76561197968115168,"connected_time":11000000000,"state":"active","ping":46},{"user_id":180,"name":"Tri","steam_id":76561198126346050,"connected_time":1594000000000,"state":"active","ping":85},{"user_id":185,"name":"gideon nav my beloved","steam_id":76561198259092181,"connected_time":609000000000,"state":"active","ping":62},{"user_id":186,"name":"Mooksie","steam_id":76561198073074064,"connected_time":593000000000,"state":"active","ping":64},{"user_id":187,"name":"KPA23_","steam_id":76561198381808074,"connected_time":573000000000,"state":"active","ping":55},{"user_id":188,"name":"put my hand in the cashregister","steam_id":76561198062991744,"connected_time":508000000000,"state":"active","ping":51},{"user_id":189,"name":"TacoMan","steam_id":76561198049405741,"connected_time":342000000000,"state":"active","ping":87},{"user_id":190,"name":"day 1 no tren","steam_id":76561199246237446,"connected_time":233000000000,"state":"active","ping":72},{"user_id":191,"name":"KING","steam_id":76561198122223730,"connected_time":198000000000,"state":"active","ping":89},{"user_id":192,"name":"leonardo doujinshi","steam_id":76561198025810326,"connected_time":147000000000,"state":"active","ping":62},{"user_id":193,"name":"Xrath","steam_id":76561198220741860,"connected_time":144000000000,"state":"active","ping":55},{"user_id":194,"name":"Warpy","steam_id":76561198055852599,"connected_time":132000000000,"state":"active","ping":68},{"user_id":196,"name":"xLeoparrd","steam_id":76561198940657194,"connected_time":84000000000,"state":"active","ping":85}]},{"server_id":142,"name":"Uncletopia | São Paulo | 1 | All Maps","name_short":"sao-1","host":"sao-1.br.uncletopia.com","port":27015,"enabled":true,"region":"sa","cc":"br","latitude":-23.533773,"longitude":-46.62529,"reserved":0,"last_update":"0001-01-01T00:00:00Z","name_a2s":"Uncletopia | São Paulo | 1 | All Maps","protocol":17,"map":"pl_snowycoast","folder":"tf","game":"Team Fortress","app_id":440,"player_count":0,"max_players":24,"Bots":0,"server_type":"Dedicated","server_os":"Linux","password":true,"vac":true,"version":"7932396","steam_id":85568392924469996,"keywords":["nocrits","nodmgspread","payload","uncletopia"],"game_id":440,"stv_port":27016,"stv_name":"Uncletopia | São Paulo | 1 | All Maps | STV","players":null},{"server_id":143,"name":"Uncletopia | São Paulo | 2 | All Maps","name_short":"sao-2","host":"sao-2.br.uncletopia.com","port":27015,"enabled":true,"region":"sa","cc":"br","latitude":-23.533773,"longitude":-46.62529,"reserved":0,"last_update":"0001-01-01T00:00:00Z","name_a2s":"Uncletopia | São Paulo | 2 | All Maps","protocol":17,"map":"pl_snowycoast","folder":"tf","game":"Team Fortress","app_id":440,"player_count":23,"max_players":24,"Bots":0,"server_type":"Dedicated","server_os":"Linux","password":true,"vac":true,"version":"7932396","steam_id":85568392924485349,"keywords":["nocrits","nodmgspread","payload","uncletopia"],"game_id":440,"stv_port":27016,"stv_name":"Uncletopia | São Paulo | 2 | All Maps | STV","players":[{"user_id":28,"name":"Punga","steam_id":76561198083529226,"connected_time":5080000000000,"state":"active","ping":48},{"user_id":81,"name":"GirlsGoGames","steam_id":76561198971749651,"connected_time":971000000000,"state":"active","ping":76},{"user_id":64,"name":"^_D∆n_^","steam_id":76561198042470476,"connected_time":2114000000000,"state":"active","ping":46},{"user_id":84,"name":"Daniel","steam_id":76561198045688254,"connected_time":892000000000,"state":"active","ping":50},{"user_id":20,"name":"Cachorro Loko","steam_id":76561198149302888,"connected_time":5595000000000,"state":"active","ping":53},{"user_id":21,"name":"THE","steam_id":76561198815935521,"connected_time":5580000000000,"state":"active","ping":57},{"user_id":92,"name":"shima♡","steam_id":76561199079561482,"connected_time":539000000000,"state":"active","ping":65},{"user_id":62,"name":"Mackbad","steam_id":76561197993482535,"connected_time":2270000000000,"state":"active","ping":46},{"user_id":93,"name":".fnord","steam_id":76561198119754613,"connected_time":504000000000,"state":"active","ping":47},{"user_id":65,"name":"-] K o Я n [-","steam_id":76561197978905832,"connected_time":2089000000000,"state":"active","ping":71},{"user_id":94,"name":"Daisy Le Nerd","steam_id":76561198149350087,"connected_time":222000000000,"state":"active","ping":46},{"user_id":95,"name":"NiBo","steam_id":76561198122736880,"connected_time":82000000000,"state":"spawning","ping":77},{"user_id":77,"name":"aweonator3000","steam_id":76561199197408896,"connected_time":1246000000000,"state":"active","ping":122},{"user_id":72,"name":"Piazinho","steam_id":76561198054820896,"connected_time":1411000000000,"state":"active","ping":46},{"user_id":63,"name":"Granemann","steam_id":76561198086827008,"connected_time":2153000000000,"state":"active","ping":67},{"user_id":87,"name":"URSS","steam_id":76561198950413602,"connected_time":733000000000,"state":"active","ping":36},{"user_id":45,"name":"SpookyDude","steam_id":76561199083277817,"connected_time":3351000000000,"state":"active","ping":75},{"user_id":75,"name":"POWERMETAL","steam_id":76561198051452677,"connected_time":1270000000000,"state":"active","ping":102},{"user_id":76,"name":"Phisolopho","steam_id":76561198052011641,"connected_time":1257000000000,"state":"active","ping":43},{"user_id":78,"name":"Ness_200","steam_id":76561199006732218,"connected_time":1244000000000,"state":"active","ping":103},{"user_id":79,"name":"Sudom","steam_id":76561198428550896,"connected_time":1239000000000,"state":"active","ping":170},{"user_id":53,"name":"Brawmario","steam_id":76561198025313430,"connected_time":3076000000000,"state":"active","ping":40},{"user_id":89,"name":"Tixoner","steam_id":76561198126766253,"connected_time":672000000000,"state":"active","ping":84}]},{"server_id":7,"name":"Uncletopia | Seattle | 1 | All Maps","name_short":"sea-1","host":"sea-1.us.uncletopia.com","port":27015,"enabled":true,"region":"us-west","cc":"us","latitude":47.608013,"longitude":-122.33517,"reserved":0,"last_update":"0001-01-01T00:00:00Z","name_a2s":"Uncletopia | Seattle | 1 | All Maps","protocol":17,"map":"pl_badwater","folder":"tf","game":"Team Fortress","app_id":440,"player_count":24,"max_players":24,"Bots":0,"server_type":"Dedicated","server_os":"Linux","password":true,"vac":true,"version":"7932396","steam_id":85568392924469997,"keywords":["nocrits","nodmgspread","payload","uncletopia"],"game_id":440,"stv_port":27016,"stv_name":"Uncletopia | Seattle | 1 | All Maps | STV","players":[{"user_id":236,"name":"sillyjack","steam_id":76561198844273999,"connected_time":1801000000000,"state":"active","ping":42},{"user_id":228,"name":"magic","steam_id":76561198031957385,"connected_time":2621000000000,"state":"active","ping":67},{"user_id":230,"name":"gloobern","steam_id":76561198341190679,"connected_time":2587000000000,"state":"active","ping":56},{"user_id":184,"name":"Daz","steam_id":76561198041431938,"connected_time":7147000000000,"state":"active","ping":50},{"user_id":245,"name":"carter","steam_id":76561197993829288,"connected_time":959000000000,"state":"active","ping":50},{"user_id":253,"name":"Eraser cat","steam_id":76561199045570463,"connected_time":480000000000,"state":"active","ping":47},{"user_id":223,"name":"evilOlive","steam_id":76561198106222025,"connected_time":3360000000000,"state":"active","ping":80},{"user_id":243,"name":"Neptune˖⁺｡˚⋆˙♥","steam_id":76561199054203198,"connected_time":1089000000000,"state":"active","ping":129},{"user_id":246,"name":"jon pickle water","steam_id":76561199036212135,"connected_time":918000000000,"state":"active","ping":64},{"user_id":210,"name":"Coowil","steam_id":76561198070985437,"connected_time":5072000000000,"state":"active","ping":43},{"user_id":229,"name":"Vincent Van Bro","steam_id":76561197966919802,"connected_time":2621000000000,"state":"active","ping":56},{"user_id":231,"name":"squash","steam_id":76561198150281353,"connected_time":2580000000000,"state":"active","ping":56},{"user_id":214,"name":"COOL master_9","steam_id":76561198073041151,"connected_time":3742000000000,"state":"active","ping":105},{"user_id":247,"name":"stinker","steam_id":76561198295640486,"connected_time":867000000000,"state":"active","ping":72},{"user_id":240,"name":"purple™ | they/she","steam_id":76561198057459725,"connected_time":1462000000000,"state":"active","ping":51},{"user_id":237,"name":"Dr. Karl, the AUS Science Guy","steam_id":76561198031278747,"connected_time":1801000000000,"state":"active","ping":47},{"user_id":206,"name":"Keamy","steam_id":76561199471434875,"connected_time":5487000000000,"state":"active","ping":45},{"user_id":209,"name":"jayeskae","steam_id":76561198144220801,"connected_time":5395000000000,"state":"active","ping":53},{"user_id":256,"name":"Frogzilla","steam_id":76561198077657538,"connected_time":435000000000,"state":"active","ping":69},{"user_id":261,"name":"Kanga Roo","steam_id":76561198073358867,"connected_time":272000000000,"state":"active","ping":45},{"user_id":201,"name":"Mediarch","steam_id":76561198050765729,"connected_time":6732000000000,"state":"active","ping":55},{"user_id":262,"name":"♥ Milo Stefferson ♥ (Soupca","steam_id":76561198056269538,"connected_time":166000000000,"state":"active","ping":58},{"user_id":133,"name":"dust | she/it","steam_id":76561198045218909,"connected_time":11075000000000,"state":"active","ping":43},{"user_id":198,"name":"shiadyne","steam_id":76561198271939793,"connected_time":6816000000000,"state":"active","ping":47}]},{"server_id":119,"name":"Uncletopia | Seattle | 2 | All Maps","name_short":"sea-2","host":"sea-1.us.uncletopia.com","port":27025,"enabled":true,"region":"us-west","cc":"us","latitude":47.608013,"longitude":-122.33517,"reserved":0,"last_update":"0001-01-01T00:00:00Z","name_a2s":"Uncletopia | Seattle | 2 | All Maps","protocol":17,"map":"cp_process_final","folder":"tf","game":"Team Fortress","app_id":440,"player_count":24,"max_players":24,"Bots":0,"server_type":"Dedicated","server_os":"Linux","password":true,"vac":true,"version":"7932396","steam_id":85568392924469998,"keywords":["cp","nocrits","nodmgspread","uncletopia"],"game_id":440,"stv_port":27026,"stv_name":"Uncletopia | Seattle | 2 | All Maps | STV","players":[{"user_id":49,"name":"UnReLinked","steam_id":76561199366044663,"connected_time":1462000000000,"state":"active","ping":56},{"user_id":24,"name":"wmjledger","steam_id":76561198443046861,"connected_time":2374000000000,"state":"active","ping":57},{"user_id":25,"name":"Shadmage","steam_id":76561198312008132,"connected_time":2267000000000,"state":"active","ping":74},{"user_id":26,"name":"Firering death","steam_id":76561198262564644,"connected_time":2136000000000,"state":"active","ping":95},{"user_id":27,"name":"paChewychomp","steam_id":76561198068738250,"connected_time":2128000000000,"state":"active","ping":62},{"user_id":69,"name":"ronald","steam_id":76561197960691622,"connected_time":128000000000,"state":"active","ping":76},{"user_id":33,"name":"Vazl","steam_id":76561198248730006,"connected_time":1698000000000,"state":"active","ping":113},{"user_id":30,"name":"sp0g","steam_id":76561198096846239,"connected_time":1724000000000,"state":"active","ping":66},{"user_id":58,"name":"Jade Greenleaf","steam_id":76561198304845413,"connected_time":684000000000,"state":"active","ping":127},{"user_id":68,"name":"Shroomish","steam_id":76561199109440924,"connected_time":162000000000,"state":"active","ping":53},{"user_id":34,"name":"RefriedToast","steam_id":76561198166187853,"connected_time":1695000000000,"state":"active","ping":75},{"user_id":37,"name":"1973 Chevy Nova","steam_id":76561198987209014,"connected_time":1647000000000,"state":"active","ping":114},{"user_id":60,"name":"Owl Of Delos","steam_id":76561198437116566,"connected_time":462000000000,"state":"active","ping":62},{"user_id":39,"name":"agb 4FUN","steam_id":76561198094512992,"connected_time":1626000000000,"state":"active","ping":105},{"user_id":40,"name":"samantha","steam_id":76561198049258493,"connected_time":1623000000000,"state":"active","ping":51},{"user_id":41,"name":"SheppoBeppo","steam_id":76561198133734515,"connected_time":1623000000000,"state":"active","ping":115},{"user_id":62,"name":"BlazedBunny","steam_id":76561198243610560,"connected_time":300000000000,"state":"active","ping":74},{"user_id":61,"name":"Chairdog","steam_id":76561197980385816,"connected_time":341000000000,"state":"active","ping":52},{"user_id":63,"name":"Church Sox","steam_id":76561198044679094,"connected_time":282000000000,"state":"active","ping":106},{"user_id":46,"name":"bingabooga","steam_id":76561198101057741,"connected_time":1551000000000,"state":"active","ping":96},{"user_id":59,"name":"mango cafe","steam_id":76561198142328193,"connected_time":473000000000,"state":"active","ping":45},{"user_id":48,"name":"Barron","steam_id":76561198028024106,"connected_time":1512000000000,"state":"active","ping":142},{"user_id":67,"name":"scrimblo","steam_id":76561199150833796,"connected_time":218000000000,"state":"active","ping":87},{"user_id":51,"name":"Shitter","steam_id":76561198152570304,"connected_time":1429000000000,"state":"active","ping":70}]},{"server_id":406,"name":"Uncletopia | Seattle | 3 | Stopwatch Beta","name_short":"sea-3","host":"sea-1.us.uncletopia.com","port":27035,"enabled":true,"region":"us-west","cc":"us","latitude":47.608013,"longitude":-122.33517,"reserved":0,"last_update":"0001-01-01T00:00:00Z","name_a2s":"Uncletopia | Seattle | 3 | Stopwatch Beta","protocol":17,"map":"workshop/koth_bagel_rc6.ugc2514036946","folder":"tf","game":"Team Fortress","app_id":440,"player_count":0,"max_players":24,"Bots":0,"server_type":"Dedicated","server_os":"Linux","password":true,"vac":true,"version":"7932396","steam_id":85568392924515217,"keywords":["cp","nocrits","nodmgspread","uncletopia"],"game_id":440,"stv_port":27036,"stv_name":"Uncletopia | Seattle | 3 | Stopwatch Beta | STV","players":null},{"server_id":17,"name":"Uncletopia | San Francisco | 1 | All Maps","name_short":"sfo-1","host":"sfo-1.us.uncletopia.com","port":27015,"enabled":true,"region":"us-west","cc":"us","latitude":37.77397,"longitude":-122.4313,"reserved":0,"last_update":"0001-01-01T00:00:00Z","name_a2s":"Uncletopia | San Francisco | 1 | All Maps","protocol":17,"map":"pl_upward","folder":"tf","game":"Team Fortress","app_id":440,"player_count":24,"max_players":24,"Bots":0,"server_type":"Dedicated","server_os":"Linux","password":true,"vac":true,"version":"7932396","steam_id":85568392924469999,"keywords":["nocrits","nodmgspread","payload","uncletopia"],"game_id":440,"stv_port":27016,"stv_name":"Uncletopia | San Francisco | 1 | All Maps | STV","players":[{"user_id":79,"name":"NVM!!!","steam_id":76561198432721568,"connected_time":2217000000000,"state":"active","ping":81},{"user_id":71,"name":"GrabHis_AndTwist_It","steam_id":76561198139155108,"connected_time":2411000000000,"state":"active","ping":118},{"user_id":72,"name":"space mann","steam_id":76561198174447043,"connected_time":2387000000000,"state":"active","ping":104},{"user_id":106,"name":"CapKolea","steam_id":76561198194894413,"connected_time":903000000000,"state":"active","ping":112},{"user_id":85,"name":"Xx_joefunnymoment_xX","steam_id":76561199013129784,"connected_time":2016000000000,"state":"active","ping":90},{"user_id":105,"name":"The Super Mario Bros. Movie","steam_id":76561198871692156,"connected_time":958000000000,"state":"active","ping":72},{"user_id":97,"name":"Radio","steam_id":76561198194821053,"connected_time":1672000000000,"state":"active","ping":72},{"user_id":74,"name":"Docotor Sex, M.D","steam_id":76561198069143874,"connected_time":2364000000000,"state":"active","ping":111},{"user_id":64,"name":"mrthugpug1732","steam_id":76561198881200768,"connected_time":2881000000000,"state":"active","ping":71},{"user_id":62,"name":"Archie","steam_id":76561198137112917,"connected_time":3056000000000,"state":"active","ping":46},{"user_id":110,"name":"Paul Gaming","steam_id":76561198065538229,"connected_time":279000000000,"state":"active","ping":62},{"user_id":83,"name":"the_knights_baby_yoshi__69","steam_id":76561199100342013,"connected_time":2132000000000,"state":"active","ping":51},{"user_id":100,"name":"Leonhard Euler","steam_id":76561199070141774,"connected_time":1355000000000,"state":"active","ping":42},{"user_id":80,"name":"dweamy","steam_id":76561198119181880,"connected_time":2209000000000,"state":"active","ping":65},{"user_id":101,"name":"MayKaye","steam_id":76561199016092265,"connected_time":1344000000000,"state":"active","ping":77},{"user_id":99,"name":"Rat","steam_id":76561198146558552,"connected_time":1480000000000,"state":"active","ping":72},{"user_id":88,"name":"Jeff the 19th","steam_id":76561198189315491,"connected_time":1961000000000,"state":"active","ping":75},{"user_id":108,"name":"teapot","steam_id":76561198065889595,"connected_time":465000000000,"state":"active","ping":100},{"user_id":90,"name":"sleepy boy","steam_id":76561198049220780,"connected_time":1878000000000,"state":"active","ping":69},{"user_id":102,"name":"genaro salazar","steam_id":76561198085451776,"connected_time":1341000000000,"state":"active","ping":85},{"user_id":92,"name":"Void","steam_id":76561199186496740,"connected_time":1862000000000,"state":"active","ping":142},{"user_id":111,"name":"Yurei","steam_id":76561198088750661,"connected_time":269000000000,"state":"active","ping":59},{"user_id":94,"name":"Still Alive","steam_id":76561198042523000,"connected_time":1860000000000,"state":"active","ping":104},{"user_id":95,"name":"Laxoloni","steam_id":76561199197045700,"connected_time":1832000000000,"state":"active","ping":73}]},{"server_id":18,"name":"Uncletopia | San Francisco | 2 | All Maps","name_short":"sfo-2","host":"sfo-1.us.uncletopia.com","port":27025,"enabled":true,"region":"us-west","cc":"us","latitude":37.77397,"longitude":-122.4313,"reserved":0,"last_update":"0001-01-01T00:00:00Z","name_a2s":"Uncletopia | San Francisco | 2 | All Maps","protocol":17,"map":"pl_snowycoast","folder":"tf","game":"Team Fortress","app_id":440,"player_count":1,"max_players":24,"Bots":0,"server_type":"Dedicated","server_os":"Linux","password":true,"vac":true,"version":"7932396","steam_id":85568392924470000,"keywords":["nocrits","nodmgspread","payload","uncletopia"],"game_id":440,"stv_port":27026,"stv_name":"Uncletopia | San Francisco | 2 | All Maps | STV","players":[{"user_id":8,"name":"Ortadragon","steam_id":76561198023058412,"connected_time":113000000000,"state":"active","ping":56}]},{"server_id":19,"name":"Uncletopia | San Francisco | 3 | Stopwatch Beta","name_short":"sfo-3","host":"sfo-1.us.uncletopia.com","port":27035,"enabled":true,"region":"us-west","cc":"us","latitude":37.77397,"longitude":-122.4313,"reserved":0,"last_update":"0001-01-01T00:00:00Z","name_a2s":"Uncletopia | San Francisco | 3 | Stopwatch Beta","protocol":17,"map":"workshop/pl_badwater_pro_v12.ugc2142942074","folder":"tf","game":"Team Fortress","app_id":440,"player_count":0,"max_players":24,"Bots":0,"server_type":"Dedicated","server_os":"Linux","password":true,"vac":true,"version":"7932396","steam_id":85568392924742824,"keywords":["nocrits","nodmgspread","payload","uncletopia"],"game_id":440,"stv_port":27036,"stv_name":"Uncletopia | San Francisco | 3 | Stopwatch Beta | STV","players":null},{"server_id":20,"name":"Uncletopia | San Francisco | 4 | Community","name_short":"sfo-4","host":"sfo-1.us.uncletopia.com","port":27045,"enabled":true,"region":"us-west","cc":"us","latitude":37.77397,"longitude":-122.4313,"reserved":0,"last_update":"0001-01-01T00:00:00Z","name_a2s":"Uncletopia | San Francisco | 4 | Community","protocol":17,"map":"pl_borneo","folder":"tf","game":"Team Fortress","app_id":440,"player_count":0,"max_players":24,"Bots":0,"server_type":"Dedicated","server_os":"Linux","password":true,"vac":true,"version":"7932396","steam_id":85568392924742826,"keywords":["nocrits","nodmgspread","payload","uncletopia"],"game_id":440,"stv_port":27046,"stv_name":"Uncletopia | San Francisco | 4 | Community | STV","players":null},{"server_id":141,"name":"Uncletopia | Sydney | 1 | All Maps","name_short":"syd-1","host":"syd-1.au.uncletopia.com","port":27015,"enabled":true,"region":"au","cc":"au","latitude":-33.865143,"longitude":151.2099,"reserved":0,"last_update":"0001-01-01T00:00:00Z","name_a2s":"Uncletopia | Sydney | 1 | All Maps","protocol":17,"map":"pl_badwater","folder":"tf","game":"Team Fortress","app_id":440,"player_count":19,"max_players":24,"Bots":0,"server_type":"Dedicated","server_os":"Linux","password":true,"vac":true,"version":"7932396","steam_id":85568392924470001,"keywords":["nocrits","nodmgspread","payload","uncletopia"],"game_id":440,"stv_port":27016,"stv_name":"Uncletopia | Sydney | 1 | All Maps | STV","players":[{"user_id":9,"name":"lunar","steam_id":76561198102469410,"connected_time":2504000000000,"state":"active","ping":56},{"user_id":10,"name":"♥AAAAYN oppab","steam_id":76561198085486146,"connected_time":2499000000000,"state":"active","ping":51},{"user_id":38,"name":"Yeat","steam_id":76561198202555552,"connected_time":38000000000,"state":"active","ping":40},{"user_id":12,"name":"Phibs","steam_id":76561199323730865,"connected_time":2482000000000,"state":"active","ping":45},{"user_id":15,"name":"UpNGo Sebwey","steam_id":76561198200319762,"connected_time":2228000000000,"state":"active","ping":56},{"user_id":16,"name":"Chez","steam_id":76561198089925051,"connected_time":2149000000000,"state":"active","ping":93},{"user_id":17,"name":"Hyak","steam_id":76561198175700625,"connected_time":2144000000000,"state":"active","ping":85},{"user_id":18,"name":"haze","steam_id":76561198364434717,"connected_time":2071000000000,"state":"active","ping":58},{"user_id":19,"name":"DKC","steam_id":76561198313578155,"connected_time":2064000000000,"state":"active","ping":40},{"user_id":20,"name":"kaeru","steam_id":76561198300661780,"connected_time":2036000000000,"state":"active","ping":38},{"user_id":27,"name":"b4sedhk","steam_id":76561198831069486,"connected_time":1032000000000,"state":"active","ping":55},{"user_id":23,"name":"brainwashing_victim2002","steam_id":76561198110145092,"connected_time":1602000000000,"state":"active","ping":80},{"user_id":29,"name":"ow","steam_id":76561198133277383,"connected_time":605000000000,"state":"active","ping":45},{"user_id":28,"name":"Coolz9","steam_id":76561198859508414,"connected_time":742000000000,"state":"active","ping":52},{"user_id":30,"name":"Verbatos","steam_id":76561198918453808,"connected_time":589000000000,"state":"active","ping":74},{"user_id":31,"name":"HadesRJW","steam_id":76561198292098075,"connected_time":549000000000,"state":"active","ping":56},{"user_id":39,"name":"الموت لأمريكا","steam_id":76561198394470304,"connected_time":4000000000,"state":"spawning","ping":188},{"user_id":36,"name":"scubasteve","steam_id":76561198101975391,"connected_time":144000000000,"state":"active","ping":46},{"user_id":37,"name":"ditzy","steam_id":76561198120774968,"connected_time":123000000000,"state":"active","ping":100}]},{"server_id":123,"name":"Uncletopia | Sydney | 2 | All Maps","name_short":"syd-2","host":"syd-1.au.uncletopia.com","port":27025,"enabled":true,"region":"au","cc":"au","latitude":-33.865143,"longitude":151.2099,"reserved":0,"last_update":"0001-01-01T00:00:00Z","name_a2s":"Uncletopia | Sydney | 2 | All Maps","protocol":17,"map":"koth_lakeside_final","folder":"tf","game":"Team Fortress","app_id":440,"player_count":0,"max_players":24,"Bots":0,"server_type":"Dedicated","server_os":"Linux","password":true,"vac":true,"version":"7932396","steam_id":85568392924470002,"keywords":["cp","nocrits","nodmgspread","uncletopia"],"game_id":440,"stv_port":27026,"stv_name":"Uncletopia | Sydney | 2 | All Maps | STV","players":null},{"server_id":395,"name":"Uncletopia | Sydney | 3 | All Maps","name_short":"syd-3","host":"syd-1.au.uncletopia.com","port":27035,"enabled":true,"region":"au","cc":"au","latitude":-33.865143,"longitude":151.2099,"reserved":0,"last_update":"0001-01-01T00:00:00Z","name_a2s":"Uncletopia | Sydney | 3 | All Maps","protocol":17,"map":"cp_dustbowl","folder":"tf","game":"Team Fortress","app_id":440,"player_count":0,"max_players":24,"Bots":0,"server_type":"Dedicated","server_os":"Linux","password":true,"vac":true,"version":"7932396","steam_id":85568392925194467,"keywords":["cp","nocrits","nodmgspread","uncletopia"],"game_id":440,"stv_port":27036,"stv_name":"Uncletopia | Sydney | 3 | All Maps | STV","players":null},{"server_id":396,"name":"Uncletopia | Sydney | 4 | All Maps","name_short":"syd-4","host":"syd-1.au.uncletopia.com","port":27045,"enabled":true,"region":"au","cc":"au","latitude":-33.865143,"longitude":151.2099,"reserved":0,"last_update":"0001-01-01T00:00:00Z","name_a2s":"Uncletopia | Sydney | 4 | All Maps","protocol":17,"map":"pl_pier","folder":"tf","game":"Team Fortress","app_id":440,"player_count":0,"max_players":24,"Bots":0,"server_type":"Dedicated","server_os":"Linux","password":true,"vac":true,"version":"7932396","steam_id":85568392925397958,"keywords":["nocrits","nodmgspread","payload","uncletopia"],"game_id":440,"stv_port":27046,"stv_name":"Uncletopia | Sydney | 4 | All Maps | STV","players":null},{"server_id":58,"name":"Uncletopia | Sydney | 5 | Stopwatch Beta","name_short":"syd-5","host":"syd-1.au.uncletopia.com","port":27055,"enabled":true,"region":"au","cc":"au","latitude":-33.865143,"longitude":151.2099,"reserved":0,"last_update":"0001-01-01T00:00:00Z","name_a2s":"Uncletopia | Sydney | 5 | Stopwatch Beta","protocol":17,"map":"pl_borneo","folder":"tf","game":"Team Fortress","app_id":440,"player_count":0,"max_players":24,"Bots":0,"server_type":"Dedicated","server_os":"Linux","password":true,"vac":true,"version":"7932396","steam_id":85568392925397959,"keywords":["nocrits","nodmgspread","payload","uncletopia"],"game_id":440,"stv_port":27056,"stv_name":"Uncletopia | Sydney | 5 | Stopwatch Beta | STV","players":null},{"server_id":59,"name":"Uncletopia | Sydney | 6 | Community","name_short":"syd-6","host":"syd-1.au.uncletopia.com","port":27065,"enabled":true,"region":"au","cc":"au","latitude":-33.865143,"longitude":151.2099,"reserved":0,"last_update":"0001-01-01T00:00:00Z","name_a2s":"Uncletopia | Sydney | 6 | Community","protocol":17,"map":"workshop/pl_vigil_rc9.ugc1266210012","folder":"tf","game":"Team Fortress","app_id":440,"player_count":0,"max_players":24,"Bots":0,"server_type":"Dedicated","server_os":"Linux","password":true,"vac":true,"version":"7932396","steam_id":85568392925397960,"keywords":["nocrits","nodmgspread","payload","uncletopia"],"game_id":440,"stv_port":27066,"stv_name":"Uncletopia | Sydney | 6 | Community | STV","players":null},{"server_id":49,"name":"Uncletopia | Warsaw | 1 | All Maps","name_short":"waw-1","host":"waw-1.pl.uncletopia.com","port":27015,"enabled":true,"region":"eu","cc":"pl","latitude":52.2297,"longitude":21.017532,"reserved":0,"last_update":"0001-01-01T00:00:00Z","name_a2s":"","protocol":0,"map":"","folder":"","game":"","app_id":0,"player_count":0,"max_players":0,"Bots":0,"server_type":"","server_os":"","password":false,"vac":false,"version":"","steam_id":0,"keywords":null,"game_id":0,"stv_port":0,"stv_name":"","players":null},{"server_id":50,"name":"Uncletopia | Warsaw | 2 | All Maps","name_short":"waw-2","host":"waw-1.pl.uncletopia.com","port":27025,"enabled":true,"region":"eu","cc":"pl","latitude":52.2297,"longitude":21.017532,"reserved":0,"last_update":"0001-01-01T00:00:00Z","name_a2s":"Uncletopia | Warsaw | 2 | All Maps","protocol":17,"map":"koth_highpass","folder":"tf","game":"Team Fortress","app_id":440,"player_count":2,"max_players":24,"Bots":0,"server_type":"Dedicated","server_os":"Linux","password":true,"vac":true,"version":"7932396","steam_id":85568392925397851,"keywords":["cp","nocrits","nodmgspread","uncletopia"],"game_id":440,"stv_port":27026,"stv_name":"Uncletopia | Warsaw | 2 | All Maps | STV","players":[{"user_id":425,"name":"vi","steam_id":76561198303147966,"connected_time":1365000000000,"state":"active","ping":75},{"user_id":389,"name":"Doctor Marijuana","steam_id":76561198288289879,"connected_time":5813000000000,"state":"active","ping":82}]},{"server_id":51,"name":"Uncletopia | Warsaw | 3 | All Maps","name_short":"waw-3","host":"waw-1.pl.uncletopia.com","port":27035,"enabled":true,"region":"eu","cc":"pl","latitude":52.2297,"longitude":21.017532,"reserved":0,"last_update":"0001-01-01T00:00:00Z","name_a2s":"Uncletopia | Warsaw | 3 | All Maps","protocol":17,"map":"koth_viaduct","folder":"tf","game":"Team Fortress","app_id":440,"player_count":0,"max_players":24,"Bots":0,"server_type":"Dedicated","server_os":"Linux","password":true,"vac":true,"version":"7932396","steam_id":85568392925397852,"keywords":["cp","nocrits","nodmgspread","uncletopia"],"game_id":440,"stv_port":27036,"stv_name":"Uncletopia | Warsaw | 3 | All Maps | STV","players":null},{"server_id":52,"name":"Uncletopia | Warsaw | 4 | All Maps","name_short":"waw-4","host":"waw-1.pl.uncletopia.com","port":27045,"enabled":true,"region":"eu","cc":"pl","latitude":52.2297,"longitude":21.017532,"reserved":0,"last_update":"0001-01-01T00:00:00Z","name_a2s":"Uncletopia | Warsaw | 4 | All Maps","protocol":17,"map":"cp_dustbowl","folder":"tf","game":"Team Fortress","app_id":440,"player_count":0,"max_players":24,"Bots":0,"server_type":"Dedicated","server_os":"Linux","password":true,"vac":true,"version":"7932396","steam_id":85568392925397853,"keywords":["cp","nocrits","nodmgspread","uncletopia"],"game_id":440,"stv_port":27046,"stv_name":"Uncletopia | Warsaw | 4 | All Maps | STV","players":null},{"server_id":53,"name":"Uncletopia | Warsaw | 5 | Stopwatch Beta","name_short":"waw-5","host":"waw-1.pl.uncletopia.com","port":27055,"enabled":true,"region":"eu","cc":"pl","latitude":52.2297,"longitude":21.017532,"reserved":0,"last_update":"0001-01-01T00:00:00Z","name_a2s":"Uncletopia | Warsaw | 5 | Stopwatch Beta","protocol":17,"map":"koth_lakeside_final","folder":"tf","game":"Team Fortress","app_id":440,"player_count":0,"max_players":24,"Bots":0,"server_type":"Dedicated","server_os":"Linux","password":true,"vac":true,"version":"7932396","steam_id":85568392925397854,"keywords":["cp","nocrits","nodmgspread","uncletopia"],"game_id":440,"stv_port":27056,"stv_name":"Uncletopia | Warsaw | 5 | Stopwatch Beta | STV","players":null},{"server_id":54,"name":"Uncletopia | Warsaw | 6 | Community","name_short":"waw-6","host":"waw-1.pl.uncletopia.com","port":27065,"enabled":true,"region":"eu","cc":"pl","latitude":52.2297,"longitude":21.017532,"reserved":0,"last_update":"0001-01-01T00:00:00Z","name_a2s":"Uncletopia | Warsaw | 6 | Community","protocol":17,"map":"pl_upward","folder":"tf","game":"Team Fortress","app_id":440,"player_count":0,"max_players":24,"Bots":0,"server_type":"Dedicated","server_os":"Linux","password":true,"vac":true,"version":"7932396","steam_id":85568392925397856,"keywords":["nocrits","nodmgspread","payload","uncletopia"],"game_id":440,"stv_port":27066,"stv_name":"Uncletopia | Warsaw | 6 | Community | STV","players":null}]}