{"status":true,"message":"","result":[{"server_id":9,"name":"Uncletopia | Atlanta | 1 | All Maps","name_short":"atl-1","host":"atl-1.us.uncletopia.com","port":27015,"enabled":true,"region":"us-east","cc":"us","latitude":33.753746,"longitude":-84.38633,"reserved":0,"last_update":"0001-01-01T00:00:00Z","name_a2s":"Uncletopia | Atlanta | 1 | All Maps","protocol":17,"map":"pl_upward","folder":"tf","game":"Team Fortress","app_id":440,"player_count":24,"max_players":24,"Bots":0,"server_type":"Dedicated","server_os":"Linux","password":true,"vac":true,"version":"7701286","steam_id":85568392924469982,"keywords":["nocrits","nodmgspread","payload","uncletopia"],"game_id":440,"stv_port":27016,"stv_name":"Uncletopia | Atlanta | 1 | All Maps | STV","players":[{"user_id":786,"name":"V!CT!M","steam_id":76561198962721502,"connected_time":1916000000000,"state":"active","ping":77},{"user_id":778,"name":"ATL1 | eish","steam_id":76561198089463603,"connected_time":2328000000000,"state":"active","ping":116},{"user_id":774,"name":"Totouri","steam_id":76561198004229789,"connected_time":2620000000000,"state":"active","ping":75},{"user_id":805,"name":"cblu","steam_id":76561199207457676,"connected_time":314000000000,"state":"active","ping":92},{"user_id":800,"name":"PrinceGrotle","steam_id":76561198206131603,"connected_time":657000000000,"state":"active","ping":71},{"user_id":780,"name":"Krissy Krampus","steam_id":76561197960848174,"connected_time":2254000000000,"state":"active","ping":63},{"user_id":794,"name":"Angel","steam_id":76561198175654911,"connected_time":1534000000000,"state":"active","ping":76},{"user_id":797,"name":"Plant","steam_id":76561198025420549,"connected_time":913000000000,"state":"active","ping":63},{"user_id":783,"name":"DingDongAnalog","steam_id":76561198850181994,"connected_time":2067000000000,"state":"active","ping":109},{"user_id":803,"name":"CrankShaft","steam_id":76561197970750813,"connected_time":501000000000,"state":"active","ping":32},{"user_id":782,"name":"TaintedCap","steam_id":76561199115792397,"connected_time":2198000000000,"state":"active","ping":83},{"user_id":785,"name":"SnowStorm","steam_id":76561198095817025,"connected_time":1932000000000,"state":"active","ping":36},{"user_id":754,"name":"William H. Taft","steam_id":76561197968031002,"connected_time":3693000000000,"state":"active","ping":82},{"user_id":764,"name":"artlex","steam_id":76561198849767970,"connected_time":2982000000000,"state":"active","ping":66},{"user_id":804,"name":"THRILLHO","steam_id":76561198371663047,"connected_time":495000000000,"state":"active","ping":61},{"user_id":806,"name":"Wingm4n","steam_id":76561198064127012,"connected_time":313000000000,"state":"active","ping":47},{"user_id":742,"name":"TRHD_Pharaxer™","steam_id":76561198051236069,"connected_time":4154000000000,"state":"active","ping":157},{"user_id":775,"name":"joe lft","steam_id":76561198045781320,"connected_time":2593000000000,"state":"active","ping":63},{"user_id":791,"name":"Andrestor","steam_id":76561198005934930,"connected_time":1735000000000,"state":"active","ping":121},{"user_id":766,"name":"ZekeThePlumber","steam_id":76561197995016724,"connected_time":2923000000000,"state":"active","ping":75},{"user_id":751,"name":"CheeseCake488","steam_id":76561199407617942,"connected_time":3776000000000,"state":"active","ping":115},{"user_id":807,"name":"Tw1tch3r","steam_id":76561199093785937,"connected_time":241000000000,"state":"active","ping":134},{"user_id":795,"name":"SCHIZOPHRENIC KETAMINE NIGHTMAR","steam_id":76561198016121536,"connected_time":1515000000000,"state":"active","ping":95},{"user_id":799,"name":"sansa musa","steam_id":76561198163723555,"connected_time":779000000000,"state":"active","ping":75}]},{"server_id":400,"name":"Uncletopia | Atlanta | 3 | All Maps","name_short":"atl-3","host":"atl-1.us.uncletopia.com","port":27035,"enabled":true,"region":"us-east","cc":"us","latitude":33.753746,"longitude":-84.38633,"reserved":0,"last_update":"0001-01-01T00:00:00Z","name_a2s":"Uncletopia | Atlanta | 3 | All Maps","protocol":17,"map":"koth_highpass","folder":"tf","game":"Team Fortress","app_id":440,"player_count":0,"max_players":24,"Bots":0,"server_type":"Dedicated","server_os":"Linux","password":true,"vac":true,"version":"7701286","steam_id":85568392924515187,"keywords":["cp","nocrits","nodmgspread","uncletopia"],"game_id":440,"stv_port":0,"stv_name":"","players":null},{"server_id":401,"name":"Uncletopia | Atlanta | 4 | No Payload","name_short":"atl-4","host":"atl-1.us.uncletopia.com","port":27045,"enabled":true,"region":"us-east","cc":"us","latitude":33.753746,"longitude":-84.38633,"reserved":0,"last_update":"0001-01-01T00:00:00Z","name_a2s":"Uncletopia | Atlanta | 4 | No Payload","protocol":17,"map":"koth_brazil","folder":"tf","game":"Team Fortress","app_id":440,"player_count":4,"max_players":24,"Bots":0,"server_type":"Dedicated","server_os":"Linux","password":true,"vac":true,"version":"7701286","steam_id":85568392924515188,"keywords":["cp","nocrits","nodmgspread","uncletopia"],"game_id":440,"stv_port":27046,"stv_name":"Uncletopia | Atlanta | 4 | No Payload | STV","players":[{"user_id":28,"name":"Zucchini","steam_id":76561199187764012,"connected_time":215000000000,"state":"active","ping":66},{"user_id":17,"name":"Potato","steam_id":76561199075430859,"connected_time":2020000000000,"state":"active","ping":89},{"user_id":27,"name":"The Real Jetpack Jackson","steam_id":76561199009471455,"connected_time":236000000000,"state":"active","ping":84},{"user_id":20,"name":"Mr. J","steam_id":76561198101567155,"connected_time":1705000000000,"state":"active","ping":84}]},{"server_id":2,"name":"Uncletopia | Chicago | 1 | All Maps","name_short":"chi-1","host":"chi-1.us.uncletopia.com","port":27015,"enabled":true,"region":"us-central","cc":"us","latitude":41.881832,"longitude":-87.62318,"reserved":0,"last_update":"0001-01-01T00:00:00Z","name_a2s":"Uncletopia | Chicago | 1 | All Maps","protocol":17,"map":"cp_snakewater_final1","folder":"tf","game":"Team Fortress","app_id":440,"player_count":24,"max_players":24,"Bots":0,"server_type":"Dedicated","server_os":"Linux","password":true,"vac":true,"version":"7701286","steam_id":85568392924469984,"keywords":["cp","nocrits","nodmgspread","uncletopia"],"game_id":440,"stv_port":27016,"stv_name":"Uncletopia | Chicago | 1 | All Maps | STV","players":[{"user_id":447,"name":"lemon","steam_id":76561198329179651,"connected_time":5499000000000,"state":"active","ping":108},{"user_id":507,"name":"Chode Mode","steam_id":76561198353840477,"connected_time":1240000000000,"state":"active","ping":45},{"user_id":497,"name":"Hernandez$","steam_id":76561198019324588,"connected_time":2104000000000,"state":"active","ping":87},{"user_id":514,"name":"poey","steam_id":76561198865346767,"connected_time":1056000000000,"state":"active","ping":90},{"user_id":525,"name":"Huh?","steam_id":76561198119768703,"connected_time":655000000000,"state":"active","ping":47},{"user_id":478,"name":"zzz","steam_id":76561198012566405,"connected_time":2860000000000,"state":"active","ping":62},{"user_id":512,"name":"Aaron","steam_id":76561198064470517,"connected_time":1076000000000,"state":"active","ping":60},{"user_id":515,"name":"lag","steam_id":76561197963872739,"connected_time":1052000000000,"state":"active","ping":92},{"user_id":520,"name":"I'm sorry in advance","steam_id":76561198087380785,"connected_time":776000000000,"state":"active","ping":105},{"user_id":502,"name":"Arttur","steam_id":76561199080503175,"connected_time":1299000000000,"state":"active","ping":186},{"user_id":530,"name":"D3AC0N 44","steam_id":76561198115695203,"connected_time":295000000000,"state":"active","ping":55},{"user_id":511,"name":"Spoonastic","steam_id":76561198343838009,"connected_time":1166000000000,"state":"active","ping":114},{"user_id":504,"name":"Sweatpants","steam_id":76561198097188001,"connected_time":1280000000000,"state":"active","ping":105},{"user_id":526,"name":"6t26j","steam_id":76561198278282836,"connected_time":443000000000,"state":"active","ping":53},{"user_id":508,"name":"Evolution","steam_id":76561198144767370,"connected_time":1226000000000,"state":"active","ping":47},{"user_id":518,"name":"Amogous Supreme","steam_id":76561198025476774,"connected_time":962000000000,"state":"active","ping":104},{"user_id":521,"name":"srv","steam_id":76561198026589960,"connected_time":685000000000,"state":"active","ping":59},{"user_id":488,"name":"Braixen","steam_id":76561198354314389,"connected_time":2579000000000,"state":"active","ping":78},{"user_id":531,"name":"Ping","steam_id":76561199206514106,"connected_time":204000000000,"state":"active","ping":52},{"user_id":516,"name":"Fanatic","steam_id":76561197998548387,"connected_time":1015000000000,"state":"active","ping":65},{"user_id":528,"name":"Peter Griffin","steam_id":76561198119784475,"connected_time":369000000000,"state":"active","ping":125},{"user_id":529,"name":"▲▼▲ Paul Atreideeznuts","steam_id":76561198015714075,"connected_time":351000000000,"state":"active","ping":81},{"user_id":519,"name":"Daveisnice23","steam_id":76561198356318736,"connected_time":929000000000,"state":"active","ping":74},{"user_id":492,"name":"999problem","steam_id":76561198017539604,"connected_time":2551000000000,"state":"active","ping":77}]},{"server_id":106,"name":"Uncletopia | Chicago | 2 | All Maps","name_short":"chi-2","host":"chi-1.us.uncletopia.com","port":27025,"enabled":true,"region":"us-central","cc":"us","latitude":41.881832,"longitude":-87.62318,"reserved":0,"last_update":"0001-01-01T00:00:00Z","name_a2s":"Uncletopia | Chicago | 2 | All Maps","protocol":17,"map":"koth_highpass","folder":"tf","game":"Team Fortress","app_id":440,"player_count":0,"max_players":24,"Bots":0,"server_type":"Dedicated","server_os":"Linux","password":true,"vac":true,"version":"7701286","steam_id":85568392924469985,"keywords":["cp","nocrits","nodmgspread","uncletopia"],"game_id":440,"stv_port":27026,"stv_name":"Uncletopia | Chicago | 2 | All Maps | STV","players":null},{"server_id":402,"name":"Uncletopia | Chicago | 3 | All Maps","name_short":"chi-3","host":"chi-1.us.uncletopia.com","port":27035,"enabled":true,"region":"us-central","cc":"us","latitude":41.881832,"longitude":-87.62318,"reserved":0,"last_update":"0001-01-01T00:00:00Z","name_a2s":"Uncletopia | Chicago | 3 | All Maps","protocol":17,"map":"pl_frontier_final","folder":"tf","game":"Team Fortress","app_id":440,"player_count":24,"max_players":24,"Bots":0,"server_type":"Dedicated","server_os":"Linux","password":true,"vac":true,"version":"7701286","steam_id":85568392924515191,"keywords":["nocrits","nodmgspread","payload","uncletopia"],"game_id":440,"stv_port":27036,"stv_name":"Uncletopia | Chicago | 3 | All Maps | STV","players":[{"user_id":236,"name":"nauts salt","steam_id":76561198045832398,"connected_time":457000000000,"state":"active","ping":77},{"user_id":238,"name":"THE BLASTER","steam_id":76561198164218035,"connected_time":155000000000,"state":"active","ping":65},{"user_id":228,"name":"Ripheart","steam_id":76561198089661561,"connected_time":1116000000000,"state":"active","ping":43},{"user_id":233,"name":"Crusty the Catgirl","steam_id":76561198400058665,"connected_time":784000000000,"state":"active","ping":75},{"user_id":242,"name":"Mediocre Gaming","steam_id":76561199230467980,"connected_time":77000000000,"state":"active","ping":65},{"user_id":197,"name":"Gibby","steam_id":76561199336569123,"connected_time":2470000000000,"state":"active","ping":105},{"user_id":239,"name":"swozzel","steam_id":76561198079285108,"connected_time":150000000000,"state":"active","ping":42},{"user_id":218,"name":"patrice","steam_id":76561198078367034,"connected_time":1479000000000,"state":"active","ping":109},{"user_id":145,"name":"Crayfry","steam_id":76561198146525237,"connected_time":6609000000000,"state":"active","ping":45},{"user_id":130,"name":"Lost","steam_id":76561198025933206,"connected_time":7219000000000,"state":"active","ping":58},{"user_id":231,"name":"xiphoidar","steam_id":76561198146044049,"connected_time":825000000000,"state":"active","ping":63},{"user_id":229,"name":"super99coolman","steam_id":76561199249081889,"connected_time":1114000000000,"state":"active","ping":82},{"user_id":237,"name":"Spearit5464","steam_id":76561199241807676,"connected_time":409000000000,"state":"active","ping":97},{"user_id":185,"name":"emerge","steam_id":76561198186882891,"connected_time":3900000000000,"state":"active","ping":56},{"user_id":240,"name":"timesool","steam_id":76561198367583372,"connected_time":96000000000,"state":"active","ping":78},{"user_id":177,"name":"Question Mark","steam_id":76561199433313023,"connected_time":4502000000000,"state":"active","ping":63},{"user_id":222,"name":"aaaaaAAAAAAAAAAA :D","steam_id":76561198198984282,"connected_time":1389000000000,"state":"active","ping":65},{"user_id":241,"name":"Drakkona","steam_id":76561198095449994,"connected_time":78000000000,"state":"active","ping":78},{"user_id":245,"name":"Xuey","steam_id":76561199120960187,"connected_time":19000000000,"state":"spawning","ping":58},{"user_id":235,"name":"Mattron1","steam_id":76561198012270524,"connected_time":512000000000,"state":"active","ping":58},{"user_id":205,"name":"valtiel","steam_id":76561198165212575,"connected_time":2204000000000,"state":"active","ping":72},{"user_id":215,"name":"kitty paradise","steam_id":76561199058167329,"connected_time":1600000000000,"state":"active","ping":102},{"user_id":175,"name":"robert cheeto","steam_id":76561198066970734,"connected_time":4599000000000,"state":"active","ping":105},{"user_id":244,"name":"Minermarcus7","steam_id":76561199099397537,"connected_time":72000000000,"state":"spawning","ping":91}]},{"server_id":403,"name":"Uncletopia | Chicago | 4 | All Maps","name_short":"chi-4","host":"chi-1.us.uncletopia.com","port":27045,"enabled":true,"region":"us-central","cc":"us","latitude":41.881832,"longitude":-87.62318,"reserved":0,"last_update":"0001-01-01T00:00:00Z","name_a2s":"Uncletopia | Chicago | 4 | All Maps","protocol":17,"map":"pl_frontier_final","folder":"tf","game":"Team Fortress","app_id":440,"player_count":24,"max_players":24,"Bots":0,"server_type":"Dedicated","server_os":"Linux","password":true,"vac":true,"version":"7701286","steam_id":85568392924515193,"keywords":["nocrits","nodmgspread","payload","uncletopia"],"game_id":440,"stv_port":27046,"stv_name":"Uncletopia | Chicago | 4 | All Maps | STV","players":[{"user_id":189,"name":"Potato","steam_id":76561198989551964,"connected_time":5516000000000,"state":"active","ping":42},{"user_id":187,"name":"toq","steam_id":76561198400316620,"connected_time":5725000000000,"state":"active","ping":86},{"user_id":214,"name":"Tallywyn","steam_id":76561197998572962,"connected_time":3335000000000,"state":"active","ping":65},{"user_id":238,"name":"Epicus Lusor","steam_id":76561198271981088,"connected_time":923000000000,"state":"active","ping":60},{"user_id":236,"name":"Nexusuxen","steam_id":76561198117547131,"connected_time":1521000000000,"state":"active","ping":61},{"user_id":15,"name":"Fredfredfood","steam_id":76561198072824802,"connected_time":16619000000000,"state":"active","ping":54},{"user_id":234,"name":"22moo","steam_id":76561199075331630,"connected_time":1641000000000,"state":"active","ping":62},{"user_id":193,"name":"NoClutch","steam_id":76561198013677277,"connected_time":4875000000000,"state":"active","ping":85},{"user_id":244,"name":"Toest","steam_id":76561198076061844,"connected_time":317000000000,"state":"active","ping":47},{"user_id":161,"name":"[K.Y.L.L.]Drone #0432 (they/it)","steam_id":76561198027321950,"connected_time":7494000000000,"state":"active","ping":95},{"user_id":241,"name":"SPF420","steam_id":76561198083991705,"connected_time":493000000000,"state":"active","ping":64},{"user_id":246,"name":"slep.py","steam_id":76561197988287144,"connected_time":152000000000,"state":"active","ping":55},{"user_id":232,"name":"Vanya","steam_id":76561198042631561,"connected_time":1877000000000,"state":"active","ping":80},{"user_id":222,"name":"[SK] Punish ♥ 牧濑红莉栖","steam_id":76561198207987376,"connected_time":2893000000000,"state":"active","ping":59},{"user_id":184,"name":"stop","steam_id":76561198268686419,"connected_time":5951000000000,"state":"active","ping":59},{"user_id":176,"name":"Caboom","steam_id":76561198040221007,"connected_time":6256000000000,"state":"active","ping":91},{"user_id":211,"name":"gorf?","steam_id":76561198142286417,"connected_time":3632000000000,"state":"active","ping":70},{"user_id":242,"name":"Poopnutz","steam_id":76561198407577922,"connected_time":452000000000,"state":"active","ping":65},{"user_id":240,"name":"A tree","steam_id":76561198309065247,"connected_time":555000000000,"state":"active","ping":64},{"user_id":228,"name":"Jerry Bondle","steam_id":76561198337512213,"connected_time":2293000000000,"state":"active","ping":61},{"user_id":162,"name":"Be Gay, Do Crimes, Smoke Weed!","steam_id":76561198092419868,"connected_time":7433000000000,"state":"active","ping":90},{"user_id":82,"name":"Medic","steam_id":76561198067869016,"connected_time":13717000000000,"state":"active","ping":45},{"user_id":235,"name":"Big Jums","steam_id":76561198026601028,"connected_time":1562000000000,"state":"active","ping":41},{"user_id":233,"name":"Sea4","steam_id":76561198846451551,"connected_time":1680000000000,"state":"active","ping":86}]},{"server_id":36,"name":"Uncletopia | Chicago | 5 | All Maps","name_short":"chi-5","host":"chi-2.us.uncletopia.com","port":27015,"enabled":true,"region":"us-central","cc":"us","latitude":41.881832,"longitude":-87.62318,"reserved":0,"last_update":"0001-01-01T00:00:00Z","name_a2s":"Uncletopia | Chicago | 5 | All Maps","protocol":17,"map":"koth_lakeside_final","folder":"tf","game":"Team Fortress","app_id":440,"player_count":0,"max_players":24,"Bots":0,"server_type":"Dedicated","server_os":"Linux","password":true,"vac":true,"version":"7701286","steam_id":85568392924866362,"keywords":["cp","nocrits","nodmgspread","uncletopia"],"game_id":440,"stv_port":27016,"stv_name":"Uncletopia | Chicago | 5 | All Maps | STV","players":null},{"server_id":37,"name":"Uncletopia | Chicago | 6 | All Maps","name_short":"chi-6","host":"chi-2.us.uncletopia.com","port":27025,"enabled":true,"region":"us-central","cc":"us","latitude":41.881832,"longitude":-87.62318,"reserved":0,"last_update":"0001-01-01T00:00:00Z","name_a2s":"Uncletopia | Chicago | 6 | All Maps","protocol":17,"map":"cp_mountainlab","folder":"tf","game":"Team Fortress","app_id":440,"player_count":2,"max_players":24,"Bots":0,"server_type":"Dedicated","server_os":"Linux","password":true,"vac":true,"version":"7701286","steam_id":85568392924866363,"keywords":["cp","nocrits","nodmgspread","uncletopia"],"game_id":440,"stv_port":0,"stv_name":"","players":[{"user_id":3,"name":"Specc","steam_id":76561199090005976,"connected_time":314000000000,"state":"active","ping":74},{"user_id":5,"name":"Mr.Taco","steam_id":76561199129908018,"connected_time":161000000000,"state":"active","ping":87}]},{"server_id":38,"name":"Uncletopia | Chicago | 7 | No Payload","name_short":"chi-7","host":"chi-2.us.uncletopia.com","port":27035,"enabled":true,"region":"us-central","cc":"us","latitude":41.881832,"longitude":-87.62318,"reserved":0,"last_update":"0001-01-01T00:00:00Z","name_a2s":"Uncletopia | Chicago | 7 | No Payload","protocol":17,"map":"ctf_turbine","folder":"tf","game":"Team Fortress","app_id":440,"player_count":0,"max_players":24,"Bots":0,"server_type":"Dedicated","server_os":"Linux","password":true,"vac":true,"version":"7701286","steam_id":85568392924866364,"keywords":["ctf","nocrits","nodmgspread","uncletopia"],"game_id":440,"stv_port":27036,"stv_name":"Uncletopia | Chicago | 7 | No Payload | STV","players":null},{"server_id":39,"name":"Uncletopia | Chicago | 8 | Community","name_short":"chi-8","host":"chi-2.us.uncletopia.com","port":27045,"enabled":true,"region":"us-central","cc":"us","latitude":41.881832,"longitude":-87.62318,"reserved":0,"last_update":"0001-01-01T00:00:00Z","name_a2s":"Uncletopia | Chicago | 8 | Community","protocol":17,"map":"koth_cascade","folder":"tf","game":"Team Fortress","app_id":440,"player_count":0,"max_players":24,"Bots":0,"server_type":"Dedicated","server_os":"Linux","password":true,"vac":true,"version":"7701286","steam_id":85568392924866365,"keywords":["cp","nocrits","nodmgspread","uncletopia"],"game_id":440,"stv_port":0,"stv_name":"","players":null},{"server_id":8,"name":"Uncletopia | Dallas | 1 | All Maps","name_short":"dal-1","host":"dal-1.us.uncletopia.com","port":27015,"enabled":true,"region":"us-central","cc":"us","latitude":32.779167,"longitude":-96.80889,"reserved":0,"last_update":"0001-01-01T00:00:00Z","name_a2s":"Uncletopia | Dallas | 1 | All Maps","protocol":17,"map":"cp_process_final","folder":"tf","game":"Team Fortress","app_id":440,"player_count":24,"max_players":24,"Bots":0,"server_type":"Dedicated","server_os":"Linux","password":true,"vac":true,"version":"7701286","steam_id":85568392924469986,"keywords":["cp","nocrits","nodmgspread","uncletopia"],"game_id":440,"stv_port":27016,"stv_name":"Uncletopia | Dallas | 1 | All Maps | STV","players":[{"user_id":341,"name":"Krazzle","steam_id":76561198029782412,"connected_time":369000000000,"state":"active","ping":57},{"user_id":204,"name":"Reyloko","steam_id":76561198172480913,"connected_time":9980000000000,"state":"active","ping":75},{"user_id":337,"name":"02vg3","steam_id":76561198404320154,"connected_time":478000000000,"state":"active","ping":79},{"user_id":342,"name":"A Gamer [F2P]","steam_id":76561198138712892,"connected_time":314000000000,"state":"active","ping":43},{"user_id":279,"name":"pinglefingle","steam_id":76561198216580197,"connected_time":4493000000000,"state":"active","ping":58},{"user_id":343,"name":"groda_spel","steam_id":76561198121349387,"connected_time":262000000000,"state":"active","ping":53},{"user_id":338,"name":"Hamlindigo Blue™","steam_id":76561198116337540,"connected_time":472000000000,"state":"active","ping":84},{"user_id":330,"name":"ShootyGuns","steam_id":76561198366519134,"connected_time":791000000000,"state":"active","ping":53},{"user_id":309,"name":"kris736","steam_id":76561198038208255,"connected_time":1754000000000,"state":"active","ping":77},{"user_id":317,"name":"Kuchio","steam_id":76561198161218914,"connected_time":1115000000000,"state":"active","ping":88},{"user_id":305,"name":"McNamJam","steam_id":76561198028128686,"connected_time":1789000000000,"state":"active","ping":92},{"user_id":283,"name":"plink","steam_id":76561198057829889,"connected_time":4267000000000,"state":"active","ping":59},{"user_id":335,"name":"Bogggyyy","steam_id":76561198111417325,"connected_time":550000000000,"state":"active","ping":90},{"user_id":294,"name":"Queuetimeevent","steam_id":76561198079438423,"connected_time":3176000000000,"state":"active","ping":56},{"user_id":331,"name":"Sqwizard","steam_id":76561198043730076,"connected_time":683000000000,"state":"active","ping":61},{"user_id":345,"name":"ace.ortiz1213","steam_id":76561199117078756,"connected_time":39000000000,"state":"active","ping":78},{"user_id":301,"name":"LuciD","steam_id":76561198242842394,"connected_time":2192000000000,"state":"active","ping":65},{"user_id":257,"name":"PROFILE NAME","steam_id":76561199438851854,"connected_time":5484000000000,"state":"active","ping":115},{"user_id":326,"name":"seven","steam_id":76561198291000627,"connected_time":820000000000,"state":"active","ping":98},{"user_id":324,"name":"AudioDetox","steam_id":76561198275460098,"connected_time":899000000000,"state":"active","ping":97},{"user_id":339,"name":"kvn","steam_id":76561198012796388,"connected_time":437000000000,"state":"active","ping":64},{"user_id":346,"name":"mel","steam_id":76561198097124190,"connected_time":38000000000,"state":"active","ping":49},{"user_id":51,"name":"Anon","steam_id":76561198109740776,"connected_time":22204000000000,"state":"active","ping":87},{"user_id":296,"name":"Brandino!","steam_id":76561198000446932,"connected_time":2705000000000,"state":"active","ping":91}]},{"server_id":108,"name":"Uncletopia | Dallas | 2 | All Maps","name_short":"dal-2","host":"dal-1.us.uncletopia.com","port":27025,"enabled":true,"region":"us-central","cc":"us","latitude":32.779167,"longitude":-96.80889,"reserved":0,"last_update":"0001-01-01T00:00:00Z","name_a2s":"Uncletopia | Dallas | 2 | All Maps","protocol":17,"map":"koth_lakeside_final","folder":"tf","game":"Team Fortress","app_id":440,"player_count":0,"max_players":24,"Bots":0,"server_type":"Dedicated","server_os":"Linux","password":true,"vac":true,"version":"7701286","steam_id":85568392924469988,"keywords":["cp","nocrits","nodmgspread","uncletopia"],"game_id":440,"stv_port":27026,"stv_name":"Uncletopia | Dallas | 2 | All Maps | STV","players":null},{"server_id":5,"name":"Uncletopia | Frankfurt | 1 | All Maps","name_short":"frk-1","host":"frk-1.de.uncletopia.com","port":27015,"enabled":true,"region":"eu","cc":"de","latitude":50.110924,"longitude":8.682127,"reserved":0,"last_update":"0001-01-01T00:00:00Z","name_a2s":"Uncletopia | Frankfurt | 1 | All Maps","protocol":17,"map":"pl_thundermountain","folder":"tf","game":"Team Fortress","app_id":440,"player_count":0,"max_players":24,"Bots":0,"server_type":"Dedicated","server_os":"Linux","password":true,"vac":true,"version":"7701286","steam_id":85568392924469989,"keywords":["nocrits","nodmgspread","payload","uncletopia"],"game_id":440,"stv_port":27016,"stv_name":"Uncletopia | Frankfurt | 1 | All Maps | STV","players":null},{"server_id":110,"name":"Uncletopia | Frankfurt | 2 | All Maps","name_short":"frk-2","host":"frk-1.de.uncletopia.com","port":27025,"enabled":true,"region":"eu","cc":"de","latitude":50.110924,"longitude":8.682127,"reserved":0,"last_update":"0001-01-01T00:00:00Z","name_a2s":"Uncletopia | Frankfurt | 2 | All Maps","protocol":17,"map":"pl_snowycoast","folder":"tf","game":"Team Fortress","app_id":440,"player_count":24,"max_players":24,"Bots":0,"server_type":"Dedicated","server_os":"Linux","password":true,"vac":true,"version":"7701286","steam_id":85568392924469990,"keywords":["nocrits","nodmgspread","payload","uncletopia"],"game_id":440,"stv_port":27026,"stv_name":"Uncletopia | Frankfurt | 2 | All Maps | STV","players":[{"user_id":440,"name":"tone","steam_id":76561197975301462,"connected_time":1176000000000,"state":"active","ping":81},{"user_id":445,"name":"MAKENTAKEN","steam_id":76561199127359587,"connected_time":1026000000000,"state":"active","ping":90},{"user_id":448,"name":"Arex","steam_id":76561198289408505,"connected_time":523000000000,"state":"active","ping":88},{"user_id":449,"name":"Weenie Hut Jr's","steam_id":76561198050515739,"connected_time":520000000000,"state":"active","ping":65},{"user_id":430,"name":"bad","steam_id":76561198138027145,"connected_time":1615000000000,"state":"active","ping":95},{"user_id":450,"name":"Kurage","steam_id":76561198021221288,"connected_time":511000000000,"state":"active","ping":60},{"user_id":447,"name":"therealslimshady","steam_id":76561198147668373,"connected_time":540000000000,"state":"active","ping":57},{"user_id":380,"name":"shinji","steam_id":76561198099696876,"connected_time":4823000000000,"state":"active","ping":62},{"user_id":451,"name":"w+m1","steam_id":76561198010428082,"connected_time":507000000000,"state":"active","ping":69},{"user_id":428,"name":"Memesus","steam_id":76561199362236174,"connected_time":1627000000000,"state":"active","ping":66},{"user_id":383,"name":"i love granita al pistacchio","steam_id":76561199233979726,"connected_time":4784000000000,"state":"active","ping":77},{"user_id":439,"name":"Efeca","steam_id":76561198018923829,"connected_time":1238000000000,"state":"active","ping":63},{"user_id":441,"name":"CoDeX","steam_id":76561198354124601,"connected_time":1162000000000,"state":"active","ping":78},{"user_id":456,"name":"TrollSkill","steam_id":76561198817311579,"connected_time":368000000000,"state":"active","ping":92},{"user_id":419,"name":"Sabour","steam_id":76561197963965445,"connected_time":2366000000000,"state":"active","ping":57},{"user_id":452,"name":"0capa","steam_id":76561198218893885,"connected_time":491000000000,"state":"active","ping":65},{"user_id":453,"name":"lord-","steam_id":76561198009255857,"connected_time":483000000000,"state":"active","ping":107},{"user_id":361,"name":"Aoshi","steam_id":76561198043868358,"connected_time":5455000000000,"state":"active","ping":59},{"user_id":433,"name":"ff:ff:ff:ff:ff:ff","steam_id":76561198072122983,"connected_time":1520000000000,"state":"active","ping":60},{"user_id":415,"name":"0","steam_id":76561198167828355,"connected_time":2520000000000,"state":"active","ping":56},{"user_id":434,"name":"hipster_doofus","steam_id":76561197970902697,"connected_time":1510000000000,"state":"active","ping":60},{"user_id":413,"name":"gamer_","steam_id":76561198094125769,"connected_time":3123000000000,"state":"active","ping":76},{"user_id":443,"name":"Snowmotion","steam_id":76561198075022454,"connected_time":1150000000000,"state":"active","ping":59},{"user_id":455,"name":"Plover","steam_id":76561198080946672,"connected_time":424000000000,"state":"active","ping":75}]},{"server_id":308,"name":"Uncletopia | Frankfurt | 3 | All Maps","name_short":"frk-3","host":"frk-1.de.uncletopia.com","port":27035,"enabled":true,"region":"eu","cc":"de","latitude":50.110924,"longitude":8.682127,"reserved":0,"last_update":"0001-01-01T00:00:00Z","name_a2s":"Uncletopia | Frankfurt | 3 | All Maps","protocol":17,"map":"cp_mountainlab","folder":"tf","game":"Team Fortress","app_id":440,"player_count":22,"max_players":24,"Bots":0,"server_type":"Dedicated","server_os":"Linux","password":true,"vac":true,"version":"7701286","steam_id":85568392924504274,"keywords":["cp","nocrits","nodmgspread","uncletopia"],"game_id":440,"stv_port":27036,"stv_name":"Uncletopia | Frankfurt | 3 | All Maps | STV","players":[{"user_id":766,"name":"jmp","steam_id":76561198168283286,"connected_time":896000000000,"state":"active","ping":72},{"user_id":767,"name":"Holo","steam_id":76561198066985194,"connected_time":883000000000,"state":"spawning","ping":75},{"user_id":714,"name":"Micheal","steam_id":76561198010791637,"connected_time":3455000000000,"state":"spawning","ping":131},{"user_id":738,"name":"meriones","steam_id":76561198034234373,"connected_time":1900000000000,"state":"active","ping":143},{"user_id":754,"name":"Santa's Clause","steam_id":76561198117247903,"connected_time":1195000000000,"state":"active","ping":53},{"user_id":768,"name":"48LawsOfPower FERVENT","steam_id":76561199160257921,"connected_time":882000000000,"state":"active","ping":157},{"user_id":739,"name":"MrKampfCookie","steam_id":76561198085490175,"connected_time":1858000000000,"state":"active","ping":60},{"user_id":777,"name":"Chowderr","steam_id":76561197996149548,"connected_time":20000000000,"state":"connecting","ping":60},{"user_id":751,"name":"bum ^-^","steam_id":76561198067678158,"connected_time":1323000000000,"state":"active","ping":61},{"user_id":772,"name":"The Great G.B.A","steam_id":76561198002022998,"connected_time":643000000000,"state":"spawning","ping":65},{"user_id":778,"name":"PlebCord","steam_id":76561198120685803,"connected_time":13000000000,"state":"spawning","ping":84},{"user_id":775,"name":"hushhx","steam_id":76561198216200092,"connected_time":303000000000,"state":"spawning","ping":65},{"user_id":753,"name":"Lewylow","steam_id":76561198005425686,"connected_time":1255000000000,"state":"spawning","ping":79},{"user_id":724,"name":"Cippo95","steam_id":76561198255311582,"connected_time":2987000000000,"state":"active","ping":63},{"user_id":757,"name":"Swayer","steam_id":76561198056192460,"connected_time":1090000000000,"state":"spawning","ping":325},{"user_id":776,"name":"Zronic","steam_id":76561198070181603,"connected_time":220000000000,"state":"spawning","ping":87},{"user_id":758,"name":"[$-EAZ-$]Sousou57","steam_id":76561198006544512,"connected_time":1069000000000,"state":"spawning","ping":59},{"user_id":779,"name":"TheShroomGuy","steam_id":76561198079391929,"connected_time":10000000000,"state":"spawning","ping":106},{"user_id":773,"name":"Boobs rater","steam_id":76561198066977580,"connected_time":491000000000,"state":"active","ping":73},{"user_id":780,"name":"dahc,liG","steam_id":76561198012304706,"connected_time":9000000000,"state":"active","ping":135},{"user_id":761,"name":"Cihanovic","steam_id":76561198198148262,"connected_time":1035000000000,"state":"spawning","ping":119},{"user_id":763,"name":"Highground","steam_id":76561199197544789,"connected_time":1009000000000,"state":"spawning","ping":160}]},{"server_id":309,"name":"Uncletopia | Frankfurt | 4 | All Maps","name_short":"frk-4","host":"frk-1.de.uncletopia.com","port":27045,"enabled":true,"region":"eu","cc":"de","latitude":50.110924,"longitude":8.682127,"reserved":0,"last_update":"0001-01-01T00:00:00Z","name_a2s":"Uncletopia | Frankfurt | 4 | All Maps","protocol":17,"map":"pl_goldrush","folder":"tf","game":"Team Fortress","app_id":440,"player_count":4,"max_players":24,"Bots":0,"server_type":"Dedicated","server_os":"Linux","password":true,"vac":true,"version":"7701286","steam_id":85568392924504275,"keywords":["nocrits","nodmgspread","payload","uncletopia"],"game_id":440,"stv_port":27046,"stv_name":"Uncletopia | Frankfurt | 4 | All Maps | STV","players":[{"user_id":375,"name":"Lukero","steam_id":76561198301594341,"connected_time":2458000000000,"state":"active","ping":59},{"user_id":378,"name":"nakedpee","steam_id":76561198064345980,"connected_time":1600000000000,"state":"active","ping":61},{"user_id":381,"name":"Nigor","steam_id":76561198348929069,"connected_time":39000000000,"state":"active","ping":63},{"user_id":380,"name":"Alfred2.2","steam_id":76561198339314744,"connected_time":734000000000,"state":"active","ping":57}]},{"server_id":310,"name":"Uncletopia | Frankfurt | 5 | All Maps","name_short":"frk-5","host":"frk-1.de.uncletopia.com","port":27055,"enabled":true,"region":"eu","cc":"de","latitude":50.110924,"longitude":8.682127,"reserved":0,"last_update":"0001-01-01T00:00:00Z","name_a2s":"Uncletopia | Frankfurt | 5 | All Maps","protocol":17,"map":"koth_viaduct","folder":"tf","game":"Team Fortress","app_id":440,"player_count":0,"max_players":24,"Bots":0,"server_type":"Dedicated","server_os":"Linux","password":true,"vac":true,"version":"7701286","steam_id":85568392924504277,"keywords":["cp","nocrits","nodmgspread","uncletopia"],"game_id":440,"stv_port":27056,"stv_name":"Uncletopia | Frankfurt | 5 | All Maps | STV","players":null},{"server_id":311,"name":"Uncletopia | Frankfurt | 6 | All Maps","name_short":"frk-6","host":"frk-1.de.uncletopia.com","port":27065,"enabled":true,"region":"eu","cc":"de","latitude":50.110924,"longitude":8.682127,"reserved":0,"last_update":"0001-01-01T00:00:00Z","name_a2s":"Uncletopia | Frankfurt | 6 | All Maps","protocol":17,"map":"koth_cascade","folder":"tf","game":"Team Fortress","app_id":440,"player_count":0,"max_players":24,"Bots":0,"server_type":"Dedicated","server_os":"Linux","password":true,"vac":true,"version":"7701286","steam_id":85568392924504278,"keywords":["cp","nocrits","nodmgspread","uncletopia"],"game_id":440,"stv_port":27066,"stv_name":"Uncletopia | Frankfurt | 6 | All Maps | STV","players":null},{"server_id":23,"name":"Uncletopia | Frankfurt | 7 | No Payload","name_short":"frk-7","host":"frk-1.de.uncletopia.com","port":27075,"enabled":true,"region":"eu","cc":"de","latitude":50.110924,"longitude":8.682127,"reserved":0,"last_update":"0001-01-01T00:00:00Z","name_a2s":"Uncletopia | Frankfurt | 7 | No Payload","protocol":17,"map":"koth_harvest_final","folder":"tf","game":"Team Fortress","app_id":440,"player_count":0,"max_players":24,"Bots":0,"server_type":"Dedicated","server_os":"Linux","password":true,"vac":true,"version":"7701286","steam_id":85568392924742827,"keywords":["cp","nocrits","nodmgspread","uncletopia"],"game_id":440,"stv_port":27076,"stv_name":"Uncletopia | Frankfurt | 7 | No Payload | STV","players":null},{"server_id":24,"name":"Uncletopia | Frankfurt | 8 | Community","name_short":"frk-8","host":"frk-1.de.uncletopia.com","port":27085,"enabled":true,"region":"eu","cc":"de","latitude":50.110924,"longitude":8.682127,"reserved":0,"last_update":"0001-01-01T00:00:00Z","name_a2s":"Uncletopia | Frankfurt | 8 | Community","protocol":17,"map":"workshop/koth_ashville_final.ugc2130459942","folder":"tf","game":"Team Fortress","app_id":440,"player_count":0,"max_players":24,"Bots":0,"server_type":"Dedicated","server_os":"Linux","password":true,"vac":true,"version":"7701286","steam_id":85568392924742828,"keywords":["cp","nocrits","nodmgspread","uncletopia"],"game_id":440,"stv_port":27086,"stv_name":"Uncletopia | Frankfurt | 8 | Community | STV","players":null},{"server_id":202,"name":"Uncletopia | Hong Kong | 1 | All Maps","name_short":"hgk-1","host":"hgk-1.hk.uncletopia.com","port":27015,"enabled":true,"region":"asia","cc":"hk","latitude":22.302711,"longitude":114.177216,"reserved":0,"last_update":"0001-01-01T00:00:00Z","name_a2s":"Uncletopia | Hong Kong | 1 | All Maps","protocol":17,"map":"pl_barnblitz","folder":"tf","game":"Team Fortress","app_id":440,"player_count":0,"max_players":24,"Bots":0,"server_type":"Dedicated","server_os":"Linux","password":true,"vac":true,"version":"7701286","steam_id":85568392924494504,"keywords":["nocrits","nodmgspread","payload","uncletopia"],"game_id":440,"stv_port":0,"stv_name":"","players":null},{"server_id":1,"name":"Uncletopia | Los Angeles | 1 | All Maps","name_short":"lax-1","host":"lax-1.us.uncletopia.com","port":27015,"enabled":true,"region":"us-west","cc":"us","latitude":33.94279,"longitude":-118.41004,"reserved":0,"last_update":"0001-01-01T00:00:00Z","name_a2s":"Uncletopia | Los Angeles | 1 | All Maps","protocol":17,"map":"koth_lakeside_final","folder":"tf","game":"Team Fortress","app_id":440,"player_count":0,"max_players":24,"Bots":0,"server_type":"Dedicated","server_os":"Linux","password":true,"vac":true,"version":"7701286","steam_id":85568392924469991,"keywords":["cp","nocrits","nodmgspread","uncletopia"],"game_id":440,"stv_port":0,"stv_name":"","players":null},{"server_id":112,"name":"Uncletopia | Los Angeles | 2 | All Maps","name_short":"lax-2","host":"lax-1.us.uncletopia.com","port":27025,"enabled":true,"region":"us-west","cc":"us","latitude":33.94279,"longitude":-118.41004,"reserved":0,"last_update":"0001-01-01T00:00:00Z","name_a2s":"Uncletopia | Los Angeles | 2 | All Maps","protocol":17,"map":"cp_snakewater_final1","folder":"tf","game":"Team Fortress","app_id":440,"player_count":0,"max_players":24,"Bots":0,"server_type":"Dedicated","server_os":"Linux","password":true,"vac":true,"version":"7701286","steam_id":85568392924469992,"keywords":["cp","nocrits","nodmgspread","uncletopia"],"game_id":440,"stv_port":0,"stv_name":"","players":null},{"server_id":324,"name":"Uncletopia | Los Angeles | 3 | All Maps","name_short":"lax-3","host":"lax-1.us.uncletopia.com","port":27035,"enabled":true,"region":"us-west","cc":"us","latitude":33.94279,"longitude":-118.41004,"reserved":0,"last_update":"0001-01-01T00:00:00Z","name_a2s":"Uncletopia | Los Angeles | 3 | All Maps","protocol":17,"map":"koth_lakeside_final","folder":"tf","game":"Team Fortress","app_id":440,"player_count":0,"max_players":24,"Bots":0,"server_type":"Dedicated","server_os":"Linux","password":true,"vac":true,"version":"7701286","steam_id":85568392924510198,"keywords":["cp","nocrits","nodmgspread","uncletopia"],"game_id":440,"stv_port":27036,"stv_name":"Uncletopia | Los Angeles | 3 | All Maps | STV","players":null},{"server_id":25,"name":"Uncletopia | Los Angeles | 4 | No Payload","name_short":"lax-4","host":"lax-1.us.uncletopia.com","port":27045,"enabled":true,"region":"us-west","cc":"us","latitude":33.94279,"longitude":-118.41004,"reserved":0,"last_update":"0001-01-01T00:00:00Z","name_a2s":"Uncletopia | Los Angeles | 4 | No Payload","protocol":17,"map":"pl_badwater","folder":"tf","game":"Team Fortress","app_id":440,"player_count":0,"max_players":24,"Bots":0,"server_type":"Dedicated","server_os":"Linux","password":true,"vac":true,"version":"7701286","steam_id":85568392924510199,"keywords":["nocrits","nodmgspread","payload","uncletopia"],"game_id":440,"stv_port":0,"stv_name":"","players":null},{"server_id":11,"name":"Uncletopia | London | 1 | All Maps","name_short":"lon-1","host":"lon-1.uk.uncletopia.com","port":27015,"enabled":true,"region":"eu","cc":"gb","latitude":51.509865,"longitude":-0.118092,"reserved":0,"last_update":"0001-01-01T00:00:00Z","name_a2s":"Uncletopia | London | 1 | All Maps","protocol":17,"map":"pl_frontier_final","folder":"tf","game":"Team Fortress","app_id":440,"player_count":25,"max_players":24,"Bots":0,"server_type":"Dedicated","server_os":"Linux","password":true,"vac":true,"version":"7701286","steam_id":85568392924367362,"keywords":["nocrits","nodmgspread","payload","uncletopia"],"game_id":440,"stv_port":27016,"stv_name":"Uncletopia | London | 1 | All Maps | STV","players":[{"user_id":503,"name":"cat (they/them)","steam_id":76561198416657815,"connected_time":2313000000000,"state":"active","ping":80},{"user_id":493,"name":"Gr[øø]ve","steam_id":76561198008712280,"connected_time":2799000000000,"state":"active","ping":43},{"user_id":521,"name":"Littleyoshifan","steam_id":76561198445491045,"connected_time":966000000000,"state":"active","ping":43},{"user_id":489,"name":"BreadBaubbles","steam_id":76561198174332826,"connected_time":3574000000000,"state":"active","ping":56},{"user_id":495,"name":"☩ Knightz ☩","steam_id":76561198040936414,"connected_time":2712000000000,"state":"active","ping":113},{"user_id":422,"name":"Mango","steam_id":76561198139555709,"connected_time":8819000000000,"state":"active","ping":59},{"user_id":511,"name":"Sad Slut","steam_id":76561198838277022,"connected_time":1979000000000,"state":"active","ping":91},{"user_id":484,"name":"merry beebo","steam_id":76561199120277007,"connected_time":4001000000000,"state":"active","ping":46},{"user_id":475,"name":"chrissy","steam_id":76561198096547662,"connected_time":5032000000000,"state":"active","ping":56},{"user_id":518,"name":"csnipery","steam_id":76561199435280050,"connected_time":1203000000000,"state":"active","ping":65},{"user_id":549,"name":"♥ඞlilyඞ♥","steam_id":76561198049840460,"connected_time":28000000000,"state":"spawning","ping":108},{"user_id":522,"name":"MichaelTheSlav","steam_id":76561198151626040,"connected_time":869000000000,"state":"active","ping":77},{"user_id":520,"name":"Trash Bandicoot","steam_id":76561198127596400,"connected_time":1125000000000,"state":"active","ping":77},{"user_id":482,"name":"Gnarville","steam_id":76561198006373329,"connected_time":4269000000000,"state":"active","ping":50},{"user_id":516,"name":"all out of funny :(","steam_id":76561198846784757,"connected_time":1278000000000,"state":"active","ping":53},{"user_id":481,"name":"festive jones","steam_id":76561198073975078,"connected_time":4495000000000,"state":"active","ping":45},{"user_id":498,"name":"BarrackOmaha","steam_id":76561198027922724,"connected_time":2654000000000,"state":"active","ping":68},{"user_id":514,"name":"Praj","steam_id":76561198339263236,"connected_time":1328000000000,"state":"active","ping":38},{"user_id":523,"name":"JugoTopia","steam_id":76561197996067209,"connected_time":362000000000,"state":"active","ping":124},{"user_id":524,"name":"Prinny Knight Gaming","steam_id":76561199068748623,"connected_time":333000000000,"state":"active","ping":53},{"user_id":526,"name":"Chips","steam_id":76561198044498354,"connected_time":313000000000,"state":"active","ping":50},{"user_id":527,"name":"pesto pasta","steam_id":76561199110497395,"connected_time":307000000000,"state":"active","ping":49},{"user_id":531,"name":"Ross","steam_id":76561198965967986,"connected_time":212000000000,"state":"active","ping":62},{"user_id":502,"name":"festivized goth girl","steam_id":76561198118989010,"connected_time":2393000000000,"state":"active","ping":53},{"user_id":477,"name":"✪ J","steam_id":76561198094911581,"connected_time":5004000000000,"state":"active","ping":48}]},{"server_id":114,"name":"Uncletopia | London | 2 | All Maps","name_short":"lon-2","host":"lon-1.uk.uncletopia.com","port":27025,"enabled":true,"region":"eu","cc":"gb","latitude":51.509865,"longitude":-0.118092,"reserved":0,"last_update":"0001-01-01T00:00:00Z","name_a2s":"Uncletopia | London | 2 | All Maps","protocol":17,"map":"cp_dustbowl","folder":"tf","game":"Team Fortress","app_id":440,"player_count":0,"max_players":24,"Bots":0,"server_type":"Dedicated","server_os":"Linux","password":true,"vac":true,"version":"7701286","steam_id":85568392924470941,"keywords":["cp","nocrits","nodmgspread","uncletopia"],"game_id":440,"stv_port":27026,"stv_name":"Uncletopia | London | 2 | All Maps | STV","players":null},{"server_id":320,"name":"Uncletopia | London | 3 | All Maps","name_short":"lon-3","host":"lon-1.uk.uncletopia.com","port":27035,"enabled":true,"region":"eu","cc":"gb","latitude":51.509865,"longitude":-0.118092,"reserved":0,"last_update":"0001-01-01T00:00:00Z","name_a2s":"Uncletopia | London | 3 | All Maps","protocol":17,"map":"cp_altitude","folder":"tf","game":"Team Fortress","app_id":440,"player_count":6,"max_players":24,"Bots":0,"server_type":"Dedicated","server_os":"Linux","password":true,"vac":true,"version":"7701286","steam_id":85568392924510192,"keywords":["cp","nocrits","nodmgspread","uncletopia"],"game_id":440,"stv_port":27036,"stv_name":"Uncletopia | London | 3 | All Maps | STV","players":[{"user_id":424,"name":"One armed fiddle enthusiast","steam_id":76561198045847051,"connected_time":3229000000000,"state":"active","ping":58},{"user_id":438,"name":"cockondiamonds","steam_id":76561199025738254,"connected_time":722000000000,"state":"active","ping":66},{"user_id":437,"name":"cloud","steam_id":76561198179768931,"connected_time":754000000000,"state":"active","ping":59},{"user_id":434,"name":"Fofenho","steam_id":76561198436817109,"connected_time":813000000000,"state":"active","ping":50},{"user_id":448,"name":"Frank","steam_id":76561198086672774,"connected_time":129000000000,"state":"active","ping":37},{"user_id":447,"name":"Hannü","steam_id":76561197969886128,"connected_time":399000000000,"state":"active","ping":44}]},{"server_id":321,"name":"Uncletopia | London | 4 | All Maps","name_short":"lon-4","host":"lon-1.uk.uncletopia.com","port":27045,"enabled":true,"region":"eu","cc":"gb","latitude":51.509865,"longitude":-0.118092,"reserved":0,"last_update":"0001-01-01T00:00:00Z","name_a2s":"Uncletopia | London | 4 | All Maps","protocol":17,"map":"koth_cascade","folder":"tf","game":"Team Fortress","app_id":440,"player_count":3,"max_players":24,"Bots":0,"server_type":"Dedicated","server_os":"Linux","password":true,"vac":true,"version":"7701286","steam_id":85568392924510193,"keywords":["cp","nocrits","nodmgspread","uncletopia"],"game_id":440,"stv_port":27046,"stv_name":"Uncletopia | London | 4 | All Maps | STV","players":[{"user_id":345,"name":"Emanuel Dexterity","steam_id":76561198236376196,"connected_time":878000000000,"state":"active","ping":36},{"user_id":346,"name":"Gazza","steam_id":76561198090419732,"connected_time":876000000000,"state":"active","ping":43},{"user_id":347,"name":"ORKS IS BEST","steam_id":76561198128817882,"connected_time":869000000000,"state":"active","ping":44}]},{"server_id":21,"name":"Uncletopia | London | 5 | All Maps","name_short":"lon-5","host":"lon-1.uk.uncletopia.com","port":27055,"enabled":true,"region":"eu","cc":"gb","latitude":51.509865,"longitude":-0.118092,"reserved":0,"last_update":"0001-01-01T00:00:00Z","name_a2s":"Uncletopia | London | 5 | All Maps","protocol":17,"map":"koth_cascade","folder":"tf","game":"Team Fortress","app_id":440,"player_count":0,"max_players":24,"Bots":0,"server_type":"Dedicated","server_os":"Linux","password":true,"vac":true,"version":"7701286","steam_id":85568392924742829,"keywords":["cp","nocrits","nodmgspread","uncletopia"],"game_id":440,"stv_port":27056,"stv_name":"Uncletopia | London | 5 | All Maps | STV","players":null},{"server_id":22,"name":"Uncletopia | London | 6 | All Maps","name_short":"lon-6","host":"lon-1.uk.uncletopia.com","port":27065,"enabled":true,"region":"eu","cc":"gb","latitude":51.509865,"longitude":-0.118092,"reserved":0,"last_update":"0001-01-01T00:00:00Z","name_a2s":"Uncletopia | London | 6 | All Maps","protocol":17,"map":"pl_frontier_final","folder":"tf","game":"Team Fortress","app_id":440,"player_count":0,"max_players":24,"Bots":0,"server_type":"Dedicated","server_os":"Linux","password":true,"vac":true,"version":"7701286","steam_id":85568392924742830,"keywords":["nocrits","nodmgspread","payload","uncletopia"],"game_id":440,"stv_port":27066,"stv_name":"Uncletopia | London | 6 | All Maps | STV","players":null},{"server_id":40,"name":"Uncletopia | London | 7 | No Payload","name_short":"lon-7","host":"lon-1.uk.uncletopia.com","port":27075,"enabled":true,"region":"eu","cc":"gb","latitude":51.509865,"longitude":-0.118092,"reserved":0,"last_update":"0001-01-01T00:00:00Z","name_a2s":"Uncletopia | London | 7 | No Payload","protocol":17,"map":"ctf_turbine","folder":"tf","game":"Team Fortress","app_id":440,"player_count":9,"max_players":24,"Bots":0,"server_type":"Dedicated","server_os":"Linux","password":true,"vac":true,"version":"7701286","steam_id":85568392924964314,"keywords":["ctf","nocrits","nodmgspread","uncletopia"],"game_id":440,"stv_port":27076,"stv_name":"Uncletopia | London | 7 | No Payload | STV","players":[{"user_id":563,"name":"TheRedMati","steam_id":76561198057378929,"connected_time":3615000000000,"state":"active","ping":59},{"user_id":601,"name":"gadgetelf","steam_id":76561198268418693,"connected_time":273000000000,"state":"active","ping":46},{"user_id":564,"name":"$♛martin0211♛$","steam_id":76561198276160664,"connected_time":3581000000000,"state":"active","ping":75},{"user_id":602,"name":"MG-MH","steam_id":76561198301758058,"connected_time":199000000000,"state":"active","ping":62},{"user_id":603,"name":"venomew2","steam_id":76561198327081077,"connected_time":175000000000,"state":"active","ping":165},{"user_id":567,"name":"Harley13","steam_id":76561198146428790,"connected_time":3559000000000,"state":"active","ping":62},{"user_id":568,"name":"Lisu","steam_id":76561198081238604,"connected_time":3528000000000,"state":"active","ping":79},{"user_id":570,"name":"siena","steam_id":76561198063265928,"connected_time":3357000000000,"state":"active","ping":89},{"user_id":578,"name":"calum92","steam_id":76561197992188760,"connected_time":2620000000000,"state":"active","ping":59}]},{"server_id":41,"name":"Uncletopia | London | 8 | Community","name_short":"lon-8","host":"lon-1.uk.uncletopia.com","port":27085,"enabled":true,"region":"eu","cc":"gb","latitude":51.509865,"longitude":-0.118092,"reserved":0,"last_update":"0001-01-01T00:00:00Z","name_a2s":"Uncletopia | London | 8 | Community","protocol":17,"map":"workshop/koth_ramjam_v2_b2.ugc2865676487","folder":"tf","game":"Team Fortress","app_id":440,"player_count":0,"max_players":24,"Bots":0,"server_type":"Dedicated","server_os":"Linux","password":true,"vac":true,"version":"7701286","steam_id":85568392924964315,"keywords":["cp","nocrits","nodmgspread","uncletopia"],"game_id":440,"stv_port":27086,"stv_name":"Uncletopia | London | 8 | Community | STV","players":null},{"server_id":300,"name":"Uncletopia | Montréal | 1 | All Maps","name_short":"mtl-1","host":"mtl-1.ca.uncletopia.com","port":27015,"enabled":true,"region":"us-east","cc":"ca","latitude":45.50889,"longitude":-73.56167,"reserved":0,"last_update":"0001-01-01T00:00:00Z","name_a2s":"Uncletopia | Montréal | 1 | All Maps","protocol":17,"map":"koth_lakeside_final","folder":"tf","game":"Team Fortress","app_id":440,"player_count":0,"max_players":24,"Bots":0,"server_type":"Dedicated","server_os":"Linux","password":true,"vac":true,"version":"7701286","steam_id":85568392924500087,"keywords":["cp","nocrits","nodmgspread","uncletopia"],"game_id":440,"stv_port":0,"stv_name":"","players":null},{"server_id":301,"name":"Uncletopia | Montréal | 2 | All Maps","name_short":"mtl-2","host":"mtl-1.ca.uncletopia.com","port":27025,"enabled":true,"region":"us-east","cc":"ca","latitude":45.50889,"longitude":-73.56167,"reserved":0,"last_update":"0001-01-01T00:00:00Z","name_a2s":"Uncletopia | Montréal | 2 | All Maps","protocol":17,"map":"pl_barnblitz","folder":"tf","game":"Team Fortress","app_id":440,"player_count":0,"max_players":24,"Bots":0,"server_type":"Dedicated","server_os":"Linux","password":true,"vac":true,"version":"7701286","steam_id":85568392924500088,"keywords":["nocrits","nodmgspread","payload","uncletopia"],"game_id":440,"stv_port":27026,"stv_name":"Uncletopia | Montréal | 2 | All Maps | STV","players":null},{"server_id":302,"name":"Uncletopia | Montréal | 3 | All Maps","name_short":"mtl-3","host":"mtl-1.ca.uncletopia.com","port":27035,"enabled":true,"region":"us-east","cc":"ca","latitude":45.50889,"longitude":-73.56167,"reserved":0,"last_update":"0001-01-01T00:00:00Z","name_a2s":"Uncletopia | Montréal | 3 | All Maps","protocol":17,"map":"pl_pier","folder":"tf","game":"Team Fortress","app_id":440,"player_count":0,"max_players":24,"Bots":0,"server_type":"Dedicated","server_os":"Linux","password":true,"vac":true,"version":"7701286","steam_id":85568392924500089,"keywords":["nocrits","nodmgspread","payload","uncletopia"],"game_id":440,"stv_port":0,"stv_name":"","players":null},{"server_id":303,"name":"Uncletopia | Montréal | 4 | No Payload","name_short":"mtl-4","host":"mtl-1.ca.uncletopia.com","port":27045,"enabled":true,"region":"us-east","cc":"ca","latitude":45.50889,"longitude":-73.56167,"reserved":0,"last_update":"0001-01-01T00:00:00Z","name_a2s":"Uncletopia | Montréal | 4 | No Payload","protocol":17,"map":"cp_well","folder":"tf","game":"Team Fortress","app_id":440,"player_count":2,"max_players":24,"Bots":0,"server_type":"Dedicated","server_os":"Linux","password":true,"vac":true,"version":"7701286","steam_id":85568392924500090,"keywords":["cp","nocrits","nodmgspread","uncletopia"],"game_id":440,"stv_port":27046,"stv_name":"Uncletopia | Montréal | 4 | No Payload | STV","players":[{"user_id":6,"name":"l'etminecraftgo","steam_id":76561199006484082,"connected_time":1067000000000,"state":"active","ping":82},{"user_id":7,"name":"MilktaWhoop","steam_id":76561198177750483,"connected_time":1021000000000,"state":"active","ping":94}]},{"server_id":13,"name":"Uncletopia | New York City | 1 | All Maps","name_short":"nyc-1","host":"nyc-1.us.uncletopia.com","port":27015,"enabled":true,"region":"us-east","cc":"us","latitude":40.73061,"longitude":-73.93524,"reserved":0,"last_update":"0001-01-01T00:00:00Z","name_a2s":"Uncletopia | New York City | 1 | All Maps","protocol":17,"map":"pl_pier","folder":"tf","game":"Team Fortress","app_id":440,"player_count":23,"max_players":24,"Bots":0,"server_type":"Dedicated","server_os":"Linux","password":true,"vac":true,"version":"7701286","steam_id":85568392924469993,"keywords":["nocrits","nodmgspread","payload","uncletopia"],"game_id":440,"stv_port":27016,"stv_name":"Uncletopia | New York City | 1 | All Maps | STV","players":[{"user_id":75,"name":"frid","steam_id":76561198005806915,"connected_time":1980000000000,"state":"active","ping":73},{"user_id":9,"name":"Caleb","steam_id":76561198002641282,"connected_time":5079000000000,"state":"active","ping":73},{"user_id":97,"name":"Sprocket Gearsly","steam_id":76561198078734960,"connected_time":44000000000,"state":"spawning","ping":248},{"user_id":57,"name":"Myn","steam_id":76561198055438857,"connected_time":2725000000000,"state":"active","ping":53},{"user_id":85,"name":"Silvercules('s')","steam_id":76561198049373726,"connected_time":1133000000000,"state":"active","ping":66},{"user_id":86,"name":"A Fruit","steam_id":76561198951830050,"connected_time":1130000000000,"state":"active","ping":75},{"user_id":96,"name":"e0e0","steam_id":76561198293839750,"connected_time":104000000000,"state":"active","ping":47},{"user_id":80,"name":"Sicko Mode (Chris Pratt Cover)","steam_id":76561198315786174,"connected_time":1458000000000,"state":"active","ping":53},{"user_id":79,"name":"CunTrollinGBombSiteA\u0026B","steam_id":76561198061412592,"connected_time":1509000000000,"state":"active","ping":76},{"user_id":93,"name":"lipsoul","steam_id":76561198123845280,"connected_time":939000000000,"state":"active","ping":135},{"user_id":65,"name":"ten years in the joint","steam_id":76561198992069646,"connected_time":2370000000000,"state":"active","ping":82},{"user_id":89,"name":"Yukon Cornelius","steam_id":76561198261512781,"connected_time":1112000000000,"state":"active","ping":61},{"user_id":58,"name":"BaguetteThief","steam_id":76561197962257656,"connected_time":2680000000000,"state":"active","ping":60},{"user_id":95,"name":"BeerPowder","steam_id":76561198058129400,"connected_time":836000000000,"state":"active","ping":41},{"user_id":90,"name":"Thunder","steam_id":76561198018750383,"connected_time":1099000000000,"state":"active","ping":64},{"user_id":31,"name":"faxxy","steam_id":76561198079621240,"connected_time":3837000000000,"state":"active","ping":74},{"user_id":32,"name":"SeaBass","steam_id":76561198278914206,"connected_time":3805000000000,"state":"active","ping":81},{"user_id":67,"name":"qjkxkcd","steam_id":76561198035922283,"connected_time":2298000000000,"state":"active","ping":65},{"user_id":92,"name":"J. Lightning","steam_id":76561198147148998,"connected_time":1080000000000,"state":"active","ping":48},{"user_id":78,"name":"Pomegranate88","steam_id":76561198056385456,"connected_time":1745000000000,"state":"active","ping":60},{"user_id":94,"name":"Fluffius Kittius","steam_id":76561198011578498,"connected_time":888000000000,"state":"active","ping":97},{"user_id":41,"name":"ultramarine","steam_id":76561198391579423,"connected_time":3542000000000,"state":"active","ping":46},{"user_id":77,"name":"leonardo doujinshi","steam_id":76561198025810326,"connected_time":1856000000000,"state":"active","ping":62}]},{"server_id":14,"name":"Uncletopia | New York City | 2 | All Maps","name_short":"nyc-2","host":"nyc-1.us.uncletopia.com","port":27025,"enabled":true,"region":"us-east","cc":"us","latitude":40.73061,"longitude":-73.93524,"reserved":0,"last_update":"0001-01-01T00:00:00Z","name_a2s":"Uncletopia | New York City | 2 | All Maps","protocol":17,"map":"koth_harvest_final","folder":"tf","game":"Team Fortress","app_id":440,"player_count":14,"max_players":24,"Bots":0,"server_type":"Dedicated","server_os":"Linux","password":true,"vac":true,"version":"7701286","steam_id":85568392924469994,"keywords":["cp","nocrits","nodmgspread","uncletopia"],"game_id":440,"stv_port":27026,"stv_name":"Uncletopia | New York City | 2 | All Maps | STV","players":[{"user_id":257,"name":"Phloggers","steam_id":76561199353970793,"connected_time":421000000000,"state":"active","ping":94},{"user_id":214,"name":"Chestnut","steam_id":76561198078198968,"connected_time":2960000000000,"state":"active","ping":75},{"user_id":259,"name":"Onion","steam_id":76561198140691887,"connected_time":96000000000,"state":"active","ping":51},{"user_id":253,"name":"Tover","steam_id":76561198918156397,"connected_time":649000000000,"state":"active","ping":50},{"user_id":256,"name":"ndvr","steam_id":76561199379200102,"connected_time":498000000000,"state":"active","ping":34},{"user_id":93,"name":"Wolbey","steam_id":76561198042148095,"connected_time":12671000000000,"state":"active","ping":90},{"user_id":251,"name":"gnome","steam_id":76561198262275475,"connected_time":738000000000,"state":"active","ping":55},{"user_id":241,"name":"20ZC20ZC20ZC20ZC","steam_id":76561198274959371,"connected_time":964000000000,"state":"active","ping":45},{"user_id":222,"name":"Dave Matthews Tour Bus Incident","steam_id":76561198051823844,"connected_time":2040000000000,"state":"active","ping":61},{"user_id":242,"name":"world's dumbest himbo","steam_id":76561199143725014,"connected_time":956000000000,"state":"active","ping":74},{"user_id":209,"name":"Hodeman","steam_id":76561197975982368,"connected_time":3233000000000,"state":"active","ping":46},{"user_id":258,"name":"Amaretto Sour","steam_id":76561198063112844,"connected_time":211000000000,"state":"active","ping":63},{"user_id":171,"name":"DorkyAmalgam","steam_id":76561198052709852,"connected_time":6365000000000,"state":"active","ping":57},{"user_id":244,"name":"Joy #savetf2","steam_id":76561198073690173,"connected_time":930000000000,"state":"active","ping":53}]},{"server_id":15,"name":"Uncletopia | New York City | 3 | All Maps","name_short":"nyc-3","host":"nyc-1.us.uncletopia.com","port":27035,"enabled":true,"region":"us-east","cc":"us","latitude":40.73061,"longitude":-73.93524,"reserved":0,"last_update":"0001-01-01T00:00:00Z","name_a2s":"Uncletopia | New York City | 3 | All Maps","protocol":17,"map":"pl_upward","folder":"tf","game":"Team Fortress","app_id":440,"player_count":24,"max_players":24,"Bots":0,"server_type":"Dedicated","server_os":"Linux","password":true,"vac":true,"version":"7701286","steam_id":85568392924742820,"keywords":["nocrits","nodmgspread","payload","uncletopia"],"game_id":440,"stv_port":27036,"stv_name":"Uncletopia | New York City | 3 | All Maps | STV","players":[{"user_id":8,"name":"piflle","steam_id":76561199283873577,"connected_time":3360000000000,"state":"active","ping":66},{"user_id":38,"name":"treemonkey","steam_id":76561198088171353,"connected_time":27000000000,"state":"spawning","ping":65},{"user_id":11,"name":"ShaqtusHD","steam_id":76561199138286233,"connected_time":1265000000000,"state":"active","ping":60},{"user_id":22,"name":"lord ham","steam_id":76561198419607098,"connected_time":325000000000,"state":"active","ping":99},{"user_id":15,"name":"Yayifications","steam_id":76561198066227208,"connected_time":649000000000,"state":"active","ping":48},{"user_id":17,"name":"A Future US Army Soldier","steam_id":76561198008263869,"connected_time":567000000000,"state":"active","ping":46},{"user_id":18,"name":"♥SoaringSnail♥","steam_id":76561198038397374,"connected_time":488000000000,"state":"active","ping":64},{"user_id":19,"name":"nalezinik","steam_id":76561198030026119,"connected_time":456000000000,"state":"active","ping":64},{"user_id":20,"name":"Back with the milk","steam_id":76561199020105501,"connected_time":440000000000,"state":"active","ping":38},{"user_id":21,"name":"A_a","steam_id":76561199231769296,"connected_time":333000000000,"state":"active","ping":116},{"user_id":39,"name":"SuperJagops","steam_id":76561198034689716,"connected_time":24000000000,"state":"spawning","ping":96},{"user_id":24,"name":"Just Let me go back to sleep","steam_id":76561198394787270,"connected_time":319000000000,"state":"active","ping":86},{"user_id":25,"name":"Lemony Lilly (She/Her)","steam_id":76561198042479066,"connected_time":313000000000,"state":"active","ping":79},{"user_id":26,"name":"Spoof059","steam_id":76561198356116829,"connected_time":299000000000,"state":"active","ping":124},{"user_id":27,"name":"guiuu","steam_id":76561199168691577,"connected_time":286000000000,"state":"active","ping":168},{"user_id":28,"name":"jimmybones06@yahoo.com","steam_id":76561198229850516,"connected_time":285000000000,"state":"active","ping":64},{"user_id":29,"name":"thundah","steam_id":76561199159928133,"connected_time":264000000000,"state":"active","ping":65},{"user_id":30,"name":"dipp","steam_id":76561198395577807,"connected_time":259000000000,"state":"active","ping":56},{"user_id":31,"name":"Skelly Elly","steam_id":76561198035388110,"connected_time":257000000000,"state":"active","ping":72},{"user_id":33,"name":"Draconic Ballad","steam_id":76561198027191515,"connected_time":221000000000,"state":"active","ping":70},{"user_id":34,"name":"[BBC] Justario","steam_id":76561198016095410,"connected_time":177000000000,"state":"active","ping":59},{"user_id":35,"name":"demoknight tf2","steam_id":76561198070393998,"connected_time":155000000000,"state":"active","ping":74},{"user_id":36,"name":"Officer Mike","steam_id":76561198011641011,"connected_time":122000000000,"state":"active","ping":84},{"user_id":37,"name":"Ghost of pl_frontier","steam_id":76561198040444697,"connected_time":104000000000,"state":"active","ping":43}]},{"server_id":16,"name":"Uncletopia | New York City | 4 | Community","name_short":"nyc-4","host":"nyc-1.us.uncletopia.com","port":27045,"enabled":true,"region":"us-east","cc":"us","latitude":40.73061,"longitude":-73.93524,"reserved":0,"last_update":"0001-01-01T00:00:00Z","name_a2s":"Uncletopia | New York City | 4 | Community","protocol":17,"map":"workshop/koth_ramjam_v2_b2.ugc2865676487","folder":"tf","game":"Team Fortress","app_id":440,"player_count":0,"max_players":24,"Bots":0,"server_type":"Dedicated","server_os":"Linux","password":true,"vac":true,"version":"7701286","steam_id":85568392924742821,"keywords":["cp","nocrits","nodmgspread","uncletopia"],"game_id":440,"stv_port":27046,"stv_name":"Uncletopia | New York City | 4 | Community | STV","players":null},{"server_id":142,"name":"Uncletopia | São Paulo | 1 | All Maps","name_short":"sao-1","host":"sao-1.br.uncletopia.com","port":27015,"enabled":true,"region":"sa","cc":"br","latitude":-23.533773,"longitude":-46.62529,"reserved":0,"last_update":"0001-01-01T00:00:00Z","name_a2s":"Uncletopia | São Paulo | 1 | All Maps","protocol":17,"map":"pl_badwater","folder":"tf","game":"Team Fortress","app_id":440,"player_count":24,"max_players":24,"Bots":0,"server_type":"Dedicated","server_os":"Linux","password":true,"vac":true,"version":"7701286","steam_id":85568392924469996,"keywords":["nocrits","nodmgspread","payload","uncletopia"],"game_id":440,"stv_port":27016,"stv_name":"Uncletopia | São Paulo | 1 | All Maps | STV","players":[{"user_id":137,"name":"ailuros","steam_id":76561198171349369,"connected_time":3163000000000,"state":"active","ping":41},{"user_id":171,"name":"Saitou","steam_id":76561198025188587,"connected_time":970000000000,"state":"active","ping":37},{"user_id":165,"name":"RHD BRAZIL [\u003c O \u003e]","steam_id":76561198028190080,"connected_time":1252000000000,"state":"active","ping":45},{"user_id":100,"name":"zMatews","steam_id":76561198971515490,"connected_time":5281000000000,"state":"active","ping":32},{"user_id":161,"name":"Derretimento Geral 2017","steam_id":76561198194300069,"connected_time":1813000000000,"state":"active","ping":43},{"user_id":176,"name":"salgado","steam_id":76561198036432218,"connected_time":754000000000,"state":"active","ping":73},{"user_id":181,"name":"Ethan7685","steam_id":76561199030420972,"connected_time":429000000000,"state":"active","ping":173},{"user_id":182,"name":"ebd_Failnaught","steam_id":76561198108041555,"connected_time":311000000000,"state":"active","ping":60},{"user_id":146,"name":"Elhamster123","steam_id":76561198964220934,"connected_time":2943000000000,"state":"active","ping":86},{"user_id":61,"name":"mimimito","steam_id":76561198002565927,"connected_time":7258000000000,"state":"active","ping":40},{"user_id":132,"name":"Heyla","steam_id":76561198086992947,"connected_time":3692000000000,"state":"active","ping":39},{"user_id":172,"name":"MALTAZARD","steam_id":76561197989186998,"connected_time":928000000000,"state":"active","ping":61},{"user_id":120,"name":"Stalin","steam_id":76561198073356694,"connected_time":4585000000000,"state":"active","ping":66},{"user_id":155,"name":"Pudding","steam_id":76561198426734034,"connected_time":2114000000000,"state":"active","ping":91},{"user_id":175,"name":"MilDol","steam_id":76561198338733365,"connected_time":774000000000,"state":"active","ping":61},{"user_id":141,"name":"Berry_Bertin","steam_id":76561198091127459,"connected_time":3088000000000,"state":"active","ping":109},{"user_id":178,"name":"jao","steam_id":76561198408082822,"connected_time":630000000000,"state":"active","ping":60},{"user_id":130,"name":"Pathetic","steam_id":76561198051056987,"connected_time":3758000000000,"state":"active","ping":60},{"user_id":145,"name":"paponcio papungos","steam_id":76561198126356221,"connected_time":2979000000000,"state":"active","ping":93},{"user_id":179,"name":"Zoom!","steam_id":76561198289562649,"connected_time":456000000000,"state":"active","ping":46},{"user_id":168,"name":"rain sounds","steam_id":76561198426821211,"connected_time":1173000000000,"state":"active","ping":39},{"user_id":169,"name":"Mitke","steam_id":76561198156271334,"connected_time":1138000000000,"state":"active","ping":58},{"user_id":107,"name":"delta","steam_id":76561198288966901,"connected_time":4999000000000,"state":"active","ping":57},{"user_id":183,"name":"zReaperBR","steam_id":76561198430902334,"connected_time":307000000000,"state":"active","ping":68}]},{"server_id":143,"name":"Uncletopia | São Paulo | 2 | All Maps","name_short":"sao-2","host":"sao-2.br.uncletopia.com","port":27015,"enabled":true,"region":"sa","cc":"br","latitude":-23.533773,"longitude":-46.62529,"reserved":0,"last_update":"0001-01-01T00:00:00Z","name_a2s":"Uncletopia | São Paulo | 2 | All Maps","protocol":17,"map":"koth_cascade","folder":"tf","game":"Team Fortress","app_id":440,"player_count":0,"max_players":24,"Bots":0,"server_type":"Dedicated","server_os":"Linux","password":true,"vac":true,"version":"7701286","steam_id":85568392924485349,"keywords":["cp","nocrits","nodmgspread","uncletopia"],"game_id":440,"stv_port":27016,"stv_name":"Uncletopia | São Paulo | 2 | All Maps | STV","players":null},{"server_id":7,"name":"Uncletopia | Seattle | 1 | All Maps","name_short":"sea-1","host":"sea-1.us.uncletopia.com","port":27015,"enabled":true,"region":"us-west","cc":"us","latitude":47.608013,"longitude":-122.33517,"reserved":0,"last_update":"0001-01-01T00:00:00Z","name_a2s":"Uncletopia | Seattle | 1 | All Maps","protocol":17,"map":"koth_lakeside_final","folder":"tf","game":"Team Fortress","app_id":440,"player_count":0,"max_players":24,"Bots":0,"server_type":"Dedicated","server_os":"Linux","password":true,"vac":true,"version":"7701286","steam_id":85568392924469997,"keywords":["cp","nocrits","nodmgspread","uncletopia"],"game_id":440,"stv_port":27016,"stv_name":"Uncletopia | Seattle | 1 | All Maps | STV","players":null},{"server_id":119,"name":"Uncletopia | Seattle | 2 | All Maps","name_short":"sea-2","host":"sea-1.us.uncletopia.com","port":27025,"enabled":true,"region":"us-west","cc":"us","latitude":47.608013,"longitude":-122.33517,"reserved":0,"last_update":"0001-01-01T00:00:00Z","name_a2s":"Uncletopia | Seattle | 2 | All Maps","protocol":17,"map":"pl_rumford_event","folder":"tf","game":"Team Fortress","app_id":440,"player_count":14,"max_players":24,"Bots":0,"server_type":"Dedicated","server_os":"Linux","password":true,"vac":true,"version":"7701286","steam_id":85568392924469998,"keywords":["nocrits","nodmgspread","payload","uncletopia"],"game_id":440,"stv_port":27026,"stv_name":"Uncletopia | Seattle | 2 | All Maps | STV","players":[{"user_id":34,"name":"rbstat","steam_id":76561198050169034,"connected_time":1595000000000,"state":"active","ping":90},{"user_id":27,"name":"Court Wizard, Sir Dr. Clydesdal","steam_id":76561198149267697,"connected_time":3348000000000,"state":"active","ping":49},{"user_id":42,"name":"ChoccyMiltank","steam_id":76561198981474284,"connected_time":338000000000,"state":"active","ping":78},{"user_id":28,"name":"ThePriceIsRice","steam_id":76561198079069543,"connected_time":3230000000000,"state":"active","ping":60},{"user_id":29,"name":"snorlax_gamer","steam_id":76561199084972996,"connected_time":3192000000000,"state":"active","ping":49},{"user_id":38,"name":"Themasterman75","steam_id":76561199385573293,"connected_time":669000000000,"state":"active","ping":60},{"user_id":39,"name":"Level 3 Fat Scout (KaiserArc)","steam_id":76561198201702142,"connected_time":662000000000,"state":"active","ping":70},{"user_id":48,"name":"11 lbs. of wax","steam_id":76561198112705880,"connected_time":50000000000,"state":"spawning","ping":77},{"user_id":43,"name":"B-0-D-I-E ✓","steam_id":76561198079474904,"connected_time":294000000000,"state":"active","ping":59},{"user_id":44,"name":"rusty","steam_id":76561198236169088,"connected_time":208000000000,"state":"active","ping":76},{"user_id":45,"name":"Emu","steam_id":76561198004595048,"connected_time":171000000000,"state":"active","ping":45},{"user_id":46,"name":"Bandini","steam_id":76561198130314437,"connected_time":144000000000,"state":"active","ping":44},{"user_id":47,"name":"Boop Master","steam_id":76561198091582046,"connected_time":107000000000,"state":"active","ping":66},{"user_id":49,"name":"Robot Jones","steam_id":76561198033558013,"connected_time":34000000000,"state":"spawning","ping":137}]},{"server_id":17,"name":"Uncletopia | San Francisco | 1 | All Maps","name_short":"sfo-1","host":"sfo-1.us.uncletopia.com","port":27015,"enabled":true,"region":"us-west","cc":"us","latitude":37.77397,"longitude":-122.4313,"reserved":0,"last_update":"0001-01-01T00:00:00Z","name_a2s":"Uncletopia | San Francisco | 1 | All Maps","protocol":17,"map":"pl_frostcliff","folder":"tf","game":"Team Fortress","app_id":440,"player_count":18,"max_players":24,"Bots":0,"server_type":"Dedicated","server_os":"Linux","password":true,"vac":true,"version":"7701286","steam_id":85568392924469999,"keywords":["nocrits","nodmgspread","payload","uncletopia"],"game_id":440,"stv_port":27016,"stv_name":"Uncletopia | San Francisco | 1 | All Maps | STV","players":[{"user_id":274,"name":"DiscoTraveler","steam_id":76561199240168088,"connected_time":3437000000000,"state":"active","ping":109},{"user_id":316,"name":"oil","steam_id":76561198099980149,"connected_time":230000000000,"state":"active","ping":60},{"user_id":299,"name":"Webslinger","steam_id":76561197973400611,"connected_time":1043000000000,"state":"active","ping":63},{"user_id":304,"name":"cakeebot","steam_id":76561198425995095,"connected_time":947000000000,"state":"active","ping":80},{"user_id":305,"name":"1zzy","steam_id":76561199384568014,"connected_time":927000000000,"state":"active","ping":85},{"user_id":306,"name":"Lane","steam_id":76561197965828506,"connected_time":899000000000,"state":"active","ping":78},{"user_id":314,"name":"iamoctopii","steam_id":76561198876901076,"connected_time":353000000000,"state":"active","ping":146},{"user_id":315,"name":"Red Physical","steam_id":76561198151864382,"connected_time":269000000000,"state":"active","ping":125},{"user_id":265,"name":"mega","steam_id":76561198089520959,"connected_time":3794000000000,"state":"active","ping":138},{"user_id":279,"name":"no vc no c","steam_id":76561197989503095,"connected_time":2621000000000,"state":"active","ping":145},{"user_id":313,"name":"off 18mg Ritalin℞ rn","steam_id":76561198229970660,"connected_time":460000000000,"state":"active","ping":102},{"user_id":308,"name":"Cooki","steam_id":76561198051705314,"connected_time":825000000000,"state":"active","ping":115},{"user_id":302,"name":"KingDoity","steam_id":76561198327048550,"connected_time":993000000000,"state":"active","ping":59},{"user_id":309,"name":"SanitysEdge","steam_id":76561198130732813,"connected_time":823000000000,"state":"active","ping":51},{"user_id":310,"name":"Greg Boberton 2012","steam_id":76561198983566026,"connected_time":804000000000,"state":"active","ping":107},{"user_id":272,"name":"dougrocks421","steam_id":76561198165063918,"connected_time":3488000000000,"state":"active","ping":60},{"user_id":311,"name":"festive raph","steam_id":76561199074852635,"connected_time":796000000000,"state":"active","ping":110},{"user_id":282,"name":"sockgobblin","steam_id":76561198853494675,"connected_time":2449000000000,"state":"active","ping":72}]},{"server_id":18,"name":"Uncletopia | San Francisco | 2 | All Maps","name_short":"sfo-2","host":"sfo-1.us.uncletopia.com","port":27025,"enabled":true,"region":"us-west","cc":"us","latitude":37.77397,"longitude":-122.4313,"reserved":0,"last_update":"0001-01-01T00:00:00Z","name_a2s":"Uncletopia | San Francisco | 2 | All Maps","protocol":17,"map":"cp_altitude","folder":"tf","game":"Team Fortress","app_id":440,"player_count":20,"max_players":24,"Bots":0,"server_type":"Dedicated","server_os":"Linux","password":true,"vac":true,"version":"7701286","steam_id":85568392924470000,"keywords":["cp","nocrits","nodmgspread","uncletopia"],"game_id":440,"stv_port":27026,"stv_name":"Uncletopia | San Francisco | 2 | All Maps | STV","players":[{"user_id":293,"name":"Bandicam Recording Software","steam_id":76561199122281764,"connected_time":618000000000,"state":"active","ping":76},{"user_id":262,"name":"{DNJ} exoslayer -Z-","steam_id":76561198022370929,"connected_time":2617000000000,"state":"active","ping":57},{"user_id":305,"name":"Zkmyre","steam_id":76561198107349847,"connected_time":201000000000,"state":"active","ping":105},{"user_id":249,"name":"oh, the misery","steam_id":76561198140384517,"connected_time":3305000000000,"state":"active","ping":63},{"user_id":273,"name":"DRI","steam_id":76561198157076858,"connected_time":2365000000000,"state":"active","ping":69},{"user_id":306,"name":"QuarterAnnualLiposuction #SvTF2","steam_id":76561198119886429,"connected_time":195000000000,"state":"active","ping":94},{"user_id":279,"name":"ritchie","steam_id":76561198097835871,"connected_time":2004000000000,"state":"active","ping":105},{"user_id":295,"name":"joelybean","steam_id":76561198121289763,"connected_time":551000000000,"state":"active","ping":105},{"user_id":292,"name":"Medical Toast","steam_id":76561198880425593,"connected_time":905000000000,"state":"active","ping":109},{"user_id":300,"name":"PH","steam_id":76561198019693197,"connected_time":449000000000,"state":"active","ping":98},{"user_id":250,"name":"Deaf Gaming","steam_id":76561198026256509,"connected_time":3298000000000,"state":"active","ping":99},{"user_id":265,"name":"four","steam_id":76561198374227766,"connected_time":2546000000000,"state":"active","ping":107},{"user_id":275,"name":"Seriously Bruh","steam_id":76561198070408485,"connected_time":2244000000000,"state":"active","ping":61},{"user_id":301,"name":"Phil Collins","steam_id":76561198068868644,"connected_time":436000000000,"state":"active","ping":61},{"user_id":288,"name":"Fajita Master","steam_id":76561198329150962,"connected_time":1232000000000,"state":"active","ping":100},{"user_id":260,"name":"floof","steam_id":76561198167756375,"connected_time":2840000000000,"state":"active","ping":46},{"user_id":298,"name":"CapnKris22","steam_id":76561198049010994,"connected_time":511000000000,"state":"active","ping":118},{"user_id":291,"name":"Sábado Gigante","steam_id":76561197994685971,"connected_time":980000000000,"state":"active","ping":65},{"user_id":285,"name":"twitch.tv/skrpy #Yerba Mate","steam_id":76561198040969503,"connected_time":1458000000000,"state":"active","ping":60},{"user_id":302,"name":"Sgt. Screwball","steam_id":76561198307963570,"connected_time":357000000000,"state":"active","ping":72}]},{"server_id":19,"name":"Uncletopia | San Francisco | 3 | No Payload","name_short":"sfo-3","host":"sfo-1.us.uncletopia.com","port":27035,"enabled":true,"region":"us-west","cc":"us","latitude":37.77397,"longitude":-122.4313,"reserved":0,"last_update":"0001-01-01T00:00:00Z","name_a2s":"Uncletopia | San Francisco | 3 | No Payload","protocol":17,"map":"koth_harvest_final","folder":"tf","game":"Team Fortress","app_id":440,"player_count":1,"max_players":24,"Bots":0,"server_type":"Dedicated","server_os":"Linux","password":true,"vac":true,"version":"7701286","steam_id":85568392924742824,"keywords":["cp","nocrits","nodmgspread","uncletopia"],"game_id":440,"stv_port":27036,"stv_name":"Uncletopia | San Francisco | 3 | No Payload | STV","players":[{"user_id":5,"name":"wyattdray7","steam_id":76561199436346334,"connected_time":59000000000,"state":"active","ping":120}]},{"server_id":20,"name":"Uncletopia | San Francisco | 4 | Community","name_short":"sfo-4","host":"sfo-1.us.uncletopia.com","port":27045,"enabled":true,"region":"us-west","cc":"us","latitude":37.77397,"longitude":-122.4313,"reserved":0,"last_update":"0001-01-01T00:00:00Z","name_a2s":"Uncletopia | San Francisco | 4 | Community","protocol":17,"map":"cp_altitude","folder":"tf","game":"Team Fortress","app_id":440,"player_count":0,"max_players":24,"Bots":0,"server_type":"Dedicated","server_os":"Linux","password":true,"vac":true,"version":"7701286","steam_id":85568392924742826,"keywords":["cp","nocrits","nodmgspread","uncletopia"],"game_id":440,"stv_port":0,"stv_name":"","players":null},{"server_id":141,"name":"Uncletopia | Sydney | 1 | All Maps","name_short":"syd-1","host":"syd-1.au.uncletopia.com","port":27015,"enabled":true,"region":"au","cc":"au","latitude":-33.865143,"longitude":151.2099,"reserved":0,"last_update":"0001-01-01T00:00:00Z","name_a2s":"Uncletopia | Sydney | 1 | All Maps","protocol":17,"map":"koth_highpass","folder":"tf","game":"Team Fortress","app_id":440,"player_count":0,"max_players":24,"Bots":0,"server_type":"Dedicated","server_os":"Linux","password":true,"vac":true,"version":"7701286","steam_id":85568392924470001,"keywords":["cp","nocrits","nodmgspread","uncletopia"],"game_id":440,"stv_port":27016,"stv_name":"Uncletopia | Sydney | 1 | All Maps | STV","players":null},{"server_id":123,"name":"Uncletopia | Sydney | 2 | All Maps","name_short":"syd-2","host":"syd-1.au.uncletopia.com","port":27025,"enabled":true,"region":"au","cc":"au","latitude":-33.865143,"longitude":151.2099,"reserved":0,"last_update":"0001-01-01T00:00:00Z","name_a2s":"Uncletopia | Sydney | 2 | All Maps","protocol":17,"map":"pl_upward","folder":"tf","game":"Team Fortress","app_id":440,"player_count":8,"max_players":24,"Bots":0,"server_type":"Dedicated","server_os":"Linux","password":true,"vac":true,"version":"7701286","steam_id":85568392924470002,"keywords":["nocrits","nodmgspread","payload","uncletopia"],"game_id":440,"stv_port":0,"stv_name":"","players":[{"user_id":2,"name":"1000 Ping King","steam_id":76561198797058125,"connected_time":963000000000,"state":"active","ping":110},{"user_id":5,"name":"simpcyan","steam_id":76561199121837374,"connected_time":558000000000,"state":"active","ping":194},{"user_id":6,"name":"Noodle man, Harbinger of Death","steam_id":76561198365872980,"connected_time":546000000000,"state":"active","ping":60},{"user_id":7,"name":"spillingpoint","steam_id":76561199252195387,"connected_time":528000000000,"state":"active","ping":51},{"user_id":8,"name":"danno!","steam_id":76561198091848946,"connected_time":328000000000,"state":"active","ping":46},{"user_id":12,"name":":D.","steam_id":76561198042711548,"connected_time":95000000000,"state":"active","ping":60},{"user_id":10,"name":"cakey","steam_id":76561198173746761,"connected_time":264000000000,"state":"active","ping":50},{"user_id":11,"name":"hawk","steam_id":76561198135164277,"connected_time":199000000000,"state":"active","ping":53}]},{"server_id":395,"name":"Uncletopia | Sydney | 3 | All Maps","name_short":"syd-3","host":"syd-1.au.uncletopia.com","port":27035,"enabled":true,"region":"au","cc":"au","latitude":-33.865143,"longitude":151.2099,"reserved":0,"last_update":"0001-01-01T00:00:00Z","name_a2s":"Uncletopia | Sydney | 3 | All Maps","protocol":17,"map":"cp_process_final","folder":"tf","game":"Team Fortress","app_id":440,"player_count":0,"max_players":24,"Bots":0,"server_type":"Dedicated","server_os":"Linux","password":true,"vac":true,"version":"7701286","steam_id":85568392925194467,"keywords":["cp","nocrits","nodmgspread","uncletopia"],"game_id":440,"stv_port":0,"stv_name":"","players":null},{"server_id":396,"name":"Uncletopia | Sydney | 4 | All Maps","name_short":"syd-4","host":"syd-1.au.uncletopia.com","port":27045,"enabled":true,"region":"au","cc":"au","latitude":-33.865143,"longitude":151.2099,"reserved":0,"last_update":"0001-01-01T00:00:00Z","name_a2s":"Uncletopia | Sydney | 4 | All Maps","protocol":17,"map":"koth_highpass","folder":"tf","game":"Team Fortress","app_id":440,"player_count":0,"max_players":24,"Bots":0,"server_type":"Dedicated","server_os":"Linux","password":true,"vac":true,"version":"7701286","steam_id":85568392925397958,"keywords":["cp","nocrits","nodmgspread","uncletopia"],"game_id":440,"stv_port":0,"stv_name":"","players":null},{"server_id":58,"name":"Uncletopia | Sydney | 5 | No Payload","name_short":"syd-5","host":"syd-1.au.uncletopia.com","port":27055,"enabled":true,"region":"au","cc":"au","latitude":-33.865143,"longitude":151.2099,"reserved":0,"last_update":"0001-01-01T00:00:00Z","name_a2s":"Uncletopia | Sydney | 5 | No Payload","protocol":17,"map":"pl_swiftwater_final1","folder":"tf","game":"Team Fortress","app_id":440,"player_count":0,"max_players":24,"Bots":0,"server_type":"Dedicated","server_os":"Linux","password":true,"vac":true,"version":"7701286","steam_id":85568392925397959,"keywords":["nocrits","nodmgspread","payload","uncletopia"],"game_id":440,"stv_port":0,"stv_name":"","players":null},{"server_id":59,"name":"Uncletopia | Sydney | 6 | Community","name_short":"syd-6","host":"syd-1.au.uncletopia.com","port":27065,"enabled":true,"region":"au","cc":"au","latitude":-33.865143,"longitude":151.2099,"reserved":0,"last_update":"0001-01-01T00:00:00Z","name_a2s":"Uncletopia | Sydney | 6 | Community","protocol":17,"map":"workshop/rd_asteroid_redux_rc9.ugc2154902912","folder":"tf","game":"Team Fortress","app_id":440,"player_count":0,"max_players":24,"Bots":0,"server_type":"Dedicated","server_os":"Linux","password":true,"vac":true,"version":"7701286","steam_id":85568392925397960,"keywords":["beta","nocrits","nodmgspread","rd","uncletopia"],"game_id":440,"stv_port":27066,"stv_name":"Uncletopia | Sydney | 6 | Community | STV","players":null},{"server_id":49,"name":"Uncletopia | Warsaw | 1 | All Maps","name_short":"waw-1","host":"waw-1.pl.uncletopia.com","port":27015,"enabled":true,"region":"eu","cc":"pl","latitude":52.2297,"longitude":21.017532,"reserved":0,"last_update":"0001-01-01T00:00:00Z","name_a2s":"Uncletopia | Warsaw | 1 | All Maps","protocol":17,"map":"koth_lakeside_final","folder":"tf","game":"Team Fortress","app_id":440,"player_count":0,"max_players":24,"Bots":0,"server_type":"Dedicated","server_os":"Linux","password":true,"vac":true,"version":"7701286","steam_id":85568392925397850,"keywords":["cp","nocrits","nodmgspread","uncletopia"],"game_id":440,"stv_port":27016,"stv_name":"Uncletopia | Warsaw | 1 | All Maps | STV","players":null},{"server_id":50,"name":"Uncletopia | Warsaw | 2 | All Maps","name_short":"waw-2","host":"waw-1.pl.uncletopia.com","port":27025,"enabled":true,"region":"eu","cc":"pl","latitude":52.2297,"longitude":21.017532,"reserved":0,"last_update":"0001-01-01T00:00:00Z","name_a2s":"Uncletopia | Warsaw | 2 | All Maps","protocol":17,"map":"koth_harvest_final","folder":"tf","game":"Team Fortress","app_id":440,"player_count":0,"max_players":24,"Bots":0,"server_type":"Dedicated","server_os":"Linux","password":true,"vac":true,"version":"7701286","steam_id":85568392925397851,"keywords":["cp","nocrits","nodmgspread","uncletopia"],"game_id":440,"stv_port":27026,"stv_name":"Uncletopia | Warsaw | 2 | All Maps | STV","players":null},{"server_id":51,"name":"Uncletopia | Warsaw | 3 | All Maps","name_short":"waw-3","host":"waw-1.pl.uncletopia.com","port":27035,"enabled":true,"region":"eu","cc":"pl","latitude":52.2297,"longitude":21.017532,"reserved":0,"last_update":"0001-01-01T00:00:00Z","name_a2s":"Uncletopia | Warsaw | 3 | All Maps","protocol":17,"map":"koth_highpass","folder":"tf","game":"Team Fortress","app_id":440,"player_count":0,"max_players":24,"Bots":0,"server_type":"Dedicated","server_os":"Linux","password":true,"vac":true,"version":"7701286","steam_id":85568392925397852,"keywords":["cp","nocrits","nodmgspread","uncletopia"],"game_id":440,"stv_port":27036,"stv_name":"Uncletopia | Warsaw | 3 | All Maps | STV","players":null},{"server_id":52,"name":"Uncletopia | Warsaw | 4 | All Maps","name_short":"waw-4","host":"waw-1.pl.uncletopia.com","port":27045,"enabled":true,"region":"eu","cc":"pl","latitude":52.2297,"longitude":21.017532,"reserved":0,"last_update":"0001-01-01T00:00:00Z","name_a2s":"Uncletopia | Warsaw | 4 | All Maps","protocol":17,"map":"cp_dustbowl","folder":"tf","game":"Team Fortress","app_id":440,"player_count":0,"max_players":24,"Bots":0,"server_type":"Dedicated","server_os":"Linux","password":true,"vac":true,"version":"7701286","steam_id":85568392925397853,"keywords":["cp","nocrits","nodmgspread","uncletopia"],"game_id":440,"stv_port":27046,"stv_name":"Uncletopia | Warsaw | 4 | All Maps | STV","players":null},{"server_id":53,"name":"Uncletopia | Warsaw | 5 | No Payload","name_short":"waw-5","host":"waw-1.pl.uncletopia.com","port":27055,"enabled":true,"region":"eu","cc":"pl","latitude":52.2297,"longitude":21.017532,"reserved":0,"last_update":"0001-01-01T00:00:00Z","name_a2s":"Uncletopia | Warsaw | 5 | No Payload","protocol":17,"map":"koth_badlands","folder":"tf","game":"Team Fortress","app_id":440,"player_count":0,"max_players":24,"Bots":0,"server_type":"Dedicated","server_os":"Linux","password":true,"vac":true,"version":"7701286","steam_id":85568392925397854,"keywords":["cp","nocrits","nodmgspread","uncletopia"],"game_id":440,"stv_port":27056,"stv_name":"Uncletopia | Warsaw | 5 | No Payload | STV","players":null},{"server_id":54,"name":"Uncletopia | Warsaw | 6 | Community","name_short":"waw-6","host":"waw-1.pl.uncletopia.com","port":27065,"enabled":true,"region":"eu","cc":"pl","latitude":52.2297,"longitude":21.017532,"reserved":0,"last_update":"0001-01-01T00:00:00Z","name_a2s":"Uncletopia | Warsaw | 6 | Community","protocol":17,"map":"workshop/koth_synthetic_rc6a.ugc1549817316","folder":"tf","game":"Team Fortress","app_id":440,"player_count":0,"max_players":24,"Bots":0,"server_type":"Dedicated","server_os":"Linux","password":true,"vac":true,"version":"7701286","steam_id":85568392925397856,"keywords":["cp","nocrits","nodmgspread","uncletopia"],"game_id":440,"stv_port":27066,"stv_name":"Uncletopia | Warsaw | 6 | Community | STV","players":null}]}