{"status":true,"message":"","result":[{"server_id":9,"name":"Uncletopia | Atlanta | 1 | All Maps","name_short":"atl-1","host":"atl-1.us.uncletopia.com","port":27015,"enabled":true,"region":"us-east","cc":"us","latitude":33.753746,"longitude":-84.38633,"reserved":0,"last_update":"0001-01-01T00:00:00Z","name_a2s":"Uncletopia | Atlanta | 1 | All Maps","protocol":17,"map":"cp_snakewater_final1","folder":"tf","game":"Team Fortress","app_id":440,"player_count":0,"max_players":24,"Bots":0,"server_type":"Dedicated","server_os":"Linux","password":true,"vac":true,"version":"7961495","steam_id":85568392924469982,"keywords":["cp","nocrits","nodmgspread","uncletopia"],"game_id":440,"stv_port":27016,"stv_name":"Uncletopia | Atlanta | 1 | All Maps | STV","players":null},{"server_id":104,"name":"Uncletopia | Atlanta | 2 | All Maps","name_short":"atl-2","host":"atl-1.us.uncletopia.com","port":27025,"enabled":true,"region":"us-east","cc":"us","latitude":33.753746,"longitude":-84.38633,"reserved":0,"last_update":"0001-01-01T00:00:00Z","name_a2s":"Uncletopia | Atlanta | 2 | All Maps","protocol":17,"map":"plr_hightower","folder":"tf","game":"Team Fortress","app_id":440,"player_count":24,"max_players":24,"Bots":0,"server_type":"Dedicated","server_os":"Linux","password":true,"vac":true,"version":"7961495","steam_id":85568392924469983,"keywords":["nocrits","nodmgspread","payload","uncletopia"],"game_id":440,"stv_port":27026,"stv_name":"Uncletopia | Atlanta | 2 | All Maps | STV","players":null},{"server_id":400,"name":"Uncletopia | Atlanta | 3 | Stopwatch","name_short":"atl-3","host":"atl-1.us.uncletopia.com","port":27035,"enabled":true,"region":"us-east","cc":"us","latitude":33.753746,"longitude":-84.38633,"reserved":0,"last_update":"0001-01-01T00:00:00Z","name_a2s":"Uncletopia | Atlanta | 3 | Stopwatch","protocol":17,"map":"pl_swiftwater_final1","folder":"tf","game":"Team Fortress","app_id":440,"player_count":0,"max_players":24,"Bots":0,"server_type":"Dedicated","server_os":"Linux","password":true,"vac":true,"version":"7961495","steam_id":85568392924515187,"keywords":["nocrits","nodmgspread","payload","uncletopia"],"game_id":440,"stv_port":27036,"stv_name":"Uncletopia | Atlanta | 3 | Stopwatch | STV","players":null},{"server_id":401,"name":"Uncletopia | Atlanta | 4 | Community","name_short":"atl-4","host":"atl-1.us.uncletopia.com","port":27045,"enabled":true,"region":"us-east","cc":"us","latitude":33.753746,"longitude":-84.38633,"reserved":0,"last_update":"0001-01-01T00:00:00Z","name_a2s":"Uncletopia | Atlanta | 4 | Community","protocol":17,"map":"cp_villa_b19","folder":"tf","game":"Team Fortress","app_id":440,"player_count":0,"max_players":24,"Bots":0,"server_type":"Dedicated","server_os":"Linux","password":true,"vac":true,"version":"7961495","steam_id":85568392924515188,"keywords":["cp","nocrits","nodmgspread","uncletopia"],"game_id":440,"stv_port":27046,"stv_name":"Uncletopia | Atlanta | 4 | Community | STV","players":null},{"server_id":2,"name":"Uncletopia | Chicago | 1 | All Maps","name_short":"chi-1","host":"chi-1.us.uncletopia.com","port":27015,"enabled":true,"region":"us-central","cc":"us","latitude":41.881832,"longitude":-87.62318,"reserved":0,"last_update":"0001-01-01T00:00:00Z","name_a2s":"Uncletopia | Chicago | 1 | All Maps","protocol":17,"map":"plr_bananabay","folder":"tf","game":"Team Fortress","app_id":440,"player_count":21,"max_players":24,"Bots":0,"server_type":"Dedicated","server_os":"Linux","password":true,"vac":true,"version":"7961495","steam_id":85568392924469984,"keywords":["nocrits","nodmgspread","payload","uncletopia"],"game_id":440,"stv_port":27016,"stv_name":"Uncletopia | Chicago | 1 | All Maps | STV","players":[{"user_id":174,"name":"anonpain","steam_id":76561198081317092,"connected_time":1113000000000,"state":"active","ping":52},{"user_id":178,"name":"Osteo-Oligarch","steam_id":76561198164731896,"connected_time":647000000000,"state":"active","ping":70},{"user_id":163,"name":"stomi","steam_id":76561198418623427,"connected_time":2208000000000,"state":"active","ping":158},{"user_id":121,"name":"krueger","steam_id":76561198268654031,"connected_time":6037000000000,"state":"active","ping":45},{"user_id":180,"name":"derz","steam_id":76561198010742216,"connected_time":575000000000,"state":"active","ping":51},{"user_id":175,"name":"Milkmur","steam_id":76561198210043821,"connected_time":932000000000,"state":"active","ping":67},{"user_id":123,"name":"Spy Gaming","steam_id":76561198453295613,"connected_time":5893000000000,"state":"active","ping":112},{"user_id":141,"name":"lexi","steam_id":76561198176299759,"connected_time":4045000000000,"state":"active","ping":76},{"user_id":179,"name":"Hyperactivedimwit","steam_id":76561198134221704,"connected_time":635000000000,"state":"active","ping":48},{"user_id":181,"name":"Berries","steam_id":76561198109312962,"connected_time":481000000000,"state":"active","ping":75},{"user_id":168,"name":"Draconic Ballad","steam_id":76561198027191515,"connected_time":1192000000000,"state":"active","ping":45},{"user_id":153,"name":"‚ô•Bunny‚ô•Slut‚ô•","steam_id":76561198206376851,"connected_time":3231000000000,"state":"active","ping":144},{"user_id":161,"name":"The Benefactor","steam_id":76561198307247913,"connected_time":2244000000000,"state":"active","ping":100},{"user_id":162,"name":"TOP 10 HEAVIEST BREAKDOWNS 2009","steam_id":76561198097588802,"connected_time":2236000000000,"state":"active","ping":44},{"user_id":182,"name":"Awenova","steam_id":76561198322928940,"connected_time":444000000000,"state":"active","ping":65},{"user_id":112,"name":"Mi cara","steam_id":76561198190771759,"connected_time":6921000000000,"state":"active","ping":89},{"user_id":144,"name":"Training Arc","steam_id":76561198038832034,"connected_time":3944000000000,"state":"active","ping":104},{"user_id":177,"name":"Your Local Queer Birthday Boi","steam_id":76561198013077080,"connected_time":856000000000,"state":"active","ping":54},{"user_id":164,"name":"GhostNappa115","steam_id":76561199191163790,"connected_time":2202000000000,"state":"active","ping":97},{"user_id":183,"name":"Astoriae!","steam_id":76561199090168858,"connected_time":315000000000,"state":"active","ping":65},{"user_id":165,"name":"not a good idea","steam_id":76561198032259680,"connected_time":2197000000000,"state":"active","ping":75}]},{"server_id":106,"name":"Uncletopia | Chicago | 2 | All Maps","name_short":"chi-2","host":"chi-1.us.uncletopia.com","port":27025,"enabled":true,"region":"us-central","cc":"us","latitude":41.881832,"longitude":-87.62318,"reserved":0,"last_update":"0001-01-01T00:00:00Z","name_a2s":"Uncletopia | Chicago | 2 | All Maps","protocol":17,"map":"cp_altitude","folder":"tf","game":"Team Fortress","app_id":440,"player_count":24,"max_players":24,"Bots":0,"server_type":"Dedicated","server_os":"Linux","password":true,"vac":true,"version":"7961495","steam_id":85568392924469985,"keywords":["cp","nocrits","nodmgspread","uncletopia"],"game_id":440,"stv_port":27026,"stv_name":"Uncletopia | Chicago | 2 | All Maps | STV","players":[{"user_id":123,"name":"pikasalt","steam_id":76561198060890973,"connected_time":2447000000000,"state":"active","ping":66},{"user_id":124,"name":"ArchmageF","steam_id":76561197992246851,"connected_time":2389000000000,"state":"active","ping":97},{"user_id":8,"name":"Shaunt","steam_id":76561198171551057,"connected_time":11448000000000,"state":"active","ping":49},{"user_id":126,"name":"In Soviet America","steam_id":76561197998261826,"connected_time":1765000000000,"state":"active","ping":56},{"user_id":138,"name":"ShellBug","steam_id":76561198144187527,"connected_time":461000000000,"state":"active","ping":70},{"user_id":142,"name":"NotRommel","steam_id":76561199089324135,"connected_time":269000000000,"state":"active","ping":121},{"user_id":113,"name":"ExtremeDucks","steam_id":76561198351756464,"connected_time":2654000000000,"state":"active","ping":110},{"user_id":127,"name":"PigPig","steam_id":76561198068190834,"connected_time":1617000000000,"state":"active","ping":105},{"user_id":129,"name":"eight bees","steam_id":76561198305560736,"connected_time":1582000000000,"state":"active","ping":64},{"user_id":133,"name":"popfulmail","steam_id":76561198865971290,"connected_time":1184000000000,"state":"active","ping":86},{"user_id":99,"name":"orbisg","steam_id":76561198004133638,"connected_time":3328000000000,"state":"active","ping":105},{"user_id":134,"name":"Pooch","steam_id":76561198011683299,"connected_time":1089000000000,"state":"active","ping":88},{"user_id":110,"name":"onionman0106","steam_id":76561199067766868,"connected_time":2717000000000,"state":"active","ping":116},{"user_id":140,"name":"SmokeyOne73","steam_id":76561198254981028,"connected_time":444000000000,"state":"active","ping":83},{"user_id":135,"name":"Kaiser","steam_id":76561198140330263,"connected_time":842000000000,"state":"active","ping":79},{"user_id":136,"name":"Phallexander","steam_id":76561197996786118,"connected_time":713000000000,"state":"active","ping":109},{"user_id":144,"name":"Gummy","steam_id":76561198098801598,"connected_time":184000000000,"state":"active","ping":58},{"user_id":141,"name":"Peepster","steam_id":76561198297854733,"connected_time":413000000000,"state":"active","ping":70},{"user_id":45,"name":"Mr. Tickle","steam_id":76561198126684647,"connected_time":9360000000000,"state":"active","ping":58},{"user_id":114,"name":"MagicCraftMaster","steam_id":76561198179156615,"connected_time":2654000000000,"state":"active","ping":74},{"user_id":119,"name":"Wii Fit Trainer","steam_id":76561198110817823,"connected_time":2582000000000,"state":"active","ping":68},{"user_id":143,"name":"Braixen","steam_id":76561198354314389,"connected_time":237000000000,"state":"active","ping":75},{"user_id":121,"name":"Cyclops_672","steam_id":76561198080169497,"connected_time":2551000000000,"state":"active","ping":53},{"user_id":62,"name":"Sahalanthro","steam_id":76561199073298722,"connected_time":7275000000000,"state":"active","ping":84}]},{"server_id":402,"name":"Uncletopia | Chicago | 3 | All Maps","name_short":"chi-3","host":"chi-1.us.uncletopia.com","port":27035,"enabled":true,"region":"us-central","cc":"us","latitude":41.881832,"longitude":-87.62318,"reserved":0,"last_update":"0001-01-01T00:00:00Z","name_a2s":"Uncletopia | Chicago | 3 | All Maps","protocol":17,"map":"ctf_2fort","folder":"tf","game":"Team Fortress","app_id":440,"player_count":23,"max_players":24,"Bots":0,"server_type":"Dedicated","server_os":"Linux","password":true,"vac":true,"version":"7961495","steam_id":85568392924515191,"keywords":["ctf","nocrits","nodmgspread","uncletopia"],"game_id":440,"stv_port":27036,"stv_name":"Uncletopia | Chicago | 3 | All Maps | STV","players":[{"user_id":385,"name":"this stupid thing","steam_id":76561199197497757,"connected_time":2333000000000,"state":"active","ping":82},{"user_id":219,"name":"Xynnan","steam_id":76561198122232186,"connected_time":11914000000000,"state":"active","ping":77},{"user_id":406,"name":"Madeline the Mad","steam_id":76561198153456869,"connected_time":1162000000000,"state":"active","ping":59},{"user_id":7,"name":"CreateADebate","steam_id":76561198115760035,"connected_time":20984000000000,"state":"active","ping":62},{"user_id":343,"name":"Ballsack Shaver","steam_id":76561199011739378,"connected_time":7525000000000,"state":"active","ping":66},{"user_id":386,"name":"Rex","steam_id":76561198138365053,"connected_time":2261000000000,"state":"active","ping":134},{"user_id":417,"name":"Predicta","steam_id":76561198017630616,"connected_time":361000000000,"state":"active","ping":50},{"user_id":403,"name":"Sex Midfielder","steam_id":76561198048918192,"connected_time":1262000000000,"state":"active","ping":60},{"user_id":356,"name":"pea ttv/peabeanz","steam_id":76561198119551968,"connected_time":5128000000000,"state":"active","ping":71},{"user_id":408,"name":"Scruga","steam_id":76561197993476998,"connected_time":1082000000000,"state":"active","ping":146},{"user_id":411,"name":"DinoBoy","steam_id":76561199197015977,"connected_time":643000000000,"state":"active","ping":55},{"user_id":404,"name":"newgrounds1004","steam_id":76561199471951160,"connected_time":1177000000000,"state":"active","ping":76},{"user_id":374,"name":"jan kili","steam_id":76561198289894834,"connected_time":3153000000000,"state":"active","ping":71},{"user_id":370,"name":"canakblasteran","steam_id":76561199472518822,"connected_time":4118000000000,"state":"active","ping":101},{"user_id":412,"name":"adolf tickler","steam_id":76561198163120788,"connected_time":643000000000,"state":"active","ping":91},{"user_id":418,"name":"Hamz","steam_id":76561199287459211,"connected_time":77000000000,"state":"active","ping":71},{"user_id":397,"name":"DoomSpiral","steam_id":76561199099015519,"connected_time":1974000000000,"state":"active","ping":72},{"user_id":391,"name":"DryWater","steam_id":76561198260857681,"connected_time":2069000000000,"state":"active","ping":141},{"user_id":420,"name":"xelph","steam_id":76561198443008847,"connected_time":2000000000,"state":"spawning","ping":66},{"user_id":384,"name":"leaving lunar orbit","steam_id":76561199085974120,"connected_time":2882000000000,"state":"active","ping":73},{"user_id":407,"name":"PudgyPat","steam_id":76561198844944465,"connected_time":1158000000000,"state":"active","ping":71},{"user_id":409,"name":"SPIRE_FAN","steam_id":76561198001486573,"connected_time":682000000000,"state":"active","ping":69},{"user_id":415,"name":"mrappledumb","steam_id":76561199133590774,"connected_time":553000000000,"state":"active","ping":86}]},{"server_id":403,"name":"Uncletopia | Chicago | 4 | All Maps","name_short":"chi-4","host":"chi-1.us.uncletopia.com","port":27045,"enabled":true,"region":"us-central","cc":"us","latitude":41.881832,"longitude":-87.62318,"reserved":0,"last_update":"0001-01-01T00:00:00Z","name_a2s":"Uncletopia | Chicago | 4 | All Maps","protocol":17,"map":"cp_mountainlab","folder":"tf","game":"Team Fortress","app_id":440,"player_count":24,"max_players":24,"Bots":0,"server_type":"Dedicated","server_os":"Linux","password":true,"vac":true,"version":"7961495","steam_id":85568392924515193,"keywords":["cp","nocrits","nodmgspread","uncletopia"],"game_id":440,"stv_port":27046,"stv_name":"Uncletopia | Chicago | 4 | All Maps | STV","players":[{"user_id":186,"name":"NoodleNegotiator","steam_id":76561197993284400,"connected_time":228000000000,"state":"active","ping":84},{"user_id":187,"name":"ChozoChorizo","steam_id":76561198272609196,"connected_time":149000000000,"state":"active","ping":56},{"user_id":182,"name":"J197382645","steam_id":76561198014742440,"connected_time":340000000000,"state":"active","ping":87},{"user_id":177,"name":"RectalExam","steam_id":76561197970502312,"connected_time":880000000000,"state":"active","ping":82},{"user_id":180,"name":"LevelRaisin","steam_id":76561198082924440,"connected_time":515000000000,"state":"active","ping":50},{"user_id":129,"name":"::INVEST IN SKYNET::","steam_id":76561198144436132,"connected_time":3872000000000,"state":"active","ping":79},{"user_id":185,"name":"AdorableMew","steam_id":76561198186706405,"connected_time":256000000000,"state":"active","ping":74},{"user_id":130,"name":"Natsuki the Scunt","steam_id":76561199175922684,"connected_time":3794000000000,"state":"active","ping":86},{"user_id":164,"name":"RestingImmortal","steam_id":76561198254240564,"connected_time":2213000000000,"state":"active","ping":72},{"user_id":188,"name":"Sooper Smert","steam_id":76561198047958540,"connected_time":138000000000,"state":"active","ping":69},{"user_id":151,"name":"clmatt6","steam_id":76561198027812938,"connected_time":2790000000000,"state":"active","ping":79},{"user_id":171,"name":"Bartholomew","steam_id":76561199097771720,"connected_time":1075000000000,"state":"active","ping":79},{"user_id":157,"name":"The Circle rules Your Life","steam_id":76561198072095399,"connected_time":2669000000000,"state":"active","ping":58},{"user_id":169,"name":"Sparse","steam_id":76561198865084441,"connected_time":1177000000000,"state":"active","ping":72},{"user_id":147,"name":"Rustyorion","steam_id":76561198439186347,"connected_time":2905000000000,"state":"active","ping":120},{"user_id":175,"name":"d4efeb","steam_id":76561198148098761,"connected_time":926000000000,"state":"active","ping":44},{"user_id":189,"name":"HarryjusttHarry","steam_id":76561198982810452,"connected_time":110000000000,"state":"active","ping":82},{"user_id":135,"name":"ExplosiveGoose","steam_id":76561197971562966,"connected_time":3533000000000,"state":"active","ping":91},{"user_id":190,"name":"evan_is_sauce","steam_id":76561199086802383,"connected_time":108000000000,"state":"active","ping":105},{"user_id":97,"name":"Bussy Bandit","steam_id":76561198034028769,"connected_time":6455000000000,"state":"active","ping":61},{"user_id":191,"name":"CDRW Enjoyer","steam_id":76561198119393205,"connected_time":99000000000,"state":"active","ping":69},{"user_id":153,"name":"medi","steam_id":76561198202720770,"connected_time":2783000000000,"state":"active","ping":58},{"user_id":192,"name":"8o8","steam_id":76561198996923332,"connected_time":97000000000,"state":"spawning","ping":162},{"user_id":193,"name":"The Cadian","steam_id":76561198350929598,"connected_time":88000000000,"state":"active","ping":83}]},{"server_id":36,"name":"Uncletopia | Chicago | 5 | All Maps","name_short":"chi-5","host":"chi-2.us.uncletopia.com","port":27015,"enabled":true,"region":"us-central","cc":"us","latitude":41.881832,"longitude":-87.62318,"reserved":0,"last_update":"0001-01-01T00:00:00Z","name_a2s":"Uncletopia | Chicago | 5 | All Maps","protocol":17,"map":"koth_viaduct","folder":"tf","game":"Team Fortress","app_id":440,"player_count":0,"max_players":24,"Bots":0,"server_type":"Dedicated","server_os":"Linux","password":true,"vac":true,"version":"7961495","steam_id":85568392924866362,"keywords":["cp","nocrits","nodmgspread","uncletopia"],"game_id":440,"stv_port":27016,"stv_name":"Uncletopia | Chicago | 5 | All Maps | STV","players":null},{"server_id":37,"name":"Uncletopia | Chicago | 6 | All Maps","name_short":"chi-6","host":"chi-2.us.uncletopia.com","port":27025,"enabled":true,"region":"us-central","cc":"us","latitude":41.881832,"longitude":-87.62318,"reserved":0,"last_update":"0001-01-01T00:00:00Z","name_a2s":"Uncletopia | Chicago | 6 | All Maps","protocol":17,"map":"pl_upward","folder":"tf","game":"Team Fortress","app_id":440,"player_count":24,"max_players":24,"Bots":0,"server_type":"Dedicated","server_os":"Linux","password":true,"vac":true,"version":"7961495","steam_id":85568392924866363,"keywords":["nocrits","nodmgspread","payload","uncletopia"],"game_id":440,"stv_port":27026,"stv_name":"Uncletopia | Chicago | 6 | All Maps | STV","players":[{"user_id":275,"name":"Workplace Daydreamer","steam_id":76561199230019748,"connected_time":1350000000000,"state":"active","ping":74},{"user_id":251,"name":"FiddyFoMike","steam_id":76561198057072581,"connected_time":3350000000000,"state":"active","ping":91},{"user_id":272,"name":"Yvette420","steam_id":76561199472888498,"connected_time":1517000000000,"state":"active","ping":90},{"user_id":214,"name":"Soul Garg Plushy","steam_id":76561198044480181,"connected_time":5486000000000,"state":"active","ping":50},{"user_id":242,"name":"jose.gonzales.2003","steam_id":76561199217620385,"connected_time":3822000000000,"state":"active","ping":64},{"user_id":306,"name":"Crouching Noob Hidden Sniper","steam_id":76561197971328473,"connected_time":334000000000,"state":"active","ping":85},{"user_id":276,"name":"Kng","steam_id":76561198993248203,"connected_time":1337000000000,"state":"active","ping":106},{"user_id":243,"name":"illness","steam_id":76561198881651324,"connected_time":3762000000000,"state":"active","ping":73},{"user_id":261,"name":"SmokyDank","steam_id":76561198045782886,"connected_time":2821000000000,"state":"active","ping":101},{"user_id":264,"name":"tobrehto","steam_id":76561198097544038,"connected_time":2602000000000,"state":"active","ping":90},{"user_id":301,"name":"crankshaft","steam_id":76561197992798282,"connected_time":973000000000,"state":"active","ping":100},{"user_id":300,"name":"Fatal","steam_id":76561198061407587,"connected_time":1065000000000,"state":"active","ping":86},{"user_id":247,"name":"Sunflower","steam_id":76561198081223793,"connected_time":3585000000000,"state":"active","ping":59},{"user_id":274,"name":"Defragmented","steam_id":76561198854210081,"connected_time":1377000000000,"state":"active","ping":70},{"user_id":278,"name":"Piggypot","steam_id":76561199106826976,"connected_time":1309000000000,"state":"active","ping":84},{"user_id":302,"name":"Melaza Madera","steam_id":76561199031977210,"connected_time":968000000000,"state":"active","ping":63},{"user_id":303,"name":"Cigtar","steam_id":76561198079842818,"connected_time":963000000000,"state":"active","ping":78},{"user_id":207,"name":"Domswish","steam_id":76561198331444240,"connected_time":6222000000000,"state":"active","ping":65},{"user_id":307,"name":"Syrus","steam_id":76561198079606024,"connected_time":321000000000,"state":"active","ping":75},{"user_id":256,"name":"Copland OS","steam_id":76561198041800378,"connected_time":3082000000000,"state":"active","ping":76},{"user_id":271,"name":"ceres","steam_id":76561198291976960,"connected_time":1895000000000,"state":"active","ping":105},{"user_id":268,"name":"Jamie Hyneman","steam_id":76561199196036481,"connected_time":2195000000000,"state":"active","ping":88},{"user_id":237,"name":"Kartyac","steam_id":76561197991069005,"connected_time":4326000000000,"state":"active","ping":84},{"user_id":281,"name":"jstn","steam_id":76561198845283665,"connected_time":1241000000000,"state":"active","ping":72}]},{"server_id":38,"name":"Uncletopia | Chicago | 7 | Stopwatch","name_short":"chi-7","host":"chi-2.us.uncletopia.com","port":27035,"enabled":true,"region":"us-central","cc":"us","latitude":41.881832,"longitude":-87.62318,"reserved":0,"last_update":"0001-01-01T00:00:00Z","name_a2s":"Uncletopia | Chicago | 7 | Stopwatch","protocol":17,"map":"pl_badwater","folder":"tf","game":"Team Fortress","app_id":440,"player_count":0,"max_players":24,"Bots":0,"server_type":"Dedicated","server_os":"Linux","password":true,"vac":true,"version":"7961495","steam_id":85568392924866364,"keywords":["nocrits","nodmgspread","payload","uncletopia"],"game_id":440,"stv_port":27036,"stv_name":"Uncletopia | Chicago | 7 | Stopwatch | STV","players":null},{"server_id":39,"name":"Uncletopia | Chicago | 8 | Community","name_short":"chi-8","host":"chi-2.us.uncletopia.com","port":27045,"enabled":true,"region":"us-central","cc":"us","latitude":41.881832,"longitude":-87.62318,"reserved":0,"last_update":"0001-01-01T00:00:00Z","name_a2s":"Uncletopia | Chicago | 8 | Community","protocol":17,"map":"workshop/pl_barnblitz_pro7.ugc582280235","folder":"tf","game":"Team Fortress","app_id":440,"player_count":0,"max_players":24,"Bots":0,"server_type":"Dedicated","server_os":"Linux","password":true,"vac":true,"version":"7961495","steam_id":85568392924866365,"keywords":["nocrits","nodmgspread","payload","uncletopia"],"game_id":440,"stv_port":27046,"stv_name":"Uncletopia | Chicago | 8 | Community | STV","players":null},{"server_id":8,"name":"Uncletopia | Dallas | 1 | All Maps","name_short":"dal-1","host":"dal-1.us.uncletopia.com","port":27015,"enabled":true,"region":"us-central","cc":"us","latitude":32.779167,"longitude":-96.80889,"reserved":0,"last_update":"0001-01-01T00:00:00Z","name_a2s":"Uncletopia | Dallas | 1 | All Maps","protocol":17,"map":"pl_upward","folder":"tf","game":"Team Fortress","app_id":440,"player_count":24,"max_players":24,"Bots":0,"server_type":"Dedicated","server_os":"Linux","password":true,"vac":true,"version":"7961495","steam_id":85568392924469986,"keywords":["nocrits","nodmgspread","payload","uncletopia"],"game_id":440,"stv_port":27016,"stv_name":"Uncletopia | Dallas | 1 | All Maps | STV","players":[{"user_id":237,"name":"Dum_Bass(Fish)","steam_id":76561197988105207,"connected_time":7303000000000,"state":"active","ping":89},{"user_id":284,"name":"BackwardsEagle","steam_id":76561199013712612,"connected_time":1874000000000,"state":"active","ping":98},{"user_id":279,"name":"KaosInfinite","steam_id":76561198009126350,"connected_time":3465000000000,"state":"active","ping":77},{"user_id":282,"name":"AttackCommander","steam_id":76561198111522679,"connected_time":2366000000000,"state":"active","ping":58},{"user_id":257,"name":"cinnamon","steam_id":76561198142109937,"connected_time":5417000000000,"state":"active","ping":60},{"user_id":290,"name":"Skabbety","steam_id":76561198168044257,"connected_time":403000000000,"state":"active","ping":99},{"user_id":262,"name":"Macro","steam_id":76561199442846226,"connected_time":4896000000000,"state":"active","ping":80},{"user_id":260,"name":"green bean","steam_id":76561198113099204,"connected_time":4946000000000,"state":"active","ping":74},{"user_id":289,"name":"Peppy","steam_id":76561198866629645,"connected_time":871000000000,"state":"active","ping":81},{"user_id":250,"name":"mentos14","steam_id":76561198097993629,"connected_time":6176000000000,"state":"active","ping":85},{"user_id":268,"name":"Big Floppa","steam_id":76561199152552589,"connected_time":4361000000000,"state":"active","ping":112},{"user_id":245,"name":"czarchasm","steam_id":76561198055712749,"connected_time":6723000000000,"state":"active","ping":57},{"user_id":277,"name":"pastry","steam_id":76561198038999341,"connected_time":3507000000000,"state":"active","ping":78},{"user_id":295,"name":"MapleSyzurp","steam_id":76561197984544416,"connected_time":286000000000,"state":"active","ping":83},{"user_id":291,"name":"jayeskae","steam_id":76561198144220801,"connected_time":391000000000,"state":"active","ping":104},{"user_id":264,"name":"Ryzema","steam_id":76561198165594229,"connected_time":4743000000000,"state":"active","ping":86},{"user_id":292,"name":"ATL1 | to4st","steam_id":76561198981009008,"connected_time":389000000000,"state":"active","ping":77},{"user_id":269,"name":"albert jones","steam_id":76561198404271005,"connected_time":4333000000000,"state":"active","ping":75},{"user_id":216,"name":"just jazz","steam_id":76561198010637797,"connected_time":8067000000000,"state":"active","ping":69},{"user_id":271,"name":"Motreir","steam_id":76561198151717946,"connected_time":4081000000000,"state":"active","ping":85},{"user_id":267,"name":"eat salad","steam_id":76561198960183175,"connected_time":4430000000000,"state":"active","ping":74},{"user_id":261,"name":"evilOlive","steam_id":76561198106222025,"connected_time":4939000000000,"state":"active","ping":68},{"user_id":293,"name":"The Notorious Nutter","steam_id":76561198145058709,"connected_time":388000000000,"state":"active","ping":61},{"user_id":287,"name":"BamBam","steam_id":76561198063110026,"connected_time":1245000000000,"state":"active","ping":77}]},{"server_id":108,"name":"Uncletopia | Dallas | 2 | All Maps","name_short":"dal-2","host":"dal-1.us.uncletopia.com","port":27025,"enabled":true,"region":"us-central","cc":"us","latitude":32.779167,"longitude":-96.80889,"reserved":0,"last_update":"0001-01-01T00:00:00Z","name_a2s":"Uncletopia | Dallas | 2 | All Maps","protocol":17,"map":"pl_borneo","folder":"tf","game":"Team Fortress","app_id":440,"player_count":24,"max_players":24,"Bots":0,"server_type":"Dedicated","server_os":"Linux","password":true,"vac":true,"version":"7961495","steam_id":85568392924469988,"keywords":["nocrits","nodmgspread","payload","uncletopia"],"game_id":440,"stv_port":27026,"stv_name":"Uncletopia | Dallas | 2 | All Maps | STV","players":[{"user_id":86,"name":"Kovox","steam_id":76561198972619900,"connected_time":106000000000,"state":"active","ping":54},{"user_id":29,"name":"Captain Bong Rips","steam_id":76561198065946939,"connected_time":4180000000000,"state":"active","ping":102},{"user_id":80,"name":"GX thedittoguy","steam_id":76561199013129784,"connected_time":597000000000,"state":"active","ping":56},{"user_id":79,"name":"Picard","steam_id":76561197993530161,"connected_time":658000000000,"state":"active","ping":56},{"user_id":20,"name":"BlueWelder","steam_id":76561198102378081,"connected_time":5270000000000,"state":"active","ping":98},{"user_id":64,"name":"leopardo123atl","steam_id":76561198872648238,"connected_time":2149000000000,"state":"active","ping":75},{"user_id":81,"name":"HanakoToast","steam_id":76561198045233131,"connected_time":572000000000,"state":"active","ping":75},{"user_id":27,"name":"andyiscolorless","steam_id":76561199239870921,"connected_time":4420000000000,"state":"active","ping":137},{"user_id":37,"name":"vifi269","steam_id":76561198283749166,"connected_time":3222000000000,"state":"active","ping":54},{"user_id":53,"name":"MAXIMUM SENSITIVITY SNIPER","steam_id":76561198013560671,"connected_time":2783000000000,"state":"active","ping":85},{"user_id":73,"name":"Aerobro","steam_id":76561198033530996,"connected_time":1339000000000,"state":"active","ping":65},{"user_id":60,"name":"Grandpa","steam_id":76561198800094356,"connected_time":2501000000000,"state":"active","ping":110},{"user_id":43,"name":"Poor Drunk Scot","steam_id":76561199465805056,"connected_time":2979000000000,"state":"active","ping":78},{"user_id":76,"name":"OwningTundra2","steam_id":76561198936893224,"connected_time":880000000000,"state":"active","ping":58},{"user_id":68,"name":"LaserDog","steam_id":76561199088111891,"connected_time":1881000000000,"state":"active","ping":65},{"user_id":74,"name":"Hope","steam_id":76561199201900779,"connected_time":1336000000000,"state":"active","ping":102},{"user_id":84,"name":"envy","steam_id":76561198099470277,"connected_time":282000000000,"state":"active","ping":80},{"user_id":85,"name":"Pvt. Dimitri Petrenko","steam_id":76561198078040091,"connected_time":212000000000,"state":"active","ping":55},{"user_id":54,"name":"Walmus","steam_id":76561198111416393,"connected_time":2725000000000,"state":"active","ping":76},{"user_id":75,"name":"sloppy blowjob devil","steam_id":76561198089852954,"connected_time":1333000000000,"state":"active","ping":78},{"user_id":56,"name":"Meepster","steam_id":76561198146305159,"connected_time":2712000000000,"state":"active","ping":89},{"user_id":57,"name":"SnazzyCelestial","steam_id":76561198328763813,"connected_time":2691000000000,"state":"active","ping":81},{"user_id":82,"name":"lynt","steam_id":76561198988333976,"connected_time":400000000000,"state":"active","ping":66},{"user_id":83,"name":"Phoysh","steam_id":76561198137111021,"connected_time":360000000000,"state":"active","ping":113}]},{"server_id":404,"name":"Uncletopia | Dallas | 3 | All Maps","name_short":"dal-3","host":"dal-1.us.uncletopia.com","port":27035,"enabled":true,"region":"us-central","cc":"us","latitude":32.779167,"longitude":-96.80889,"reserved":0,"last_update":"0001-01-01T00:00:00Z","name_a2s":"Uncletopia | Dallas | 3 | All Maps","protocol":17,"map":"cp_snakewater_final1","folder":"tf","game":"Team Fortress","app_id":440,"player_count":0,"max_players":24,"Bots":0,"server_type":"Dedicated","server_os":"Linux","password":true,"vac":true,"version":"7961495","steam_id":85568392924515219,"keywords":["cp","nocrits","nodmgspread","uncletopia"],"game_id":440,"stv_port":27036,"stv_name":"Uncletopia | Dallas | 3 | All Maps | STV","players":null},{"server_id":405,"name":"Uncletopia | Dallas | 4 | Community","name_short":"dal-4","host":"dal-1.us.uncletopia.com","port":27045,"enabled":true,"region":"us-central","cc":"us","latitude":32.779167,"longitude":-96.80889,"reserved":0,"last_update":"0001-01-01T00:00:00Z","name_a2s":"Uncletopia | Dallas | 4 | Community","protocol":17,"map":"pl_pier","folder":"tf","game":"Team Fortress","app_id":440,"player_count":0,"max_players":24,"Bots":0,"server_type":"Dedicated","server_os":"Linux","password":true,"vac":true,"version":"7961495","steam_id":85568392924515220,"keywords":["nocrits","nodmgspread","payload","uncletopia"],"game_id":440,"stv_port":27046,"stv_name":"Uncletopia | Dallas | 4 | Community | STV","players":null},{"server_id":5,"name":"Uncletopia | Frankfurt | 1 | All Maps","name_short":"frk-1","host":"frk-1.de.uncletopia.com","port":27015,"enabled":true,"region":"eu","cc":"de","latitude":50.110924,"longitude":8.682127,"reserved":0,"last_update":"0001-01-01T00:00:00Z","name_a2s":"Uncletopia | Frankfurt | 1 | All Maps","protocol":17,"map":"pl_frontier_final","folder":"tf","game":"Team Fortress","app_id":440,"player_count":24,"max_players":24,"Bots":0,"server_type":"Dedicated","server_os":"Linux","password":true,"vac":true,"version":"7961495","steam_id":85568392924469989,"keywords":["nocrits","nodmgspread","payload","uncletopia"],"game_id":440,"stv_port":27016,"stv_name":"Uncletopia | Frankfurt | 1 | All Maps | STV","players":[{"user_id":229,"name":"ra","steam_id":76561198239927434,"connected_time":6405000000000,"state":"active","ping":119},{"user_id":302,"name":"A.D.H.|Artem","steam_id":76561198041801369,"connected_time":1063000000000,"state":"active","ping":79},{"user_id":183,"name":"Zu","steam_id":76561198054192354,"connected_time":9428000000000,"state":"active","ping":50},{"user_id":286,"name":"Stefman","steam_id":76561199025104038,"connected_time":2732000000000,"state":"active","ping":46},{"user_id":290,"name":"Vitun vittu","steam_id":76561198110679463,"connected_time":1887000000000,"state":"active","ping":75},{"user_id":270,"name":"dex","steam_id":76561197972438196,"connected_time":3122000000000,"state":"active","ping":58},{"user_id":297,"name":"Z3Z","steam_id":76561199113947978,"connected_time":1598000000000,"state":"active","ping":73},{"user_id":283,"name":"ANGELFISH","steam_id":76561198027536466,"connected_time":2792000000000,"state":"active","ping":90},{"user_id":312,"name":"sex toilet","steam_id":76561198412197820,"connected_time":495000000000,"state":"active","ping":77},{"user_id":275,"name":"Rimx","steam_id":76561198053034840,"connected_time":3037000000000,"state":"active","ping":89},{"user_id":305,"name":"kalumuna","steam_id":76561197996957462,"connected_time":745000000000,"state":"active","ping":88},{"user_id":289,"name":"Gooner","steam_id":76561198087035309,"connected_time":1902000000000,"state":"active","ping":60},{"user_id":284,"name":"Mozzaza","steam_id":76561198156316111,"connected_time":2774000000000,"state":"active","ping":122},{"user_id":300,"name":"Furno","steam_id":76561197999723047,"connected_time":1364000000000,"state":"active","ping":63},{"user_id":268,"name":"His Femboy","steam_id":76561198071111501,"connected_time":3153000000000,"state":"active","ping":60},{"user_id":303,"name":"Splattted","steam_id":76561199327476294,"connected_time":996000000000,"state":"active","ping":79},{"user_id":309,"name":"WolfmanCZ","steam_id":76561199157141414,"connected_time":625000000000,"state":"active","ping":70},{"user_id":306,"name":"Solymr ibn Wali Barad","steam_id":76561198044008976,"connected_time":738000000000,"state":"active","ping":75},{"user_id":257,"name":"Penis Contortionist","steam_id":76561198073663784,"connected_time":4494000000000,"state":"active","ping":54},{"user_id":307,"name":"Mi PRO | FIH","steam_id":76561199023108666,"connected_time":737000000000,"state":"active","ping":102},{"user_id":313,"name":"sui","steam_id":76561198185348855,"connected_time":494000000000,"state":"active","ping":71},{"user_id":277,"name":"Toasty5050","steam_id":76561198073540881,"connected_time":3031000000000,"state":"active","ping":46},{"user_id":314,"name":"Squash Nyderü•í Tarm Bryder\ufffd\ufffd\ufffd","steam_id":76561198300501653,"connected_time":39000000000,"state":"active","ping":45},{"user_id":298,"name":"SpriteCranberrySupplier","steam_id":76561199232652361,"connected_time":1597000000000,"state":"active","ping":68}]},{"server_id":110,"name":"Uncletopia | Frankfurt | 2 | All Maps","name_short":"frk-2","host":"frk-1.de.uncletopia.com","port":27025,"enabled":true,"region":"eu","cc":"de","latitude":50.110924,"longitude":8.682127,"reserved":0,"last_update":"0001-01-01T00:00:00Z","name_a2s":"Uncletopia | Frankfurt | 2 | All Maps","protocol":17,"map":"cp_altitude","folder":"tf","game":"Team Fortress","app_id":440,"player_count":0,"max_players":24,"Bots":0,"server_type":"Dedicated","server_os":"Linux","password":true,"vac":true,"version":"7961495","steam_id":85568392924469990,"keywords":["cp","nocrits","nodmgspread","uncletopia"],"game_id":440,"stv_port":27026,"stv_name":"Uncletopia | Frankfurt | 2 | All Maps | STV","players":null},{"server_id":308,"name":"Uncletopia | Frankfurt | 3 | All Maps","name_short":"frk-3","host":"frk-1.de.uncletopia.com","port":27035,"enabled":true,"region":"eu","cc":"de","latitude":50.110924,"longitude":8.682127,"reserved":0,"last_update":"0001-01-01T00:00:00Z","name_a2s":"Uncletopia | Frankfurt | 3 | All Maps","protocol":17,"map":"koth_highpass","folder":"tf","game":"Team Fortress","app_id":440,"player_count":21,"max_players":24,"Bots":0,"server_type":"Dedicated","server_os":"Linux","password":true,"vac":true,"version":"7961495","steam_id":85568392924504274,"keywords":["cp","nocrits","nodmgspread","uncletopia"],"game_id":440,"stv_port":27036,"stv_name":"Uncletopia | Frankfurt | 3 | All Maps | STV","players":[{"user_id":351,"name":"mAx","steam_id":76561198449332498,"connected_time":1437000000000,"state":"active","ping":77},{"user_id":378,"name":"MK-Ultra Violence","steam_id":76561198081328238,"connected_time":218000000000,"state":"active","ping":75},{"user_id":384,"name":"OfficeDuck","steam_id":76561199274055606,"connected_time":118000000000,"state":"active","ping":69},{"user_id":374,"name":"ü•∂üíéAntonüíéü•∂","steam_id":76561198353673297,"connected_time":371000000000,"state":"active","ping":56},{"user_id":370,"name":"the foul","steam_id":76561198242732260,"connected_time":782000000000,"state":"active","ping":168},{"user_id":335,"name":"Homosapien","steam_id":76561197972035953,"connected_time":3419000000000,"state":"active","ping":55},{"user_id":341,"name":"MR BUBBLES","steam_id":76561198019005259,"connected_time":2770000000000,"state":"active","ping":99},{"user_id":306,"name":"Qwerty","steam_id":76561198023525894,"connected_time":5533000000000,"state":"active","ping":75},{"user_id":345,"name":"perry the platypus","steam_id":76561199379159771,"connected_time":2624000000000,"state":"active","ping":155},{"user_id":357,"name":"Tea","steam_id":76561198090490071,"connected_time":1055000000000,"state":"active","ping":112},{"user_id":367,"name":"KODE","steam_id":76561198053212394,"connected_time":873000000000,"state":"active","ping":62},{"user_id":379,"name":"Kamanie","steam_id":76561198135448255,"connected_time":193000000000,"state":"active","ping":45},{"user_id":371,"name":"Mak≈Çowicz","steam_id":76561198281831506,"connected_time":437000000000,"state":"active","ping":77},{"user_id":358,"name":"disposablesuperbread","steam_id":76561199074703607,"connected_time":1043000000000,"state":"active","ping":68},{"user_id":375,"name":"[V.G.T.41] Seva the Gnome","steam_id":76561198951268072,"connected_time":362000000000,"state":"active","ping":91},{"user_id":380,"name":"SpacePig","steam_id":76561198044662873,"connected_time":188000000000,"state":"active","ping":90},{"user_id":381,"name":"antlionguard","steam_id":76561198072747143,"connected_time":184000000000,"state":"active","ping":121},{"user_id":362,"name":"LemonLeCitron","steam_id":76561198215545267,"connected_time":1002000000000,"state":"active","ping":88},{"user_id":382,"name":"yasin","steam_id":76561198055452270,"connected_time":174000000000,"state":"active","ping":61},{"user_id":325,"name":"miguel","steam_id":76561198147584613,"connected_time":4585000000000,"state":"active","ping":72},{"user_id":366,"name":"Parax","steam_id":76561199185365476,"connected_time":894000000000,"state":"active","ping":131}]},{"server_id":309,"name":"Uncletopia | Frankfurt | 4 | All Maps","name_short":"frk-4","host":"frk-1.de.uncletopia.com","port":27045,"enabled":true,"region":"eu","cc":"de","latitude":50.110924,"longitude":8.682127,"reserved":0,"last_update":"0001-01-01T00:00:00Z","name_a2s":"Uncletopia | Frankfurt | 4 | All Maps","protocol":17,"map":"koth_viaduct","folder":"tf","game":"Team Fortress","app_id":440,"player_count":23,"max_players":24,"Bots":0,"server_type":"Dedicated","server_os":"Linux","password":true,"vac":true,"version":"7961495","steam_id":85568392924504275,"keywords":["cp","nocrits","nodmgspread","uncletopia"],"game_id":440,"stv_port":27046,"stv_name":"Uncletopia | Frankfurt | 4 | All Maps | STV","players":[{"user_id":481,"name":"Sakari","steam_id":76561197997811299,"connected_time":1971000000000,"state":"active","ping":59},{"user_id":462,"name":"Dark","steam_id":76561199162752036,"connected_time":2637000000000,"state":"active","ping":70},{"user_id":496,"name":"Toxic_Cicity","steam_id":76561198165753440,"connected_time":316000000000,"state":"active","ping":88},{"user_id":470,"name":"Space","steam_id":76561198021572167,"connected_time":2291000000000,"state":"active","ping":55},{"user_id":497,"name":"Jack's bleak future","steam_id":76561198232738520,"connected_time":281000000000,"state":"active","ping":74},{"user_id":498,"name":"h","steam_id":76561198149967445,"connected_time":235000000000,"state":"active","ping":45},{"user_id":487,"name":"avanaR","steam_id":76561198132062124,"connected_time":1546000000000,"state":"active","ping":59},{"user_id":499,"name":"Lord of Birds","steam_id":76561198268952995,"connected_time":222000000000,"state":"active","ping":66},{"user_id":503,"name":"Master Of Noob","steam_id":76561198217926783,"connected_time":31000000000,"state":"active","ping":62},{"user_id":491,"name":"Erection Man","steam_id":76561198021714542,"connected_time":1138000000000,"state":"active","ping":60},{"user_id":495,"name":"G1antEnemyCrab","steam_id":76561198018038667,"connected_time":552000000000,"state":"active","ping":71},{"user_id":451,"name":"Ziomek","steam_id":76561199131735098,"connected_time":3892000000000,"state":"active","ping":78},{"user_id":500,"name":"jerry (:","steam_id":76561198205668108,"connected_time":209000000000,"state":"active","ping":47},{"user_id":469,"name":"Zerfesh","steam_id":76561198117534358,"connected_time":2306000000000,"state":"active","ping":92},{"user_id":502,"name":"rets_","steam_id":76561198061551392,"connected_time":113000000000,"state":"active","ping":42},{"user_id":475,"name":"Richard_HUN","steam_id":76561198299050967,"connected_time":2196000000000,"state":"active","ping":96},{"user_id":504,"name":"Venenakki","steam_id":76561198311526482,"connected_time":28000000000,"state":"active","ping":60},{"user_id":492,"name":"svantezch","steam_id":76561198373831657,"connected_time":1130000000000,"state":"active","ping":79},{"user_id":505,"name":"akakez","steam_id":76561198095432821,"connected_time":22000000000,"state":"spawning","ping":120},{"user_id":452,"name":"TheEventGuy","steam_id":76561197972797744,"connected_time":3885000000000,"state":"active","ping":64},{"user_id":484,"name":"Rurek","steam_id":76561198061467487,"connected_time":1766000000000,"state":"active","ping":63},{"user_id":486,"name":"Xamek23","steam_id":76561198829772948,"connected_time":1739000000000,"state":"active","ping":89},{"user_id":493,"name":"Michael","steam_id":76561198003146906,"connected_time":1093000000000,"state":"active","ping":55}]},{"server_id":310,"name":"Uncletopia | Frankfurt | 5 | All Maps","name_short":"frk-5","host":"frk-1.de.uncletopia.com","port":27055,"enabled":true,"region":"eu","cc":"de","latitude":50.110924,"longitude":8.682127,"reserved":0,"last_update":"0001-01-01T00:00:00Z","name_a2s":"Uncletopia | Frankfurt | 5 | All Maps","protocol":17,"map":"koth_lakeside_final","folder":"tf","game":"Team Fortress","app_id":440,"player_count":22,"max_players":24,"Bots":0,"server_type":"Dedicated","server_os":"Linux","password":true,"vac":true,"version":"7961495","steam_id":85568392924504277,"keywords":["cp","nocrits","nodmgspread","uncletopia"],"game_id":440,"stv_port":27056,"stv_name":"Uncletopia | Frankfurt | 5 | All Maps | STV","players":[{"user_id":493,"name":"Hansen","steam_id":76561198190566011,"connected_time":896000000000,"state":"active","ping":59},{"user_id":478,"name":"cat","steam_id":76561198837071509,"connected_time":1545000000000,"state":"active","ping":88},{"user_id":479,"name":"KingHasamala","steam_id":76561198298147876,"connected_time":1539000000000,"state":"active","ping":57},{"user_id":447,"name":"eldaou2009","steam_id":76561198966358094,"connected_time":4080000000000,"state":"active","ping":67},{"user_id":497,"name":"Kfer","steam_id":76561198809708638,"connected_time":541000000000,"state":"active","ping":85},{"user_id":496,"name":"Spacius","steam_id":76561198193812830,"connected_time":731000000000,"state":"active","ping":70},{"user_id":480,"name":"ozz-man","steam_id":76561198084676522,"connected_time":1476000000000,"state":"active","ping":97},{"user_id":412,"name":"failed poet","steam_id":76561198987041283,"connected_time":6123000000000,"state":"active","ping":65},{"user_id":492,"name":"Gruset","steam_id":76561198327512432,"connected_time":914000000000,"state":"active","ping":78},{"user_id":441,"name":"zek","steam_id":76561198862763731,"connected_time":4316000000000,"state":"active","ping":54},{"user_id":494,"name":"„ÄåIQ„Äç#savetf2","steam_id":76561198965612371,"connected_time":895000000000,"state":"active","ping":82},{"user_id":481,"name":"Certified Hood pybro (ua)","steam_id":76561198970562699,"connected_time":1476000000000,"state":"active","ping":56},{"user_id":485,"name":"n-ski","steam_id":76561198020550849,"connected_time":1439000000000,"state":"active","ping":75},{"user_id":448,"name":"ThatAlienBoi","steam_id":76561198357396428,"connected_time":4053000000000,"state":"active","ping":88},{"user_id":483,"name":"install gentoo","steam_id":76561198185257982,"connected_time":1465000000000,"state":"active","ping":68},{"user_id":487,"name":"–ë—ã–¥–ª–∞ –≤–æ–π","steam_id":76561198041371314,"connected_time":1417000000000,"state":"active","ping":135},{"user_id":456,"name":"crack cloud$","steam_id":76561198111134021,"connected_time":3351000000000,"state":"active","ping":76},{"user_id":486,"name":"Dr. Le Quack","steam_id":76561197995711176,"connected_time":1433000000000,"state":"active","ping":83},{"user_id":424,"name":"John Noob","steam_id":76561197999170026,"connected_time":5644000000000,"state":"active","ping":85},{"user_id":377,"name":"supercharger832","steam_id":76561198871408515,"connected_time":8032000000000,"state":"active","ping":64},{"user_id":476,"name":"MaksingTape","steam_id":76561198827103130,"connected_time":1608000000000,"state":"active","ping":61},{"user_id":500,"name":"Blo","steam_id":76561198161651469,"connected_time":429000000000,"state":"active","ping":58}]},{"server_id":311,"name":"Uncletopia | Frankfurt | 6 | All Maps","name_short":"frk-6","host":"frk-1.de.uncletopia.com","port":27065,"enabled":true,"region":"eu","cc":"de","latitude":50.110924,"longitude":8.682127,"reserved":0,"last_update":"0001-01-01T00:00:00Z","name_a2s":"Uncletopia | Frankfurt | 6 | All Maps","protocol":17,"map":"koth_viaduct","folder":"tf","game":"Team Fortress","app_id":440,"player_count":24,"max_players":24,"Bots":0,"server_type":"Dedicated","server_os":"Linux","password":true,"vac":true,"version":"7961495","steam_id":85568392924504278,"keywords":["cp","nocrits","nodmgspread","uncletopia"],"game_id":440,"stv_port":27066,"stv_name":"Uncletopia | Frankfurt | 6 | All Maps | STV","players":[{"user_id":409,"name":"–•–ª–µ–±—É—à–µ–∫","steam_id":76561198983478997,"connected_time":1256000000000,"state":"active","ping":74},{"user_id":385,"name":"silicon based life form","steam_id":76561199127121346,"connected_time":4259000000000,"state":"active","ping":67},{"user_id":418,"name":"imrealylazy","steam_id":76561198878574518,"connected_time":774000000000,"state":"active","ping":62},{"user_id":419,"name":"kipod616","steam_id":76561198431183777,"connected_time":755000000000,"state":"active","ping":92},{"user_id":413,"name":"camion","steam_id":76561199230091758,"connected_time":902000000000,"state":"active","ping":57},{"user_id":428,"name":"D4ny0","steam_id":76561198035279148,"connected_time":239000000000,"state":"active","ping":55},{"user_id":377,"name":"‚ôÇ Animan ‚ôÇ Studios ‚ôÇ","steam_id":76561198308302932,"connected_time":5313000000000,"state":"active","ping":91},{"user_id":416,"name":"PilkaNozna15","steam_id":76561198213421904,"connected_time":834000000000,"state":"active","ping":80},{"user_id":420,"name":"FrenchFroggy","steam_id":76561199247837018,"connected_time":752000000000,"state":"active","ping":64},{"user_id":404,"name":"Egor Pomidor","steam_id":76561199175688390,"connected_time":1980000000000,"state":"active","ping":75},{"user_id":398,"name":"Nittugai","steam_id":76561198067366462,"connected_time":2511000000000,"state":"active","ping":59},{"user_id":427,"name":"Dr.Sees [F2P]","steam_id":76561199219233587,"connected_time":437000000000,"state":"active","ping":85},{"user_id":411,"name":"Kitoglav Kito","steam_id":76561198359912140,"connected_time":1177000000000,"state":"active","ping":101},{"user_id":421,"name":"HADID_sex_god","steam_id":76561198302623594,"connected_time":670000000000,"state":"active","ping":88},{"user_id":424,"name":"Banana khan (F2P)","steam_id":76561198992414056,"connected_time":541000000000,"state":"active","ping":181},{"user_id":396,"name":"MANCO FETT","steam_id":76561198107128889,"connected_time":2651000000000,"state":"active","ping":158},{"user_id":399,"name":"CuJIA_TPAHCJIuTA","steam_id":76561198149654361,"connected_time":2509000000000,"state":"active","ping":64},{"user_id":423,"name":"wouris","steam_id":76561198876188003,"connected_time":641000000000,"state":"active","ping":59},{"user_id":400,"name":"Spoke","steam_id":76561198039881350,"connected_time":2507000000000,"state":"active","ping":72},{"user_id":346,"name":"Hamedius","steam_id":76561199152512027,"connected_time":8814000000000,"state":"active","ping":69},{"user_id":425,"name":"Turtle","steam_id":76561198053254139,"connected_time":504000000000,"state":"active","ping":51},{"user_id":335,"name":"Fat Pigeon","steam_id":76561198817940142,"connected_time":9258000000000,"state":"active","ping":49},{"user_id":407,"name":"norespectforthedevil","steam_id":76561197998922218,"connected_time":1759000000000,"state":"active","ping":102},{"user_id":426,"name":"Heavy TF2 in irl?!","steam_id":76561198082502910,"connected_time":486000000000,"state":"active","ping":49}]},{"server_id":23,"name":"Uncletopia | Frankfurt | 7 | Stopwatch","name_short":"frk-7","host":"frk-1.de.uncletopia.com","port":27075,"enabled":true,"region":"eu","cc":"de","latitude":50.110924,"longitude":8.682127,"reserved":0,"last_update":"0001-01-01T00:00:00Z","name_a2s":"Uncletopia | Frankfurt | 7 | Stopwatch","protocol":17,"map":"koth_highpass","folder":"tf","game":"Team Fortress","app_id":440,"player_count":0,"max_players":24,"Bots":0,"server_type":"Dedicated","server_os":"Linux","password":true,"vac":true,"version":"7961495","steam_id":85568392924742827,"keywords":["cp","nocrits","nodmgspread","uncletopia"],"game_id":440,"stv_port":27076,"stv_name":"Uncletopia | Frankfurt | 7 | Stopwatch | STV","players":null},{"server_id":24,"name":"Uncletopia | Frankfurt | 8 | Community","name_short":"frk-8","host":"frk-1.de.uncletopia.com","port":27085,"enabled":true,"region":"eu","cc":"de","latitude":50.110924,"longitude":8.682127,"reserved":0,"last_update":"0001-01-01T00:00:00Z","name_a2s":"Uncletopia | Frankfurt | 8 | Community","protocol":17,"map":"workshop/pl_emerge_rc2.ugc888027758","folder":"tf","game":"Team Fortress","app_id":440,"player_count":0,"max_players":24,"Bots":0,"server_type":"Dedicated","server_os":"Linux","password":true,"vac":true,"version":"7961495","steam_id":85568392924742828,"keywords":["nocrits","nodmgspread","payload","uncletopia"],"game_id":440,"stv_port":27086,"stv_name":"Uncletopia | Frankfurt | 8 | Community | STV","players":null},{"server_id":202,"name":"Uncletopia | Hong Kong | 1 | All Maps","name_short":"hgk-1","host":"hgk-1.hk.uncletopia.com","port":27015,"enabled":true,"region":"asia","cc":"hk","latitude":22.302711,"longitude":114.177216,"reserved":0,"last_update":"0001-01-01T00:00:00Z","name_a2s":"Uncletopia | Hong Kong | 1 | All Maps","protocol":17,"map":"pl_barnblitz","folder":"tf","game":"Team Fortress","app_id":440,"player_count":0,"max_players":24,"Bots":0,"server_type":"Dedicated","server_os":"Linux","password":true,"vac":true,"version":"7961495","steam_id":85568392924494504,"keywords":["nocrits","nodmgspread","payload","uncletopia"],"game_id":440,"stv_port":27016,"stv_name":"Uncletopia | Hong Kong | 1 | All Maps | STV","players":null},{"server_id":1,"name":"Uncletopia | Los Angeles | 1 | All Maps","name_short":"lax-1","host":"lax-1.us.uncletopia.com","port":27015,"enabled":true,"region":"us-west","cc":"us","latitude":33.94279,"longitude":-118.41004,"reserved":0,"last_update":"0001-01-01T00:00:00Z","name_a2s":"Uncletopia | Los Angeles | 1 | All Maps","protocol":17,"map":"pl_snowycoast","folder":"tf","game":"Team Fortress","app_id":440,"player_count":0,"max_players":24,"Bots":0,"server_type":"Dedicated","server_os":"Linux","password":true,"vac":true,"version":"7961495","steam_id":85568392924469991,"keywords":["nocrits","nodmgspread","payload","uncletopia"],"game_id":440,"stv_port":27016,"stv_name":"Uncletopia | Los Angeles | 1 | All Maps | STV","players":null},{"server_id":112,"name":"Uncletopia | Los Angeles | 2 | All Maps","name_short":"lax-2","host":"lax-1.us.uncletopia.com","port":27025,"enabled":true,"region":"us-west","cc":"us","latitude":33.94279,"longitude":-118.41004,"reserved":0,"last_update":"0001-01-01T00:00:00Z","name_a2s":"Uncletopia | Los Angeles | 2 | All Maps","protocol":17,"map":"pl_badwater","folder":"tf","game":"Team Fortress","app_id":440,"player_count":24,"max_players":24,"Bots":0,"server_type":"Dedicated","server_os":"Linux","password":true,"vac":true,"version":"7961495","steam_id":85568392924469992,"keywords":["nocrits","nodmgspread","payload","uncletopia"],"game_id":440,"stv_port":27026,"stv_name":"Uncletopia | Los Angeles | 2 | All Maps | STV","players":[{"user_id":264,"name":"n√∏bu","steam_id":76561198100614981,"connected_time":1170000000000,"state":"active","ping":83},{"user_id":257,"name":"reymundo","steam_id":76561197989412830,"connected_time":1909000000000,"state":"active","ping":66},{"user_id":222,"name":"Buswolley","steam_id":76561197995205571,"connected_time":4596000000000,"state":"active","ping":55},{"user_id":268,"name":"Funkmaster yee","steam_id":76561198037738918,"connected_time":589000000000,"state":"active","ping":58},{"user_id":260,"name":"alex","steam_id":76561198334059206,"connected_time":1194000000000,"state":"active","ping":59},{"user_id":271,"name":"noceof","steam_id":76561198043656816,"connected_time":329000000000,"state":"active","ping":168},{"user_id":269,"name":"Toothpork_","steam_id":76561198152242368,"connected_time":565000000000,"state":"active","ping":70},{"user_id":265,"name":"floppy muppet","steam_id":76561198003076261,"connected_time":1128000000000,"state":"active","ping":121},{"user_id":270,"name":"Andrew Tate's Third Nipple","steam_id":76561198066142119,"connected_time":359000000000,"state":"active","ping":60},{"user_id":240,"name":"Soap","steam_id":76561197994893383,"connected_time":3081000000000,"state":"active","ping":69},{"user_id":273,"name":"CorsaireCruiser","steam_id":76561199471511497,"connected_time":219000000000,"state":"active","ping":58},{"user_id":255,"name":"lil uzi squirt","steam_id":76561198045926594,"connected_time":1977000000000,"state":"active","ping":68},{"user_id":211,"name":"Drive-By-Fish-Guy","steam_id":76561198105513652,"connected_time":5417000000000,"state":"active","ping":63},{"user_id":272,"name":"Goku","steam_id":76561198064143198,"connected_time":264000000000,"state":"active","ping":105},{"user_id":259,"name":"CJspellsfish","steam_id":76561198277342368,"connected_time":1809000000000,"state":"active","ping":107},{"user_id":254,"name":"Urbanzpinapple","steam_id":76561198115426938,"connected_time":2094000000000,"state":"active","ping":109},{"user_id":231,"name":"Borgor Boi","steam_id":76561199061388107,"connected_time":4230000000000,"state":"active","ping":72},{"user_id":252,"name":"Gordon Ramsay.","steam_id":76561199167165627,"connected_time":2231000000000,"state":"active","ping":86},{"user_id":262,"name":"Ok then","steam_id":76561198891914787,"connected_time":1189000000000,"state":"active","ping":60},{"user_id":216,"name":"K2f","steam_id":76561198049600563,"connected_time":5108000000000,"state":"active","ping":35},{"user_id":213,"name":"Holy fucking shit I love purple","steam_id":76561198121969195,"connected_time":5303000000000,"state":"active","ping":135},{"user_id":267,"name":"President Atticus","steam_id":76561198157557477,"connected_time":1088000000000,"state":"active","ping":126},{"user_id":266,"name":"Salt Shaman","steam_id":76561198015374828,"connected_time":1126000000000,"state":"active","ping":82},{"user_id":236,"name":"MNIJ","steam_id":76561199209509468,"connected_time":3433000000000,"state":"active","ping":68}]},{"server_id":324,"name":"Uncletopia | Los Angeles | 3 | All Maps","name_short":"lax-3","host":"lax-1.us.uncletopia.com","port":27035,"enabled":true,"region":"us-west","cc":"us","latitude":33.94279,"longitude":-118.41004,"reserved":0,"last_update":"0001-01-01T00:00:00Z","name_a2s":"Uncletopia | Los Angeles | 3 | All Maps","protocol":17,"map":"cp_sunshine","folder":"tf","game":"Team Fortress","app_id":440,"player_count":0,"max_players":24,"Bots":0,"server_type":"Dedicated","server_os":"Linux","password":true,"vac":true,"version":"7961495","steam_id":85568392924510198,"keywords":["cp","nocrits","nodmgspread","uncletopia"],"game_id":440,"stv_port":27036,"stv_name":"Uncletopia | Los Angeles | 3 | All Maps | STV","players":null},{"server_id":25,"name":"Uncletopia | Los Angeles | 4 | Stopwatch","name_short":"lax-4","host":"lax-1.us.uncletopia.com","port":27045,"enabled":true,"region":"us-west","cc":"us","latitude":33.94279,"longitude":-118.41004,"reserved":0,"last_update":"0001-01-01T00:00:00Z","name_a2s":"Uncletopia | Los Angeles | 4 | Stopwatch","protocol":17,"map":"pl_barnblitz","folder":"tf","game":"Team Fortress","app_id":440,"player_count":0,"max_players":24,"Bots":0,"server_type":"Dedicated","server_os":"Linux","password":true,"vac":true,"version":"7961495","steam_id":85568392924510199,"keywords":["nocrits","nodmgspread","payload","uncletopia"],"game_id":440,"stv_port":27046,"stv_name":"Uncletopia | Los Angeles | 4 | Stopwatch | STV","players":null},{"server_id":11,"name":"Uncletopia | London | 1 | All Maps","name_short":"lon-1","host":"lon-1.uk.uncletopia.com","port":27015,"enabled":true,"region":"eu","cc":"gb","latitude":51.509865,"longitude":-0.118092,"reserved":0,"last_update":"0001-01-01T00:00:00Z","name_a2s":"Uncletopia | London | 1 | All Maps","protocol":17,"map":"pl_swiftwater_final1","folder":"tf","game":"Team Fortress","app_id":440,"player_count":20,"max_players":24,"Bots":0,"server_type":"Dedicated","server_os":"Linux","password":true,"vac":true,"version":"7961495","steam_id":85568392924367362,"keywords":["nocrits","nodmgspread","payload","uncletopia"],"game_id":440,"stv_port":27016,"stv_name":"Uncletopia | London | 1 | All Maps | STV","players":[{"user_id":303,"name":"unconditional love","steam_id":76561199026097466,"connected_time":7368000000000,"state":"active","ping":65},{"user_id":408,"name":"herr_p","steam_id":76561198033072222,"connected_time":1003000000000,"state":"active","ping":67},{"user_id":366,"name":"turknaskooyun","steam_id":76561199222306117,"connected_time":2460000000000,"state":"active","ping":104},{"user_id":428,"name":"Skiperis CaseOpening.com","steam_id":76561199068244242,"connected_time":405000000000,"state":"active","ping":87},{"user_id":415,"name":"Kylul_","steam_id":76561198042981061,"connected_time":794000000000,"state":"active","ping":40},{"user_id":307,"name":"yup that extream78711","steam_id":76561198106049954,"connected_time":6460000000000,"state":"active","ping":147},{"user_id":411,"name":"smile","steam_id":76561198365841841,"connected_time":932000000000,"state":"active","ping":67},{"user_id":424,"name":"clean carp","steam_id":76561198127053294,"connected_time":511000000000,"state":"active","ping":71},{"user_id":416,"name":"Kili","steam_id":76561198138456346,"connected_time":760000000000,"state":"active","ping":71},{"user_id":429,"name":"Flohr","steam_id":76561198191948841,"connected_time":393000000000,"state":"active","ping":45},{"user_id":431,"name":"Kaishakunin","steam_id":76561198028123874,"connected_time":349000000000,"state":"active","ping":91},{"user_id":376,"name":"Max Andrew","steam_id":76561198158955194,"connected_time":1909000000000,"state":"active","ping":50},{"user_id":377,"name":"[P-roc] Cmm Bert","steam_id":76561198016658674,"connected_time":1896000000000,"state":"active","ping":66},{"user_id":282,"name":"face beautiful lies","steam_id":76561198079277466,"connected_time":8928000000000,"state":"active","ping":71},{"user_id":425,"name":"Mariofan1000","steam_id":76561199094124424,"connected_time":500000000000,"state":"active","ping":119},{"user_id":426,"name":"Mantic Cosma","steam_id":76561198323581294,"connected_time":486000000000,"state":"active","ping":54},{"user_id":322,"name":"Lyra","steam_id":76561198043601838,"connected_time":5259000000000,"state":"active","ping":60},{"user_id":373,"name":"jorgemaioneze","steam_id":76561198282523699,"connected_time":1978000000000,"state":"active","ping":63},{"user_id":430,"name":"êÇÉêÇÉ","steam_id":76561198991221534,"connected_time":367000000000,"state":"active","ping":74},{"user_id":434,"name":"Sentry hater","steam_id":76561199269309068,"connected_time":43000000000,"state":"active","ping":87}]},{"server_id":114,"name":"Uncletopia | London | 2 | All Maps","name_short":"lon-2","host":"lon-1.uk.uncletopia.com","port":27025,"enabled":true,"region":"eu","cc":"gb","latitude":51.509865,"longitude":-0.118092,"reserved":0,"last_update":"0001-01-01T00:00:00Z","name_a2s":"Uncletopia | London | 2 | All Maps","protocol":17,"map":"pl_pier","folder":"tf","game":"Team Fortress","app_id":440,"player_count":23,"max_players":24,"Bots":0,"server_type":"Dedicated","server_os":"Linux","password":true,"vac":true,"version":"7961495","steam_id":85568392924470941,"keywords":["nocrits","nodmgspread","payload","uncletopia"],"game_id":440,"stv_port":27026,"stv_name":"Uncletopia | London | 2 | All Maps | STV","players":[{"user_id":258,"name":"‚ù§Ô∏éWarMole‚ù§","steam_id":76561198104248760,"connected_time":3493000000000,"state":"active","ping":73},{"user_id":197,"name":"Para Bellum","steam_id":76561198375413446,"connected_time":8321000000000,"state":"active","ping":58},{"user_id":248,"name":"rwota","steam_id":76561198385769722,"connected_time":4272000000000,"state":"active","ping":113},{"user_id":294,"name":"bruh","steam_id":76561198109262927,"connected_time":326000000000,"state":"active","ping":75},{"user_id":282,"name":"Alekk","steam_id":76561198093533143,"connected_time":812000000000,"state":"active","ping":73},{"user_id":190,"name":"Peanut","steam_id":76561198064585972,"connected_time":8612000000000,"state":"active","ping":75},{"user_id":277,"name":"pootis sentry","steam_id":76561199225363633,"connected_time":1734000000000,"state":"active","ping":58},{"user_id":281,"name":"Lifeup Œ©","steam_id":76561198004561929,"connected_time":833000000000,"state":"active","ping":47},{"user_id":273,"name":"emag live","steam_id":76561198047164140,"connected_time":2005000000000,"state":"active","ping":59},{"user_id":227,"name":"Fu Manchu","steam_id":76561197995224539,"connected_time":5779000000000,"state":"active","ping":55},{"user_id":297,"name":"Eggcracker","steam_id":76561199274850641,"connected_time":166000000000,"state":"active","ping":92},{"user_id":287,"name":"luma","steam_id":76561198081649669,"connected_time":740000000000,"state":"active","ping":72},{"user_id":286,"name":"Gent","steam_id":76561198037167890,"connected_time":745000000000,"state":"active","ping":85},{"user_id":263,"name":"GoblinGaming","steam_id":76561198360395476,"connected_time":2898000000000,"state":"active","ping":50},{"user_id":266,"name":"Solawep","steam_id":76561198026304692,"connected_time":2708000000000,"state":"active","ping":64},{"user_id":236,"name":"RLCrazyCat3","steam_id":76561197983757878,"connected_time":5557000000000,"state":"active","ping":68},{"user_id":288,"name":"o","steam_id":76561198066799770,"connected_time":730000000000,"state":"active","ping":74},{"user_id":275,"name":"Hussain_144","steam_id":76561198346029208,"connected_time":1940000000000,"state":"active","ping":174},{"user_id":218,"name":"Dzieciol","steam_id":76561198160237556,"connected_time":6418000000000,"state":"active","ping":74},{"user_id":292,"name":"KrevTiz","steam_id":76561199043366861,"connected_time":542000000000,"state":"active","ping":85},{"user_id":194,"name":"Finem Belli","steam_id":76561198227177976,"connected_time":8601000000000,"state":"active","ping":46},{"user_id":295,"name":"Sakata Gintoki","steam_id":76561198339980449,"connected_time":302000000000,"state":"active","ping":66},{"user_id":290,"name":"19raic","steam_id":76561199093514786,"connected_time":725000000000,"state":"active","ping":83}]},{"server_id":320,"name":"Uncletopia | London | 3 | All Maps","name_short":"lon-3","host":"lon-1.uk.uncletopia.com","port":27035,"enabled":true,"region":"eu","cc":"gb","latitude":51.509865,"longitude":-0.118092,"reserved":0,"last_update":"0001-01-01T00:00:00Z","name_a2s":"Uncletopia | London | 3 | All Maps","protocol":17,"map":"koth_suijin","folder":"tf","game":"Team Fortress","app_id":440,"player_count":22,"max_players":24,"Bots":0,"server_type":"Dedicated","server_os":"Linux","password":true,"vac":true,"version":"7961495","steam_id":85568392924510192,"keywords":["cp","nocrits","nodmgspread","uncletopia"],"game_id":440,"stv_port":27036,"stv_name":"Uncletopia | London | 3 | All Maps | STV","players":[{"user_id":225,"name":"JoeyStorm","steam_id":76561198009271882,"connected_time":1015000000000,"state":"active","ping":49},{"user_id":176,"name":"tzlil","steam_id":76561198399916290,"connected_time":5132000000000,"state":"active","ping":106},{"user_id":206,"name":"bitkomet","steam_id":76561198058232147,"connected_time":2271000000000,"state":"active","ping":77},{"user_id":213,"name":"FoOzTV","steam_id":76561197998636728,"connected_time":1563000000000,"state":"active","ping":65},{"user_id":191,"name":"Bobbeldibob","steam_id":76561198256796473,"connected_time":3490000000000,"state":"active","ping":73},{"user_id":233,"name":"Benzo Fury","steam_id":76561198025259336,"connected_time":390000000000,"state":"active","ping":48},{"user_id":216,"name":"Sir Cumference","steam_id":76561198068000747,"connected_time":1493000000000,"state":"active","ping":109},{"user_id":217,"name":"biofun","steam_id":76561198097507847,"connected_time":1432000000000,"state":"active","ping":83},{"user_id":236,"name":"asimus","steam_id":76561199141433499,"connected_time":332000000000,"state":"active","ping":187},{"user_id":226,"name":"w+m1 pyro","steam_id":76561198039097662,"connected_time":976000000000,"state":"active","ping":75},{"user_id":235,"name":"Pottery Knight","steam_id":76561198094455814,"connected_time":366000000000,"state":"active","ping":96},{"user_id":223,"name":"Genesis","steam_id":76561198999652040,"connected_time":1045000000000,"state":"active","ping":50},{"user_id":212,"name":"ratsnrats","steam_id":76561199187258021,"connected_time":1583000000000,"state":"active","ping":46},{"user_id":237,"name":"Bert","steam_id":76561198070206096,"connected_time":258000000000,"state":"active","ping":65},{"user_id":155,"name":"After8","steam_id":76561198090750865,"connected_time":7058000000000,"state":"active","ping":70},{"user_id":214,"name":"Hexagon","steam_id":76561198151205758,"connected_time":1551000000000,"state":"active","ping":59},{"user_id":232,"name":"BREATHE","steam_id":76561198351081256,"connected_time":722000000000,"state":"active","ping":105},{"user_id":238,"name":"The Subway Scientist","steam_id":76561198193757646,"connected_time":254000000000,"state":"active","ping":48},{"user_id":228,"name":"Dr. Feelgood","steam_id":76561199173885103,"connected_time":909000000000,"state":"active","ping":172},{"user_id":218,"name":"fortnite und cola","steam_id":76561198170609049,"connected_time":1429000000000,"state":"active","ping":78},{"user_id":231,"name":"spurdala","steam_id":76561198886546942,"connected_time":760000000000,"state":"active","ping":57},{"user_id":221,"name":"cheEse","steam_id":76561199226729354,"connected_time":1224000000000,"state":"active","ping":72}]},{"server_id":321,"name":"Uncletopia | London | 4 | All Maps","name_short":"lon-4","host":"lon-1.uk.uncletopia.com","port":27045,"enabled":true,"region":"eu","cc":"gb","latitude":51.509865,"longitude":-0.118092,"reserved":0,"last_update":"0001-01-01T00:00:00Z","name_a2s":"Uncletopia | London | 4 | All Maps","protocol":17,"map":"koth_harvest_final","folder":"tf","game":"Team Fortress","app_id":440,"player_count":20,"max_players":24,"Bots":0,"server_type":"Dedicated","server_os":"Linux","password":true,"vac":true,"version":"7961495","steam_id":85568392924510193,"keywords":["cp","nocrits","nodmgspread","uncletopia"],"game_id":440,"stv_port":27046,"stv_name":"Uncletopia | London | 4 | All Maps | STV","players":[{"user_id":94,"name":"Symbols","steam_id":76561198057259825,"connected_time":740000000000,"state":"active","ping":34},{"user_id":95,"name":"Soulman25 (FIN)","steam_id":76561198103611974,"connected_time":718000000000,"state":"active","ping":109},{"user_id":101,"name":"Krabs","steam_id":76561198161679477,"connected_time":357000000000,"state":"active","ping":44},{"user_id":91,"name":"Zetself","steam_id":76561198085251568,"connected_time":1078000000000,"state":"active","ping":62},{"user_id":51,"name":"Aver555","steam_id":76561198280370727,"connected_time":3211000000000,"state":"active","ping":62},{"user_id":102,"name":"Pork Soda","steam_id":76561198119575082,"connected_time":319000000000,"state":"active","ping":128},{"user_id":98,"name":"Plep","steam_id":76561198840259819,"connected_time":496000000000,"state":"active","ping":57},{"user_id":65,"name":"Dr-je-kill","steam_id":76561198890817226,"connected_time":2432000000000,"state":"active","ping":68},{"user_id":85,"name":"baballe","steam_id":76561198302448192,"connected_time":1477000000000,"state":"active","ping":32},{"user_id":88,"name":"Canpenbook64","steam_id":76561199195471984,"connected_time":1280000000000,"state":"active","ping":56},{"user_id":67,"name":"Pantroglodytestherapy","steam_id":76561198236015392,"connected_time":2409000000000,"state":"active","ping":119},{"user_id":106,"name":"idenburg","steam_id":76561198063574956,"connected_time":65000000000,"state":"active","ping":51},{"user_id":107,"name":"Talkkari","steam_id":76561198025327723,"connected_time":5000000000,"state":"spawning","ping":179},{"user_id":76,"name":"Qwertuss","steam_id":76561198026305366,"connected_time":1653000000000,"state":"active","ping":61},{"user_id":89,"name":"gronk","steam_id":76561199031539961,"connected_time":1209000000000,"state":"active","ping":56},{"user_id":103,"name":"Tattletails","steam_id":76561198055690341,"connected_time":280000000000,"state":"active","ping":55},{"user_id":39,"name":"Ley #savetf2","steam_id":76561198989206104,"connected_time":4065000000000,"state":"active","ping":119},{"user_id":73,"name":"uknowhatimsayin¬ø","steam_id":76561198308331715,"connected_time":2026000000000,"state":"active","ping":101},{"user_id":105,"name":"That800'sGuy","steam_id":76561198158115890,"connected_time":181000000000,"state":"active","ping":74},{"user_id":80,"name":"Jamba Sparabo","steam_id":76561198131647600,"connected_time":1617000000000,"state":"active","ping":66}]},{"server_id":21,"name":"Uncletopia | London | 5 | All Maps","name_short":"lon-5","host":"lon-1.uk.uncletopia.com","port":27055,"enabled":true,"region":"eu","cc":"gb","latitude":51.509865,"longitude":-0.118092,"reserved":0,"last_update":"0001-01-01T00:00:00Z","name_a2s":"Uncletopia | London | 5 | All Maps","protocol":17,"map":"pl_frontier_final","folder":"tf","game":"Team Fortress","app_id":440,"player_count":21,"max_players":24,"Bots":0,"server_type":"Dedicated","server_os":"Linux","password":true,"vac":true,"version":"7961495","steam_id":85568392924742829,"keywords":["nocrits","nodmgspread","payload","uncletopia"],"game_id":440,"stv_port":27056,"stv_name":"Uncletopia | London | 5 | All Maps | STV","players":[{"user_id":656,"name":"niandits","steam_id":76561198419798900,"connected_time":50000000000,"state":"active","ping":124},{"user_id":644,"name":"Your local homophobe","steam_id":76561199093925153,"connected_time":561000000000,"state":"active","ping":115},{"user_id":653,"name":"I I","steam_id":76561199101935057,"connected_time":225000000000,"state":"active","ping":121},{"user_id":643,"name":"walking plane","steam_id":76561198146779559,"connected_time":715000000000,"state":"active","ping":96},{"user_id":535,"name":"HaylingZar","steam_id":76561198053559897,"connected_time":7397000000000,"state":"active","ping":61},{"user_id":646,"name":"hyvakii705","steam_id":76561198086630552,"connected_time":482000000000,"state":"active","ping":77},{"user_id":655,"name":"Even R√º√ºd","steam_id":76561197981144291,"connected_time":75000000000,"state":"active","ping":73},{"user_id":651,"name":"Ziemniaczki z koperkiem","steam_id":76561198829123464,"connected_time":388000000000,"state":"active","ping":117},{"user_id":623,"name":"[T]aKer","steam_id":76561198001778013,"connected_time":2314000000000,"state":"active","ping":46},{"user_id":635,"name":"Cornmac","steam_id":76561198104780569,"connected_time":1694000000000,"state":"active","ping":64},{"user_id":641,"name":"neo","steam_id":76561198136265838,"connected_time":824000000000,"state":"active","ping":75},{"user_id":569,"name":"Largo","steam_id":76561198844368927,"connected_time":5399000000000,"state":"active","ping":75},{"user_id":593,"name":"Nassu","steam_id":76561198147367577,"connected_time":3848000000000,"state":"active","ping":149},{"user_id":654,"name":"xiiski","steam_id":76561198152387747,"connected_time":133000000000,"state":"active","ping":98},{"user_id":637,"name":"curious femboy","steam_id":76561199199388221,"connected_time":1592000000000,"state":"active","ping":56},{"user_id":605,"name":"Sybille Sirky","steam_id":76561198082407725,"connected_time":3020000000000,"state":"active","ping":56},{"user_id":638,"name":"mesŒª","steam_id":76561198324582918,"connected_time":1459000000000,"state":"active","ping":93},{"user_id":607,"name":"TKN_Paps997","steam_id":76561198419868465,"connected_time":3006000000000,"state":"active","ping":90},{"user_id":649,"name":"lord-carlos","steam_id":76561198025150761,"connected_time":442000000000,"state":"active","ping":62},{"user_id":640,"name":"Bird On Your Window","steam_id":76561198081933130,"connected_time":897000000000,"state":"active","ping":60},{"user_id":491,"name":"Geoff the Oracle","steam_id":76561198053759965,"connected_time":10125000000000,"state":"active","ping":56}]},{"server_id":22,"name":"Uncletopia | London | 6 | All Maps","name_short":"lon-6","host":"lon-1.uk.uncletopia.com","port":27065,"enabled":true,"region":"eu","cc":"gb","latitude":51.509865,"longitude":-0.118092,"reserved":0,"last_update":"0001-01-01T00:00:00Z","name_a2s":"Uncletopia | London | 6 | All Maps","protocol":17,"map":"pl_swiftwater_final1","folder":"tf","game":"Team Fortress","app_id":440,"player_count":22,"max_players":24,"Bots":0,"server_type":"Dedicated","server_os":"Linux","password":true,"vac":true,"version":"7961495","steam_id":85568392924742830,"keywords":["nocrits","nodmgspread","payload","uncletopia"],"game_id":440,"stv_port":27066,"stv_name":"Uncletopia | London | 6 | All Maps | STV","players":[{"user_id":414,"name":"meow (they/them)","steam_id":76561198416657815,"connected_time":254000000000,"state":"active","ping":108},{"user_id":377,"name":"night.s","steam_id":76561198326287823,"connected_time":3500000000000,"state":"active","ping":75},{"user_id":412,"name":"KaraTheThing","steam_id":76561198299621448,"connected_time":548000000000,"state":"active","ping":128},{"user_id":387,"name":"syndenz","steam_id":76561198176063813,"connected_time":2738000000000,"state":"active","ping":71},{"user_id":398,"name":"yuck","steam_id":76561197987249568,"connected_time":1761000000000,"state":"active","ping":96},{"user_id":315,"name":"Spetse","steam_id":76561197990649972,"connected_time":7811000000000,"state":"active","ping":86},{"user_id":395,"name":"HilldogGaming‚ôõ","steam_id":76561198082209322,"connected_time":2026000000000,"state":"active","ping":76},{"user_id":396,"name":"H1DD3 gaming","steam_id":76561198855897385,"connected_time":1822000000000,"state":"active","ping":59},{"user_id":404,"name":"ADVANCED_CHIWAWA_96","steam_id":76561199121426406,"connected_time":1402000000000,"state":"active","ping":58},{"user_id":401,"name":"jovi_","steam_id":76561198449280552,"connected_time":1666000000000,"state":"active","ping":51},{"user_id":408,"name":"milo","steam_id":76561198119016918,"connected_time":1242000000000,"state":"active","ping":60},{"user_id":384,"name":"Dagoth Ur","steam_id":76561198220232352,"connected_time":2810000000000,"state":"active","ping":45},{"user_id":350,"name":"glorpis","steam_id":76561199225333422,"connected_time":5443000000000,"state":"active","ping":54},{"user_id":378,"name":"highest noon","steam_id":76561199103959197,"connected_time":3499000000000,"state":"active","ping":113},{"user_id":415,"name":"$t@lker_Tim","steam_id":76561198963658042,"connected_time":238000000000,"state":"active","ping":128},{"user_id":376,"name":"Zer0Rest","steam_id":76561198995935312,"connected_time":3776000000000,"state":"active","ping":58},{"user_id":405,"name":"Burpman","steam_id":76561198022897937,"connected_time":1328000000000,"state":"active","ping":51},{"user_id":413,"name":"Fissure","steam_id":76561198272595481,"connected_time":448000000000,"state":"active","ping":83},{"user_id":416,"name":"Maximilian1359","steam_id":76561198152439608,"connected_time":173000000000,"state":"active","ping":85},{"user_id":370,"name":"thekoolest88","steam_id":76561199022415672,"connected_time":4559000000000,"state":"active","ping":235},{"user_id":407,"name":"Potato","steam_id":76561198184310425,"connected_time":1316000000000,"state":"active","ping":116},{"user_id":393,"name":"KAZAM | Tervez","steam_id":76561198045459068,"connected_time":2487000000000,"state":"active","ping":90}]},{"server_id":40,"name":"Uncletopia | London | 7 | Stopwatch","name_short":"lon-7","host":"lon-1.uk.uncletopia.com","port":27075,"enabled":true,"region":"eu","cc":"gb","latitude":51.509865,"longitude":-0.118092,"reserved":0,"last_update":"0001-01-01T00:00:00Z","name_a2s":"Uncletopia | London | 7 | Stopwatch","protocol":17,"map":"koth_lakeside_final","folder":"tf","game":"Team Fortress","app_id":440,"player_count":16,"max_players":24,"Bots":0,"server_type":"Dedicated","server_os":"Linux","password":true,"vac":true,"version":"7961495","steam_id":85568392924964314,"keywords":["cp","nocrits","nodmgspread","uncletopia"],"game_id":440,"stv_port":27076,"stv_name":"Uncletopia | London | 7 | Stopwatch | STV","players":[{"user_id":235,"name":"sandvich enjoyer","steam_id":76561198272512277,"connected_time":362000000000,"state":"active","ping":68},{"user_id":238,"name":"Vince","steam_id":76561198128953279,"connected_time":190000000000,"state":"active","ping":74},{"user_id":197,"name":"Zm4j","steam_id":76561198259465946,"connected_time":2341000000000,"state":"active","ping":82},{"user_id":227,"name":"Dolcelatte","steam_id":76561198038501770,"connected_time":859000000000,"state":"active","ping":62},{"user_id":236,"name":"Lag","steam_id":76561198159360376,"connected_time":350000000000,"state":"active","ping":47},{"user_id":237,"name":"Henry Fonda","steam_id":76561199378865926,"connected_time":205000000000,"state":"active","ping":101},{"user_id":182,"name":"63756d","steam_id":76561198808699024,"connected_time":2833000000000,"state":"active","ping":69},{"user_id":225,"name":"_Context_","steam_id":76561199163359312,"connected_time":1019000000000,"state":"active","ping":57},{"user_id":241,"name":"ego944","steam_id":76561197999290923,"connected_time":80000000000,"state":"active","ping":63},{"user_id":228,"name":"Herr Sandman","steam_id":76561199121746495,"connected_time":848000000000,"state":"active","ping":86},{"user_id":240,"name":"Salem","steam_id":76561199099518959,"connected_time":94000000000,"state":"active","ping":159},{"user_id":242,"name":"femboy enjoyer","steam_id":76561199041737814,"connected_time":51000000000,"state":"active","ping":38},{"user_id":243,"name":"UglyTwinYgor","steam_id":76561198132718039,"connected_time":3000000000,"state":"spawning","ping":87},{"user_id":222,"name":"JAZZ COMMANDO","steam_id":76561198031766068,"connected_time":1205000000000,"state":"active","ping":46},{"user_id":218,"name":"CiVillain","steam_id":76561198059617732,"connected_time":1357000000000,"state":"active","ping":69},{"user_id":165,"name":"meriones","steam_id":76561198034234373,"connected_time":3747000000000,"state":"active","ping":37}]},{"server_id":41,"name":"Uncletopia | London | 8 | Community","name_short":"lon-8","host":"lon-1.uk.uncletopia.com","port":27085,"enabled":true,"region":"eu","cc":"gb","latitude":51.509865,"longitude":-0.118092,"reserved":0,"last_update":"0001-01-01T00:00:00Z","name_a2s":"Uncletopia | London | 8 | Community","protocol":17,"map":"workshop/koth_synthetic_rc6a.ugc1549817316","folder":"tf","game":"Team Fortress","app_id":440,"player_count":4,"max_players":24,"Bots":0,"server_type":"Dedicated","server_os":"Linux","password":true,"vac":true,"version":"7961495","steam_id":85568392924964315,"keywords":["cp","nocrits","nodmgspread","uncletopia"],"game_id":440,"stv_port":27086,"stv_name":"Uncletopia | London | 8 | Community | STV","players":[{"user_id":6,"name":"lipaul777","steam_id":76561199090751367,"connected_time":1793000000000,"state":"active","ping":70},{"user_id":10,"name":"Mobster Tortoise","steam_id":76561199036837091,"connected_time":1206000000000,"state":"active","ping":85},{"user_id":11,"name":"Moon","steam_id":76561198808108594,"connected_time":1203000000000,"state":"active","ping":90},{"user_id":12,"name":"painting4","steam_id":76561198067554256,"connected_time":764000000000,"state":"active","ping":56}]},{"server_id":300,"name":"Uncletopia | Montr√©al | 1 | All Maps","name_short":"mtl-1","host":"mtl-1.ca.uncletopia.com","port":27015,"enabled":true,"region":"us-east","cc":"ca","latitude":45.50889,"longitude":-73.56167,"reserved":0,"last_update":"0001-01-01T00:00:00Z","name_a2s":"","protocol":0,"map":"","folder":"","game":"","app_id":0,"player_count":0,"max_players":0,"Bots":0,"server_type":"","server_os":"","password":false,"vac":false,"version":"","steam_id":0,"keywords":null,"game_id":0,"stv_port":0,"stv_name":"","players":null},{"server_id":301,"name":"Uncletopia | Montr√©al | 2 | ???","name_short":"mtl-2","host":"mtl-1.ca.uncletopia.com","port":27025,"enabled":true,"region":"us-east","cc":"ca","latitude":45.50889,"longitude":-73.56167,"reserved":0,"last_update":"0001-01-01T00:00:00Z","name_a2s":"","protocol":0,"map":"","folder":"","game":"","app_id":0,"player_count":0,"max_players":0,"Bots":0,"server_type":"","server_os":"","password":false,"vac":false,"version":"","steam_id":0,"keywords":null,"game_id":0,"stv_port":0,"stv_name":"","players":null},{"server_id":13,"name":"Uncletopia | New York City | 1 | All Maps","name_short":"nyc-1","host":"nyc-1.us.uncletopia.com","port":27015,"enabled":true,"region":"us-east","cc":"us","latitude":40.73061,"longitude":-73.93524,"reserved":0,"last_update":"0001-01-01T00:00:00Z","name_a2s":"Uncletopia | New York City | 1 | All Maps","protocol":17,"map":"pl_upward","folder":"tf","game":"Team Fortress","app_id":440,"player_count":24,"max_players":24,"Bots":0,"server_type":"Dedicated","server_os":"Linux","password":true,"vac":true,"version":"7961495","steam_id":85568392924469993,"keywords":["nocrits","nodmgspread","payload","uncletopia"],"game_id":440,"stv_port":27016,"stv_name":"Uncletopia | New York City | 1 | All Maps | STV","players":[{"user_id":144,"name":"wafflehamster2000","steam_id":76561198849161820,"connected_time":954000000000,"state":"active","ping":91},{"user_id":150,"name":"Maggie Rhee","steam_id":76561198055921722,"connected_time":558000000000,"state":"active","ping":83},{"user_id":117,"name":"HUESO","steam_id":76561198276383681,"connected_time":2233000000000,"state":"active","ping":75},{"user_id":155,"name":"Trout","steam_id":76561198075180255,"connected_time":397000000000,"state":"active","ping":67},{"user_id":151,"name":"Space Viking","steam_id":76561199013736960,"connected_time":550000000000,"state":"active","ping":64},{"user_id":152,"name":"bobbymcbobington","steam_id":76561199089411172,"connected_time":535000000000,"state":"active","ping":156},{"user_id":156,"name":"Herdez Hot Salsa","steam_id":76561197991740906,"connected_time":110000000000,"state":"active","ping":68},{"user_id":157,"name":"Smiles","steam_id":76561198107197973,"connected_time":91000000000,"state":"active","ping":88},{"user_id":142,"name":"ElChuchoXf","steam_id":76561199235124146,"connected_time":1070000000000,"state":"active","ping":138},{"user_id":135,"name":"Comfy!","steam_id":76561198008818346,"connected_time":1614000000000,"state":"active","ping":40},{"user_id":124,"name":"Froyo Ding Dong","steam_id":76561198379421700,"connected_time":2079000000000,"state":"active","ping":50},{"user_id":145,"name":"Tav, Devourer of Cheeks","steam_id":76561198021688160,"connected_time":690000000000,"state":"active","ping":65},{"user_id":146,"name":"epsilene","steam_id":76561198027468624,"connected_time":689000000000,"state":"active","ping":43},{"user_id":132,"name":"Colin102004","steam_id":76561198202384334,"connected_time":1839000000000,"state":"active","ping":34},{"user_id":62,"name":"Sergio_1Bit","steam_id":76561198798596945,"connected_time":4673000000000,"state":"active","ping":124},{"user_id":148,"name":"swiftyy","steam_id":76561198142939433,"connected_time":678000000000,"state":"active","ping":45},{"user_id":136,"name":"fortnite","steam_id":76561198404564240,"connected_time":1592000000000,"state":"active","ping":47},{"user_id":123,"name":"Ji-man Choi","steam_id":76561198107899101,"connected_time":2084000000000,"state":"active","ping":49},{"user_id":158,"name":"Epifiny","steam_id":76561198027958086,"connected_time":81000000000,"state":"active","ping":73},{"user_id":125,"name":"goose","steam_id":76561198139632880,"connected_time":2037000000000,"state":"active","ping":71},{"user_id":153,"name":"Who loves orange soda?","steam_id":76561198059808982,"connected_time":488000000000,"state":"active","ping":80},{"user_id":133,"name":"Onionboy","steam_id":76561198110340279,"connected_time":1764000000000,"state":"active","ping":63},{"user_id":154,"name":"Sac","steam_id":76561198971736420,"connected_time":454000000000,"state":"active","ping":122},{"user_id":129,"name":"Frodo Swaggins","steam_id":76561198158200087,"connected_time":1925000000000,"state":"active","ping":94}]},{"server_id":14,"name":"Uncletopia | New York City | 2 | All Maps","name_short":"nyc-2","host":"nyc-1.us.uncletopia.com","port":27025,"enabled":true,"region":"us-east","cc":"us","latitude":40.73061,"longitude":-73.93524,"reserved":0,"last_update":"0001-01-01T00:00:00Z","name_a2s":"Uncletopia | New York City | 2 | All Maps","protocol":17,"map":"pl_borneo","folder":"tf","game":"Team Fortress","app_id":440,"player_count":8,"max_players":24,"Bots":0,"server_type":"Dedicated","server_os":"Linux","password":true,"vac":true,"version":"7961495","steam_id":85568392924469994,"keywords":["nocrits","nodmgspread","payload","uncletopia"],"game_id":440,"stv_port":27026,"stv_name":"Uncletopia | New York City | 2 | All Maps | STV","players":[{"user_id":7,"name":"Chord","steam_id":76561198110874021,"connected_time":1745000000000,"state":"active","ping":75},{"user_id":15,"name":"SL164","steam_id":76561197970800276,"connected_time":716000000000,"state":"active","ping":66},{"user_id":17,"name":"Sharkmeleon","steam_id":76561198795654187,"connected_time":338000000000,"state":"active","ping":44},{"user_id":18,"name":"Proto","steam_id":76561197984119828,"connected_time":326000000000,"state":"active","ping":117},{"user_id":14,"name":"GaiBerd","steam_id":76561198177100634,"connected_time":835000000000,"state":"active","ping":42},{"user_id":22,"name":"TheWallaby","steam_id":76561198948037546,"connected_time":137000000000,"state":"active","ping":49},{"user_id":23,"name":"Not A Hoovy","steam_id":76561198201502681,"connected_time":130000000000,"state":"active","ping":45},{"user_id":24,"name":"cactus eater","steam_id":76561199107499844,"connected_time":77000000000,"state":"active","ping":130}]},{"server_id":15,"name":"Uncletopia | New York City | 3 | Stopwatch","name_short":"nyc-3","host":"nyc-1.us.uncletopia.com","port":27035,"enabled":true,"region":"us-east","cc":"us","latitude":40.73061,"longitude":-73.93524,"reserved":0,"last_update":"0001-01-01T00:00:00Z","name_a2s":"Uncletopia | New York City | 3 | Stopwatch","protocol":17,"map":"pl_borneo","folder":"tf","game":"Team Fortress","app_id":440,"player_count":24,"max_players":24,"Bots":0,"server_type":"Dedicated","server_os":"Linux","password":true,"vac":true,"version":"7961495","steam_id":85568392924742820,"keywords":["nocrits","nodmgspread","payload","uncletopia"],"game_id":440,"stv_port":27036,"stv_name":"Uncletopia | New York City | 3 | Stopwatch | STV","players":[{"user_id":109,"name":"Wut dat dog doin","steam_id":76561198848535267,"connected_time":621000000000,"state":"active","ping":62},{"user_id":80,"name":"Azohko","steam_id":76561197990341684,"connected_time":1998000000000,"state":"active","ping":63},{"user_id":62,"name":"Sergeant Joker #savetf2","steam_id":76561198854616604,"connected_time":3440000000000,"state":"active","ping":62},{"user_id":112,"name":"Mak donalds","steam_id":76561198856016840,"connected_time":442000000000,"state":"active","ping":52},{"user_id":110,"name":"Octomal800","steam_id":76561199453595616,"connected_time":595000000000,"state":"active","ping":63},{"user_id":101,"name":"Boe Jiden","steam_id":76561198880486284,"connected_time":1058000000000,"state":"active","ping":72},{"user_id":86,"name":"‚ô• Mi Mo ‚ô•","steam_id":76561198975039481,"connected_time":1813000000000,"state":"active","ping":78},{"user_id":91,"name":"gamersans","steam_id":76561199265596497,"connected_time":1684000000000,"state":"active","ping":74},{"user_id":104,"name":"citrus","steam_id":76561198294606679,"connected_time":888000000000,"state":"active","ping":59},{"user_id":103,"name":"Phantom","steam_id":76561199200400404,"connected_time":981000000000,"state":"active","ping":124},{"user_id":93,"name":"Tupac Shakur","steam_id":76561198247651486,"connected_time":1682000000000,"state":"active","ping":46},{"user_id":31,"name":"Fresh Lychee","steam_id":76561198045399559,"connected_time":4829000000000,"state":"active","ping":68},{"user_id":81,"name":"Yukon Cornelius","steam_id":76561198325975809,"connected_time":1988000000000,"state":"active","ping":68},{"user_id":99,"name":"The Incredible Fem Boy","steam_id":76561198355754259,"connected_time":1075000000000,"state":"active","ping":61},{"user_id":32,"name":"The World's Softest Sandwich","steam_id":76561198015577707,"connected_time":4821000000000,"state":"active","ping":99},{"user_id":60,"name":"Sableye","steam_id":76561198061247147,"connected_time":3494000000000,"state":"active","ping":77},{"user_id":82,"name":"Pooey Chewie","steam_id":76561197967811454,"connected_time":1987000000000,"state":"active","ping":67},{"user_id":114,"name":"www.ChristianMingle.com/","steam_id":76561198025357651,"connected_time":198000000000,"state":"active","ping":72},{"user_id":113,"name":"POLICE","steam_id":76561198120757569,"connected_time":422000000000,"state":"active","ping":86},{"user_id":66,"name":"mooncxke","steam_id":76561199084940746,"connected_time":3229000000000,"state":"active","ping":84},{"user_id":85,"name":"20 miles for a Quaalude","steam_id":76561198042579477,"connected_time":1902000000000,"state":"active","ping":55},{"user_id":49,"name":"reatardhole","steam_id":76561198141217941,"connected_time":4224000000000,"state":"active","ping":75},{"user_id":50,"name":"theloneflute","steam_id":76561198109316816,"connected_time":4217000000000,"state":"active","ping":67},{"user_id":88,"name":"jamzine","steam_id":76561198186168293,"connected_time":1772000000000,"state":"active","ping":46}]},{"server_id":16,"name":"Uncletopia | New York City | 4 | Community","name_short":"nyc-4","host":"nyc-1.us.uncletopia.com","port":27045,"enabled":true,"region":"us-east","cc":"us","latitude":40.73061,"longitude":-73.93524,"reserved":0,"last_update":"0001-01-01T00:00:00Z","name_a2s":"Uncletopia | New York City | 4 | Community","protocol":17,"map":"cp_altitude","folder":"tf","game":"Team Fortress","app_id":440,"player_count":0,"max_players":24,"Bots":0,"server_type":"Dedicated","server_os":"Linux","password":true,"vac":true,"version":"7961495","steam_id":85568392924742821,"keywords":["cp","nocrits","nodmgspread","uncletopia"],"game_id":440,"stv_port":27046,"stv_name":"Uncletopia | New York City | 4 | Community | STV","players":null},{"server_id":142,"name":"Uncletopia | S√£o Paulo | 1 | All Maps","name_short":"sao-1","host":"sao-1.br.uncletopia.com","port":27015,"enabled":true,"region":"sa","cc":"br","latitude":-23.533773,"longitude":-46.62529,"reserved":0,"last_update":"0001-01-01T00:00:00Z","name_a2s":"Uncletopia | S√£o Paulo | 1 | All Maps","protocol":17,"map":"pl_snowycoast","folder":"tf","game":"Team Fortress","app_id":440,"player_count":0,"max_players":24,"Bots":0,"server_type":"Dedicated","server_os":"Linux","password":true,"vac":true,"version":"7961495","steam_id":85568392924469996,"keywords":["nocrits","nodmgspread","payload","uncletopia"],"game_id":440,"stv_port":27016,"stv_name":"Uncletopia | S√£o Paulo | 1 | All Maps | STV","players":null},{"server_id":143,"name":"Uncletopia | S√£o Paulo | 2 | Community","name_short":"sao-2","host":"sao-2.br.uncletopia.com","port":27015,"enabled":true,"region":"sa","cc":"br","latitude":-23.533773,"longitude":-46.62529,"reserved":0,"last_update":"0001-01-01T00:00:00Z","name_a2s":"Uncletopia | S√£o Paulo | 2 | Community","protocol":17,"map":"workshop/koth_synthetic_rc6a.ugc1549817316","folder":"tf","game":"Team Fortress","app_id":440,"player_count":0,"max_players":24,"Bots":0,"server_type":"Dedicated","server_os":"Linux","password":true,"vac":true,"version":"7961495","steam_id":85568392924485349,"keywords":["cp","nocrits","nodmgspread","uncletopia"],"game_id":440,"stv_port":27016,"stv_name":"Uncletopia | S√£o Paulo | 2 | Community | STV","players":null},{"server_id":7,"name":"Uncletopia | Seattle | 1 | All Maps","name_short":"sea-1","host":"sea-1.us.uncletopia.com","port":27015,"enabled":true,"region":"us-west","cc":"us","latitude":47.608013,"longitude":-122.33517,"reserved":0,"last_update":"0001-01-01T00:00:00Z","name_a2s":"Uncletopia | Seattle | 1 | All Maps","protocol":17,"map":"pl_badwater","folder":"tf","game":"Team Fortress","app_id":440,"player_count":23,"max_players":24,"Bots":0,"server_type":"Dedicated","server_os":"Linux","password":true,"vac":true,"version":"7961495","steam_id":85568392924469997,"keywords":["nocrits","nodmgspread","payload","uncletopia"],"game_id":440,"stv_port":27016,"stv_name":"Uncletopia | Seattle | 1 | All Maps | STV","players":[{"user_id":64,"name":"veen","steam_id":76561198084334538,"connected_time":352000000000,"state":"active","ping":114},{"user_id":20,"name":"Ass Blaster, Disaster Master","steam_id":76561197997774469,"connected_time":1670000000000,"state":"active","ping":64},{"user_id":17,"name":"Saint Pablo","steam_id":76561198083300159,"connected_time":2193000000000,"state":"active","ping":72},{"user_id":25,"name":"?","steam_id":76561198209880837,"connected_time":1473000000000,"state":"active","ping":34},{"user_id":63,"name":"YOU WHAT?!","steam_id":76561198418679471,"connected_time":386000000000,"state":"active","ping":107},{"user_id":23,"name":"Little Linguine","steam_id":76561198816986370,"connected_time":1513000000000,"state":"active","ping":42},{"user_id":24,"name":"Yackaboi","steam_id":76561199444911765,"connected_time":1505000000000,"state":"active","ping":90},{"user_id":26,"name":"bowling","steam_id":76561198854571744,"connected_time":1470000000000,"state":"active","ping":100},{"user_id":42,"name":"DrD","steam_id":76561198067266383,"connected_time":936000000000,"state":"spawning","ping":41},{"user_id":28,"name":"Reposas","steam_id":76561198058803197,"connected_time":1323000000000,"state":"active","ping":101},{"user_id":61,"name":"Bada Bingus","steam_id":76561198046743307,"connected_time":401000000000,"state":"active","ping":151},{"user_id":36,"name":"spiderland","steam_id":76561198335992132,"connected_time":1111000000000,"state":"active","ping":31},{"user_id":31,"name":"Ryld","steam_id":76561198010174380,"connected_time":1276000000000,"state":"active","ping":36},{"user_id":66,"name":"Ocelot","steam_id":76561198002768179,"connected_time":28000000000,"state":"active","ping":61},{"user_id":35,"name":"TinCanDim","steam_id":76561198184039682,"connected_time":1128000000000,"state":"active","ping":38},{"user_id":65,"name":"ElephantHydrogen4277882","steam_id":76561198175741741,"connected_time":156000000000,"state":"active","ping":65},{"user_id":38,"name":"Argon","steam_id":76561199254804349,"connected_time":1001000000000,"state":"spawning","ping":138},{"user_id":67,"name":"Quilfus Scrofel","steam_id":76561198160308375,"connected_time":6000000000,"state":"spawning","ping":207},{"user_id":56,"name":"APOTATO","steam_id":76561198118199858,"connected_time":661000000000,"state":"active","ping":77},{"user_id":62,"name":"BirdScruff","steam_id":76561198349249196,"connected_time":399000000000,"state":"active","ping":107},{"user_id":50,"name":"https://fr.wikipedia.org/","steam_id":76561198051834684,"connected_time":767000000000,"state":"active","ping":64},{"user_id":51,"name":"OH JIMMY I'M HOME #SavedTf2","steam_id":76561198396658806,"connected_time":757000000000,"state":"spawning","ping":84},{"user_id":54,"name":"What are you doing?!","steam_id":76561198405248691,"connected_time":733000000000,"state":"active","ping":99}]},{"server_id":119,"name":"Uncletopia | Seattle | 2 | All Maps","name_short":"sea-2","host":"sea-1.us.uncletopia.com","port":27025,"enabled":true,"region":"us-west","cc":"us","latitude":47.608013,"longitude":-122.33517,"reserved":0,"last_update":"0001-01-01T00:00:00Z","name_a2s":"Uncletopia | Seattle | 2 | All Maps","protocol":17,"map":"koth_lakeside_final","folder":"tf","game":"Team Fortress","app_id":440,"player_count":0,"max_players":24,"Bots":0,"server_type":"Dedicated","server_os":"Linux","password":true,"vac":true,"version":"7961495","steam_id":85568392924469998,"keywords":["cp","nocrits","nodmgspread","uncletopia"],"game_id":440,"stv_port":27026,"stv_name":"Uncletopia | Seattle | 2 | All Maps | STV","players":null},{"server_id":406,"name":"Uncletopia | Seattle | 3 | Stopwatch","name_short":"sea-3","host":"sea-1.us.uncletopia.com","port":27035,"enabled":true,"region":"us-west","cc":"us","latitude":47.608013,"longitude":-122.33517,"reserved":0,"last_update":"0001-01-01T00:00:00Z","name_a2s":"Uncletopia | Seattle | 3 | Stopwatch","protocol":17,"map":"koth_lakeside_final","folder":"tf","game":"Team Fortress","app_id":440,"player_count":0,"max_players":24,"Bots":0,"server_type":"Dedicated","server_os":"Linux","password":true,"vac":true,"version":"7961495","steam_id":85568392924515217,"keywords":["cp","nocrits","nodmgspread","uncletopia"],"game_id":440,"stv_port":27036,"stv_name":"Uncletopia | Seattle | 3 | Stopwatch | STV","players":null},{"server_id":17,"name":"Uncletopia | San Francisco | 1 | All Maps","name_short":"sfo-1","host":"sfo-1.us.uncletopia.com","port":27015,"enabled":true,"region":"us-west","cc":"us","latitude":37.77397,"longitude":-122.4313,"reserved":0,"last_update":"0001-01-01T00:00:00Z","name_a2s":"Uncletopia | San Francisco | 1 | All Maps","protocol":17,"map":"koth_cascade","folder":"tf","game":"Team Fortress","app_id":440,"player_count":0,"max_players":24,"Bots":0,"server_type":"Dedicated","server_os":"Linux","password":true,"vac":true,"version":"7961495","steam_id":85568392924469999,"keywords":["cp","nocrits","nodmgspread","uncletopia"],"game_id":440,"stv_port":27016,"stv_name":"Uncletopia | San Francisco | 1 | All Maps | STV","players":null},{"server_id":18,"name":"Uncletopia | San Francisco | 2 | All Maps","name_short":"sfo-2","host":"sfo-1.us.uncletopia.com","port":27025,"enabled":true,"region":"us-west","cc":"us","latitude":37.77397,"longitude":-122.4313,"reserved":0,"last_update":"0001-01-01T00:00:00Z","name_a2s":"Uncletopia | San Francisco | 2 | All Maps","protocol":17,"map":"pl_frontier_final","folder":"tf","game":"Team Fortress","app_id":440,"player_count":0,"max_players":24,"Bots":0,"server_type":"Dedicated","server_os":"Linux","password":true,"vac":true,"version":"7961495","steam_id":85568392924470000,"keywords":["nocrits","nodmgspread","payload","uncletopia"],"game_id":440,"stv_port":27026,"stv_name":"Uncletopia | San Francisco | 2 | All Maps | STV","players":null},{"server_id":19,"name":"Uncletopia | San Francisco | 3 | Stopwatch","name_short":"sfo-3","host":"sfo-1.us.uncletopia.com","port":27035,"enabled":true,"region":"us-west","cc":"us","latitude":37.77397,"longitude":-122.4313,"reserved":0,"last_update":"0001-01-01T00:00:00Z","name_a2s":"Uncletopia | San Francisco | 3 | Stopwatch","protocol":17,"map":"pl_pier","folder":"tf","game":"Team Fortress","app_id":440,"player_count":0,"max_players":24,"Bots":0,"server_type":"Dedicated","server_os":"Linux","password":true,"vac":true,"version":"7961495","steam_id":85568392924742824,"keywords":["nocrits","nodmgspread","payload","uncletopia"],"game_id":440,"stv_port":27036,"stv_name":"Uncletopia | San Francisco | 3 | Stopwatch | STV","players":null},{"server_id":20,"name":"Uncletopia | San Francisco | 4 | Community","name_short":"sfo-4","host":"sfo-1.us.uncletopia.com","port":27045,"enabled":true,"region":"us-west","cc":"us","latitude":37.77397,"longitude":-122.4313,"reserved":0,"last_update":"0001-01-01T00:00:00Z","name_a2s":"Uncletopia | San Francisco | 4 | Community","protocol":17,"map":"workshop/pl_divulgence_b4b.ugc2884808746","folder":"tf","game":"Team Fortress","app_id":440,"player_count":0,"max_players":24,"Bots":0,"server_type":"Dedicated","server_os":"Linux","password":true,"vac":true,"version":"7961495","steam_id":85568392924742826,"keywords":["nocrits","nodmgspread","payload","uncletopia"],"game_id":440,"stv_port":27046,"stv_name":"Uncletopia | San Francisco | 4 | Community | STV","players":null},{"server_id":141,"name":"Uncletopia | Sydney | 1 | All Maps","name_short":"syd-1","host":"syd-1.au.uncletopia.com","port":27015,"enabled":true,"region":"au","cc":"au","latitude":-33.865143,"longitude":151.2099,"reserved":0,"last_update":"0001-01-01T00:00:00Z","name_a2s":"Uncletopia | Sydney | 1 | All Maps","protocol":17,"map":"pl_upward","folder":"tf","game":"Team Fortress","app_id":440,"player_count":0,"max_players":24,"Bots":0,"server_type":"Dedicated","server_os":"Linux","password":true,"vac":true,"version":"7961495","steam_id":85568392924470001,"keywords":["nocrits","nodmgspread","payload","uncletopia"],"game_id":440,"stv_port":27016,"stv_name":"Uncletopia | Sydney | 1 | All Maps | STV","players":null},{"server_id":123,"name":"Uncletopia | Sydney | 2 | All Maps","name_short":"syd-2","host":"syd-1.au.uncletopia.com","port":27025,"enabled":true,"region":"au","cc":"au","latitude":-33.865143,"longitude":151.2099,"reserved":0,"last_update":"0001-01-01T00:00:00Z","name_a2s":"Uncletopia | Sydney | 2 | All Maps","protocol":17,"map":"pl_upward","folder":"tf","game":"Team Fortress","app_id":440,"player_count":0,"max_players":24,"Bots":0,"server_type":"Dedicated","server_os":"Linux","password":true,"vac":true,"version":"7961495","steam_id":85568392924470002,"keywords":["nocrits","nodmgspread","payload","uncletopia"],"game_id":440,"stv_port":27026,"stv_name":"Uncletopia | Sydney | 2 | All Maps | STV","players":null},{"server_id":395,"name":"Uncletopia | Sydney | 3 | All Maps","name_short":"syd-3","host":"syd-1.au.uncletopia.com","port":27035,"enabled":true,"region":"au","cc":"au","latitude":-33.865143,"longitude":151.2099,"reserved":0,"last_update":"0001-01-01T00:00:00Z","name_a2s":"Uncletopia | Sydney | 3 | All Maps","protocol":17,"map":"pl_barnblitz","folder":"tf","game":"Team Fortress","app_id":440,"player_count":0,"max_players":24,"Bots":0,"server_type":"Dedicated","server_os":"Linux","password":true,"vac":true,"version":"7961495","steam_id":85568392925194467,"keywords":["nocrits","nodmgspread","payload","uncletopia"],"game_id":440,"stv_port":27036,"stv_name":"Uncletopia | Sydney | 3 | All Maps | STV","players":null},{"server_id":396,"name":"Uncletopia | Sydney | 4 | All Maps","name_short":"syd-4","host":"syd-1.au.uncletopia.com","port":27045,"enabled":true,"region":"au","cc":"au","latitude":-33.865143,"longitude":151.2099,"reserved":0,"last_update":"0001-01-01T00:00:00Z","name_a2s":"Uncletopia | Sydney | 4 | All Maps","protocol":17,"map":"koth_highpass","folder":"tf","game":"Team Fortress","app_id":440,"player_count":0,"max_players":24,"Bots":0,"server_type":"Dedicated","server_os":"Linux","password":true,"vac":true,"version":"7961495","steam_id":85568392925397958,"keywords":["cp","nocrits","nodmgspread","uncletopia"],"game_id":440,"stv_port":27046,"stv_name":"Uncletopia | Sydney | 4 | All Maps | STV","players":null},{"server_id":58,"name":"Uncletopia | Sydney | 5 | Stopwatch","name_short":"syd-5","host":"syd-1.au.uncletopia.com","port":27055,"enabled":true,"region":"au","cc":"au","latitude":-33.865143,"longitude":151.2099,"reserved":0,"last_update":"0001-01-01T00:00:00Z","name_a2s":"Uncletopia | Sydney | 5 | Stopwatch","protocol":17,"map":"cp_sunshine","folder":"tf","game":"Team Fortress","app_id":440,"player_count":0,"max_players":24,"Bots":0,"server_type":"Dedicated","server_os":"Linux","password":true,"vac":true,"version":"7961495","steam_id":85568392925397959,"keywords":["cp","nocrits","nodmgspread","uncletopia"],"game_id":440,"stv_port":27056,"stv_name":"Uncletopia | Sydney | 5 | Stopwatch | STV","players":null},{"server_id":59,"name":"Uncletopia | Sydney | 6 | Community","name_short":"syd-6","host":"syd-1.au.uncletopia.com","port":27065,"enabled":true,"region":"au","cc":"au","latitude":-33.865143,"longitude":151.2099,"reserved":0,"last_update":"0001-01-01T00:00:00Z","name_a2s":"Uncletopia | Sydney | 6 | Community","protocol":17,"map":"workshop/koth_trenchfoot_b1a.ugc731436616","folder":"tf","game":"Team Fortress","app_id":440,"player_count":0,"max_players":24,"Bots":0,"server_type":"Dedicated","server_os":"Linux","password":true,"vac":true,"version":"7961495","steam_id":85568392925397960,"keywords":["cp","nocrits","nodmgspread","uncletopia"],"game_id":440,"stv_port":27066,"stv_name":"Uncletopia | Sydney | 6 | Community | STV","players":null},{"server_id":49,"name":"Uncletopia | Warsaw | 1 | All Maps","name_short":"waw-1","host":"waw-1.pl.uncletopia.com","port":27015,"enabled":true,"region":"eu","cc":"pl","latitude":52.2297,"longitude":21.017532,"reserved":0,"last_update":"0001-01-01T00:00:00Z","name_a2s":"Uncletopia | Warsaw | 1 | All Maps","protocol":17,"map":"koth_lakeside_final","folder":"tf","game":"Team Fortress","app_id":440,"player_count":0,"max_players":24,"Bots":0,"server_type":"Dedicated","server_os":"Linux","password":true,"vac":true,"version":"7961495","steam_id":85568392925397850,"keywords":["cp","nocrits","nodmgspread","uncletopia"],"game_id":440,"stv_port":27016,"stv_name":"Uncletopia | Warsaw | 1 | All Maps | STV","players":null},{"server_id":50,"name":"Uncletopia | Warsaw | 2 | All Maps","name_short":"waw-2","host":"waw-1.pl.uncletopia.com","port":27025,"enabled":true,"region":"eu","cc":"pl","latitude":52.2297,"longitude":21.017532,"reserved":0,"last_update":"0001-01-01T00:00:00Z","name_a2s":"Uncletopia | Warsaw | 2 | All Maps","protocol":17,"map":"pl_borneo","folder":"tf","game":"Team Fortress","app_id":440,"player_count":0,"max_players":24,"Bots":0,"server_type":"Dedicated","server_os":"Linux","password":true,"vac":true,"version":"7961495","steam_id":85568392925397851,"keywords":["nocrits","nodmgspread","payload","uncletopia"],"game_id":440,"stv_port":27026,"stv_name":"Uncletopia | Warsaw | 2 | All Maps | STV","players":null},{"server_id":51,"name":"Uncletopia | Warsaw | 3 | All Maps","name_short":"waw-3","host":"waw-1.pl.uncletopia.com","port":27035,"enabled":true,"region":"eu","cc":"pl","latitude":52.2297,"longitude":21.017532,"reserved":0,"last_update":"0001-01-01T00:00:00Z","name_a2s":"Uncletopia | Warsaw | 3 | All Maps","protocol":17,"map":"koth_lakeside_final","folder":"tf","game":"Team Fortress","app_id":440,"player_count":0,"max_players":24,"Bots":0,"server_type":"Dedicated","server_os":"Linux","password":true,"vac":true,"version":"7961495","steam_id":85568392925397852,"keywords":["cp","nocrits","nodmgspread","uncletopia"],"game_id":440,"stv_port":27036,"stv_name":"Uncletopia | Warsaw | 3 | All Maps | STV","players":null},{"server_id":52,"name":"Uncletopia | Warsaw | 4 | All Maps","name_short":"waw-4","host":"waw-1.pl.uncletopia.com","port":27045,"enabled":true,"region":"eu","cc":"pl","latitude":52.2297,"longitude":21.017532,"reserved":0,"last_update":"0001-01-01T00:00:00Z","name_a2s":"Uncletopia | Warsaw | 4 | All Maps","protocol":17,"map":"plr_hightower","folder":"tf","game":"Team Fortress","app_id":440,"player_count":3,"max_players":24,"Bots":0,"server_type":"Dedicated","server_os":"Linux","password":true,"vac":true,"version":"7961495","steam_id":85568392925397853,"keywords":["nocrits","nodmgspread","payload","uncletopia"],"game_id":440,"stv_port":27046,"stv_name":"Uncletopia | Warsaw | 4 | All Maps | STV","players":[{"user_id":23,"name":"Dry bones from newsupermariobro","steam_id":76561199220801849,"connected_time":3401000000000,"state":"active","ping":92},{"user_id":24,"name":"stefanbejenari","steam_id":76561199466718294,"connected_time":3191000000000,"state":"active","ping":81},{"user_id":22,"name":"–î–∂–µ–∫–µ—Ç","steam_id":76561198327897125,"connected_time":4509000000000,"state":"active","ping":107}]},{"server_id":53,"name":"Uncletopia | Warsaw | 5 | Stopwatch","name_short":"waw-5","host":"waw-1.pl.uncletopia.com","port":27055,"enabled":true,"region":"eu","cc":"pl","latitude":52.2297,"longitude":21.017532,"reserved":0,"last_update":"0001-01-01T00:00:00Z","name_a2s":"Uncletopia | Warsaw | 5 | Stopwatch","protocol":17,"map":"workshop/koth_ramjam_rc1.ugc459778887","folder":"tf","game":"Team Fortress","app_id":440,"player_count":0,"max_players":24,"Bots":0,"server_type":"Dedicated","server_os":"Linux","password":true,"vac":true,"version":"7961495","steam_id":85568392925397854,"keywords":["cp","nocrits","nodmgspread","uncletopia"],"game_id":440,"stv_port":27056,"stv_name":"Uncletopia | Warsaw | 5 | Stopwatch | STV","players":null},{"server_id":54,"name":"Uncletopia | Warsaw | 6 | Community","name_short":"waw-6","host":"waw-1.pl.uncletopia.com","port":27065,"enabled":true,"region":"eu","cc":"pl","latitude":52.2297,"longitude":21.017532,"reserved":0,"last_update":"0001-01-01T00:00:00Z","name_a2s":"Uncletopia | Warsaw | 6 | Community","protocol":17,"map":"workshop/koth_kemptown_rc1.ugc767410655","folder":"tf","game":"Team Fortress","app_id":440,"player_count":0,"max_players":24,"Bots":0,"server_type":"Dedicated","server_os":"Linux","password":true,"vac":true,"version":"7961495","steam_id":85568392925397856,"keywords":["cp","nocrits","nodmgspread","uncletopia"],"game_id":440,"stv_port":27066,"stv_name":"Uncletopia | Warsaw | 6 | Community | STV","players":null}]}