{"status":true,"message":"","result":[{"server_id":9,"name":"Uncletopia | Atlanta | 1 | All Maps","name_short":"atl-1","host":"atl-1.us.uncletopia.com","port":27015,"enabled":true,"region":"us-east","cc":"us","latitude":33.753746,"longitude":-84.38633,"reserved":0,"last_update":"0001-01-01T00:00:00Z","name_a2s":"Uncletopia | Atlanta | 1 | All Maps","protocol":17,"map":"koth_viaduct","folder":"tf","game":"Team Fortress","app_id":440,"player_count":23,"max_players":24,"Bots":0,"server_type":"Dedicated","server_os":"Linux","password":true,"vac":true,"version":"7882260","steam_id":85568392924469982,"keywords":["cp","nocrits","nodmgspread","uncletopia"],"game_id":440,"stv_port":27016,"stv_name":"Uncletopia | Atlanta | 1 | All Maps | STV","players":[{"user_id":148,"name":"kite","steam_id":76561198346516392,"connected_time":2793000000000,"state":"active","ping":82},{"user_id":175,"name":"***FoRgIvEn***","steam_id":76561199216222247,"connected_time":976000000000,"state":"active","ping":83},{"user_id":182,"name":"Yitzuax","steam_id":76561198418407108,"connected_time":28000000000,"state":"spawning","ping":156},{"user_id":176,"name":"Oopsie Daisy ❋","steam_id":76561198042144492,"connected_time":694000000000,"state":"active","ping":57},{"user_id":166,"name":"Waffle Wannabe","steam_id":76561198064510650,"connected_time":1503000000000,"state":"active","ping":64},{"user_id":144,"name":"1-800-GHOST-DANCE","steam_id":76561198835430429,"connected_time":3276000000000,"state":"active","ping":97},{"user_id":178,"name":"William Wallace","steam_id":76561199343316814,"connected_time":543000000000,"state":"active","ping":55},{"user_id":137,"name":"Huey","steam_id":76561198972816386,"connected_time":3630000000000,"state":"active","ping":60},{"user_id":152,"name":"basil smoking weed","steam_id":76561198119590214,"connected_time":2373000000000,"state":"active","ping":55},{"user_id":138,"name":"Intro Bonito","steam_id":76561198119478838,"connected_time":3625000000000,"state":"active","ping":52},{"user_id":170,"name":"CFGU || RAWRWAFL","steam_id":76561198032118386,"connected_time":1393000000000,"state":"active","ping":91},{"user_id":79,"name":"metalfan666|bday tmrw|","steam_id":76561198386344068,"connected_time":7575000000000,"state":"active","ping":74},{"user_id":179,"name":"raybryan2008","steam_id":76561199465495736,"connected_time":295000000000,"state":"active","ping":106},{"user_id":46,"name":"jump_apex_b1","steam_id":76561198092135570,"connected_time":9672000000000,"state":"active","ping":60},{"user_id":164,"name":"Soju","steam_id":76561198044130442,"connected_time":1775000000000,"state":"active","ping":83},{"user_id":169,"name":"Legit_Jaxer","steam_id":76561198172234053,"connected_time":1409000000000,"state":"active","ping":105},{"user_id":181,"name":"KingHazardous","steam_id":76561198415805703,"connected_time":49000000000,"state":"active","ping":66},{"user_id":171,"name":"BIG HOG","steam_id":76561198079923652,"connected_time":1392000000000,"state":"active","ping":61},{"user_id":143,"name":"twizted","steam_id":76561197960407274,"connected_time":3422000000000,"state":"active","ping":86},{"user_id":165,"name":"troll","steam_id":76561198040890252,"connected_time":1585000000000,"state":"active","ping":54},{"user_id":156,"name":"neet","steam_id":76561197968115168,"connected_time":2365000000000,"state":"active","ping":54},{"user_id":177,"name":"Pango","steam_id":76561198069811545,"connected_time":556000000000,"state":"active","ping":45},{"user_id":131,"name":"map tr_ctap_practice","steam_id":76561198249206656,"connected_time":3751000000000,"state":"active","ping":84}]},{"server_id":104,"name":"Uncletopia | Atlanta | 2 | All Maps","name_short":"atl-2","host":"atl-1.us.uncletopia.com","port":27025,"enabled":true,"region":"us-east","cc":"us","latitude":33.753746,"longitude":-84.38633,"reserved":0,"last_update":"0001-01-01T00:00:00Z","name_a2s":"Uncletopia | Atlanta | 2 | All Maps","protocol":17,"map":"pl_barnblitz","folder":"tf","game":"Team Fortress","app_id":440,"player_count":0,"max_players":24,"Bots":0,"server_type":"Dedicated","server_os":"Linux","password":true,"vac":true,"version":"7882260","steam_id":85568392924469983,"keywords":["nocrits","nodmgspread","payload","uncletopia"],"game_id":440,"stv_port":27026,"stv_name":"Uncletopia | Atlanta | 2 | All Maps | STV","players":null},{"server_id":400,"name":"Uncletopia | Atlanta | 3 | Community","name_short":"atl-3","host":"atl-1.us.uncletopia.com","port":27035,"enabled":true,"region":"us-east","cc":"us","latitude":33.753746,"longitude":-84.38633,"reserved":0,"last_update":"0001-01-01T00:00:00Z","name_a2s":"Uncletopia | Atlanta | 3 | Community","protocol":17,"map":"cp_sunshine","folder":"tf","game":"Team Fortress","app_id":440,"player_count":0,"max_players":24,"Bots":0,"server_type":"Dedicated","server_os":"Linux","password":true,"vac":true,"version":"7882260","steam_id":85568392924515187,"keywords":["cp","nocrits","nodmgspread","uncletopia"],"game_id":440,"stv_port":27036,"stv_name":"Uncletopia | Atlanta | 3 | Community | STV","players":null},{"server_id":401,"name":"Uncletopia | Atlanta | 4 | No Payload","name_short":"atl-4","host":"atl-1.us.uncletopia.com","port":27045,"enabled":true,"region":"us-east","cc":"us","latitude":33.753746,"longitude":-84.38633,"reserved":0,"last_update":"0001-01-01T00:00:00Z","name_a2s":"","protocol":0,"map":"","folder":"","game":"","app_id":0,"player_count":0,"max_players":0,"Bots":0,"server_type":"","server_os":"","password":false,"vac":false,"version":"","steam_id":0,"keywords":null,"game_id":0,"stv_port":0,"stv_name":"","players":null},{"server_id":2,"name":"Uncletopia | Chicago | 1 | All Maps","name_short":"chi-1","host":"chi-1.us.uncletopia.com","port":27015,"enabled":true,"region":"us-central","cc":"us","latitude":41.881832,"longitude":-87.62318,"reserved":0,"last_update":"0001-01-01T00:00:00Z","name_a2s":"Uncletopia | Chicago | 1 | All Maps","protocol":17,"map":"pl_frontier_final","folder":"tf","game":"Team Fortress","app_id":440,"player_count":24,"max_players":24,"Bots":0,"server_type":"Dedicated","server_os":"Linux","password":true,"vac":true,"version":"7882260","steam_id":85568392924469984,"keywords":["nocrits","nodmgspread","payload","uncletopia"],"game_id":440,"stv_port":27016,"stv_name":"Uncletopia | Chicago | 1 | All Maps | STV","players":[{"user_id":318,"name":"Yoshimelon","steam_id":76561198253054325,"connected_time":1502000000000,"state":"active","ping":67},{"user_id":319,"name":"his flatulence","steam_id":76561198799404824,"connected_time":1479000000000,"state":"active","ping":74},{"user_id":259,"name":"Blackbird","steam_id":76561198127818333,"connected_time":6510000000000,"state":"active","ping":57},{"user_id":250,"name":"Norman","steam_id":76561198154715990,"connected_time":6914000000000,"state":"active","ping":94},{"user_id":304,"name":"MoonWolf","steam_id":76561198095735033,"connected_time":2308000000000,"state":"active","ping":71},{"user_id":293,"name":"J O S H³²","steam_id":76561198122603779,"connected_time":3109000000000,"state":"active","ping":96},{"user_id":306,"name":"MetalTao","steam_id":76561198189408110,"connected_time":2082000000000,"state":"active","ping":86},{"user_id":334,"name":"[UHS] K24A4 2.4","steam_id":76561199072970627,"connected_time":362000000000,"state":"active","ping":48},{"user_id":321,"name":"TheMakoshark","steam_id":76561198332393945,"connected_time":1451000000000,"state":"active","ping":67},{"user_id":322,"name":"waht","steam_id":76561198148059714,"connected_time":1388000000000,"state":"active","ping":60},{"user_id":340,"name":"Wizardfort","steam_id":76561198095320741,"connected_time":21000000000,"state":"spawning","ping":67},{"user_id":329,"name":"3xtr3m3rWbyFan2901025","steam_id":76561198042286766,"connected_time":1181000000000,"state":"active","ping":69},{"user_id":296,"name":"TheSnowGhost","steam_id":76561198271967286,"connected_time":2808000000000,"state":"active","ping":76},{"user_id":324,"name":"ewp","steam_id":76561199148289271,"connected_time":1322000000000,"state":"active","ping":112},{"user_id":333,"name":"Pebberoni","steam_id":76561199261321326,"connected_time":561000000000,"state":"active","ping":110},{"user_id":325,"name":"Warbler","steam_id":76561198132094572,"connected_time":1284000000000,"state":"active","ping":59},{"user_id":326,"name":"tide*･ﾟ✧","steam_id":76561198092224185,"connected_time":1283000000000,"state":"active","ping":58},{"user_id":332,"name":"Pyromaniac","steam_id":76561198101042701,"connected_time":642000000000,"state":"active","ping":64},{"user_id":327,"name":"iman...","steam_id":76561198063677510,"connected_time":1252000000000,"state":"active","ping":72},{"user_id":242,"name":"177013","steam_id":76561198072303290,"connected_time":7534000000000,"state":"active","ping":61},{"user_id":339,"name":"nakear","steam_id":76561198215437797,"connected_time":75000000000,"state":"active","ping":94},{"user_id":294,"name":"picasso cat","steam_id":76561198086780443,"connected_time":3086000000000,"state":"active","ping":114},{"user_id":328,"name":"LavishLad","steam_id":76561199117799002,"connected_time":1235000000000,"state":"active","ping":81},{"user_id":338,"name":"WaywardFinn","steam_id":76561198040391296,"connected_time":288000000000,"state":"active","ping":84}]},{"server_id":106,"name":"Uncletopia | Chicago | 2 | All Maps","name_short":"chi-2","host":"chi-1.us.uncletopia.com","port":27025,"enabled":true,"region":"us-central","cc":"us","latitude":41.881832,"longitude":-87.62318,"reserved":0,"last_update":"0001-01-01T00:00:00Z","name_a2s":"Uncletopia | Chicago | 2 | All Maps","protocol":17,"map":"cp_coldfront","folder":"tf","game":"Team Fortress","app_id":440,"player_count":24,"max_players":24,"Bots":0,"server_type":"Dedicated","server_os":"Linux","password":true,"vac":true,"version":"7882260","steam_id":85568392924469985,"keywords":["cp","nocrits","nodmgspread","uncletopia"],"game_id":440,"stv_port":27026,"stv_name":"Uncletopia | Chicago | 2 | All Maps | STV","players":[{"user_id":77,"name":"Swifz","steam_id":76561199074464840,"connected_time":1578000000000,"state":"active","ping":73},{"user_id":93,"name":"Goofball","steam_id":76561198074189084,"connected_time":478000000000,"state":"active","ping":60},{"user_id":97,"name":"sauce","steam_id":76561198155481540,"connected_time":171000000000,"state":"active","ping":77},{"user_id":90,"name":"Corpse01","steam_id":76561198153671643,"connected_time":568000000000,"state":"active","ping":59},{"user_id":21,"name":"いちごまろ","steam_id":76561198166100997,"connected_time":4742000000000,"state":"active","ping":71},{"user_id":53,"name":"Lock'd","steam_id":76561198170108230,"connected_time":2988000000000,"state":"active","ping":91},{"user_id":98,"name":"the spy from team fortress 2","steam_id":76561198047797306,"connected_time":103000000000,"state":"active","ping":60},{"user_id":74,"name":"lactose father","steam_id":76561199408853457,"connected_time":1686000000000,"state":"active","ping":181},{"user_id":41,"name":"Zeek","steam_id":76561197987204351,"connected_time":3470000000000,"state":"active","ping":59},{"user_id":94,"name":"Big Dick Swinging","steam_id":76561198053819929,"connected_time":309000000000,"state":"active","ping":77},{"user_id":95,"name":"KCritical","steam_id":76561198036988728,"connected_time":255000000000,"state":"active","ping":84},{"user_id":81,"name":"Glad","steam_id":76561199388372220,"connected_time":931000000000,"state":"active","ping":102},{"user_id":44,"name":"Mr.Frundles","steam_id":76561198134559026,"connected_time":3438000000000,"state":"active","ping":69},{"user_id":57,"name":"BRICKHOUSE BILL","steam_id":76561198799403828,"connected_time":2817000000000,"state":"active","ping":54},{"user_id":76,"name":"Pilot","steam_id":76561198323019632,"connected_time":1623000000000,"state":"active","ping":181},{"user_id":91,"name":"MDD","steam_id":76561197998850659,"connected_time":561000000000,"state":"active","ping":85},{"user_id":38,"name":"Yam Jazzy Jim","steam_id":76561198000788950,"connected_time":3531000000000,"state":"active","ping":60},{"user_id":59,"name":"nutlube","steam_id":76561198128831131,"connected_time":2748000000000,"state":"active","ping":154},{"user_id":96,"name":"Rusty","steam_id":76561198055585129,"connected_time":244000000000,"state":"active","ping":99},{"user_id":61,"name":"Sableye","steam_id":76561198061247147,"connected_time":2687000000000,"state":"active","ping":63},{"user_id":86,"name":"Mikael_01","steam_id":76561199080253129,"connected_time":620000000000,"state":"active","ping":188},{"user_id":62,"name":"Moomin","steam_id":76561198072726213,"connected_time":2666000000000,"state":"active","ping":102},{"user_id":48,"name":"Laksbi","steam_id":76561198151205759,"connected_time":3365000000000,"state":"active","ping":91},{"user_id":92,"name":"techboy04gaming","steam_id":76561198122270790,"connected_time":504000000000,"state":"active","ping":78}]},{"server_id":402,"name":"Uncletopia | Chicago | 3 | All Maps","name_short":"chi-3","host":"chi-1.us.uncletopia.com","port":27035,"enabled":true,"region":"us-central","cc":"us","latitude":41.881832,"longitude":-87.62318,"reserved":0,"last_update":"0001-01-01T00:00:00Z","name_a2s":"Uncletopia | Chicago | 3 | All Maps","protocol":17,"map":"pl_badwater","folder":"tf","game":"Team Fortress","app_id":440,"player_count":23,"max_players":24,"Bots":0,"server_type":"Dedicated","server_os":"Linux","password":true,"vac":true,"version":"7882260","steam_id":85568392924515191,"keywords":["nocrits","nodmgspread","payload","uncletopia"],"game_id":440,"stv_port":27036,"stv_name":"Uncletopia | Chicago | 3 | All Maps | STV","players":[{"user_id":189,"name":"F0restFerret","steam_id":76561199112458876,"connected_time":2033000000000,"state":"active","ping":56},{"user_id":200,"name":"Buttered_Ghost™","steam_id":76561198857719045,"connected_time":1010000000000,"state":"active","ping":63},{"user_id":175,"name":"Truly Cryo","steam_id":76561198347497484,"connected_time":3818000000000,"state":"active","ping":82},{"user_id":131,"name":"Sprit ♥","steam_id":76561198268780781,"connected_time":6842000000000,"state":"active","ping":46},{"user_id":217,"name":"Kronk","steam_id":76561198063092125,"connected_time":280000000000,"state":"active","ping":68},{"user_id":219,"name":"ayecodex","steam_id":76561199477598858,"connected_time":251000000000,"state":"active","ping":63},{"user_id":170,"name":"just like a cokey cola","steam_id":76561198046111695,"connected_time":4073000000000,"state":"active","ping":67},{"user_id":171,"name":"Green Icicle","steam_id":76561198069624529,"connected_time":4059000000000,"state":"active","ping":89},{"user_id":197,"name":"Female Gamer","steam_id":76561199366482682,"connected_time":1164000000000,"state":"active","ping":126},{"user_id":203,"name":"Elroy Spark - DJ- Roro","steam_id":76561198071776428,"connected_time":954000000000,"state":"active","ping":104},{"user_id":205,"name":"Jankyo","steam_id":76561198083339492,"connected_time":922000000000,"state":"active","ping":78},{"user_id":173,"name":"Kartyac","steam_id":76561197991069005,"connected_time":4041000000000,"state":"active","ping":70},{"user_id":206,"name":"KyleDaDumb","steam_id":76561198059843740,"connected_time":904000000000,"state":"active","ping":82},{"user_id":193,"name":"D","steam_id":76561198292908619,"connected_time":1717000000000,"state":"active","ping":70},{"user_id":143,"name":"Goldensliv","steam_id":76561198161673891,"connected_time":5798000000000,"state":"active","ping":180},{"user_id":215,"name":"player of the black lagoon","steam_id":76561198354990729,"connected_time":444000000000,"state":"active","ping":79},{"user_id":191,"name":"[ G R * T T Y ]","steam_id":76561198048986218,"connected_time":1777000000000,"state":"active","ping":120},{"user_id":207,"name":"Walla","steam_id":76561198103379757,"connected_time":887000000000,"state":"active","ping":51},{"user_id":213,"name":"BooBoo","steam_id":76561198150772294,"connected_time":768000000000,"state":"active","ping":58},{"user_id":218,"name":"⎾ Ethereal ⏌","steam_id":76561199385170644,"connected_time":259000000000,"state":"active","ping":48},{"user_id":214,"name":"Temujin","steam_id":76561198030936583,"connected_time":697000000000,"state":"active","ping":52},{"user_id":212,"name":"DiscoTraveler","steam_id":76561199240168088,"connected_time":817000000000,"state":"active","ping":47},{"user_id":142,"name":"A Can of Arizona Green Tea","steam_id":76561198062481133,"connected_time":6551000000000,"state":"active","ping":78}]},{"server_id":403,"name":"Uncletopia | Chicago | 4 | All Maps","name_short":"chi-4","host":"chi-1.us.uncletopia.com","port":27045,"enabled":true,"region":"us-central","cc":"us","latitude":41.881832,"longitude":-87.62318,"reserved":0,"last_update":"0001-01-01T00:00:00Z","name_a2s":"Uncletopia | Chicago | 4 | All Maps","protocol":17,"map":"pl_snowycoast","folder":"tf","game":"Team Fortress","app_id":440,"player_count":24,"max_players":24,"Bots":0,"server_type":"Dedicated","server_os":"Linux","password":true,"vac":true,"version":"7882260","steam_id":85568392924515193,"keywords":["nocrits","nodmgspread","payload","uncletopia"],"game_id":440,"stv_port":27046,"stv_name":"Uncletopia | Chicago | 4 | All Maps | STV","players":[{"user_id":345,"name":"090-nsalih","steam_id":76561199467467873,"connected_time":1138000000000,"state":"active","ping":134},{"user_id":323,"name":"WesyUWU (The mini crit pig)","steam_id":76561198069188177,"connected_time":3387000000000,"state":"active","ping":72},{"user_id":303,"name":"Lord Razor","steam_id":76561198373286283,"connected_time":4139000000000,"state":"active","ping":79},{"user_id":338,"name":"goose","steam_id":76561198367551668,"connected_time":2059000000000,"state":"active","ping":52},{"user_id":341,"name":"Trout","steam_id":76561198075180255,"connected_time":1886000000000,"state":"active","ping":81},{"user_id":348,"name":"maritalfuture36","steam_id":76561198272718247,"connected_time":800000000000,"state":"active","ping":161},{"user_id":349,"name":"Scorpie Doodle","steam_id":76561198021845763,"connected_time":794000000000,"state":"active","ping":56},{"user_id":304,"name":"HUMBY","steam_id":76561198065045867,"connected_time":4139000000000,"state":"active","ping":83},{"user_id":332,"name":"sootyquill","steam_id":76561198186883927,"connected_time":2691000000000,"state":"active","ping":89},{"user_id":342,"name":"Whoa","steam_id":76561197970353496,"connected_time":1505000000000,"state":"active","ping":74},{"user_id":359,"name":"Prsm","steam_id":76561198053344995,"connected_time":72000000000,"state":"active","ping":56},{"user_id":299,"name":"Kung fu Mungus","steam_id":76561198069281556,"connected_time":4669000000000,"state":"active","ping":70},{"user_id":336,"name":"oxbudy","steam_id":76561198022120207,"connected_time":2157000000000,"state":"active","ping":61},{"user_id":317,"name":"Lilith","steam_id":76561198125102885,"connected_time":3760000000000,"state":"active","ping":74},{"user_id":354,"name":"room temp IQ","steam_id":76561198018724712,"connected_time":577000000000,"state":"active","ping":60},{"user_id":357,"name":"faka","steam_id":76561199093280815,"connected_time":106000000000,"state":"active","ping":107},{"user_id":167,"name":"Horrizan","steam_id":76561197965028480,"connected_time":14740000000000,"state":"active","ping":77},{"user_id":318,"name":"ilimori","steam_id":76561197961231625,"connected_time":3759000000000,"state":"active","ping":135},{"user_id":272,"name":"DarkEmpireOne","steam_id":76561198106849547,"connected_time":6561000000000,"state":"active","ping":58},{"user_id":355,"name":"TF2 Drip Designer","steam_id":76561198069735882,"connected_time":552000000000,"state":"active","ping":75},{"user_id":360,"name":"Sexual Butt","steam_id":76561198102241399,"connected_time":60000000000,"state":"active","ping":63},{"user_id":353,"name":"The Loveable CHI.I.BI.","steam_id":76561198039262228,"connected_time":601000000000,"state":"active","ping":87},{"user_id":288,"name":"Malevo","steam_id":76561198148606522,"connected_time":5675000000000,"state":"active","ping":86},{"user_id":321,"name":"Spazz","steam_id":76561198036167494,"connected_time":3678000000000,"state":"active","ping":43}]},{"server_id":36,"name":"Uncletopia | Chicago | 5 | All Maps","name_short":"chi-5","host":"chi-2.us.uncletopia.com","port":27015,"enabled":true,"region":"us-central","cc":"us","latitude":41.881832,"longitude":-87.62318,"reserved":0,"last_update":"0001-01-01T00:00:00Z","name_a2s":"Uncletopia | Chicago | 5 | All Maps","protocol":17,"map":"koth_viaduct","folder":"tf","game":"Team Fortress","app_id":440,"player_count":0,"max_players":24,"Bots":0,"server_type":"Dedicated","server_os":"Linux","password":true,"vac":true,"version":"7882260","steam_id":85568392924866362,"keywords":["cp","nocrits","nodmgspread","uncletopia"],"game_id":440,"stv_port":27016,"stv_name":"Uncletopia | Chicago | 5 | All Maps | STV","players":null},{"server_id":37,"name":"Uncletopia | Chicago | 6 | All Maps","name_short":"chi-6","host":"chi-2.us.uncletopia.com","port":27025,"enabled":true,"region":"us-central","cc":"us","latitude":41.881832,"longitude":-87.62318,"reserved":0,"last_update":"0001-01-01T00:00:00Z","name_a2s":"Uncletopia | Chicago | 6 | All Maps","protocol":17,"map":"koth_cascade","folder":"tf","game":"Team Fortress","app_id":440,"player_count":0,"max_players":24,"Bots":0,"server_type":"Dedicated","server_os":"Linux","password":true,"vac":true,"version":"7882260","steam_id":85568392924866363,"keywords":["cp","nocrits","nodmgspread","uncletopia"],"game_id":440,"stv_port":27026,"stv_name":"Uncletopia | Chicago | 6 | All Maps | STV","players":null},{"server_id":38,"name":"Uncletopia | Chicago | 7 | Stopwatch Beta","name_short":"chi-7","host":"chi-2.us.uncletopia.com","port":27035,"enabled":true,"region":"us-central","cc":"us","latitude":41.881832,"longitude":-87.62318,"reserved":0,"last_update":"0001-01-01T00:00:00Z","name_a2s":"Uncletopia | Chicago | 7 | Stopwatch Beta","protocol":17,"map":"pl_borneo","folder":"tf","game":"Team Fortress","app_id":440,"player_count":0,"max_players":24,"Bots":0,"server_type":"Dedicated","server_os":"Linux","password":true,"vac":true,"version":"7882260","steam_id":85568392924866364,"keywords":["nocrits","nodmgspread","payload","uncletopia"],"game_id":440,"stv_port":27036,"stv_name":"Uncletopia | Chicago | 7 | Stopwatch Beta | STV","players":null},{"server_id":39,"name":"Uncletopia | Chicago | 8 | Community","name_short":"chi-8","host":"chi-2.us.uncletopia.com","port":27045,"enabled":true,"region":"us-central","cc":"us","latitude":41.881832,"longitude":-87.62318,"reserved":0,"last_update":"0001-01-01T00:00:00Z","name_a2s":"Uncletopia | Chicago | 8 | Community","protocol":17,"map":"cp_snakewater_final1","folder":"tf","game":"Team Fortress","app_id":440,"player_count":0,"max_players":24,"Bots":0,"server_type":"Dedicated","server_os":"Linux","password":true,"vac":true,"version":"7882260","steam_id":85568392924866365,"keywords":["cp","nocrits","nodmgspread","uncletopia"],"game_id":440,"stv_port":27046,"stv_name":"Uncletopia | Chicago | 8 | Community | STV","players":null},{"server_id":8,"name":"Uncletopia | Dallas | 1 | All Maps","name_short":"dal-1","host":"dal-1.us.uncletopia.com","port":27015,"enabled":true,"region":"us-central","cc":"us","latitude":32.779167,"longitude":-96.80889,"reserved":0,"last_update":"0001-01-01T00:00:00Z","name_a2s":"Uncletopia | Dallas | 1 | All Maps","protocol":17,"map":"koth_lakeside_final","folder":"tf","game":"Team Fortress","app_id":440,"player_count":24,"max_players":24,"Bots":0,"server_type":"Dedicated","server_os":"Linux","password":true,"vac":true,"version":"7882260","steam_id":85568392924469986,"keywords":["cp","nocrits","nodmgspread","uncletopia"],"game_id":440,"stv_port":27016,"stv_name":"Uncletopia | Dallas | 1 | All Maps | STV","players":[{"user_id":7,"name":"snick","steam_id":76561198066566813,"connected_time":6421000000000,"state":"active","ping":102},{"user_id":71,"name":"ChickenNoodle","steam_id":76561198145167986,"connected_time":3039000000000,"state":"active","ping":60},{"user_id":48,"name":"Gary Gilbert","steam_id":76561198143988056,"connected_time":4799000000000,"state":"active","ping":111},{"user_id":110,"name":"MemeLordTheThird","steam_id":76561199122043829,"connected_time":1460000000000,"state":"active","ping":88},{"user_id":51,"name":"lost in spaaaaace","steam_id":76561199085974120,"connected_time":4688000000000,"state":"active","ping":88},{"user_id":70,"name":"UberVirginWeeb","steam_id":76561198412980444,"connected_time":3064000000000,"state":"active","ping":112},{"user_id":115,"name":"Separable Differential Equation","steam_id":76561198051699904,"connected_time":1107000000000,"state":"active","ping":62},{"user_id":106,"name":"Wounded","steam_id":76561199440954924,"connected_time":1552000000000,"state":"active","ping":91},{"user_id":17,"name":"Atlas (Skylar)","steam_id":76561198041531774,"connected_time":6040000000000,"state":"active","ping":68},{"user_id":122,"name":"The Collective","steam_id":76561198170423483,"connected_time":702000000000,"state":"active","ping":79},{"user_id":109,"name":"Lunatic Kaguya H.","steam_id":76561198345276434,"connected_time":1515000000000,"state":"active","ping":62},{"user_id":44,"name":"atari jaguar","steam_id":76561198084849541,"connected_time":4950000000000,"state":"active","ping":45},{"user_id":117,"name":"Emgee","steam_id":76561198096429333,"connected_time":1012000000000,"state":"active","ping":70},{"user_id":108,"name":"PlugFromBehind","steam_id":76561198143283800,"connected_time":1538000000000,"state":"active","ping":49},{"user_id":53,"name":"MagicMuffinman","steam_id":76561198149255313,"connected_time":4512000000000,"state":"active","ping":85},{"user_id":119,"name":"Ace_Steele23","steam_id":76561198086867678,"connected_time":989000000000,"state":"active","ping":63},{"user_id":121,"name":"Doomagedden","steam_id":76561198272589475,"connected_time":870000000000,"state":"active","ping":58},{"user_id":79,"name":"Seduce!_!Me_!213","steam_id":76561198857556368,"connected_time":2848000000000,"state":"active","ping":73},{"user_id":125,"name":"ImmortalProphet","steam_id":76561198012352477,"connected_time":341000000000,"state":"active","ping":70},{"user_id":123,"name":"ุfishburger","steam_id":76561198142586591,"connected_time":664000000000,"state":"active","ping":61},{"user_id":128,"name":"Silly Lil Fella | trade.tf","steam_id":76561199014196854,"connected_time":11000000000,"state":"spawning","ping":90},{"user_id":118,"name":"yoklaty","steam_id":76561199020932212,"connected_time":1012000000000,"state":"active","ping":183},{"user_id":127,"name":"BobbyLord_II","steam_id":76561198062356650,"connected_time":149000000000,"state":"active","ping":86},{"user_id":124,"name":"BattleWriter","steam_id":76561198059618706,"connected_time":484000000000,"state":"active","ping":59}]},{"server_id":108,"name":"Uncletopia | Dallas | 2 | All Maps","name_short":"dal-2","host":"dal-1.us.uncletopia.com","port":27025,"enabled":true,"region":"us-central","cc":"us","latitude":32.779167,"longitude":-96.80889,"reserved":0,"last_update":"0001-01-01T00:00:00Z","name_a2s":"Uncletopia | Dallas | 2 | All Maps","protocol":17,"map":"koth_lakeside_final","folder":"tf","game":"Team Fortress","app_id":440,"player_count":0,"max_players":24,"Bots":0,"server_type":"Dedicated","server_os":"Linux","password":true,"vac":true,"version":"7882260","steam_id":85568392924469988,"keywords":["cp","nocrits","nodmgspread","uncletopia"],"game_id":440,"stv_port":27026,"stv_name":"Uncletopia | Dallas | 2 | All Maps | STV","players":null},{"server_id":5,"name":"Uncletopia | Frankfurt | 1 | All Maps","name_short":"frk-1","host":"frk-1.de.uncletopia.com","port":27015,"enabled":true,"region":"eu","cc":"de","latitude":50.110924,"longitude":8.682127,"reserved":0,"last_update":"0001-01-01T00:00:00Z","name_a2s":"Uncletopia | Frankfurt | 1 | All Maps","protocol":17,"map":"cp_process_final","folder":"tf","game":"Team Fortress","app_id":440,"player_count":23,"max_players":24,"Bots":0,"server_type":"Dedicated","server_os":"Linux","password":true,"vac":true,"version":"7882260","steam_id":85568392924469989,"keywords":["cp","nocrits","nodmgspread","uncletopia"],"game_id":440,"stv_port":27016,"stv_name":"Uncletopia | Frankfurt | 1 | All Maps | STV","players":[{"user_id":534,"name":"3xlneet","steam_id":76561198041502877,"connected_time":1403000000000,"state":"active","ping":75},{"user_id":564,"name":"Bobinsky","steam_id":76561198038242348,"connected_time":71000000000,"state":"active","ping":67},{"user_id":553,"name":"PerpetuaForever","steam_id":76561198347444353,"connected_time":347000000000,"state":"active","ping":134},{"user_id":552,"name":"Pilaarius","steam_id":76561198120273212,"connected_time":361000000000,"state":"active","ping":91},{"user_id":544,"name":"Tegnerud","steam_id":76561198214185612,"connected_time":1074000000000,"state":"active","ping":75},{"user_id":532,"name":"killbind irl","steam_id":76561198180637374,"connected_time":1409000000000,"state":"active","ping":84},{"user_id":470,"name":"Miton","steam_id":76561197970323209,"connected_time":5042000000000,"state":"active","ping":86},{"user_id":533,"name":"FoOzTV","steam_id":76561197998636728,"connected_time":1406000000000,"state":"active","ping":69},{"user_id":558,"name":"w presser","steam_id":76561197994600818,"connected_time":257000000000,"state":"active","ping":45},{"user_id":554,"name":"powej","steam_id":76561198056381418,"connected_time":330000000000,"state":"active","ping":47},{"user_id":559,"name":"Mineboi98","steam_id":76561199076830259,"connected_time":245000000000,"state":"active","ping":151},{"user_id":556,"name":"cl","steam_id":76561199436640904,"connected_time":308000000000,"state":"active","ping":75},{"user_id":545,"name":"Violet Hunii","steam_id":76561198207752648,"connected_time":992000000000,"state":"active","ping":146},{"user_id":540,"name":"Yrjö Koskinen Yrjö-Koskinen","steam_id":76561198368181145,"connected_time":1246000000000,"state":"active","ping":76},{"user_id":541,"name":"FlameTheGame","steam_id":76561198841108519,"connected_time":1228000000000,"state":"active","ping":85},{"user_id":498,"name":"Udinese Dion","steam_id":76561198067931573,"connected_time":2924000000000,"state":"active","ping":53},{"user_id":557,"name":"Sh1n","steam_id":76561199012155377,"connected_time":303000000000,"state":"active","ping":45},{"user_id":393,"name":"def","steam_id":76561198857396812,"connected_time":10217000000000,"state":"active","ping":47},{"user_id":474,"name":"Koli","steam_id":76561197992428783,"connected_time":4506000000000,"state":"active","ping":58},{"user_id":565,"name":"Célério","steam_id":76561198088253576,"connected_time":57000000000,"state":"active","ping":45},{"user_id":566,"name":"tehdefault","steam_id":76561198131234889,"connected_time":9000000000,"state":"spawning","ping":67},{"user_id":561,"name":"Bonca","steam_id":76561198137503531,"connected_time":169000000000,"state":"active","ping":80},{"user_id":562,"name":"vibe king","steam_id":76561199119302030,"connected_time":165000000000,"state":"active","ping":164}]},{"server_id":110,"name":"Uncletopia | Frankfurt | 2 | All Maps","name_short":"frk-2","host":"frk-1.de.uncletopia.com","port":27025,"enabled":true,"region":"eu","cc":"de","latitude":50.110924,"longitude":8.682127,"reserved":0,"last_update":"0001-01-01T00:00:00Z","name_a2s":"Uncletopia | Frankfurt | 2 | All Maps","protocol":17,"map":"cp_snakewater_final1","folder":"tf","game":"Team Fortress","app_id":440,"player_count":24,"max_players":24,"Bots":0,"server_type":"Dedicated","server_os":"Linux","password":true,"vac":true,"version":"7882260","steam_id":85568392924469990,"keywords":["cp","nocrits","nodmgspread","uncletopia"],"game_id":440,"stv_port":27026,"stv_name":"Uncletopia | Frankfurt | 2 | All Maps | STV","players":[{"user_id":342,"name":"madijo","steam_id":76561198012617400,"connected_time":1842000000000,"state":"active","ping":60},{"user_id":355,"name":"Battle_Pass90","steam_id":76561199367142516,"connected_time":550000000000,"state":"active","ping":68},{"user_id":310,"name":"Lord of Beans","steam_id":76561198283379801,"connected_time":3859000000000,"state":"active","ping":106},{"user_id":313,"name":"quickfast","steam_id":76561199438900919,"connected_time":3143000000000,"state":"active","ping":56},{"user_id":332,"name":"MEDiUM","steam_id":76561198112328561,"connected_time":2782000000000,"state":"active","ping":79},{"user_id":341,"name":"ムGeRmAn |×UA×ム","steam_id":76561199044754898,"connected_time":1860000000000,"state":"active","ping":73},{"user_id":324,"name":"Fat Pigeon","steam_id":76561198817940142,"connected_time":2867000000000,"state":"active","ping":55},{"user_id":358,"name":"Issei Hyoudou 兵藤 一誠","steam_id":76561198174088183,"connected_time":62000000000,"state":"active","ping":69},{"user_id":344,"name":":P","steam_id":76561198106399430,"connected_time":1823000000000,"state":"active","ping":60},{"user_id":311,"name":"Mustekala1","steam_id":76561198044468928,"connected_time":3307000000000,"state":"active","ping":55},{"user_id":345,"name":"deadbeat dad","steam_id":76561198380267081,"connected_time":1811000000000,"state":"active","ping":70},{"user_id":320,"name":"padillacampos","steam_id":76561198161923970,"connected_time":2934000000000,"state":"active","ping":85},{"user_id":335,"name":"Egor Pomidor","steam_id":76561199175688390,"connected_time":2664000000000,"state":"active","ping":77},{"user_id":278,"name":"hisham","steam_id":76561198414437290,"connected_time":6351000000000,"state":"active","ping":112},{"user_id":350,"name":"Mael\u003c3","steam_id":76561197996852498,"connected_time":1137000000000,"state":"active","ping":62},{"user_id":349,"name":"static","steam_id":76561198836825741,"connected_time":1296000000000,"state":"active","ping":60},{"user_id":323,"name":"X-tis","steam_id":76561198043837480,"connected_time":2880000000000,"state":"active","ping":62},{"user_id":353,"name":"Tekky","steam_id":76561197990987315,"connected_time":961000000000,"state":"active","ping":52},{"user_id":326,"name":"madman hesus","steam_id":76561198159702599,"connected_time":2843000000000,"state":"active","ping":81},{"user_id":333,"name":"bigwish | bmod.tf","steam_id":76561197997859723,"connected_time":2766000000000,"state":"active","ping":75},{"user_id":346,"name":"Mav","steam_id":76561198004403881,"connected_time":1805000000000,"state":"active","ping":60},{"user_id":329,"name":"☞LaZe☜","steam_id":76561198202191400,"connected_time":2821000000000,"state":"active","ping":70},{"user_id":356,"name":"Syd","steam_id":76561198020515027,"connected_time":393000000000,"state":"active","ping":79},{"user_id":354,"name":"Jonathan","steam_id":76561198087988880,"connected_time":614000000000,"state":"active","ping":47}]},{"server_id":308,"name":"Uncletopia | Frankfurt | 3 | All Maps","name_short":"frk-3","host":"frk-1.de.uncletopia.com","port":27035,"enabled":true,"region":"eu","cc":"de","latitude":50.110924,"longitude":8.682127,"reserved":0,"last_update":"0001-01-01T00:00:00Z","name_a2s":"Uncletopia | Frankfurt | 3 | All Maps","protocol":17,"map":"pl_swiftwater_final1","folder":"tf","game":"Team Fortress","app_id":440,"player_count":21,"max_players":24,"Bots":0,"server_type":"Dedicated","server_os":"Linux","password":true,"vac":true,"version":"7882260","steam_id":85568392924504274,"keywords":["nocrits","nodmgspread","payload","uncletopia"],"game_id":440,"stv_port":27036,"stv_name":"Uncletopia | Frankfurt | 3 | All Maps | STV","players":[{"user_id":177,"name":"JGV","steam_id":76561198094654971,"connected_time":609000000000,"state":"active","ping":100},{"user_id":178,"name":"Uber","steam_id":76561198036528206,"connected_time":591000000000,"state":"active","ping":69},{"user_id":147,"name":"Fragirl #freehaze","steam_id":76561198323411853,"connected_time":1953000000000,"state":"active","ping":87},{"user_id":173,"name":"Canis[Magnus]Pectus","steam_id":76561198363775072,"connected_time":1077000000000,"state":"active","ping":114},{"user_id":155,"name":"BING CHILLING","steam_id":76561198065438030,"connected_time":1794000000000,"state":"active","ping":128},{"user_id":179,"name":"Meff","steam_id":76561197970610839,"connected_time":563000000000,"state":"active","ping":53},{"user_id":157,"name":"XSCod","steam_id":76561198124586634,"connected_time":1752000000000,"state":"active","ping":84},{"user_id":184,"name":"flr","steam_id":76561198249327786,"connected_time":124000000000,"state":"active","ping":62},{"user_id":158,"name":"Kes","steam_id":76561198095288832,"connected_time":1724000000000,"state":"active","ping":64},{"user_id":159,"name":"xiuxiu","steam_id":76561198050663717,"connected_time":1717000000000,"state":"active","ping":63},{"user_id":138,"name":"Trollstoy","steam_id":76561198072017175,"connected_time":3439000000000,"state":"active","ping":61},{"user_id":161,"name":"Ramzus","steam_id":76561198012385070,"connected_time":1587000000000,"state":"active","ping":88},{"user_id":162,"name":"cof","steam_id":76561199128417805,"connected_time":1532000000000,"state":"active","ping":74},{"user_id":163,"name":"Carrot","steam_id":76561198119340863,"connected_time":1531000000000,"state":"active","ping":54},{"user_id":175,"name":"Dale Cooper","steam_id":76561198017583984,"connected_time":793000000000,"state":"active","ping":77},{"user_id":165,"name":"vadr","steam_id":76561198334528186,"connected_time":1526000000000,"state":"active","ping":58},{"user_id":172,"name":"Spich","steam_id":76561199017245962,"connected_time":1321000000000,"state":"active","ping":99},{"user_id":174,"name":"Heamed Stams","steam_id":76561198163644842,"connected_time":1043000000000,"state":"active","ping":125},{"user_id":128,"name":"4","steam_id":76561197964945192,"connected_time":4200000000000,"state":"active","ping":50},{"user_id":168,"name":"Mr.Schnittlauch","steam_id":76561198295868113,"connected_time":1473000000000,"state":"active","ping":60},{"user_id":176,"name":"Digio","steam_id":76561199065101964,"connected_time":730000000000,"state":"active","ping":87}]},{"server_id":309,"name":"Uncletopia | Frankfurt | 4 | All Maps","name_short":"frk-4","host":"frk-1.de.uncletopia.com","port":27045,"enabled":true,"region":"eu","cc":"de","latitude":50.110924,"longitude":8.682127,"reserved":0,"last_update":"0001-01-01T00:00:00Z","name_a2s":"Uncletopia | Frankfurt | 4 | All Maps","protocol":17,"map":"koth_viaduct","folder":"tf","game":"Team Fortress","app_id":440,"player_count":24,"max_players":24,"Bots":0,"server_type":"Dedicated","server_os":"Linux","password":true,"vac":true,"version":"7882260","steam_id":85568392924504275,"keywords":["cp","nocrits","nodmgspread","uncletopia"],"game_id":440,"stv_port":27046,"stv_name":"Uncletopia | Frankfurt | 4 | All Maps | STV","players":[{"user_id":573,"name":"HwK!","steam_id":76561198287835588,"connected_time":1647000000000,"state":"active","ping":83},{"user_id":568,"name":"AftiksPL","steam_id":76561198875182686,"connected_time":2427000000000,"state":"active","ping":90},{"user_id":522,"name":"an idiot","steam_id":76561198172542535,"connected_time":6085000000000,"state":"active","ping":68},{"user_id":516,"name":"Valdis","steam_id":76561198057340489,"connected_time":6713000000000,"state":"active","ping":58},{"user_id":571,"name":"hora","steam_id":76561198404470526,"connected_time":1737000000000,"state":"active","ping":89},{"user_id":584,"name":"omony","steam_id":76561197983750025,"connected_time":228000000000,"state":"active","ping":91},{"user_id":569,"name":"B.batt","steam_id":76561198998684199,"connected_time":2426000000000,"state":"active","ping":119},{"user_id":576,"name":"WALTER WHITE","steam_id":76561199147666336,"connected_time":1603000000000,"state":"active","ping":64},{"user_id":531,"name":"Sylmeuh","steam_id":76561198084685420,"connected_time":5446000000000,"state":"active","ping":61},{"user_id":575,"name":"Stümpy","steam_id":76561198255904077,"connected_time":1627000000000,"state":"active","ping":64},{"user_id":529,"name":"Portal79","steam_id":76561198095499584,"connected_time":5549000000000,"state":"active","ping":65},{"user_id":586,"name":"stefanbejenari","steam_id":76561199466718294,"connected_time":95000000000,"state":"active","ping":74},{"user_id":481,"name":"ksg","steam_id":76561198042894236,"connected_time":9724000000000,"state":"active","ping":71},{"user_id":585,"name":"Dr Ludwig","steam_id":76561198426522902,"connected_time":214000000000,"state":"active","ping":65},{"user_id":561,"name":"wobber","steam_id":76561198111134021,"connected_time":3201000000000,"state":"active","ping":82},{"user_id":581,"name":"Sarah Obama Michella","steam_id":76561198078996559,"connected_time":1440000000000,"state":"active","ping":77},{"user_id":578,"name":"Augiz","steam_id":76561198332529555,"connected_time":1564000000000,"state":"active","ping":81},{"user_id":548,"name":"svantezch","steam_id":76561198373831657,"connected_time":4012000000000,"state":"active","ping":74},{"user_id":535,"name":"AwterSix","steam_id":76561198042561678,"connected_time":5236000000000,"state":"active","ping":60},{"user_id":572,"name":"Belemonguin","steam_id":76561198084706411,"connected_time":1732000000000,"state":"active","ping":78},{"user_id":514,"name":"Adib al-asfar","steam_id":76561198095691592,"connected_time":6903000000000,"state":"active","ping":59},{"user_id":582,"name":"TonTon","steam_id":76561198145468895,"connected_time":540000000000,"state":"active","ping":51},{"user_id":533,"name":"Captain Scrumpe","steam_id":76561198032206577,"connected_time":5349000000000,"state":"active","ping":73},{"user_id":580,"name":"FishNachoz","steam_id":76561198026519426,"connected_time":1561000000000,"state":"active","ping":58}]},{"server_id":310,"name":"Uncletopia | Frankfurt | 5 | All Maps","name_short":"frk-5","host":"frk-1.de.uncletopia.com","port":27055,"enabled":true,"region":"eu","cc":"de","latitude":50.110924,"longitude":8.682127,"reserved":0,"last_update":"0001-01-01T00:00:00Z","name_a2s":"Uncletopia | Frankfurt | 5 | All Maps","protocol":17,"map":"koth_cascade","folder":"tf","game":"Team Fortress","app_id":440,"player_count":19,"max_players":24,"Bots":0,"server_type":"Dedicated","server_os":"Linux","password":true,"vac":true,"version":"7882260","steam_id":85568392924504277,"keywords":["cp","nocrits","nodmgspread","uncletopia"],"game_id":440,"stv_port":27056,"stv_name":"Uncletopia | Frankfurt | 5 | All Maps | STV","players":[{"user_id":492,"name":"Gaster314","steam_id":76561198376195525,"connected_time":1032000000000,"state":"active","ping":81},{"user_id":493,"name":"ddchdrn","steam_id":76561198024358566,"connected_time":882000000000,"state":"active","ping":60},{"user_id":494,"name":"citronous","steam_id":76561198093290934,"connected_time":862000000000,"state":"active","ping":52},{"user_id":489,"name":"Aleknat","steam_id":76561198055379857,"connected_time":1778000000000,"state":"active","ping":61},{"user_id":495,"name":"lior.kr72","steam_id":76561199308997728,"connected_time":807000000000,"state":"active","ping":98},{"user_id":496,"name":"Chair","steam_id":76561198974382165,"connected_time":679000000000,"state":"active","ping":60},{"user_id":500,"name":"Jacko (The Lantern)","steam_id":76561198110769197,"connected_time":502000000000,"state":"active","ping":74},{"user_id":499,"name":"Counter Plexus","steam_id":76561198081479942,"connected_time":621000000000,"state":"active","ping":104},{"user_id":501,"name":"nusi","steam_id":76561199478468426,"connected_time":479000000000,"state":"active","ping":79},{"user_id":508,"name":"eva.","steam_id":76561198054474684,"connected_time":205000000000,"state":"active","ping":75},{"user_id":503,"name":"Worm","steam_id":76561198296497176,"connected_time":285000000000,"state":"active","ping":58},{"user_id":504,"name":"DEADPOOLGOD666","steam_id":76561198276356229,"connected_time":271000000000,"state":"active","ping":79},{"user_id":505,"name":"LEBren","steam_id":76561199229295431,"connected_time":259000000000,"state":"active","ping":60},{"user_id":506,"name":"Kokos","steam_id":76561198085501501,"connected_time":244000000000,"state":"active","ping":83},{"user_id":507,"name":"Wolframen","steam_id":76561198074103958,"connected_time":241000000000,"state":"active","ping":68},{"user_id":510,"name":"Ratatatatatatouille","steam_id":76561198182267098,"connected_time":103000000000,"state":"active","ping":88},{"user_id":511,"name":"JAN","steam_id":76561198367404568,"connected_time":94000000000,"state":"active","ping":75},{"user_id":512,"name":"netsurfer","steam_id":76561198836246326,"connected_time":85000000000,"state":"active","ping":89},{"user_id":434,"name":"antlionguard","steam_id":76561198072747143,"connected_time":6066000000000,"state":"active","ping":108}]},{"server_id":311,"name":"Uncletopia | Frankfurt | 6 | All Maps","name_short":"frk-6","host":"frk-1.de.uncletopia.com","port":27065,"enabled":true,"region":"eu","cc":"de","latitude":50.110924,"longitude":8.682127,"reserved":0,"last_update":"0001-01-01T00:00:00Z","name_a2s":"Uncletopia | Frankfurt | 6 | All Maps","protocol":17,"map":"pl_pier","folder":"tf","game":"Team Fortress","app_id":440,"player_count":24,"max_players":24,"Bots":0,"server_type":"Dedicated","server_os":"Linux","password":true,"vac":true,"version":"7882260","steam_id":85568392924504278,"keywords":["nocrits","nodmgspread","payload","uncletopia"],"game_id":440,"stv_port":27066,"stv_name":"Uncletopia | Frankfurt | 6 | All Maps | STV","players":[{"user_id":10,"name":"Spectre","steam_id":76561198163819482,"connected_time":3562000000000,"state":"active","ping":78},{"user_id":42,"name":"DK | cosmetical","steam_id":76561198444036574,"connected_time":1972000000000,"state":"active","ping":64},{"user_id":70,"name":"THE Grosser","steam_id":76561197995530666,"connected_time":497000000000,"state":"active","ping":53},{"user_id":50,"name":"rob","steam_id":76561198122211848,"connected_time":1691000000000,"state":"active","ping":91},{"user_id":14,"name":"You're doin good lad","steam_id":76561198350707031,"connected_time":2928000000000,"state":"active","ping":84},{"user_id":18,"name":"cister0","steam_id":76561198130195469,"connected_time":2691000000000,"state":"active","ping":75},{"user_id":16,"name":"Wake","steam_id":76561198873753505,"connected_time":2728000000000,"state":"active","ping":68},{"user_id":68,"name":"jovi_","steam_id":76561198449280552,"connected_time":695000000000,"state":"active","ping":61},{"user_id":20,"name":"Woman (Real)","steam_id":76561199151823932,"connected_time":2494000000000,"state":"active","ping":74},{"user_id":71,"name":"Truegear","steam_id":76561198059511386,"connected_time":454000000000,"state":"active","ping":78},{"user_id":72,"name":"Liocent","steam_id":76561198427755693,"connected_time":444000000000,"state":"active","ping":81},{"user_id":29,"name":"Doriian","steam_id":76561198071438810,"connected_time":2297000000000,"state":"active","ping":80},{"user_id":51,"name":"Deckard","steam_id":76561198004704647,"connected_time":1554000000000,"state":"active","ping":76},{"user_id":59,"name":"Banzar1","steam_id":76561198170325423,"connected_time":1177000000000,"state":"active","ping":128},{"user_id":30,"name":"Slifer the Sky Dragon","steam_id":76561198062255803,"connected_time":2271000000000,"state":"active","ping":93},{"user_id":67,"name":"Deacon Dracul","steam_id":76561198046880663,"connected_time":819000000000,"state":"active","ping":93},{"user_id":69,"name":"twitch/auratf2","steam_id":76561197988085026,"connected_time":556000000000,"state":"active","ping":70},{"user_id":62,"name":"Hedge Knight","steam_id":76561198989449047,"connected_time":1157000000000,"state":"active","ping":119},{"user_id":73,"name":"gnome_Chompski","steam_id":76561198962543984,"connected_time":433000000000,"state":"active","ping":178},{"user_id":55,"name":"RocK Knight","steam_id":76561198186054573,"connected_time":1407000000000,"state":"active","ping":75},{"user_id":36,"name":"Dr.Nefario","steam_id":76561198874586020,"connected_time":2199000000000,"state":"active","ping":66},{"user_id":37,"name":"Jan.","steam_id":76561197974066329,"connected_time":2165000000000,"state":"active","ping":65},{"user_id":74,"name":"Well, off to hang myself","steam_id":76561198053374944,"connected_time":296000000000,"state":"active","ping":75},{"user_id":66,"name":"Distinguished Gentlemann","steam_id":76561198064734905,"connected_time":851000000000,"state":"active","ping":90}]},{"server_id":23,"name":"Uncletopia | Frankfurt | 7 | Stopwatch Beta","name_short":"frk-7","host":"frk-1.de.uncletopia.com","port":27075,"enabled":true,"region":"eu","cc":"de","latitude":50.110924,"longitude":8.682127,"reserved":0,"last_update":"0001-01-01T00:00:00Z","name_a2s":"Uncletopia | Frankfurt | 7 | Stopwatch Beta","protocol":17,"map":"workshop/pl_badwater_pro_v12.ugc2142942074","folder":"tf","game":"Team Fortress","app_id":440,"player_count":0,"max_players":24,"Bots":0,"server_type":"Dedicated","server_os":"Linux","password":true,"vac":true,"version":"7882260","steam_id":85568392924742827,"keywords":["nocrits","nodmgspread","payload","uncletopia"],"game_id":440,"stv_port":27076,"stv_name":"Uncletopia | Frankfurt | 7 | Stopwatch Beta | STV","players":null},{"server_id":24,"name":"Uncletopia | Frankfurt | 8 | Community","name_short":"frk-8","host":"frk-1.de.uncletopia.com","port":27085,"enabled":true,"region":"eu","cc":"de","latitude":50.110924,"longitude":8.682127,"reserved":0,"last_update":"0001-01-01T00:00:00Z","name_a2s":"Uncletopia | Frankfurt | 8 | Community","protocol":17,"map":"workshop/koth_bagel_rc6.ugc2514036946","folder":"tf","game":"Team Fortress","app_id":440,"player_count":0,"max_players":24,"Bots":0,"server_type":"Dedicated","server_os":"Linux","password":true,"vac":true,"version":"7882260","steam_id":85568392924742828,"keywords":["cp","nocrits","nodmgspread","uncletopia"],"game_id":440,"stv_port":27086,"stv_name":"Uncletopia | Frankfurt | 8 | Community | STV","players":null},{"server_id":202,"name":"Uncletopia | Hong Kong | 1 | All Maps","name_short":"hgk-1","host":"hgk-1.hk.uncletopia.com","port":27015,"enabled":true,"region":"asia","cc":"hk","latitude":22.302711,"longitude":114.177216,"reserved":0,"last_update":"0001-01-01T00:00:00Z","name_a2s":"Uncletopia | Hong Kong | 1 | All Maps","protocol":17,"map":"koth_viaduct","folder":"tf","game":"Team Fortress","app_id":440,"player_count":0,"max_players":24,"Bots":0,"server_type":"Dedicated","server_os":"Linux","password":true,"vac":true,"version":"7882260","steam_id":85568392924494504,"keywords":["cp","nocrits","nodmgspread","uncletopia"],"game_id":440,"stv_port":27016,"stv_name":"Uncletopia | Hong Kong | 1 | All Maps | STV","players":null},{"server_id":1,"name":"Uncletopia | Los Angeles | 1 | All Maps","name_short":"lax-1","host":"lax-1.us.uncletopia.com","port":27015,"enabled":true,"region":"us-west","cc":"us","latitude":33.94279,"longitude":-118.41004,"reserved":0,"last_update":"0001-01-01T00:00:00Z","name_a2s":"Uncletopia | Los Angeles | 1 | All Maps","protocol":17,"map":"pl_pier","folder":"tf","game":"Team Fortress","app_id":440,"player_count":1,"max_players":24,"Bots":0,"server_type":"Dedicated","server_os":"Linux","password":true,"vac":true,"version":"7882260","steam_id":85568392924469991,"keywords":["nocrits","nodmgspread","payload","uncletopia"],"game_id":440,"stv_port":27016,"stv_name":"Uncletopia | Los Angeles | 1 | All Maps | STV","players":[{"user_id":4,"name":"Pfizer™","steam_id":76561198072879485,"connected_time":229000000000,"state":"active","ping":53}]},{"server_id":112,"name":"Uncletopia | Los Angeles | 2 | All Maps","name_short":"lax-2","host":"lax-1.us.uncletopia.com","port":27025,"enabled":true,"region":"us-west","cc":"us","latitude":33.94279,"longitude":-118.41004,"reserved":0,"last_update":"0001-01-01T00:00:00Z","name_a2s":"Uncletopia | Los Angeles | 2 | All Maps","protocol":17,"map":"cp_sunshine","folder":"tf","game":"Team Fortress","app_id":440,"player_count":0,"max_players":24,"Bots":0,"server_type":"Dedicated","server_os":"Linux","password":true,"vac":true,"version":"7882260","steam_id":85568392924469992,"keywords":["cp","nocrits","nodmgspread","uncletopia"],"game_id":440,"stv_port":27026,"stv_name":"Uncletopia | Los Angeles | 2 | All Maps | STV","players":null},{"server_id":324,"name":"Uncletopia | Los Angeles | 3 | All Maps","name_short":"lax-3","host":"lax-1.us.uncletopia.com","port":27035,"enabled":true,"region":"us-west","cc":"us","latitude":33.94279,"longitude":-118.41004,"reserved":0,"last_update":"0001-01-01T00:00:00Z","name_a2s":"Uncletopia | Los Angeles | 3 | All Maps","protocol":17,"map":"cp_sunshine","folder":"tf","game":"Team Fortress","app_id":440,"player_count":0,"max_players":24,"Bots":0,"server_type":"Dedicated","server_os":"Linux","password":true,"vac":true,"version":"7882260","steam_id":85568392924510198,"keywords":["cp","nocrits","nodmgspread","uncletopia"],"game_id":440,"stv_port":27036,"stv_name":"Uncletopia | Los Angeles | 3 | All Maps | STV","players":null},{"server_id":25,"name":"Uncletopia | Los Angeles | 4 | Stopwatch Beta","name_short":"lax-4","host":"lax-1.us.uncletopia.com","port":27045,"enabled":true,"region":"us-west","cc":"us","latitude":33.94279,"longitude":-118.41004,"reserved":0,"last_update":"0001-01-01T00:00:00Z","name_a2s":"Uncletopia | Los Angeles | 4 | Stopwatch Beta","protocol":17,"map":"cp_snakewater_final1","folder":"tf","game":"Team Fortress","app_id":440,"player_count":0,"max_players":24,"Bots":0,"server_type":"Dedicated","server_os":"Linux","password":true,"vac":true,"version":"7882260","steam_id":85568392924510199,"keywords":["cp","nocrits","nodmgspread","uncletopia"],"game_id":440,"stv_port":27046,"stv_name":"Uncletopia | Los Angeles | 4 | Stopwatch Beta | STV","players":null},{"server_id":11,"name":"Uncletopia | London | 1 | All Maps","name_short":"lon-1","host":"lon-1.uk.uncletopia.com","port":27015,"enabled":true,"region":"eu","cc":"gb","latitude":51.509865,"longitude":-0.118092,"reserved":0,"last_update":"0001-01-01T00:00:00Z","name_a2s":"Uncletopia | London | 1 | All Maps","protocol":17,"map":"pl_borneo","folder":"tf","game":"Team Fortress","app_id":440,"player_count":24,"max_players":24,"Bots":0,"server_type":"Dedicated","server_os":"Linux","password":true,"vac":true,"version":"7882260","steam_id":85568392924367362,"keywords":["nocrits","nodmgspread","payload","uncletopia"],"game_id":440,"stv_port":27016,"stv_name":"Uncletopia | London | 1 | All Maps | STV","players":[{"user_id":237,"name":"YBOT554","steam_id":76561198836830645,"connected_time":620000000000,"state":"active","ping":43},{"user_id":184,"name":"shooer! :D \u003e\u003c(((º\u003e","steam_id":76561198110531281,"connected_time":4939000000000,"state":"active","ping":68},{"user_id":132,"name":"Lubrsi","steam_id":76561198040208195,"connected_time":8224000000000,"state":"active","ping":46},{"user_id":208,"name":"Plep","steam_id":76561198840259819,"connected_time":2681000000000,"state":"active","ping":57},{"user_id":236,"name":"Jinx my beloved","steam_id":76561198819986745,"connected_time":637000000000,"state":"active","ping":92},{"user_id":225,"name":"Cryo","steam_id":76561198324132940,"connected_time":1435000000000,"state":"active","ping":38},{"user_id":244,"name":"Akker","steam_id":76561199000630792,"connected_time":158000000000,"state":"active","ping":48},{"user_id":161,"name":"Aroo","steam_id":76561198132601368,"connected_time":6025000000000,"state":"active","ping":79},{"user_id":238,"name":"FilipeLuk","steam_id":76561198150675438,"connected_time":601000000000,"state":"active","ping":62},{"user_id":239,"name":"One Hop Dis Time *BWRAB*","steam_id":76561198146081601,"connected_time":546000000000,"state":"active","ping":48},{"user_id":240,"name":"ZerCroix","steam_id":76561198199523226,"connected_time":321000000000,"state":"active","ping":62},{"user_id":193,"name":"RLCrazyCat3","steam_id":76561197983757878,"connected_time":4145000000000,"state":"active","ping":68},{"user_id":229,"name":"LarsInABox","steam_id":76561198028329262,"connected_time":1218000000000,"state":"active","ping":74},{"user_id":228,"name":"Ark-e","steam_id":76561198261870909,"connected_time":1375000000000,"state":"active","ping":34},{"user_id":230,"name":"cazador","steam_id":76561198123096922,"connected_time":1136000000000,"state":"active","ping":102},{"user_id":214,"name":"After8","steam_id":76561198090750865,"connected_time":2612000000000,"state":"active","ping":72},{"user_id":245,"name":"Sugarwizard","steam_id":76561199040038105,"connected_time":135000000000,"state":"active","ping":39},{"user_id":201,"name":"peruna","steam_id":76561198000721196,"connected_time":3449000000000,"state":"active","ping":75},{"user_id":223,"name":"molly","steam_id":76561198029399151,"connected_time":1895000000000,"state":"active","ping":67},{"user_id":232,"name":"gman borat","steam_id":76561198041051148,"connected_time":724000000000,"state":"active","ping":47},{"user_id":205,"name":"Pybro","steam_id":76561199476948578,"connected_time":2942000000000,"state":"active","ping":89},{"user_id":172,"name":"Shovelhalfrusty","steam_id":76561198346447513,"connected_time":5651000000000,"state":"active","ping":67},{"user_id":204,"name":"Providence","steam_id":76561198003920270,"connected_time":3279000000000,"state":"active","ping":70},{"user_id":218,"name":"3lvisplay -SFM-","steam_id":76561198882728933,"connected_time":2538000000000,"state":"active","ping":81}]},{"server_id":114,"name":"Uncletopia | London | 2 | All Maps","name_short":"lon-2","host":"lon-1.uk.uncletopia.com","port":27025,"enabled":true,"region":"eu","cc":"gb","latitude":51.509865,"longitude":-0.118092,"reserved":0,"last_update":"0001-01-01T00:00:00Z","name_a2s":"Uncletopia | London | 2 | All Maps","protocol":17,"map":"plr_hightower","folder":"tf","game":"Team Fortress","app_id":440,"player_count":23,"max_players":24,"Bots":0,"server_type":"Dedicated","server_os":"Linux","password":true,"vac":true,"version":"7882260","steam_id":85568392924470941,"keywords":["nocrits","nodmgspread","payload","uncletopia"],"game_id":440,"stv_port":27026,"stv_name":"Uncletopia | London | 2 | All Maps | STV","players":[{"user_id":105,"name":"Michaleczek","steam_id":76561198323724820,"connected_time":3784000000000,"state":"active","ping":88},{"user_id":146,"name":"Sylvanas","steam_id":76561198154904165,"connected_time":1390000000000,"state":"active","ping":111},{"user_id":129,"name":"Uncle Terry","steam_id":76561198396415736,"connected_time":2110000000000,"state":"active","ping":53},{"user_id":143,"name":"cichy spy G4Skins","steam_id":76561199284936515,"connected_time":1443000000000,"state":"active","ping":94},{"user_id":130,"name":"XiaBit","steam_id":76561199204102465,"connected_time":2099000000000,"state":"active","ping":66},{"user_id":88,"name":"dotXP","steam_id":76561199467336302,"connected_time":4780000000000,"state":"active","ping":91},{"user_id":135,"name":"Some Guy","steam_id":76561198137335527,"connected_time":2021000000000,"state":"active","ping":46},{"user_id":95,"name":"Meddler","steam_id":76561198033001402,"connected_time":4307000000000,"state":"active","ping":37},{"user_id":168,"name":"tanyathsus","steam_id":76561198089522447,"connected_time":81000000000,"state":"active","ping":61},{"user_id":163,"name":"fshfkr","steam_id":76561198095979282,"connected_time":507000000000,"state":"active","ping":30},{"user_id":156,"name":"il","steam_id":76561198122662610,"connected_time":916000000000,"state":"active","ping":87},{"user_id":148,"name":"the uhhh","steam_id":76561198208045069,"connected_time":1346000000000,"state":"active","ping":42},{"user_id":149,"name":"[MNI] Xkiller®","steam_id":76561198087093907,"connected_time":1345000000000,"state":"active","ping":70},{"user_id":108,"name":"sethlington14","steam_id":76561199438357690,"connected_time":3715000000000,"state":"active","ping":56},{"user_id":109,"name":"Vectillion","steam_id":76561198074292454,"connected_time":3710000000000,"state":"active","ping":77},{"user_id":82,"name":"Zembis","steam_id":76561198008017918,"connected_time":5053000000000,"state":"active","ping":101},{"user_id":169,"name":"Proud Jojo Fan #TF2SP","steam_id":76561198847327216,"connected_time":62000000000,"state":"active","ping":86},{"user_id":166,"name":"hmscole09","steam_id":76561198811362788,"connected_time":114000000000,"state":"active","ping":65},{"user_id":164,"name":"trans werewolf","steam_id":76561198107235989,"connected_time":124000000000,"state":"active","ping":66},{"user_id":158,"name":"Goober","steam_id":76561198054795379,"connected_time":849000000000,"state":"active","ping":67},{"user_id":103,"name":"Tarixxiv","steam_id":76561198084365415,"connected_time":3823000000000,"state":"active","ping":99},{"user_id":170,"name":"Penguin Master","steam_id":76561198838779388,"connected_time":16000000000,"state":"active","ping":121},{"user_id":159,"name":"Fish","steam_id":76561198152128484,"connected_time":819000000000,"state":"active","ping":44}]},{"server_id":320,"name":"Uncletopia | London | 3 | All Maps","name_short":"lon-3","host":"lon-1.uk.uncletopia.com","port":27035,"enabled":true,"region":"eu","cc":"gb","latitude":51.509865,"longitude":-0.118092,"reserved":0,"last_update":"0001-01-01T00:00:00Z","name_a2s":"Uncletopia | London | 3 | All Maps","protocol":17,"map":"koth_highpass","folder":"tf","game":"Team Fortress","app_id":440,"player_count":0,"max_players":24,"Bots":0,"server_type":"Dedicated","server_os":"Linux","password":true,"vac":true,"version":"7882260","steam_id":85568392924510192,"keywords":["cp","nocrits","nodmgspread","uncletopia"],"game_id":440,"stv_port":27036,"stv_name":"Uncletopia | London | 3 | All Maps | STV","players":null},{"server_id":321,"name":"Uncletopia | London | 4 | All Maps","name_short":"lon-4","host":"lon-1.uk.uncletopia.com","port":27045,"enabled":true,"region":"eu","cc":"gb","latitude":51.509865,"longitude":-0.118092,"reserved":0,"last_update":"0001-01-01T00:00:00Z","name_a2s":"Uncletopia | London | 4 | All Maps","protocol":17,"map":"pl_upward","folder":"tf","game":"Team Fortress","app_id":440,"player_count":22,"max_players":24,"Bots":0,"server_type":"Dedicated","server_os":"Linux","password":true,"vac":true,"version":"7882260","steam_id":85568392924510193,"keywords":["nocrits","nodmgspread","payload","uncletopia"],"game_id":440,"stv_port":27046,"stv_name":"Uncletopia | London | 4 | All Maps | STV","players":[{"user_id":158,"name":"Gweedo","steam_id":76561198165840534,"connected_time":209000000000,"state":"active","ping":34},{"user_id":155,"name":"Buddy","steam_id":76561198050185582,"connected_time":259000000000,"state":"active","ping":56},{"user_id":165,"name":"Guwop","steam_id":76561197970425737,"connected_time":85000000000,"state":"active","ping":145},{"user_id":167,"name":"Magic1L","steam_id":76561198831787182,"connected_time":66000000000,"state":"active","ping":68},{"user_id":91,"name":"a freakin' knight","steam_id":76561198371341044,"connected_time":2849000000000,"state":"active","ping":146},{"user_id":98,"name":"darkwater","steam_id":76561197986978738,"connected_time":2403000000000,"state":"active","ping":54},{"user_id":99,"name":"TJ1212","steam_id":76561199013575313,"connected_time":2379000000000,"state":"active","ping":72},{"user_id":122,"name":"VolcanicArts","steam_id":76561198063453246,"connected_time":1318000000000,"state":"active","ping":59},{"user_id":160,"name":"geese","steam_id":76561198944578383,"connected_time":120000000000,"state":"active","ping":105},{"user_id":104,"name":"Gubbly Bubbins","steam_id":76561198101451654,"connected_time":2259000000000,"state":"active","ping":45},{"user_id":166,"name":"rat bastard","steam_id":76561198066631833,"connected_time":83000000000,"state":"active","ping":86},{"user_id":157,"name":"Hubero","steam_id":76561198017053653,"connected_time":225000000000,"state":"active","ping":72},{"user_id":163,"name":"azzy","steam_id":76561198061293740,"connected_time":98000000000,"state":"active","ping":75},{"user_id":168,"name":"Roboboy_uk","steam_id":76561197973225899,"connected_time":43000000000,"state":"active","ping":50},{"user_id":135,"name":"engie?","steam_id":76561198331852832,"connected_time":680000000000,"state":"active","ping":44},{"user_id":169,"name":"3igen3ggy","steam_id":76561197989548015,"connected_time":32000000000,"state":"active","ping":68},{"user_id":51,"name":"wasto-/-™","steam_id":76561198102888038,"connected_time":4069000000000,"state":"active","ping":58},{"user_id":148,"name":"PASTAMAN!!!","steam_id":76561198995641765,"connected_time":359000000000,"state":"active","ping":62},{"user_id":162,"name":"Laxslow","steam_id":76561198065361846,"connected_time":102000000000,"state":"connecting","ping":86},{"user_id":144,"name":"Piggyman10","steam_id":76561198109036357,"connected_time":460000000000,"state":"active","ping":74},{"user_id":69,"name":"vadim_kotler","steam_id":76561199016634369,"connected_time":3388000000000,"state":"active","ping":101},{"user_id":87,"name":"☭ybercat","steam_id":76561198014070417,"connected_time":2940000000000,"state":"active","ping":56}]},{"server_id":21,"name":"Uncletopia | London | 5 | All Maps","name_short":"lon-5","host":"lon-1.uk.uncletopia.com","port":27055,"enabled":true,"region":"eu","cc":"gb","latitude":51.509865,"longitude":-0.118092,"reserved":0,"last_update":"0001-01-01T00:00:00Z","name_a2s":"Uncletopia | London | 5 | All Maps","protocol":17,"map":"koth_cascade","folder":"tf","game":"Team Fortress","app_id":440,"player_count":0,"max_players":24,"Bots":0,"server_type":"Dedicated","server_os":"Linux","password":true,"vac":true,"version":"7882260","steam_id":85568392924742829,"keywords":["cp","nocrits","nodmgspread","uncletopia"],"game_id":440,"stv_port":27056,"stv_name":"Uncletopia | London | 5 | All Maps | STV","players":null},{"server_id":22,"name":"Uncletopia | London | 6 | All Maps","name_short":"lon-6","host":"lon-1.uk.uncletopia.com","port":27065,"enabled":true,"region":"eu","cc":"gb","latitude":51.509865,"longitude":-0.118092,"reserved":0,"last_update":"0001-01-01T00:00:00Z","name_a2s":"Uncletopia | London | 6 | All Maps","protocol":17,"map":"cp_snakewater_final1","folder":"tf","game":"Team Fortress","app_id":440,"player_count":23,"max_players":24,"Bots":0,"server_type":"Dedicated","server_os":"Linux","password":true,"vac":true,"version":"7882260","steam_id":85568392924742830,"keywords":["cp","nocrits","nodmgspread","uncletopia"],"game_id":440,"stv_port":27066,"stv_name":"Uncletopia | London | 6 | All Maps | STV","players":[{"user_id":340,"name":"dopamine enjoyer","steam_id":76561198140591983,"connected_time":1480000000000,"state":"active","ping":108},{"user_id":375,"name":"movement goblin","steam_id":76561198274631806,"connected_time":28000000000,"state":"active","ping":47},{"user_id":341,"name":"zucc's zuccini","steam_id":76561198002451113,"connected_time":1191000000000,"state":"active","ping":106},{"user_id":376,"name":"Pigeon²","steam_id":76561198955113575,"connected_time":13000000000,"state":"spawning","ping":95},{"user_id":350,"name":"Flying skyhigh","steam_id":76561198372971096,"connected_time":878000000000,"state":"active","ping":66},{"user_id":344,"name":"lord-carlos","steam_id":76561198025150761,"connected_time":1080000000000,"state":"active","ping":66},{"user_id":371,"name":"Silent","steam_id":76561198344588858,"connected_time":315000000000,"state":"active","ping":49},{"user_id":293,"name":"Davey","steam_id":76561198256879107,"connected_time":4377000000000,"state":"active","ping":77},{"user_id":316,"name":"ZaneMago","steam_id":76561198305019050,"connected_time":3401000000000,"state":"active","ping":83},{"user_id":351,"name":"porngamer","steam_id":76561198204620491,"connected_time":856000000000,"state":"active","ping":33},{"user_id":352,"name":"crimeware.cc","steam_id":76561198105210115,"connected_time":854000000000,"state":"active","ping":62},{"user_id":360,"name":"Michael","steam_id":76561198003146906,"connected_time":758000000000,"state":"active","ping":46},{"user_id":357,"name":"ArtaKir","steam_id":76561198291746440,"connected_time":804000000000,"state":"active","ping":89},{"user_id":355,"name":"elijah","steam_id":76561198093936708,"connected_time":831000000000,"state":"active","ping":54},{"user_id":356,"name":"Myrmodion","steam_id":76561198054746247,"connected_time":830000000000,"state":"active","ping":73},{"user_id":358,"name":"Archsam","steam_id":76561198137828616,"connected_time":773000000000,"state":"active","ping":70},{"user_id":368,"name":"Krabs","steam_id":76561198161679477,"connected_time":539000000000,"state":"active","ping":41},{"user_id":370,"name":"Saser","steam_id":76561198070438914,"connected_time":344000000000,"state":"active","ping":77},{"user_id":372,"name":"Papyrus","steam_id":76561199351767640,"connected_time":305000000000,"state":"active","ping":58},{"user_id":363,"name":"Jonno","steam_id":76561198023443744,"connected_time":744000000000,"state":"active","ping":55},{"user_id":364,"name":"poopoocum","steam_id":76561198180641206,"connected_time":740000000000,"state":"active","ping":56},{"user_id":369,"name":"EGirl | Klarra","steam_id":76561198077745407,"connected_time":530000000000,"state":"active","ping":69},{"user_id":374,"name":"holykyckling","steam_id":76561198040661615,"connected_time":163000000000,"state":"active","ping":86}]},{"server_id":40,"name":"Uncletopia | London | 7 | No Payload","name_short":"lon-7","host":"lon-1.uk.uncletopia.com","port":27075,"enabled":true,"region":"eu","cc":"gb","latitude":51.509865,"longitude":-0.118092,"reserved":0,"last_update":"0001-01-01T00:00:00Z","name_a2s":"Uncletopia | London | 7 | No Payload","protocol":17,"map":"ctf_2fort","folder":"tf","game":"Team Fortress","app_id":440,"player_count":0,"max_players":24,"Bots":0,"server_type":"Dedicated","server_os":"Linux","password":true,"vac":true,"version":"7882260","steam_id":85568392924964314,"keywords":["ctf","nocrits","nodmgspread","uncletopia"],"game_id":440,"stv_port":27076,"stv_name":"Uncletopia | London | 7 | No Payload | STV","players":null},{"server_id":41,"name":"Uncletopia | London | 8 | Community","name_short":"lon-8","host":"lon-1.uk.uncletopia.com","port":27085,"enabled":true,"region":"eu","cc":"gb","latitude":51.509865,"longitude":-0.118092,"reserved":0,"last_update":"0001-01-01T00:00:00Z","name_a2s":"Uncletopia | London | 8 | Community","protocol":17,"map":"workshop/koth_kemptown_rc1.ugc767410655","folder":"tf","game":"Team Fortress","app_id":440,"player_count":0,"max_players":24,"Bots":0,"server_type":"Dedicated","server_os":"Linux","password":true,"vac":true,"version":"7882260","steam_id":85568392924964315,"keywords":["cp","nocrits","nodmgspread","uncletopia"],"game_id":440,"stv_port":27086,"stv_name":"Uncletopia | London | 8 | Community | STV","players":null},{"server_id":300,"name":"Uncletopia | Montréal | 1 | All Maps","name_short":"mtl-1","host":"mtl-1.ca.uncletopia.com","port":27015,"enabled":true,"region":"us-east","cc":"ca","latitude":45.50889,"longitude":-73.56167,"reserved":0,"last_update":"0001-01-01T00:00:00Z","name_a2s":"Uncletopia | Montréal | 1 | All Maps","protocol":17,"map":"cp_altitude","folder":"tf","game":"Team Fortress","app_id":440,"player_count":4,"max_players":24,"Bots":0,"server_type":"Dedicated","server_os":"Linux","password":true,"vac":true,"version":"7882260","steam_id":85568392924500087,"keywords":["cp","nocrits","nodmgspread","uncletopia"],"game_id":440,"stv_port":27016,"stv_name":"Uncletopia | Montréal | 1 | All Maps | STV","players":[{"user_id":8,"name":"felixbluhm7","steam_id":76561199405465472,"connected_time":894000000000,"state":"active","ping":152},{"user_id":14,"name":"pl.haker","steam_id":76561198278440186,"connected_time":211000000000,"state":"active","ping":164},{"user_id":6,"name":"Kirov Reporting","steam_id":76561198815127418,"connected_time":1491000000000,"state":"active","ping":174},{"user_id":7,"name":"Retro","steam_id":76561199245375089,"connected_time":1110000000000,"state":"active","ping":195}]},{"server_id":301,"name":"Uncletopia | Montréal | 2 | All Maps","name_short":"mtl-2","host":"mtl-1.ca.uncletopia.com","port":27025,"enabled":true,"region":"us-east","cc":"ca","latitude":45.50889,"longitude":-73.56167,"reserved":0,"last_update":"0001-01-01T00:00:00Z","name_a2s":"Uncletopia | Montréal | 2 | All Maps","protocol":17,"map":"cp_sunshine","folder":"tf","game":"Team Fortress","app_id":440,"player_count":0,"max_players":24,"Bots":0,"server_type":"Dedicated","server_os":"Linux","password":true,"vac":true,"version":"7882260","steam_id":85568392924500088,"keywords":["cp","nocrits","nodmgspread","uncletopia"],"game_id":440,"stv_port":27026,"stv_name":"Uncletopia | Montréal | 2 | All Maps | STV","players":null},{"server_id":302,"name":"Uncletopia | Montréal | 3 | All Maps","name_short":"mtl-3","host":"mtl-1.ca.uncletopia.com","port":27035,"enabled":true,"region":"us-east","cc":"ca","latitude":45.50889,"longitude":-73.56167,"reserved":0,"last_update":"0001-01-01T00:00:00Z","name_a2s":"Uncletopia | Montréal | 3 | All Maps","protocol":17,"map":"pl_frontier_final","folder":"tf","game":"Team Fortress","app_id":440,"player_count":0,"max_players":24,"Bots":0,"server_type":"Dedicated","server_os":"Linux","password":true,"vac":true,"version":"7882260","steam_id":85568392924500089,"keywords":["nocrits","nodmgspread","payload","uncletopia"],"game_id":440,"stv_port":27036,"stv_name":"Uncletopia | Montréal | 3 | All Maps | STV","players":null},{"server_id":303,"name":"Uncletopia | Montréal | 4 | No Payload","name_short":"mtl-4","host":"mtl-1.ca.uncletopia.com","port":27045,"enabled":true,"region":"us-east","cc":"ca","latitude":45.50889,"longitude":-73.56167,"reserved":0,"last_update":"0001-01-01T00:00:00Z","name_a2s":"Uncletopia | Montréal | 4 | No Payload","protocol":17,"map":"cp_altitude","folder":"tf","game":"Team Fortress","app_id":440,"player_count":0,"max_players":24,"Bots":0,"server_type":"Dedicated","server_os":"Linux","password":true,"vac":true,"version":"7882260","steam_id":85568392924500090,"keywords":["cp","nocrits","nodmgspread","uncletopia"],"game_id":440,"stv_port":27046,"stv_name":"Uncletopia | Montréal | 4 | No Payload | STV","players":null},{"server_id":13,"name":"Uncletopia | New York City | 1 | All Maps","name_short":"nyc-1","host":"nyc-1.us.uncletopia.com","port":27015,"enabled":true,"region":"us-east","cc":"us","latitude":40.73061,"longitude":-73.93524,"reserved":0,"last_update":"0001-01-01T00:00:00Z","name_a2s":"Uncletopia | New York City | 1 | All Maps","protocol":17,"map":"koth_highpass","folder":"tf","game":"Team Fortress","app_id":440,"player_count":0,"max_players":24,"Bots":0,"server_type":"Dedicated","server_os":"Linux","password":true,"vac":true,"version":"7882260","steam_id":85568392924469993,"keywords":["cp","nocrits","nodmgspread","uncletopia"],"game_id":440,"stv_port":27016,"stv_name":"Uncletopia | New York City | 1 | All Maps | STV","players":null},{"server_id":14,"name":"Uncletopia | New York City | 2 | All Maps","name_short":"nyc-2","host":"nyc-1.us.uncletopia.com","port":27025,"enabled":true,"region":"us-east","cc":"us","latitude":40.73061,"longitude":-73.93524,"reserved":0,"last_update":"0001-01-01T00:00:00Z","name_a2s":"Uncletopia | New York City | 2 | All Maps","protocol":17,"map":"pl_borneo","folder":"tf","game":"Team Fortress","app_id":440,"player_count":0,"max_players":24,"Bots":0,"server_type":"Dedicated","server_os":"Linux","password":true,"vac":true,"version":"7882260","steam_id":85568392924469994,"keywords":["nocrits","nodmgspread","payload","uncletopia"],"game_id":440,"stv_port":27026,"stv_name":"Uncletopia | New York City | 2 | All Maps | STV","players":null},{"server_id":15,"name":"Uncletopia | New York City | 3 | Stopwatch Beta","name_short":"nyc-3","host":"nyc-1.us.uncletopia.com","port":27035,"enabled":true,"region":"us-east","cc":"us","latitude":40.73061,"longitude":-73.93524,"reserved":0,"last_update":"0001-01-01T00:00:00Z","name_a2s":"Uncletopia | New York City | 3 | Stopwatch Beta","protocol":17,"map":"koth_lakeside_final","folder":"tf","game":"Team Fortress","app_id":440,"player_count":0,"max_players":24,"Bots":0,"server_type":"Dedicated","server_os":"Linux","password":true,"vac":true,"version":"7882260","steam_id":85568392924742820,"keywords":["cp","nocrits","nodmgspread","uncletopia"],"game_id":440,"stv_port":27036,"stv_name":"Uncletopia | New York City | 3 | Stopwatch Beta | STV","players":null},{"server_id":16,"name":"Uncletopia | New York City | 4 | Community","name_short":"nyc-4","host":"nyc-1.us.uncletopia.com","port":27045,"enabled":true,"region":"us-east","cc":"us","latitude":40.73061,"longitude":-73.93524,"reserved":0,"last_update":"0001-01-01T00:00:00Z","name_a2s":"Uncletopia | New York City | 4 | Community","protocol":17,"map":"pl_badwater","folder":"tf","game":"Team Fortress","app_id":440,"player_count":0,"max_players":24,"Bots":0,"server_type":"Dedicated","server_os":"Linux","password":true,"vac":true,"version":"7882260","steam_id":85568392924742821,"keywords":["nocrits","nodmgspread","payload","uncletopia"],"game_id":440,"stv_port":27046,"stv_name":"Uncletopia | New York City | 4 | Community | STV","players":null},{"server_id":142,"name":"Uncletopia | São Paulo | 1 | All Maps","name_short":"sao-1","host":"sao-1.br.uncletopia.com","port":27015,"enabled":true,"region":"sa","cc":"br","latitude":-23.533773,"longitude":-46.62529,"reserved":0,"last_update":"0001-01-01T00:00:00Z","name_a2s":"Uncletopia | São Paulo | 1 | All Maps","protocol":17,"map":"koth_viaduct","folder":"tf","game":"Team Fortress","app_id":440,"player_count":0,"max_players":24,"Bots":0,"server_type":"Dedicated","server_os":"Linux","password":true,"vac":true,"version":"7882260","steam_id":85568392924469996,"keywords":["cp","nocrits","nodmgspread","uncletopia"],"game_id":440,"stv_port":27016,"stv_name":"Uncletopia | São Paulo | 1 | All Maps | STV","players":null},{"server_id":143,"name":"Uncletopia | São Paulo | 2 | All Maps","name_short":"sao-2","host":"sao-2.br.uncletopia.com","port":27015,"enabled":true,"region":"sa","cc":"br","latitude":-23.533773,"longitude":-46.62529,"reserved":0,"last_update":"0001-01-01T00:00:00Z","name_a2s":"Uncletopia | São Paulo | 2 | All Maps","protocol":17,"map":"pl_badwater","folder":"tf","game":"Team Fortress","app_id":440,"player_count":0,"max_players":24,"Bots":0,"server_type":"Dedicated","server_os":"Linux","password":true,"vac":true,"version":"7882260","steam_id":85568392924485349,"keywords":["nocrits","nodmgspread","payload","uncletopia"],"game_id":440,"stv_port":27016,"stv_name":"Uncletopia | São Paulo | 2 | All Maps | STV","players":null},{"server_id":7,"name":"Uncletopia | Seattle | 1 | All Maps","name_short":"sea-1","host":"sea-1.us.uncletopia.com","port":27015,"enabled":true,"region":"us-west","cc":"us","latitude":47.608013,"longitude":-122.33517,"reserved":0,"last_update":"0001-01-01T00:00:00Z","name_a2s":"Uncletopia | Seattle | 1 | All Maps","protocol":17,"map":"pl_barnblitz","folder":"tf","game":"Team Fortress","app_id":440,"player_count":24,"max_players":24,"Bots":0,"server_type":"Dedicated","server_os":"Linux","password":true,"vac":true,"version":"7882260","steam_id":85568392924469997,"keywords":["nocrits","nodmgspread","payload","uncletopia"],"game_id":440,"stv_port":27016,"stv_name":"Uncletopia | Seattle | 1 | All Maps | STV","players":[{"user_id":158,"name":"ふわふわ毛布","steam_id":76561198088403016,"connected_time":8817000000000,"state":"active","ping":179},{"user_id":239,"name":"Homura Simp","steam_id":76561198246080762,"connected_time":1032000000000,"state":"active","ping":63},{"user_id":245,"name":"bunny girl bimbo!","steam_id":76561198122027532,"connected_time":636000000000,"state":"active","ping":129},{"user_id":234,"name":"Mr. Yoshida","steam_id":76561198263829831,"connected_time":1435000000000,"state":"active","ping":101},{"user_id":160,"name":"Jolly","steam_id":76561198116357972,"connected_time":8324000000000,"state":"active","ping":72},{"user_id":243,"name":"James","steam_id":76561198077251918,"connected_time":763000000000,"state":"active","ping":63},{"user_id":205,"name":"Y2K","steam_id":76561199191855486,"connected_time":2962000000000,"state":"active","ping":45},{"user_id":238,"name":"Stick Drift","steam_id":76561199019675078,"connected_time":1062000000000,"state":"active","ping":102},{"user_id":224,"name":"HeartAttack","steam_id":76561198135833968,"connected_time":1704000000000,"state":"active","ping":85},{"user_id":227,"name":"jayeskae","steam_id":76561198144220801,"connected_time":1690000000000,"state":"active","ping":45},{"user_id":225,"name":"Cam","steam_id":76561198285054047,"connected_time":1704000000000,"state":"active","ping":79},{"user_id":246,"name":"Daz","steam_id":76561198041431938,"connected_time":366000000000,"state":"active","ping":51},{"user_id":206,"name":"pt","steam_id":76561198143023330,"connected_time":2952000000000,"state":"active","ping":72},{"user_id":237,"name":"Darkgaming579","steam_id":76561199121435004,"connected_time":1113000000000,"state":"active","ping":56},{"user_id":244,"name":"Little Linguine","steam_id":76561198816986370,"connected_time":761000000000,"state":"active","ping":62},{"user_id":232,"name":"greenpeace","steam_id":76561197983221708,"connected_time":1629000000000,"state":"active","ping":74},{"user_id":190,"name":"Pre Pissed Pants","steam_id":76561198042143837,"connected_time":5299000000000,"state":"active","ping":66},{"user_id":197,"name":"lil uzi vert","steam_id":76561198326466375,"connected_time":4715000000000,"state":"active","ping":83},{"user_id":247,"name":"Doctor Fat Balls","steam_id":76561198060418001,"connected_time":51000000000,"state":"spawning","ping":98},{"user_id":128,"name":"M4 Sherman","steam_id":76561198126990820,"connected_time":10613000000000,"state":"active","ping":100},{"user_id":226,"name":"Mignyanne :3","steam_id":76561198048754056,"connected_time":1702000000000,"state":"active","ping":77},{"user_id":241,"name":"YourFriendJessie #savetf2","steam_id":76561198176883097,"connected_time":775000000000,"state":"active","ping":110},{"user_id":217,"name":"Mr.Bady","steam_id":76561199094651706,"connected_time":2770000000000,"state":"active","ping":123},{"user_id":242,"name":"Wise Egg","steam_id":76561198388755604,"connected_time":774000000000,"state":"active","ping":65}]},{"server_id":119,"name":"Uncletopia | Seattle | 2 | All Maps","name_short":"sea-2","host":"sea-1.us.uncletopia.com","port":27025,"enabled":true,"region":"us-west","cc":"us","latitude":47.608013,"longitude":-122.33517,"reserved":0,"last_update":"0001-01-01T00:00:00Z","name_a2s":"Uncletopia | Seattle | 2 | All Maps","protocol":17,"map":"pl_snowycoast","folder":"tf","game":"Team Fortress","app_id":440,"player_count":23,"max_players":24,"Bots":0,"server_type":"Dedicated","server_os":"Linux","password":true,"vac":true,"version":"7882260","steam_id":85568392924469998,"keywords":["nocrits","nodmgspread","payload","uncletopia"],"game_id":440,"stv_port":27026,"stv_name":"Uncletopia | Seattle | 2 | All Maps | STV","players":[{"user_id":51,"name":"Scuttle","steam_id":76561198276310307,"connected_time":540000000000,"state":"active","ping":73},{"user_id":8,"name":"oh yeah","steam_id":76561198316714553,"connected_time":2546000000000,"state":"active","ping":47},{"user_id":28,"name":"Tibetan Pop Star","steam_id":76561198844903984,"connected_time":1549000000000,"state":"active","ping":85},{"user_id":55,"name":"joethefool","steam_id":76561199015436319,"connected_time":456000000000,"state":"active","ping":118},{"user_id":31,"name":"Lesbian Futa Mommy","steam_id":76561198130479030,"connected_time":1250000000000,"state":"active","ping":55},{"user_id":56,"name":"DanceBunny","steam_id":76561198243610560,"connected_time":439000000000,"state":"active","ping":71},{"user_id":17,"name":"Angel Wolfie","steam_id":76561198026562237,"connected_time":2156000000000,"state":"active","ping":114},{"user_id":58,"name":"Mecha","steam_id":76561198014927379,"connected_time":413000000000,"state":"active","ping":115},{"user_id":32,"name":"gloobern","steam_id":76561198341190679,"connected_time":1221000000000,"state":"active","ping":63},{"user_id":18,"name":"Axuze Art","steam_id":76561199382303891,"connected_time":2121000000000,"state":"active","ping":97},{"user_id":41,"name":"Enderlord99","steam_id":76561198158152954,"connected_time":800000000000,"state":"active","ping":53},{"user_id":22,"name":"Foxy (She/Her)","steam_id":76561198069725856,"connected_time":2002000000000,"state":"active","ping":120},{"user_id":59,"name":"Kronos_Titan","steam_id":76561199091925123,"connected_time":374000000000,"state":"active","ping":98},{"user_id":39,"name":"CranAppleGaming","steam_id":76561198398206209,"connected_time":854000000000,"state":"active","ping":95},{"user_id":54,"name":"MEOW!MEOW!MEOW!OORAH!","steam_id":76561198105359319,"connected_time":514000000000,"state":"active","ping":74},{"user_id":49,"name":".::AI | Mechtroid","steam_id":76561197993177135,"connected_time":574000000000,"state":"active","ping":42},{"user_id":44,"name":"M","steam_id":76561198255827013,"connected_time":740000000000,"state":"active","ping":84},{"user_id":43,"name":"$lime k✔ng WHYYYTEb0y^-^","steam_id":76561198283687382,"connected_time":782000000000,"state":"active","ping":86},{"user_id":50,"name":"mobe","steam_id":76561198121633820,"connected_time":559000000000,"state":"active","ping":74},{"user_id":47,"name":"Lunacy","steam_id":76561199386273760,"connected_time":628000000000,"state":"active","ping":85},{"user_id":48,"name":"Sheriff Monkey","steam_id":76561198053556583,"connected_time":615000000000,"state":"active","ping":116},{"user_id":52,"name":"K.A.R.M.A.","steam_id":76561198240750142,"connected_time":532000000000,"state":"active","ping":75},{"user_id":61,"name":"raymond2021usa","steam_id":76561199442462978,"connected_time":323000000000,"state":"active","ping":93}]},{"server_id":406,"name":"Uncletopia | Seattle | 3 | Stopwatch Beta","name_short":"sea-3","host":"sea-1.us.uncletopia.com","port":27035,"enabled":true,"region":"us-west","cc":"us","latitude":47.608013,"longitude":-122.33517,"reserved":0,"last_update":"0001-01-01T00:00:00Z","name_a2s":"Uncletopia | Seattle | 3 | Stopwatch Beta","protocol":17,"map":"workshop/pl_badwater_pro_v12.ugc2142942074","folder":"tf","game":"Team Fortress","app_id":440,"player_count":0,"max_players":24,"Bots":0,"server_type":"Dedicated","server_os":"Linux","password":true,"vac":true,"version":"7882260","steam_id":85568392924515217,"keywords":["nocrits","nodmgspread","payload","uncletopia"],"game_id":440,"stv_port":27036,"stv_name":"Uncletopia | Seattle | 3 | Stopwatch Beta | STV","players":null},{"server_id":17,"name":"Uncletopia | San Francisco | 1 | All Maps","name_short":"sfo-1","host":"sfo-1.us.uncletopia.com","port":27015,"enabled":true,"region":"us-west","cc":"us","latitude":37.77397,"longitude":-122.4313,"reserved":0,"last_update":"0001-01-01T00:00:00Z","name_a2s":"Uncletopia | San Francisco | 1 | All Maps","protocol":17,"map":"cp_process_final","folder":"tf","game":"Team Fortress","app_id":440,"player_count":0,"max_players":24,"Bots":0,"server_type":"Dedicated","server_os":"Linux","password":true,"vac":true,"version":"7757534","steam_id":85568392924469999,"keywords":["cp","nocrits","nodmgspread","uncletopia"],"game_id":440,"stv_port":27016,"stv_name":"Uncletopia | San Francisco | 1 | All Maps | STV","players":null},{"server_id":18,"name":"Uncletopia | San Francisco | 2 | All Maps","name_short":"sfo-2","host":"sfo-1.us.uncletopia.com","port":27025,"enabled":true,"region":"us-west","cc":"us","latitude":37.77397,"longitude":-122.4313,"reserved":0,"last_update":"0001-01-01T00:00:00Z","name_a2s":"Uncletopia | San Francisco | 2 | All Maps","protocol":17,"map":"koth_highpass","folder":"tf","game":"Team Fortress","app_id":440,"player_count":0,"max_players":24,"Bots":0,"server_type":"Dedicated","server_os":"Linux","password":true,"vac":true,"version":"7757534","steam_id":85568392924470000,"keywords":["cp","nocrits","nodmgspread","uncletopia"],"game_id":440,"stv_port":27026,"stv_name":"Uncletopia | San Francisco | 2 | All Maps | STV","players":null},{"server_id":19,"name":"Uncletopia | San Francisco | 3 | Stopwatch Beta","name_short":"sfo-3","host":"sfo-1.us.uncletopia.com","port":27035,"enabled":true,"region":"us-west","cc":"us","latitude":37.77397,"longitude":-122.4313,"reserved":0,"last_update":"0001-01-01T00:00:00Z","name_a2s":"Uncletopia | San Francisco | 3 | Stopwatch Beta","protocol":17,"map":"koth_lakeside_final","folder":"tf","game":"Team Fortress","app_id":440,"player_count":0,"max_players":24,"Bots":0,"server_type":"Dedicated","server_os":"Linux","password":true,"vac":true,"version":"7757534","steam_id":85568392924742824,"keywords":["cp","nocrits","nodmgspread","uncletopia"],"game_id":440,"stv_port":27036,"stv_name":"Uncletopia | San Francisco | 3 | Stopwatch Beta | STV","players":null},{"server_id":20,"name":"Uncletopia | San Francisco | 4 | Community","name_short":"sfo-4","host":"sfo-1.us.uncletopia.com","port":27045,"enabled":true,"region":"us-west","cc":"us","latitude":37.77397,"longitude":-122.4313,"reserved":0,"last_update":"0001-01-01T00:00:00Z","name_a2s":"Uncletopia | San Francisco | 4 | Community","protocol":17,"map":"cp_altitude","folder":"tf","game":"Team Fortress","app_id":440,"player_count":0,"max_players":24,"Bots":0,"server_type":"Dedicated","server_os":"Linux","password":true,"vac":true,"version":"7757534","steam_id":85568392924742826,"keywords":["cp","nocrits","nodmgspread","uncletopia"],"game_id":440,"stv_port":27046,"stv_name":"Uncletopia | San Francisco | 4 | Community | STV","players":null},{"server_id":141,"name":"Uncletopia | Sydney | 1 | All Maps","name_short":"syd-1","host":"syd-1.au.uncletopia.com","port":27015,"enabled":true,"region":"au","cc":"au","latitude":-33.865143,"longitude":151.2099,"reserved":0,"last_update":"0001-01-01T00:00:00Z","name_a2s":"Uncletopia | Sydney | 1 | All Maps","protocol":17,"map":"koth_lakeside_final","folder":"tf","game":"Team Fortress","app_id":440,"player_count":0,"max_players":24,"Bots":0,"server_type":"Dedicated","server_os":"Linux","password":true,"vac":true,"version":"7882260","steam_id":85568392924470001,"keywords":["cp","nocrits","nodmgspread","uncletopia"],"game_id":440,"stv_port":27016,"stv_name":"Uncletopia | Sydney | 1 | All Maps | STV","players":null},{"server_id":123,"name":"Uncletopia | Sydney | 2 | All Maps","name_short":"syd-2","host":"syd-1.au.uncletopia.com","port":27025,"enabled":true,"region":"au","cc":"au","latitude":-33.865143,"longitude":151.2099,"reserved":0,"last_update":"0001-01-01T00:00:00Z","name_a2s":"Uncletopia | Sydney | 2 | All Maps","protocol":17,"map":"pl_swiftwater_final1","folder":"tf","game":"Team Fortress","app_id":440,"player_count":0,"max_players":24,"Bots":0,"server_type":"Dedicated","server_os":"Linux","password":true,"vac":true,"version":"7882260","steam_id":85568392924470002,"keywords":["nocrits","nodmgspread","payload","uncletopia"],"game_id":440,"stv_port":27026,"stv_name":"Uncletopia | Sydney | 2 | All Maps | STV","players":null},{"server_id":395,"name":"Uncletopia | Sydney | 3 | All Maps","name_short":"syd-3","host":"syd-1.au.uncletopia.com","port":27035,"enabled":true,"region":"au","cc":"au","latitude":-33.865143,"longitude":151.2099,"reserved":0,"last_update":"0001-01-01T00:00:00Z","name_a2s":"Uncletopia | Sydney | 3 | All Maps","protocol":17,"map":"koth_cascade","folder":"tf","game":"Team Fortress","app_id":440,"player_count":0,"max_players":24,"Bots":0,"server_type":"Dedicated","server_os":"Linux","password":true,"vac":true,"version":"7882260","steam_id":85568392925194467,"keywords":["cp","nocrits","nodmgspread","uncletopia"],"game_id":440,"stv_port":27036,"stv_name":"Uncletopia | Sydney | 3 | All Maps | STV","players":null},{"server_id":396,"name":"Uncletopia | Sydney | 4 | All Maps","name_short":"syd-4","host":"syd-1.au.uncletopia.com","port":27045,"enabled":true,"region":"au","cc":"au","latitude":-33.865143,"longitude":151.2099,"reserved":0,"last_update":"0001-01-01T00:00:00Z","name_a2s":"Uncletopia | Sydney | 4 | All Maps","protocol":17,"map":"koth_cascade","folder":"tf","game":"Team Fortress","app_id":440,"player_count":0,"max_players":24,"Bots":0,"server_type":"Dedicated","server_os":"Linux","password":true,"vac":true,"version":"7882260","steam_id":85568392925397958,"keywords":["cp","nocrits","nodmgspread","uncletopia"],"game_id":440,"stv_port":27046,"stv_name":"Uncletopia | Sydney | 4 | All Maps | STV","players":null},{"server_id":58,"name":"Uncletopia | Sydney | 5 | Stopwatch Beta","name_short":"syd-5","host":"syd-1.au.uncletopia.com","port":27055,"enabled":true,"region":"au","cc":"au","latitude":-33.865143,"longitude":151.2099,"reserved":0,"last_update":"0001-01-01T00:00:00Z","name_a2s":"Uncletopia | Sydney | 5 | Stopwatch Beta","protocol":17,"map":"pl_swiftwater_final1","folder":"tf","game":"Team Fortress","app_id":440,"player_count":0,"max_players":24,"Bots":0,"server_type":"Dedicated","server_os":"Linux","password":true,"vac":true,"version":"7882260","steam_id":85568392925397959,"keywords":["nocrits","nodmgspread","payload","uncletopia"],"game_id":440,"stv_port":27056,"stv_name":"Uncletopia | Sydney | 5 | Stopwatch Beta | STV","players":null},{"server_id":59,"name":"Uncletopia | Sydney | 6 | Community","name_short":"syd-6","host":"syd-1.au.uncletopia.com","port":27065,"enabled":true,"region":"au","cc":"au","latitude":-33.865143,"longitude":151.2099,"reserved":0,"last_update":"0001-01-01T00:00:00Z","name_a2s":"Uncletopia | Sydney | 6 | Community","protocol":17,"map":"pl_snowycoast","folder":"tf","game":"Team Fortress","app_id":440,"player_count":0,"max_players":24,"Bots":0,"server_type":"Dedicated","server_os":"Linux","password":true,"vac":true,"version":"7882260","steam_id":85568392925397960,"keywords":["nocrits","nodmgspread","payload","uncletopia"],"game_id":440,"stv_port":27066,"stv_name":"Uncletopia | Sydney | 6 | Community | STV","players":null},{"server_id":49,"name":"Uncletopia | Warsaw | 1 | All Maps","name_short":"waw-1","host":"waw-1.pl.uncletopia.com","port":27015,"enabled":true,"region":"eu","cc":"pl","latitude":52.2297,"longitude":21.017532,"reserved":0,"last_update":"0001-01-01T00:00:00Z","name_a2s":"","protocol":0,"map":"","folder":"","game":"","app_id":0,"player_count":0,"max_players":0,"Bots":0,"server_type":"","server_os":"","password":false,"vac":false,"version":"","steam_id":0,"keywords":null,"game_id":0,"stv_port":0,"stv_name":"","players":null},{"server_id":50,"name":"Uncletopia | Warsaw | 2 | All Maps","name_short":"waw-2","host":"waw-1.pl.uncletopia.com","port":27025,"enabled":true,"region":"eu","cc":"pl","latitude":52.2297,"longitude":21.017532,"reserved":0,"last_update":"0001-01-01T00:00:00Z","name_a2s":"Uncletopia | Warsaw | 2 | All Maps","protocol":17,"map":"pl_swiftwater_final1","folder":"tf","game":"Team Fortress","app_id":440,"player_count":0,"max_players":24,"Bots":0,"server_type":"Dedicated","server_os":"Linux","password":true,"vac":true,"version":"7882260","steam_id":85568392925397851,"keywords":["nocrits","nodmgspread","payload","uncletopia"],"game_id":440,"stv_port":27026,"stv_name":"Uncletopia | Warsaw | 2 | All Maps | STV","players":null},{"server_id":51,"name":"Uncletopia | Warsaw | 3 | All Maps","name_short":"waw-3","host":"waw-1.pl.uncletopia.com","port":27035,"enabled":true,"region":"eu","cc":"pl","latitude":52.2297,"longitude":21.017532,"reserved":0,"last_update":"0001-01-01T00:00:00Z","name_a2s":"Uncletopia | Warsaw | 3 | All Maps","protocol":17,"map":"cp_steel","folder":"tf","game":"Team Fortress","app_id":440,"player_count":15,"max_players":24,"Bots":0,"server_type":"Dedicated","server_os":"Linux","password":true,"vac":true,"version":"7882260","steam_id":85568392925397852,"keywords":["cp","nocrits","nodmgspread","uncletopia"],"game_id":440,"stv_port":27036,"stv_name":"Uncletopia | Warsaw | 3 | All Maps | STV","players":[{"user_id":154,"name":"Ryter","steam_id":76561198396279597,"connected_time":3123000000000,"state":"active","ping":63},{"user_id":179,"name":"LivEssense","steam_id":76561198052476979,"connected_time":1898000000000,"state":"active","ping":47},{"user_id":199,"name":"誰かが見ている","steam_id":76561198834913692,"connected_time":806000000000,"state":"active","ping":52},{"user_id":205,"name":"no.","steam_id":76561199089069085,"connected_time":459000000000,"state":"active","ping":532},{"user_id":180,"name":"YuraGreek","steam_id":76561198050182252,"connected_time":1892000000000,"state":"active","ping":59},{"user_id":165,"name":"Caro","steam_id":76561198065506317,"connected_time":2785000000000,"state":"active","ping":66},{"user_id":157,"name":"Plow cheese","steam_id":76561198142478067,"connected_time":3076000000000,"state":"active","ping":81},{"user_id":200,"name":"But Kanye Do This?!","steam_id":76561198044230403,"connected_time":794000000000,"state":"active","ping":83},{"user_id":201,"name":"britiliximab","steam_id":76561198141173061,"connected_time":787000000000,"state":"active","ping":113},{"user_id":166,"name":"drippin jimmy","steam_id":76561198219243969,"connected_time":2776000000000,"state":"active","ping":84},{"user_id":159,"name":"Alpha","steam_id":76561198133229149,"connected_time":2998000000000,"state":"active","ping":92},{"user_id":175,"name":"SLB055","steam_id":76561198320511977,"connected_time":2270000000000,"state":"active","ping":53},{"user_id":192,"name":"Kocham Wode z Filtra","steam_id":76561198016042113,"connected_time":1111000000000,"state":"active","ping":59},{"user_id":203,"name":"bonour74","steam_id":76561199089910337,"connected_time":752000000000,"state":"active","ping":173},{"user_id":198,"name":"SkillFullNinja","steam_id":76561198376246441,"connected_time":908000000000,"state":"active","ping":114}]},{"server_id":52,"name":"Uncletopia | Warsaw | 4 | All Maps","name_short":"waw-4","host":"waw-1.pl.uncletopia.com","port":27045,"enabled":true,"region":"eu","cc":"pl","latitude":52.2297,"longitude":21.017532,"reserved":0,"last_update":"0001-01-01T00:00:00Z","name_a2s":"Uncletopia | Warsaw | 4 | All Maps","protocol":17,"map":"koth_highpass","folder":"tf","game":"Team Fortress","app_id":440,"player_count":0,"max_players":24,"Bots":0,"server_type":"Dedicated","server_os":"Linux","password":true,"vac":true,"version":"7882260","steam_id":85568392925397853,"keywords":["cp","nocrits","nodmgspread","uncletopia"],"game_id":440,"stv_port":27046,"stv_name":"Uncletopia | Warsaw | 4 | All Maps | STV","players":null},{"server_id":53,"name":"Uncletopia | Warsaw | 5 | Stopwatch Beta","name_short":"waw-5","host":"waw-1.pl.uncletopia.com","port":27055,"enabled":true,"region":"eu","cc":"pl","latitude":52.2297,"longitude":21.017532,"reserved":0,"last_update":"0001-01-01T00:00:00Z","name_a2s":"Uncletopia | Warsaw | 5 | Stopwatch Beta","protocol":17,"map":"cp_mountainlab","folder":"tf","game":"Team Fortress","app_id":440,"player_count":0,"max_players":24,"Bots":0,"server_type":"Dedicated","server_os":"Linux","password":true,"vac":true,"version":"7882260","steam_id":85568392925397854,"keywords":["cp","nocrits","nodmgspread","uncletopia"],"game_id":440,"stv_port":27056,"stv_name":"Uncletopia | Warsaw | 5 | Stopwatch Beta | STV","players":null},{"server_id":54,"name":"Uncletopia | Warsaw | 6 | Community","name_short":"waw-6","host":"waw-1.pl.uncletopia.com","port":27065,"enabled":true,"region":"eu","cc":"pl","latitude":52.2297,"longitude":21.017532,"reserved":0,"last_update":"0001-01-01T00:00:00Z","name_a2s":"Uncletopia | Warsaw | 6 | Community","protocol":17,"map":"workshop/cp_mannbase_rc2a.ugc1900737467","folder":"tf","game":"Team Fortress","app_id":440,"player_count":0,"max_players":24,"Bots":0,"server_type":"Dedicated","server_os":"Linux","password":true,"vac":true,"version":"7882260","steam_id":85568392925397856,"keywords":["cp","nocrits","nodmgspread","uncletopia"],"game_id":440,"stv_port":27066,"stv_name":"Uncletopia | Warsaw | 6 | Community | STV","players":null}]}