{"status":true,"message":"","result":[{"server_id":9,"name":"Uncletopia | Atlanta | 1 | All Maps","name_short":"atl-1","host":"atl-1.us.uncletopia.com","port":27015,"enabled":true,"region":"us-east","cc":"us","latitude":33.753746,"longitude":-84.38633,"reserved":0,"last_update":"0001-01-01T00:00:00Z","name_a2s":"Uncletopia | Atlanta | 1 | All Maps","protocol":17,"map":"pl_pier","folder":"tf","game":"Team Fortress","app_id":440,"player_count":24,"max_players":24,"Bots":0,"server_type":"Dedicated","server_os":"Linux","password":true,"vac":true,"version":"7757534","steam_id":85568392924469982,"keywords":["nocrits","nodmgspread","payload","uncletopia"],"game_id":440,"stv_port":27016,"stv_name":"Uncletopia | Atlanta | 1 | All Maps | STV","players":[{"user_id":168,"name":"Rando","steam_id":76561198969936465,"connected_time":7600000000000,"state":"active","ping":84},{"user_id":213,"name":"Scorch","steam_id":76561198167024005,"connected_time":2432000000000,"state":"active","ping":63},{"user_id":184,"name":"Bali","steam_id":76561198038693845,"connected_time":6903000000000,"state":"active","ping":89},{"user_id":201,"name":"Mal","steam_id":76561198051415265,"connected_time":5611000000000,"state":"active","ping":78},{"user_id":230,"name":"BambuBabyPackRunner","steam_id":76561198320866421,"connected_time":684000000000,"state":"active","ping":46},{"user_id":172,"name":"Skinny Pete","steam_id":76561198801608576,"connected_time":7462000000000,"state":"active","ping":69},{"user_id":185,"name":"Thotimus Begonimus","steam_id":76561197970275938,"connected_time":6880000000000,"state":"active","ping":41},{"user_id":186,"name":"Serene Salamander","steam_id":76561198001094770,"connected_time":6876000000000,"state":"active","ping":123},{"user_id":193,"name":"small business owner","steam_id":76561199020587077,"connected_time":6284000000000,"state":"active","ping":60},{"user_id":212,"name":"Grandpa¬¥s Last Drop of Cum","steam_id":76561198079516696,"connected_time":3106000000000,"state":"active","ping":103},{"user_id":163,"name":"lil hog","steam_id":76561199230929836,"connected_time":7680000000000,"state":"active","ping":75},{"user_id":215,"name":"luxin","steam_id":76561198399383047,"connected_time":2402000000000,"state":"active","ping":52},{"user_id":225,"name":"Just PYE","steam_id":76561199439622967,"connected_time":971000000000,"state":"active","ping":75},{"user_id":209,"name":"com lag","steam_id":76561198019019392,"connected_time":3510000000000,"state":"active","ping":64},{"user_id":144,"name":"mayhem","steam_id":76561199246637881,"connected_time":9538000000000,"state":"active","ping":55},{"user_id":232,"name":"quinn","steam_id":76561199187747394,"connected_time":108000000000,"state":"active","ping":70},{"user_id":233,"name":"MyamE","steam_id":76561198133278462,"connected_time":107000000000,"state":"active","ping":77},{"user_id":219,"name":"BreadReceiver","steam_id":76561198862555841,"connected_time":2097000000000,"state":"active","ping":75},{"user_id":208,"name":"ATL1 | on my hunting trip","steam_id":76561198315341646,"connected_time":3716000000000,"state":"active","ping":68},{"user_id":231,"name":"Accidental Fall","steam_id":76561198840019488,"connected_time":501000000000,"state":"active","ping":76},{"user_id":177,"name":"Ixcarsis","steam_id":76561198880674783,"connected_time":7369000000000,"state":"active","ping":64},{"user_id":227,"name":"LuckyZero-_-","steam_id":76561198139891051,"connected_time":925000000000,"state":"active","ping":72},{"user_id":229,"name":"butterbutt!","steam_id":76561198038160740,"connected_time":911000000000,"state":"active","ping":51},{"user_id":217,"name":"Tue","steam_id":76561198181668501,"connected_time":2160000000000,"state":"active","ping":65}]},{"server_id":400,"name":"Uncletopia | Atlanta | 3 | Community","name_short":"atl-3","host":"atl-1.us.uncletopia.com","port":27035,"enabled":true,"region":"us-east","cc":"us","latitude":33.753746,"longitude":-84.38633,"reserved":0,"last_update":"0001-01-01T00:00:00Z","name_a2s":"Uncletopia | Atlanta | 3 | Community","protocol":17,"map":"workshop/cp_croissant_final.ugc458840209","folder":"tf","game":"Team Fortress","app_id":440,"player_count":0,"max_players":24,"Bots":0,"server_type":"Dedicated","server_os":"Linux","password":true,"vac":true,"version":"7757534","steam_id":85568392924515187,"keywords":["cp","nocrits","nodmgspread","uncletopia"],"game_id":440,"stv_port":27036,"stv_name":"Uncletopia | Atlanta | 3 | Community | STV","players":null},{"server_id":401,"name":"Uncletopia | Atlanta | 4 | No Payload","name_short":"atl-4","host":"atl-1.us.uncletopia.com","port":27045,"enabled":true,"region":"us-east","cc":"us","latitude":33.753746,"longitude":-84.38633,"reserved":0,"last_update":"0001-01-01T00:00:00Z","name_a2s":"","protocol":0,"map":"","folder":"","game":"","app_id":0,"player_count":0,"max_players":0,"Bots":0,"server_type":"","server_os":"","password":false,"vac":false,"version":"","steam_id":0,"keywords":null,"game_id":0,"stv_port":0,"stv_name":"","players":null},{"server_id":2,"name":"Uncletopia | Chicago | 1 | All Maps","name_short":"chi-1","host":"chi-1.us.uncletopia.com","port":27015,"enabled":true,"region":"us-central","cc":"us","latitude":41.881832,"longitude":-87.62318,"reserved":0,"last_update":"0001-01-01T00:00:00Z","name_a2s":"Uncletopia | Chicago | 1 | All Maps","protocol":17,"map":"pl_badwater","folder":"tf","game":"Team Fortress","app_id":440,"player_count":23,"max_players":24,"Bots":0,"server_type":"Dedicated","server_os":"Linux","password":true,"vac":true,"version":"7757534","steam_id":85568392924469984,"keywords":["nocrits","nodmgspread","payload","uncletopia"],"game_id":440,"stv_port":27016,"stv_name":"Uncletopia | Chicago | 1 | All Maps | STV","players":[{"user_id":396,"name":"ZeFizzyPop‚Ñ¢","steam_id":76561198258104981,"connected_time":155000000000,"state":"active","ping":62},{"user_id":371,"name":"Coinless","steam_id":76561199207586390,"connected_time":2041000000000,"state":"active","ping":49},{"user_id":397,"name":"flamingcookies","steam_id":76561198280864779,"connected_time":101000000000,"state":"active","ping":60},{"user_id":395,"name":"Malevo","steam_id":76561198148606522,"connected_time":347000000000,"state":"active","ping":81},{"user_id":372,"name":"Qball","steam_id":76561198179016466,"connected_time":1978000000000,"state":"active","ping":53},{"user_id":379,"name":"ProfessorCagan","steam_id":76561198141372356,"connected_time":1396000000000,"state":"active","ping":66},{"user_id":358,"name":"CamSoup","steam_id":76561198202483168,"connected_time":2905000000000,"state":"active","ping":70},{"user_id":355,"name":"‚ô• Femboy‚ô•Ventily ‚ô•","steam_id":76561198157260335,"connected_time":2927000000000,"state":"active","ping":47},{"user_id":398,"name":"Jitters","steam_id":76561198078898336,"connected_time":27000000000,"state":"active","ping":47},{"user_id":394,"name":"meo ‚ô•","steam_id":76561197992719272,"connected_time":393000000000,"state":"active","ping":53},{"user_id":367,"name":"arachnakat","steam_id":76561198986095433,"connected_time":2479000000000,"state":"active","ping":77},{"user_id":366,"name":"PKBEAST_7","steam_id":76561198177136537,"connected_time":2607000000000,"state":"active","ping":89},{"user_id":378,"name":"Fredrick","steam_id":76561197981419964,"connected_time":1422000000000,"state":"active","ping":70},{"user_id":383,"name":"Resh420","steam_id":76561198066619792,"connected_time":1339000000000,"state":"active","ping":71},{"user_id":341,"name":"object permanence","steam_id":76561198050393061,"connected_time":4239000000000,"state":"active","ping":72},{"user_id":399,"name":"Takumi Fujiwara","steam_id":76561198146281101,"connected_time":0,"state":"spawning","ping":32},{"user_id":380,"name":"saltysagan","steam_id":76561197981854067,"connected_time":1376000000000,"state":"active","ping":77},{"user_id":360,"name":"Effie","steam_id":76561198261842068,"connected_time":2891000000000,"state":"active","ping":93},{"user_id":343,"name":"BudTuggly","steam_id":76561198026873580,"connected_time":4174000000000,"state":"active","ping":46},{"user_id":392,"name":"DocLucky","steam_id":76561199093899249,"connected_time":504000000000,"state":"active","ping":164},{"user_id":386,"name":"Jester","steam_id":76561198153102922,"connected_time":1295000000000,"state":"active","ping":75},{"user_id":387,"name":"Et3rnal Shackl3s","steam_id":76561199233518001,"connected_time":1277000000000,"state":"active","ping":61},{"user_id":388,"name":"|WS| Don't_Taze_Me_Bro","steam_id":76561198043289495,"connected_time":1268000000000,"state":"active","ping":71}]},{"server_id":106,"name":"Uncletopia | Chicago | 2 | All Maps","name_short":"chi-2","host":"chi-1.us.uncletopia.com","port":27025,"enabled":true,"region":"us-central","cc":"us","latitude":41.881832,"longitude":-87.62318,"reserved":0,"last_update":"0001-01-01T00:00:00Z","name_a2s":"Uncletopia | Chicago | 2 | All Maps","protocol":17,"map":"pl_pier","folder":"tf","game":"Team Fortress","app_id":440,"player_count":21,"max_players":24,"Bots":0,"server_type":"Dedicated","server_os":"Linux","password":true,"vac":true,"version":"7757534","steam_id":85568392924469985,"keywords":["nocrits","nodmgspread","payload","uncletopia"],"game_id":440,"stv_port":27026,"stv_name":"Uncletopia | Chicago | 2 | All Maps | STV","players":[{"user_id":306,"name":"Matt_311","steam_id":76561198117967722,"connected_time":1917000000000,"state":"active","ping":48},{"user_id":324,"name":"Cutovercarp","steam_id":76561199065978512,"connected_time":902000000000,"state":"active","ping":64},{"user_id":336,"name":"TimTam Tom","steam_id":76561198045988062,"connected_time":451000000000,"state":"active","ping":66},{"user_id":325,"name":"Ivan the Terrible","steam_id":76561198139595241,"connected_time":902000000000,"state":"active","ping":175},{"user_id":294,"name":"Aradia","steam_id":76561198800087430,"connected_time":2675000000000,"state":"active","ping":93},{"user_id":334,"name":"i am on parole","steam_id":76561198059535856,"connected_time":520000000000,"state":"active","ping":73},{"user_id":307,"name":"the Real zamboni","steam_id":76561198070909414,"connected_time":1909000000000,"state":"active","ping":92},{"user_id":313,"name":"Touchpad","steam_id":76561198018551267,"connected_time":1509000000000,"state":"active","ping":112},{"user_id":326,"name":"Decs","steam_id":76561198825197974,"connected_time":896000000000,"state":"active","ping":120},{"user_id":312,"name":"estrogen addict","steam_id":76561199185046348,"connected_time":1525000000000,"state":"active","ping":84},{"user_id":314,"name":"IPlayGamez","steam_id":76561198041387508,"connected_time":1502000000000,"state":"active","ping":56},{"user_id":292,"name":"guess","steam_id":76561198140846580,"connected_time":3137000000000,"state":"active","ping":63},{"user_id":338,"name":"GPLv2","steam_id":76561198113096772,"connected_time":89000000000,"state":"active","ping":119},{"user_id":329,"name":"Spectre","steam_id":76561198025652246,"connected_time":882000000000,"state":"active","ping":34},{"user_id":321,"name":"Jeffy Epstein","steam_id":76561198053832401,"connected_time":1098000000000,"state":"active","ping":123},{"user_id":288,"name":"ÔΩì","steam_id":76561198153137314,"connected_time":3639000000000,"state":"active","ping":56},{"user_id":272,"name":"Fresh0c0","steam_id":76561198271933283,"connected_time":4438000000000,"state":"active","ping":57},{"user_id":316,"name":"Reedobad","steam_id":76561198259576490,"connected_time":1468000000000,"state":"active","ping":61},{"user_id":295,"name":"Timur","steam_id":76561197989552257,"connected_time":2606000000000,"state":"active","ping":51},{"user_id":335,"name":"StarCopper","steam_id":76561198024890295,"connected_time":470000000000,"state":"active","ping":85},{"user_id":318,"name":"Bean76","steam_id":76561198352985531,"connected_time":1340000000000,"state":"active","ping":59}]},{"server_id":402,"name":"Uncletopia | Chicago | 3 | All Maps","name_short":"chi-3","host":"chi-1.us.uncletopia.com","port":27035,"enabled":true,"region":"us-central","cc":"us","latitude":41.881832,"longitude":-87.62318,"reserved":0,"last_update":"0001-01-01T00:00:00Z","name_a2s":"Uncletopia | Chicago | 3 | All Maps","protocol":17,"map":"pl_borneo","folder":"tf","game":"Team Fortress","app_id":440,"player_count":24,"max_players":24,"Bots":0,"server_type":"Dedicated","server_os":"Linux","password":true,"vac":true,"version":"7757534","steam_id":85568392924515191,"keywords":["nocrits","nodmgspread","payload","uncletopia"],"game_id":440,"stv_port":27036,"stv_name":"Uncletopia | Chicago | 3 | All Maps | STV","players":[{"user_id":271,"name":"i have amazing aim","steam_id":76561199222920753,"connected_time":105000000000,"state":"active","ping":45},{"user_id":272,"name":"Squilliam Fancyson","steam_id":76561198211062267,"connected_time":84000000000,"state":"active","ping":49},{"user_id":211,"name":"Dot.","steam_id":76561198149463984,"connected_time":3760000000000,"state":"active","ping":46},{"user_id":184,"name":"Bird watcher #savetf2","steam_id":76561199201098634,"connected_time":6460000000000,"state":"active","ping":57},{"user_id":273,"name":"wokky bin laddn","steam_id":76561198265200834,"connected_time":26000000000,"state":"spawning","ping":46},{"user_id":274,"name":"Muffin","steam_id":76561199156302434,"connected_time":13000000000,"state":"active","ping":57},{"user_id":242,"name":"Antifa Alligator","steam_id":76561197988170816,"connected_time":1743000000000,"state":"active","ping":67},{"user_id":262,"name":"noisetank","steam_id":76561199086731683,"connected_time":704000000000,"state":"active","ping":72},{"user_id":245,"name":"HAT-WEARING‚Ñ¢ Maggot Gamer Cat","steam_id":76561197973992705,"connected_time":1683000000000,"state":"active","ping":102},{"user_id":259,"name":"Pawn Cushman","steam_id":76561198221635676,"connected_time":872000000000,"state":"active","ping":59},{"user_id":267,"name":"F–ØED","steam_id":76561198263271697,"connected_time":520000000000,"state":"active","ping":41},{"user_id":270,"name":"Julia","steam_id":76561198175727790,"connected_time":118000000000,"state":"active","ping":104},{"user_id":261,"name":"sax","steam_id":76561198094788852,"connected_time":728000000000,"state":"active","ping":46},{"user_id":218,"name":"4thCoptic","steam_id":76561198136922231,"connected_time":3292000000000,"state":"active","ping":162},{"user_id":266,"name":"Actually retarded","steam_id":76561198276513608,"connected_time":577000000000,"state":"active","ping":166},{"user_id":263,"name":"SlurpyTheDog","steam_id":76561198799733154,"connected_time":702000000000,"state":"active","ping":64},{"user_id":251,"name":"the big balogna","steam_id":76561198045810207,"connected_time":1339000000000,"state":"active","ping":100},{"user_id":268,"name":"alone","steam_id":76561198398383076,"connected_time":331000000000,"state":"active","ping":85},{"user_id":188,"name":"A Shiny Meat Bicycle","steam_id":76561198358757709,"connected_time":6046000000000,"state":"active","ping":105},{"user_id":257,"name":"Willem DripFoe","steam_id":76561198385114441,"connected_time":1187000000000,"state":"active","ping":115},{"user_id":275,"name":"LanGan-Kun","steam_id":76561198100582781,"connected_time":11000000000,"state":"spawning","ping":120},{"user_id":269,"name":"yaldabaoth","steam_id":76561198084606869,"connected_time":171000000000,"state":"active","ping":44},{"user_id":264,"name":"jimbo","steam_id":76561198046059770,"connected_time":701000000000,"state":"active","ping":67},{"user_id":260,"name":"lag","steam_id":76561197963872739,"connected_time":851000000000,"state":"active","ping":90}]},{"server_id":403,"name":"Uncletopia | Chicago | 4 | All Maps","name_short":"chi-4","host":"chi-1.us.uncletopia.com","port":27045,"enabled":true,"region":"us-central","cc":"us","latitude":41.881832,"longitude":-87.62318,"reserved":0,"last_update":"0001-01-01T00:00:00Z","name_a2s":"Uncletopia | Chicago | 4 | All Maps","protocol":17,"map":"pl_swiftwater_final1","folder":"tf","game":"Team Fortress","app_id":440,"player_count":24,"max_players":24,"Bots":0,"server_type":"Dedicated","server_os":"Linux","password":true,"vac":true,"version":"7757534","steam_id":85568392924515193,"keywords":["nocrits","nodmgspread","payload","uncletopia"],"game_id":440,"stv_port":27046,"stv_name":"Uncletopia | Chicago | 4 | All Maps | STV","players":[{"user_id":142,"name":"recycle","steam_id":76561198819562111,"connected_time":2028000000000,"state":"active","ping":73},{"user_id":141,"name":"A Rhino with Coronavirus","steam_id":76561197999451366,"connected_time":2040000000000,"state":"active","ping":85},{"user_id":152,"name":"T     H     E    PinheadLary","steam_id":76561199091466927,"connected_time":1137000000000,"state":"active","ping":119},{"user_id":162,"name":"Randy Butternubs","steam_id":76561197983738629,"connected_time":18000000000,"state":"spawning","ping":47},{"user_id":161,"name":"AutoCon17","steam_id":76561198209977473,"connected_time":364000000000,"state":"active","ping":44},{"user_id":160,"name":"Spades","steam_id":76561199000611761,"connected_time":679000000000,"state":"active","ping":84},{"user_id":107,"name":"Rockgraham101","steam_id":76561198171740458,"connected_time":4766000000000,"state":"active","ping":59},{"user_id":139,"name":"Mad Cow ‚Äª","steam_id":76561199470707812,"connected_time":2061000000000,"state":"active","ping":61},{"user_id":131,"name":"benito","steam_id":76561199098569869,"connected_time":2575000000000,"state":"active","ping":69},{"user_id":97,"name":"sammy","steam_id":76561199001307670,"connected_time":5250000000000,"state":"active","ping":101},{"user_id":99,"name":"The Dead Weight","steam_id":76561198056694098,"connected_time":5229000000000,"state":"active","ping":61},{"user_id":155,"name":"moe","steam_id":76561198929586245,"connected_time":895000000000,"state":"active","ping":89},{"user_id":91,"name":"psycho killer (french words)","steam_id":76561198185980055,"connected_time":5915000000000,"state":"active","ping":59},{"user_id":153,"name":"Spoompls","steam_id":76561198383182274,"connected_time":1061000000000,"state":"active","ping":90},{"user_id":117,"name":"James","steam_id":76561198081313916,"connected_time":3803000000000,"state":"active","ping":74},{"user_id":129,"name":"Architect","steam_id":76561198015242016,"connected_time":2826000000000,"state":"active","ping":43},{"user_id":112,"name":"Robin","steam_id":76561198121165149,"connected_time":4637000000000,"state":"active","ping":47},{"user_id":156,"name":"„Åè„Åù","steam_id":76561198153398037,"connected_time":895000000000,"state":"active","ping":86},{"user_id":146,"name":"czarchasm","steam_id":76561198055712749,"connected_time":1881000000000,"state":"active","ping":78},{"user_id":53,"name":"moe5x","steam_id":76561198316877833,"connected_time":9773000000000,"state":"active","ping":98},{"user_id":113,"name":"Naffty","steam_id":76561198119734981,"connected_time":4420000000000,"state":"active","ping":102},{"user_id":123,"name":"L0b5terlick","steam_id":76561198134990930,"connected_time":2908000000000,"state":"active","ping":66},{"user_id":157,"name":"simonjohna646","steam_id":76561199403481880,"connected_time":879000000000,"state":"active","ping":85},{"user_id":84,"name":"Walkiing","steam_id":76561198074473413,"connected_time":7035000000000,"state":"active","ping":45}]},{"server_id":36,"name":"Uncletopia | Chicago | 5 | All Maps","name_short":"chi-5","host":"chi-2.us.uncletopia.com","port":27015,"enabled":true,"region":"us-central","cc":"us","latitude":41.881832,"longitude":-87.62318,"reserved":0,"last_update":"0001-01-01T00:00:00Z","name_a2s":"Uncletopia | Chicago | 5 | All Maps","protocol":17,"map":"pl_barnblitz","folder":"tf","game":"Team Fortress","app_id":440,"player_count":24,"max_players":24,"Bots":0,"server_type":"Dedicated","server_os":"Linux","password":true,"vac":true,"version":"7757534","steam_id":85568392924866362,"keywords":["nocrits","nodmgspread","payload","uncletopia"],"game_id":440,"stv_port":27016,"stv_name":"Uncletopia | Chicago | 5 | All Maps | STV","players":[{"user_id":5,"name":"The World's Softest Sandwich","steam_id":76561198015577707,"connected_time":8236000000000,"state":"active","ping":77},{"user_id":117,"name":"=PB=","steam_id":76561197999146612,"connected_time":850000000000,"state":"active","ping":126},{"user_id":114,"name":"Bustle","steam_id":76561198043169896,"connected_time":928000000000,"state":"active","ping":131},{"user_id":83,"name":"BisKit","steam_id":76561198140624153,"connected_time":4593000000000,"state":"active","ping":94},{"user_id":12,"name":"Fresh Lychee","steam_id":76561198045399559,"connected_time":7631000000000,"state":"active","ping":59},{"user_id":102,"name":"·πΩ‚ßâ cookie","steam_id":76561197998884823,"connected_time":2646000000000,"state":"active","ping":60},{"user_id":125,"name":"nicolas the mercenary","steam_id":76561199077641644,"connected_time":597000000000,"state":"active","ping":76},{"user_id":17,"name":"Erious","steam_id":76561198431446386,"connected_time":7384000000000,"state":"active","ping":70},{"user_id":96,"name":"ark","steam_id":76561198041066271,"connected_time":2936000000000,"state":"active","ping":78},{"user_id":119,"name":"Blitz3k","steam_id":76561198055758741,"connected_time":836000000000,"state":"active","ping":66},{"user_id":104,"name":"totoro","steam_id":76561198210420871,"connected_time":1710000000000,"state":"active","ping":46},{"user_id":68,"name":"crowbar","steam_id":76561199071139239,"connected_time":5449000000000,"state":"active","ping":130},{"user_id":79,"name":"cassius","steam_id":76561198203851303,"connected_time":4692000000000,"state":"active","ping":83},{"user_id":109,"name":"mel","steam_id":76561198097124190,"connected_time":1340000000000,"state":"active","ping":75},{"user_id":115,"name":"Quark","steam_id":76561198328155605,"connected_time":924000000000,"state":"active","ping":54},{"user_id":127,"name":"Pariah","steam_id":76561198300479600,"connected_time":240000000000,"state":"active","ping":73},{"user_id":116,"name":"boog","steam_id":76561197993699665,"connected_time":921000000000,"state":"active","ping":84},{"user_id":121,"name":"Maverick","steam_id":76561198206866312,"connected_time":818000000000,"state":"active","ping":90},{"user_id":103,"name":"It's All Good Man","steam_id":76561198226651472,"connected_time":1945000000000,"state":"active","ping":71},{"user_id":122,"name":"Mr.Spy","steam_id":76561198985464754,"connected_time":813000000000,"state":"active","ping":115},{"user_id":105,"name":"F_L Vision Spire","steam_id":76561198095923905,"connected_time":1679000000000,"state":"active","ping":56},{"user_id":110,"name":"Owl Pacino","steam_id":76561197979970666,"connected_time":1338000000000,"state":"active","ping":55},{"user_id":123,"name":"laszlo","steam_id":76561198141198352,"connected_time":812000000000,"state":"active","ping":45},{"user_id":92,"name":"WellThatCase","steam_id":76561198930966223,"connected_time":3998000000000,"state":"active","ping":81}]},{"server_id":37,"name":"Uncletopia | Chicago | 6 | All Maps","name_short":"chi-6","host":"chi-2.us.uncletopia.com","port":27025,"enabled":true,"region":"us-central","cc":"us","latitude":41.881832,"longitude":-87.62318,"reserved":0,"last_update":"0001-01-01T00:00:00Z","name_a2s":"Uncletopia | Chicago | 6 | All Maps","protocol":17,"map":"pl_upward","folder":"tf","game":"Team Fortress","app_id":440,"player_count":23,"max_players":24,"Bots":0,"server_type":"Dedicated","server_os":"Linux","password":true,"vac":true,"version":"7757534","steam_id":85568392924866363,"keywords":["nocrits","nodmgspread","payload","uncletopia"],"game_id":440,"stv_port":27026,"stv_name":"Uncletopia | Chicago | 6 | All Maps | STV","players":[{"user_id":258,"name":"merektd","steam_id":76561198123109185,"connected_time":249000000000,"state":"active","ping":53},{"user_id":248,"name":"Mightythor","steam_id":76561199162355715,"connected_time":2244000000000,"state":"active","ping":80},{"user_id":250,"name":"PTSleepyHead","steam_id":76561198037748705,"connected_time":1928000000000,"state":"active","ping":91},{"user_id":168,"name":"Lv. 5 Grunt","steam_id":76561198800334545,"connected_time":6185000000000,"state":"active","ping":98},{"user_id":241,"name":"Felipe Ramirez 2013","steam_id":76561198150497397,"connected_time":2809000000000,"state":"active","ping":57},{"user_id":262,"name":"Babyface","steam_id":76561199240579044,"connected_time":199000000000,"state":"active","ping":77},{"user_id":257,"name":"Sink","steam_id":76561198192420249,"connected_time":271000000000,"state":"active","ping":75},{"user_id":255,"name":"Admiral Angry","steam_id":76561198058199206,"connected_time":870000000000,"state":"active","ping":61},{"user_id":253,"name":"fri","steam_id":76561198326764514,"connected_time":1377000000000,"state":"active","ping":79},{"user_id":238,"name":"sneakysquid (real)","steam_id":76561198800721329,"connected_time":2926000000000,"state":"active","ping":91},{"user_id":239,"name":"CeigeBirb","steam_id":76561198068538473,"connected_time":2914000000000,"state":"active","ping":76},{"user_id":163,"name":"Ejaculation Zach","steam_id":76561198203765200,"connected_time":6341000000000,"state":"active","ping":60},{"user_id":251,"name":"bash -lc ./asshat.sh","steam_id":76561198004584315,"connected_time":1444000000000,"state":"active","ping":69},{"user_id":246,"name":"What The Hell Fried Chicken","steam_id":76561198117434605,"connected_time":2409000000000,"state":"active","ping":81},{"user_id":180,"name":"Fluffeline","steam_id":76561198352909489,"connected_time":5631000000000,"state":"active","ping":139},{"user_id":249,"name":"floppy muppet","steam_id":76561198003076261,"connected_time":2064000000000,"state":"active","ping":86},{"user_id":259,"name":"conscripted monk","steam_id":76561199029246232,"connected_time":249000000000,"state":"active","ping":71},{"user_id":204,"name":"gonk","steam_id":76561198061206732,"connected_time":4262000000000,"state":"active","ping":77},{"user_id":263,"name":"[GUT] RiDiK¬Æ","steam_id":76561197969756446,"connected_time":189000000000,"state":"active","ping":56},{"user_id":264,"name":"Patrick Star Gaming","steam_id":76561198189460395,"connected_time":163000000000,"state":"active","ping":52},{"user_id":209,"name":"Jeugh","steam_id":76561198073498865,"connected_time":3721000000000,"state":"active","ping":90},{"user_id":226,"name":"ebbaxter13","steam_id":76561198839647688,"connected_time":3147000000000,"state":"active","ping":79},{"user_id":215,"name":"nvm_","steam_id":76561198843128678,"connected_time":3543000000000,"state":"active","ping":46}]},{"server_id":38,"name":"Uncletopia | Chicago | 7 | Stopwatch Beta","name_short":"chi-7","host":"chi-2.us.uncletopia.com","port":27035,"enabled":true,"region":"us-central","cc":"us","latitude":41.881832,"longitude":-87.62318,"reserved":0,"last_update":"0001-01-01T00:00:00Z","name_a2s":"Uncletopia | Chicago | 7 | Stopwatch Beta","protocol":17,"map":"cp_sunshine","folder":"tf","game":"Team Fortress","app_id":440,"player_count":24,"max_players":24,"Bots":0,"server_type":"Dedicated","server_os":"Linux","password":true,"vac":true,"version":"7757534","steam_id":85568392924866364,"keywords":["cp","nocrits","nodmgspread","uncletopia"],"game_id":440,"stv_port":27036,"stv_name":"Uncletopia | Chicago | 7 | Stopwatch Beta | STV","players":[{"user_id":5,"name":"feenman","steam_id":76561199383834799,"connected_time":3452000000000,"state":"active","ping":98},{"user_id":6,"name":"idkwhattosayabouthis","steam_id":76561199354244162,"connected_time":3062000000000,"state":"active","ping":113},{"user_id":11,"name":"h√§mis","steam_id":76561198089616341,"connected_time":1210000000000,"state":"active","ping":74},{"user_id":10,"name":"Unwavering Flavor","steam_id":76561198053306065,"connected_time":1255000000000,"state":"active","ping":76},{"user_id":12,"name":"Captain Infraredbeard","steam_id":76561198868443672,"connected_time":1181000000000,"state":"active","ping":73},{"user_id":17,"name":"too funky ·óúÀ¨·óú","steam_id":76561199120399776,"connected_time":999000000000,"state":"active","ping":61},{"user_id":14,"name":"Gipple","steam_id":76561198388661565,"connected_time":1094000000000,"state":"active","ping":61},{"user_id":37,"name":"Xenowo","steam_id":76561198120574708,"connected_time":126000000000,"state":"active","ping":74},{"user_id":39,"name":"Paleo","steam_id":76561198879212785,"connected_time":97000000000,"state":"active","ping":63},{"user_id":22,"name":"Pipe","steam_id":76561198817993054,"connected_time":656000000000,"state":"active","ping":91},{"user_id":24,"name":"Cynicalrage #TF2Center","steam_id":76561198085805532,"connected_time":478000000000,"state":"active","ping":48},{"user_id":25,"name":"Mr.Manman","steam_id":76561198826448660,"connected_time":447000000000,"state":"active","ping":63},{"user_id":26,"name":"PotatoLord","steam_id":76561199375579621,"connected_time":438000000000,"state":"active","ping":82},{"user_id":30,"name":"radiohead enjoyer","steam_id":76561198397662124,"connected_time":343000000000,"state":"active","ping":86},{"user_id":28,"name":"Gav44","steam_id":76561198988097005,"connected_time":423000000000,"state":"active","ping":64},{"user_id":29,"name":"2008 Toyota Corolla","steam_id":76561199014681829,"connected_time":360000000000,"state":"active","ping":66},{"user_id":31,"name":"Mara Roo","steam_id":76561198279341789,"connected_time":342000000000,"state":"active","ping":89},{"user_id":32,"name":"uhooter","steam_id":76561198007829078,"connected_time":336000000000,"state":"active","ping":48},{"user_id":38,"name":"Cambridge 1969","steam_id":76561199031241776,"connected_time":124000000000,"state":"active","ping":76},{"user_id":34,"name":"Bheem","steam_id":76561198170453459,"connected_time":265000000000,"state":"active","ping":81},{"user_id":35,"name":"Bell DOG :3","steam_id":76561198136406552,"connected_time":233000000000,"state":"active","ping":71},{"user_id":40,"name":"Sexual Butt","steam_id":76561198102241399,"connected_time":86000000000,"state":"active","ping":67},{"user_id":41,"name":"nut e","steam_id":76561198082210257,"connected_time":85000000000,"state":"active","ping":64},{"user_id":42,"name":"jzplr üé∑üêõ","steam_id":76561198091901520,"connected_time":78000000000,"state":"active","ping":62}]},{"server_id":39,"name":"Uncletopia | Chicago | 8 | Community","name_short":"chi-8","host":"chi-2.us.uncletopia.com","port":27045,"enabled":true,"region":"us-central","cc":"us","latitude":41.881832,"longitude":-87.62318,"reserved":0,"last_update":"0001-01-01T00:00:00Z","name_a2s":"Uncletopia | Chicago | 8 | Community","protocol":17,"map":"koth_lakeside_final","folder":"tf","game":"Team Fortress","app_id":440,"player_count":0,"max_players":24,"Bots":0,"server_type":"Dedicated","server_os":"Linux","password":true,"vac":true,"version":"7757534","steam_id":85568392924866365,"keywords":["cp","nocrits","nodmgspread","uncletopia"],"game_id":440,"stv_port":27046,"stv_name":"Uncletopia | Chicago | 8 | Community | STV","players":null},{"server_id":8,"name":"Uncletopia | Dallas | 1 | All Maps","name_short":"dal-1","host":"dal-1.us.uncletopia.com","port":27015,"enabled":true,"region":"us-central","cc":"us","latitude":32.779167,"longitude":-96.80889,"reserved":0,"last_update":"0001-01-01T00:00:00Z","name_a2s":"Uncletopia | Dallas | 1 | All Maps","protocol":17,"map":"pl_snowycoast","folder":"tf","game":"Team Fortress","app_id":440,"player_count":24,"max_players":24,"Bots":0,"server_type":"Dedicated","server_os":"Linux","password":true,"vac":true,"version":"7757534","steam_id":85568392924469986,"keywords":["nocrits","nodmgspread","payload","uncletopia"],"game_id":440,"stv_port":27016,"stv_name":"Uncletopia | Dallas | 1 | All Maps | STV","players":[{"user_id":204,"name":"CRAM MAN","steam_id":76561198838146043,"connected_time":64000000000,"state":"active","ping":54},{"user_id":163,"name":"xbox record that","steam_id":76561198150117455,"connected_time":3235000000000,"state":"active","ping":67},{"user_id":187,"name":"bee","steam_id":76561198178015361,"connected_time":1466000000000,"state":"active","ping":71},{"user_id":191,"name":"FanaticSalt","steam_id":76561199380123059,"connected_time":1152000000000,"state":"active","ping":44},{"user_id":186,"name":"dodecadron","steam_id":76561198027397222,"connected_time":1539000000000,"state":"active","ping":116},{"user_id":136,"name":"???","steam_id":76561198200155343,"connected_time":5440000000000,"state":"active","ping":45},{"user_id":171,"name":"grunch","steam_id":76561198354292689,"connected_time":2764000000000,"state":"active","ping":50},{"user_id":192,"name":"I Like Cheese","steam_id":76561198006265659,"connected_time":1141000000000,"state":"active","ping":95},{"user_id":193,"name":"astronomy","steam_id":76561198110661425,"connected_time":1119000000000,"state":"active","ping":76},{"user_id":201,"name":"[LINUX] Purple Penguin Pybro","steam_id":76561198093538786,"connected_time":670000000000,"state":"active","ping":54},{"user_id":173,"name":"Cheeeeeeeen","steam_id":76561198986388085,"connected_time":2707000000000,"state":"active","ping":110},{"user_id":196,"name":"Testosteroblerone","steam_id":76561199031278496,"connected_time":1090000000000,"state":"active","ping":83},{"user_id":180,"name":"Derply","steam_id":76561198871211642,"connected_time":2302000000000,"state":"active","ping":93},{"user_id":164,"name":"Moonflower ‚ú¶","steam_id":76561198191782483,"connected_time":2877000000000,"state":"active","ping":57},{"user_id":166,"name":"Indicative","steam_id":76561199076612537,"connected_time":2827000000000,"state":"active","ping":66},{"user_id":197,"name":"westward","steam_id":76561198805512350,"connected_time":1076000000000,"state":"active","ping":112},{"user_id":203,"name":"gorilla","steam_id":76561199103766971,"connected_time":205000000000,"state":"active","ping":109},{"user_id":188,"name":"Chubbles","steam_id":76561198237619472,"connected_time":1402000000000,"state":"active","ping":103},{"user_id":152,"name":"Rin \"Hindwing\" Redtail","steam_id":76561199074865638,"connected_time":4609000000000,"state":"active","ping":51},{"user_id":189,"name":"Zetta","steam_id":76561198045710113,"connected_time":1357000000000,"state":"active","ping":85},{"user_id":185,"name":"Koffy","steam_id":76561198184386039,"connected_time":1581000000000,"state":"active","ping":86},{"user_id":199,"name":"Takitos013","steam_id":76561198802426576,"connected_time":1061000000000,"state":"active","ping":121},{"user_id":202,"name":"GaMeRbOi","steam_id":76561199094353617,"connected_time":639000000000,"state":"active","ping":94},{"user_id":131,"name":"Ghaeril","steam_id":76561198047880019,"connected_time":5741000000000,"state":"active","ping":66}]},{"server_id":108,"name":"Uncletopia | Dallas | 2 | All Maps","name_short":"dal-2","host":"dal-1.us.uncletopia.com","port":27025,"enabled":true,"region":"us-central","cc":"us","latitude":32.779167,"longitude":-96.80889,"reserved":0,"last_update":"0001-01-01T00:00:00Z","name_a2s":"Uncletopia | Dallas | 2 | All Maps","protocol":17,"map":"pl_swiftwater_final1","folder":"tf","game":"Team Fortress","app_id":440,"player_count":0,"max_players":24,"Bots":0,"server_type":"Dedicated","server_os":"Linux","password":true,"vac":true,"version":"7757534","steam_id":85568392924469988,"keywords":["nocrits","nodmgspread","payload","uncletopia"],"game_id":440,"stv_port":27026,"stv_name":"Uncletopia | Dallas | 2 | All Maps | STV","players":null},{"server_id":5,"name":"Uncletopia | Frankfurt | 1 | All Maps","name_short":"frk-1","host":"frk-1.de.uncletopia.com","port":27015,"enabled":true,"region":"eu","cc":"de","latitude":50.110924,"longitude":8.682127,"reserved":0,"last_update":"0001-01-01T00:00:00Z","name_a2s":"Uncletopia | Frankfurt | 1 | All Maps","protocol":17,"map":"pl_upward","folder":"tf","game":"Team Fortress","app_id":440,"player_count":24,"max_players":24,"Bots":0,"server_type":"Dedicated","server_os":"Linux","password":true,"vac":true,"version":"7757534","steam_id":85568392924469989,"keywords":["nocrits","nodmgspread","payload","uncletopia"],"game_id":440,"stv_port":27016,"stv_name":"Uncletopia | Frankfurt | 1 | All Maps | STV","players":[{"user_id":592,"name":"John Noob","steam_id":76561197999170026,"connected_time":1983000000000,"state":"active","ping":99},{"user_id":612,"name":"—Å–æ–¥–æ–º–∏—è","steam_id":76561198145302349,"connected_time":319000000000,"state":"active","ping":123},{"user_id":613,"name":"Dewotter","steam_id":76561198007653168,"connected_time":310000000000,"state":"active","ping":71},{"user_id":607,"name":"THE Bucket Man","steam_id":76561198851816161,"connected_time":368000000000,"state":"active","ping":184},{"user_id":595,"name":"F2P gameing","steam_id":76561198834713682,"connected_time":1938000000000,"state":"active","ping":78},{"user_id":616,"name":"G6 sherlock","steam_id":76561198802967796,"connected_time":102000000000,"state":"active","ping":118},{"user_id":586,"name":"buko","steam_id":76561198349648942,"connected_time":3028000000000,"state":"active","ping":102},{"user_id":576,"name":"Hookiest Owler","steam_id":76561198872013525,"connected_time":3338000000000,"state":"active","ping":137},{"user_id":596,"name":"SantiTzePug","steam_id":76561199049615996,"connected_time":1925000000000,"state":"active","ping":76},{"user_id":566,"name":"pfear","steam_id":76561197999207328,"connected_time":3714000000000,"state":"active","ping":75},{"user_id":597,"name":"iSnack","steam_id":76561198001268659,"connected_time":1915000000000,"state":"active","ping":83},{"user_id":604,"name":"Rigby","steam_id":76561198021552128,"connected_time":1150000000000,"state":"active","ping":100},{"user_id":442,"name":"issues","steam_id":76561197994492154,"connected_time":13016000000000,"state":"active","ping":70},{"user_id":569,"name":"Ohad","steam_id":76561198067989324,"connected_time":3551000000000,"state":"active","ping":122},{"user_id":617,"name":"Slowbro","steam_id":76561198010779146,"connected_time":12000000000,"state":"active","ping":74},{"user_id":584,"name":"Mr.TEA","steam_id":76561198014381591,"connected_time":3209000000000,"state":"active","ping":61},{"user_id":543,"name":"Ged","steam_id":76561198079288943,"connected_time":5106000000000,"state":"active","ping":111},{"user_id":609,"name":"boneez","steam_id":76561198186800982,"connected_time":363000000000,"state":"active","ping":57},{"user_id":614,"name":"Gandhi the Grater","steam_id":76561198051198555,"connected_time":272000000000,"state":"active","ping":73},{"user_id":602,"name":"peach soup","steam_id":76561199366403155,"connected_time":1783000000000,"state":"active","ping":80},{"user_id":603,"name":"grandpa.s.cane","steam_id":76561199416074296,"connected_time":1770000000000,"state":"active","ping":76},{"user_id":556,"name":"nedilya","steam_id":76561198039692077,"connected_time":4251000000000,"state":"active","ping":54},{"user_id":564,"name":"pepper","steam_id":76561198059782462,"connected_time":3853000000000,"state":"active","ping":46},{"user_id":615,"name":"lowcostfish.co.uk","steam_id":76561198126022039,"connected_time":271000000000,"state":"active","ping":63}]},{"server_id":110,"name":"Uncletopia | Frankfurt | 2 | All Maps","name_short":"frk-2","host":"frk-1.de.uncletopia.com","port":27025,"enabled":true,"region":"eu","cc":"de","latitude":50.110924,"longitude":8.682127,"reserved":0,"last_update":"0001-01-01T00:00:00Z","name_a2s":"Uncletopia | Frankfurt | 2 | All Maps","protocol":17,"map":"pl_upward","folder":"tf","game":"Team Fortress","app_id":440,"player_count":22,"max_players":24,"Bots":0,"server_type":"Dedicated","server_os":"Linux","password":true,"vac":true,"version":"7757534","steam_id":85568392924469990,"keywords":["nocrits","nodmgspread","payload","uncletopia"],"game_id":440,"stv_port":27026,"stv_name":"Uncletopia | Frankfurt | 2 | All Maps | STV","players":[{"user_id":157,"name":"CumbustiblePunda","steam_id":76561197974274677,"connected_time":4652000000000,"state":"active","ping":52},{"user_id":188,"name":"Anri Okita's Massive Milkers","steam_id":76561199186352720,"connected_time":2536000000000,"state":"active","ping":68},{"user_id":219,"name":"Rasmus","steam_id":76561198048989805,"connected_time":337000000000,"state":"active","ping":76},{"user_id":162,"name":"Grumtsior","steam_id":76561198043563111,"connected_time":4281000000000,"state":"active","ping":71},{"user_id":163,"name":"A 7/4 Time Signature (SWTZR)","steam_id":76561198049823315,"connected_time":4250000000000,"state":"active","ping":86},{"user_id":179,"name":"xd","steam_id":76561198066523881,"connected_time":3217000000000,"state":"active","ping":55},{"user_id":207,"name":"teslatruck","steam_id":76561199476396739,"connected_time":1122000000000,"state":"active","ping":59},{"user_id":160,"name":"‚ú™ m_br3","steam_id":76561198044981990,"connected_time":4313000000000,"state":"active","ping":70},{"user_id":214,"name":"Jara.","steam_id":76561197992207165,"connected_time":834000000000,"state":"active","ping":92},{"user_id":138,"name":"Egor Pomidor","steam_id":76561199175688390,"connected_time":5774000000000,"state":"active","ping":76},{"user_id":190,"name":"Bill","steam_id":76561198293112566,"connected_time":2503000000000,"state":"active","ping":99},{"user_id":220,"name":"Vaari-Markkainen","steam_id":76561198004364672,"connected_time":335000000000,"state":"active","ping":103},{"user_id":209,"name":"[waffles]","steam_id":76561198951206047,"connected_time":1003000000000,"state":"active","ping":78},{"user_id":106,"name":"NABER","steam_id":76561198831465151,"connected_time":8597000000000,"state":"active","ping":80},{"user_id":180,"name":"MoeruKurowassan","steam_id":76561198319349647,"connected_time":2621000000000,"state":"active","ping":77},{"user_id":222,"name":"Looking for Goth with tiddies!?","steam_id":76561198067204908,"connected_time":24000000000,"state":"active","ping":63},{"user_id":184,"name":"zvekan","steam_id":76561198381101196,"connected_time":2615000000000,"state":"active","ping":60},{"user_id":205,"name":"Ferdinand von Retard","steam_id":76561198202927514,"connected_time":1154000000000,"state":"active","ping":68},{"user_id":212,"name":"ParvekeFilosofi","steam_id":76561198203140640,"connected_time":952000000000,"state":"active","ping":63},{"user_id":177,"name":"paguro","steam_id":76561198119560871,"connected_time":3256000000000,"state":"active","ping":69},{"user_id":215,"name":"Lordware","steam_id":76561198022011299,"connected_time":455000000000,"state":"active","ping":81},{"user_id":218,"name":"Dag!","steam_id":76561198030147941,"connected_time":395000000000,"state":"active","ping":81}]},{"server_id":308,"name":"Uncletopia | Frankfurt | 3 | All Maps","name_short":"frk-3","host":"frk-1.de.uncletopia.com","port":27035,"enabled":true,"region":"eu","cc":"de","latitude":50.110924,"longitude":8.682127,"reserved":0,"last_update":"0001-01-01T00:00:00Z","name_a2s":"Uncletopia | Frankfurt | 3 | All Maps","protocol":17,"map":"cp_process_final","folder":"tf","game":"Team Fortress","app_id":440,"player_count":24,"max_players":24,"Bots":0,"server_type":"Dedicated","server_os":"Linux","password":true,"vac":true,"version":"7757534","steam_id":85568392924504274,"keywords":["cp","nocrits","nodmgspread","uncletopia"],"game_id":440,"stv_port":27036,"stv_name":"Uncletopia | Frankfurt | 3 | All Maps | STV","players":[{"user_id":171,"name":"m√®x","steam_id":76561197975951572,"connected_time":712000000000,"state":"active","ping":59},{"user_id":172,"name":"puck_panzer","steam_id":76561198121260981,"connected_time":580000000000,"state":"active","ping":49},{"user_id":148,"name":"phoinks","steam_id":76561198087543005,"connected_time":1807000000000,"state":"active","ping":46},{"user_id":116,"name":"Wolter013","steam_id":76561199089954377,"connected_time":3150000000000,"state":"active","ping":65},{"user_id":155,"name":"Fridge","steam_id":76561198071665589,"connected_time":1088000000000,"state":"active","ping":106},{"user_id":154,"name":"LoudSmokingLink!","steam_id":76561198104896547,"connected_time":1119000000000,"state":"active","ping":74},{"user_id":113,"name":"Parapluie","steam_id":76561197971640301,"connected_time":3308000000000,"state":"active","ping":53},{"user_id":137,"name":"szpadel21.spierdalaj","steam_id":76561199191390558,"connected_time":2742000000000,"state":"active","ping":86},{"user_id":159,"name":"Kowakum","steam_id":76561197998125950,"connected_time":1040000000000,"state":"active","ping":107},{"user_id":162,"name":"MRK","steam_id":76561198120166752,"connected_time":1017000000000,"state":"active","ping":75},{"user_id":120,"name":"walking sentry","steam_id":76561199225363633,"connected_time":3000000000000,"state":"active","ping":70},{"user_id":143,"name":"kpn","steam_id":76561198063512694,"connected_time":2033000000000,"state":"active","ping":73},{"user_id":169,"name":"Paul B√§umer","steam_id":76561198308302932,"connected_time":905000000000,"state":"active","ping":104},{"user_id":124,"name":"Samus","steam_id":76561198045943019,"connected_time":2883000000000,"state":"active","ping":47},{"user_id":125,"name":"TurboTabs","steam_id":76561198009785131,"connected_time":2879000000000,"state":"active","ping":66},{"user_id":161,"name":"Dr.Cranium","steam_id":76561197992726926,"connected_time":1027000000000,"state":"active","ping":101},{"user_id":151,"name":"wxyz kapƒ±cƒ± izzet","steam_id":76561198241873438,"connected_time":1467000000000,"state":"active","ping":78},{"user_id":130,"name":"goblin","steam_id":76561199010825303,"connected_time":2816000000000,"state":"active","ping":61},{"user_id":163,"name":"subway vergil","steam_id":76561199110064166,"connected_time":1010000000000,"state":"active","ping":81},{"user_id":132,"name":"aph","steam_id":76561198057722639,"connected_time":2774000000000,"state":"active","ping":66},{"user_id":139,"name":"bob l'√©ponge","steam_id":76561198066631833,"connected_time":2566000000000,"state":"active","ping":74},{"user_id":138,"name":"rosepinkyfuzz","steam_id":76561198018546334,"connected_time":2613000000000,"state":"active","ping":71},{"user_id":164,"name":"‚òÖpoyo‚òÖ","steam_id":76561198150078959,"connected_time":999000000000,"state":"active","ping":179},{"user_id":136,"name":"1708","steam_id":76561198134541812,"connected_time":2760000000000,"state":"active","ping":84}]},{"server_id":309,"name":"Uncletopia | Frankfurt | 4 | All Maps","name_short":"frk-4","host":"frk-1.de.uncletopia.com","port":27045,"enabled":true,"region":"eu","cc":"de","latitude":50.110924,"longitude":8.682127,"reserved":0,"last_update":"0001-01-01T00:00:00Z","name_a2s":"Uncletopia | Frankfurt | 4 | All Maps","protocol":17,"map":"cp_dustbowl","folder":"tf","game":"Team Fortress","app_id":440,"player_count":24,"max_players":24,"Bots":0,"server_type":"Dedicated","server_os":"Linux","password":true,"vac":true,"version":"7757534","steam_id":85568392924504275,"keywords":["cp","nocrits","nodmgspread","uncletopia"],"game_id":440,"stv_port":27046,"stv_name":"Uncletopia | Frankfurt | 4 | All Maps | STV","players":[{"user_id":554,"name":"GEP Gun","steam_id":76561197981821003,"connected_time":378000000000,"state":"active","ping":66},{"user_id":547,"name":"Dzan50","steam_id":76561198059758591,"connected_time":977000000000,"state":"active","ping":99},{"user_id":526,"name":"DrExplosive","steam_id":76561198063678579,"connected_time":3663000000000,"state":"active","ping":66},{"user_id":537,"name":"Mr.Kevin120","steam_id":76561199186919096,"connected_time":2567000000000,"state":"active","ping":175},{"user_id":542,"name":"banned","steam_id":76561198047359132,"connected_time":1713000000000,"state":"active","ping":71},{"user_id":540,"name":"ImABush","steam_id":76561198304471896,"connected_time":1732000000000,"state":"active","ping":48},{"user_id":409,"name":"dirty","steam_id":76561197995572935,"connected_time":11829000000000,"state":"active","ping":77},{"user_id":531,"name":"marcelwellmann","steam_id":76561198868282827,"connected_time":3069000000000,"state":"active","ping":49},{"user_id":548,"name":"Boe Jiden","steam_id":76561199300394949,"connected_time":966000000000,"state":"active","ping":53},{"user_id":545,"name":"Mrbluuub","steam_id":76561199273847084,"connected_time":1564000000000,"state":"active","ping":82},{"user_id":493,"name":"Wardruna96","steam_id":76561199057083828,"connected_time":5992000000000,"state":"active","ping":78},{"user_id":551,"name":"„É†GeRmAn |√óUA√ó„É†","steam_id":76561199044754898,"connected_time":774000000000,"state":"active","ping":65},{"user_id":556,"name":"Emma","steam_id":76561198046796406,"connected_time":178000000000,"state":"active","ping":50},{"user_id":520,"name":"ghenios","steam_id":76561198030011207,"connected_time":4013000000000,"state":"active","ping":93},{"user_id":532,"name":"Dzieciol","steam_id":76561198160237556,"connected_time":3068000000000,"state":"active","ping":62},{"user_id":552,"name":"Hegyi tah√≥ F2P","steam_id":76561199219150356,"connected_time":619000000000,"state":"active","ping":67},{"user_id":557,"name":"Solu","steam_id":76561198054652468,"connected_time":102000000000,"state":"active","ping":47},{"user_id":400,"name":"Kedy","steam_id":76561198308990457,"connected_time":12865000000000,"state":"active","ping":90},{"user_id":549,"name":"Diktoulong","steam_id":76561198170613135,"connected_time":942000000000,"state":"active","ping":158},{"user_id":469,"name":"ok","steam_id":76561198320042443,"connected_time":8793000000000,"state":"active","ping":104},{"user_id":560,"name":"ƒåoffeeBean","steam_id":76561198069171480,"connected_time":14000000000,"state":"spawning","ping":83},{"user_id":550,"name":"MAKENTAKEN","steam_id":76561199127359587,"connected_time":807000000000,"state":"active","ping":99},{"user_id":559,"name":"Equinox","steam_id":76561199055592635,"connected_time":55000000000,"state":"active","ping":66},{"user_id":507,"name":"Lesser engineer","steam_id":76561198058694987,"connected_time":5174000000000,"state":"active","ping":73}]},{"server_id":310,"name":"Uncletopia | Frankfurt | 5 | All Maps","name_short":"frk-5","host":"frk-1.de.uncletopia.com","port":27055,"enabled":true,"region":"eu","cc":"de","latitude":50.110924,"longitude":8.682127,"reserved":0,"last_update":"0001-01-01T00:00:00Z","name_a2s":"Uncletopia | Frankfurt | 5 | All Maps","protocol":17,"map":"cp_snakewater_final1","folder":"tf","game":"Team Fortress","app_id":440,"player_count":24,"max_players":24,"Bots":0,"server_type":"Dedicated","server_os":"Linux","password":true,"vac":true,"version":"7757534","steam_id":85568392924504277,"keywords":["cp","nocrits","nodmgspread","uncletopia"],"game_id":440,"stv_port":27056,"stv_name":"Uncletopia | Frankfurt | 5 | All Maps | STV","players":[{"user_id":424,"name":"SeT","steam_id":76561199063777003,"connected_time":1563000000000,"state":"active","ping":68},{"user_id":445,"name":"lee","steam_id":76561198436548420,"connected_time":647000000000,"state":"active","ping":72},{"user_id":430,"name":"punchmypotatoes","steam_id":76561198091255731,"connected_time":1490000000000,"state":"active","ping":66},{"user_id":442,"name":"mumbler","steam_id":76561197970641239,"connected_time":983000000000,"state":"active","ping":37},{"user_id":444,"name":"Hussite","steam_id":76561199293036742,"connected_time":764000000000,"state":"active","ping":55},{"user_id":446,"name":"Keng0l","steam_id":76561199185184318,"connected_time":561000000000,"state":"active","ping":119},{"user_id":420,"name":"Fish 'n' Chips","steam_id":76561198033476886,"connected_time":1877000000000,"state":"active","ping":45},{"user_id":406,"name":"finbar","steam_id":76561198056812396,"connected_time":2701000000000,"state":"active","ping":77},{"user_id":428,"name":"KingNep","steam_id":76561198832796670,"connected_time":1503000000000,"state":"active","ping":69},{"user_id":399,"name":"≈Åyku","steam_id":76561198299149372,"connected_time":3144000000000,"state":"active","ping":76},{"user_id":425,"name":"ùöôùöûùöúùöëùöíùöó' ùöô","steam_id":76561199374351531,"connected_time":1560000000000,"state":"active","ping":74},{"user_id":447,"name":"Sarah Obama Michella","steam_id":76561198078996559,"connected_time":0,"state":"spawning","ping":29},{"user_id":431,"name":"diax01","steam_id":76561198136591319,"connected_time":1484000000000,"state":"active","ping":88},{"user_id":434,"name":"SzalonySid","steam_id":76561198204466444,"connected_time":1471000000000,"state":"active","ping":76},{"user_id":415,"name":"R","steam_id":76561199379233899,"connected_time":2252000000000,"state":"active","ping":98},{"user_id":412,"name":"B3Y0NDTH3M1ND","steam_id":76561198262637389,"connected_time":2445000000000,"state":"active","ping":79},{"user_id":382,"name":"Mr.Schnittlauch","steam_id":76561198295868113,"connected_time":3978000000000,"state":"active","ping":59},{"user_id":435,"name":"Dr.Sees [F2P]","steam_id":76561199219233587,"connected_time":1447000000000,"state":"active","ping":85},{"user_id":395,"name":"Yessirskiii","steam_id":76561198179324075,"connected_time":3205000000000,"state":"active","ping":75},{"user_id":401,"name":"Zandez","steam_id":76561198072975563,"connected_time":3105000000000,"state":"active","ping":90},{"user_id":432,"name":"Kakograf","steam_id":76561198148375639,"connected_time":1479000000000,"state":"active","ping":281},{"user_id":418,"name":"minespweper","steam_id":76561199096919345,"connected_time":1939000000000,"state":"active","ping":80},{"user_id":437,"name":"luffy_fr","steam_id":76561198443384798,"connected_time":1388000000000,"state":"active","ping":56},{"user_id":385,"name":"Ixsus\u003c3","steam_id":76561198094756869,"connected_time":3953000000000,"state":"active","ping":60}]},{"server_id":311,"name":"Uncletopia | Frankfurt | 6 | All Maps","name_short":"frk-6","host":"frk-1.de.uncletopia.com","port":27065,"enabled":true,"region":"eu","cc":"de","latitude":50.110924,"longitude":8.682127,"reserved":0,"last_update":"0001-01-01T00:00:00Z","name_a2s":"Uncletopia | Frankfurt | 6 | All Maps","protocol":17,"map":"pl_pier","folder":"tf","game":"Team Fortress","app_id":440,"player_count":24,"max_players":24,"Bots":0,"server_type":"Dedicated","server_os":"Linux","password":true,"vac":true,"version":"7757534","steam_id":85568392924504278,"keywords":["nocrits","nodmgspread","payload","uncletopia"],"game_id":440,"stv_port":27066,"stv_name":"Uncletopia | Frankfurt | 6 | All Maps | STV","players":[{"user_id":384,"name":"Nut With Potential","steam_id":76561198293297458,"connected_time":603000000000,"state":"active","ping":54},{"user_id":276,"name":"boot kla","steam_id":76561198106049954,"connected_time":6825000000000,"state":"active","ping":81},{"user_id":253,"name":"Lux","steam_id":76561198060417740,"connected_time":8597000000000,"state":"active","ping":48},{"user_id":290,"name":"walluu","steam_id":76561198121830870,"connected_time":5931000000000,"state":"active","ping":69},{"user_id":366,"name":"Adrenaline","steam_id":76561197970852048,"connected_time":2429000000000,"state":"active","ping":61},{"user_id":337,"name":"XPullaHiiri","steam_id":76561198031652375,"connected_time":3460000000000,"state":"active","ping":83},{"user_id":354,"name":"makke","steam_id":76561198001642815,"connected_time":2645000000000,"state":"active","ping":74},{"user_id":346,"name":"Zepta","steam_id":76561199001659666,"connected_time":3119000000000,"state":"active","ping":86},{"user_id":369,"name":"Laki","steam_id":76561198126078953,"connected_time":2083000000000,"state":"active","ping":114},{"user_id":378,"name":"The storm that is approaching","steam_id":76561198982155864,"connected_time":1062000000000,"state":"active","ping":102},{"user_id":375,"name":"Wabzi","steam_id":76561198192696722,"connected_time":1301000000000,"state":"active","ping":95},{"user_id":380,"name":"ziv0104","steam_id":76561198089642287,"connected_time":995000000000,"state":"active","ping":101},{"user_id":353,"name":"Magirby","steam_id":76561198818777390,"connected_time":2785000000000,"state":"active","ping":114},{"user_id":340,"name":"dotdotdot","steam_id":76561198057628751,"connected_time":3444000000000,"state":"active","ping":72},{"user_id":351,"name":"1couver","steam_id":76561198168553215,"connected_time":2901000000000,"state":"active","ping":103},{"user_id":304,"name":"Lyra","steam_id":76561198043601838,"connected_time":5087000000000,"state":"active","ping":60},{"user_id":383,"name":"Thermit","steam_id":76561198136636527,"connected_time":888000000000,"state":"active","ping":75},{"user_id":376,"name":"KNARRER","steam_id":76561199130777953,"connected_time":1289000000000,"state":"active","ping":58},{"user_id":370,"name":"Kotlet schabowy","steam_id":76561198048983509,"connected_time":1862000000000,"state":"active","ping":81},{"user_id":388,"name":"cowboy","steam_id":76561198080361351,"connected_time":314000000000,"state":"active","ping":64},{"user_id":371,"name":"Noob_with_source","steam_id":76561198870362103,"connected_time":1694000000000,"state":"active","ping":63},{"user_id":363,"name":"üòà COCKDESTROYER üòà","steam_id":76561198042846999,"connected_time":2493000000000,"state":"active","ping":72},{"user_id":387,"name":"randompixel","steam_id":76561198003941207,"connected_time":335000000000,"state":"active","ping":77},{"user_id":361,"name":"BeS","steam_id":76561198045752247,"connected_time":2524000000000,"state":"active","ping":53}]},{"server_id":23,"name":"Uncletopia | Frankfurt | 7 | Stopwatch Beta","name_short":"frk-7","host":"frk-1.de.uncletopia.com","port":27075,"enabled":true,"region":"eu","cc":"de","latitude":50.110924,"longitude":8.682127,"reserved":0,"last_update":"0001-01-01T00:00:00Z","name_a2s":"Uncletopia | Frankfurt | 7 | Stopwatch Beta","protocol":17,"map":"workshop/pl_summercoast_rc8e.ugc1761528829","folder":"tf","game":"Team Fortress","app_id":440,"player_count":1,"max_players":24,"Bots":0,"server_type":"Dedicated","server_os":"Linux","password":true,"vac":true,"version":"7757534","steam_id":85568392924742827,"keywords":["nocrits","nodmgspread","payload","uncletopia"],"game_id":440,"stv_port":27076,"stv_name":"Uncletopia | Frankfurt | 7 | Stopwatch Beta | STV","players":[{"user_id":18,"name":"Truegr","steam_id":76561198811912339,"connected_time":48000000000,"state":"spawning","ping":396}]},{"server_id":24,"name":"Uncletopia | Frankfurt | 8 | Community","name_short":"frk-8","host":"frk-1.de.uncletopia.com","port":27085,"enabled":true,"region":"eu","cc":"de","latitude":50.110924,"longitude":8.682127,"reserved":0,"last_update":"0001-01-01T00:00:00Z","name_a2s":"Uncletopia | Frankfurt | 8 | Community","protocol":17,"map":"workshop/pl_divulgence_b4b.ugc2884808746","folder":"tf","game":"Team Fortress","app_id":440,"player_count":8,"max_players":24,"Bots":0,"server_type":"Dedicated","server_os":"Linux","password":true,"vac":true,"version":"7757534","steam_id":85568392924742828,"keywords":["nocrits","nodmgspread","payload","uncletopia"],"game_id":440,"stv_port":27086,"stv_name":"Uncletopia | Frankfurt | 8 | Community | STV","players":[{"user_id":36,"name":"fried","steam_id":76561198307522022,"connected_time":164000000000,"state":"active","ping":48},{"user_id":42,"name":"Proud Jojo Fan #TF2SP","steam_id":76561198847327216,"connected_time":65000000000,"state":"active","ping":60},{"user_id":38,"name":"kravun","steam_id":76561198280995954,"connected_time":159000000000,"state":"active","ping":68},{"user_id":39,"name":"bad 2 za bona","steam_id":76561199065919134,"connected_time":158000000000,"state":"active","ping":56},{"user_id":40,"name":"cast iron skillet","steam_id":76561199105861570,"connected_time":151000000000,"state":"active","ping":60},{"user_id":41,"name":"Osmo","steam_id":76561199286764992,"connected_time":141000000000,"state":"active","ping":75},{"user_id":43,"name":"silicon based life form","steam_id":76561199127121346,"connected_time":34000000000,"state":"active","ping":67},{"user_id":44,"name":"Yachox","steam_id":76561198158259745,"connected_time":0,"state":"spawning","ping":39}]},{"server_id":202,"name":"Uncletopia | Hong Kong | 1 | All Maps","name_short":"hgk-1","host":"hgk-1.hk.uncletopia.com","port":27015,"enabled":true,"region":"asia","cc":"hk","latitude":22.302711,"longitude":114.177216,"reserved":0,"last_update":"0001-01-01T00:00:00Z","name_a2s":"Uncletopia | Hong Kong | 1 | All Maps","protocol":17,"map":"pl_barnblitz","folder":"tf","game":"Team Fortress","app_id":440,"player_count":0,"max_players":24,"Bots":0,"server_type":"Dedicated","server_os":"Linux","password":true,"vac":true,"version":"7757534","steam_id":85568392924494504,"keywords":["nocrits","nodmgspread","payload","uncletopia"],"game_id":440,"stv_port":27016,"stv_name":"Uncletopia | Hong Kong | 1 | All Maps | STV","players":null},{"server_id":1,"name":"Uncletopia | Los Angeles | 1 | All Maps","name_short":"lax-1","host":"lax-1.us.uncletopia.com","port":27015,"enabled":true,"region":"us-west","cc":"us","latitude":33.94279,"longitude":-118.41004,"reserved":0,"last_update":"0001-01-01T00:00:00Z","name_a2s":"Uncletopia | Los Angeles | 1 | All Maps","protocol":17,"map":"koth_lakeside_final","folder":"tf","game":"Team Fortress","app_id":440,"player_count":9,"max_players":24,"Bots":0,"server_type":"Dedicated","server_os":"Linux","password":true,"vac":true,"version":"7757534","steam_id":85568392924469991,"keywords":["cp","nocrits","nodmgspread","uncletopia"],"game_id":440,"stv_port":27016,"stv_name":"Uncletopia | Los Angeles | 1 | All Maps | STV","players":[{"user_id":5,"name":"Nibotshooter","steam_id":76561199284825579,"connected_time":1683000000000,"state":"active","ping":76},{"user_id":6,"name":"Noxus","steam_id":76561199009820852,"connected_time":1481000000000,"state":"active","ping":75},{"user_id":7,"name":"Salem Goose Trial","steam_id":76561198052083066,"connected_time":1418000000000,"state":"active","ping":85},{"user_id":8,"name":"Madd Maxx","steam_id":76561198339584998,"connected_time":1268000000000,"state":"active","ping":115},{"user_id":16,"name":"Sprucelass","steam_id":76561197998391724,"connected_time":542000000000,"state":"active","ping":104},{"user_id":20,"name":"MayKaye","steam_id":76561199016092265,"connected_time":40000000000,"state":"active","ping":62},{"user_id":18,"name":"Kopenich","steam_id":76561198066205245,"connected_time":443000000000,"state":"active","ping":40},{"user_id":19,"name":"Tort boi","steam_id":76561198125327110,"connected_time":242000000000,"state":"active","ping":78},{"user_id":21,"name":"scamper","steam_id":76561199093768105,"connected_time":26000000000,"state":"active","ping":75}]},{"server_id":112,"name":"Uncletopia | Los Angeles | 2 | All Maps","name_short":"lax-2","host":"lax-1.us.uncletopia.com","port":27025,"enabled":true,"region":"us-west","cc":"us","latitude":33.94279,"longitude":-118.41004,"reserved":0,"last_update":"0001-01-01T00:00:00Z","name_a2s":"Uncletopia | Los Angeles | 2 | All Maps","protocol":17,"map":"cp_altitude","folder":"tf","game":"Team Fortress","app_id":440,"player_count":0,"max_players":24,"Bots":0,"server_type":"Dedicated","server_os":"Linux","password":true,"vac":true,"version":"7757534","steam_id":85568392924469992,"keywords":["cp","nocrits","nodmgspread","uncletopia"],"game_id":440,"stv_port":27026,"stv_name":"Uncletopia | Los Angeles | 2 | All Maps | STV","players":null},{"server_id":324,"name":"Uncletopia | Los Angeles | 3 | All Maps","name_short":"lax-3","host":"lax-1.us.uncletopia.com","port":27035,"enabled":true,"region":"us-west","cc":"us","latitude":33.94279,"longitude":-118.41004,"reserved":0,"last_update":"0001-01-01T00:00:00Z","name_a2s":"Uncletopia | Los Angeles | 3 | All Maps","protocol":17,"map":"cp_altitude","folder":"tf","game":"Team Fortress","app_id":440,"player_count":0,"max_players":24,"Bots":0,"server_type":"Dedicated","server_os":"Linux","password":true,"vac":true,"version":"7757534","steam_id":85568392924510198,"keywords":["cp","nocrits","nodmgspread","uncletopia"],"game_id":440,"stv_port":27036,"stv_name":"Uncletopia | Los Angeles | 3 | All Maps | STV","players":null},{"server_id":25,"name":"Uncletopia | Los Angeles | 4 | Stopwatch Beta","name_short":"lax-4","host":"lax-1.us.uncletopia.com","port":27045,"enabled":true,"region":"us-west","cc":"us","latitude":33.94279,"longitude":-118.41004,"reserved":0,"last_update":"0001-01-01T00:00:00Z","name_a2s":"Uncletopia | Los Angeles | 4 | Stopwatch Beta","protocol":17,"map":"workshop/cp_reckoner_rc6.ugc674719999","folder":"tf","game":"Team Fortress","app_id":440,"player_count":0,"max_players":24,"Bots":0,"server_type":"Dedicated","server_os":"Linux","password":true,"vac":true,"version":"7757534","steam_id":85568392924510199,"keywords":["cp","nocrits","nodmgspread","uncletopia"],"game_id":440,"stv_port":27046,"stv_name":"Uncletopia | Los Angeles | 4 | Stopwatch Beta | STV","players":null},{"server_id":11,"name":"Uncletopia | London | 1 | All Maps","name_short":"lon-1","host":"lon-1.uk.uncletopia.com","port":27015,"enabled":true,"region":"eu","cc":"gb","latitude":51.509865,"longitude":-0.118092,"reserved":0,"last_update":"0001-01-01T00:00:00Z","name_a2s":"Uncletopia | London | 1 | All Maps","protocol":17,"map":"cp_dustbowl","folder":"tf","game":"Team Fortress","app_id":440,"player_count":24,"max_players":24,"Bots":0,"server_type":"Dedicated","server_os":"Linux","password":true,"vac":true,"version":"7757534","steam_id":85568392924367362,"keywords":["cp","nocrits","nodmgspread","uncletopia"],"game_id":440,"stv_port":27016,"stv_name":"Uncletopia | London | 1 | All Maps | STV","players":[{"user_id":440,"name":"Kvitas","steam_id":76561199155695785,"connected_time":1391000000000,"state":"active","ping":58},{"user_id":453,"name":"BreadBubbles","steam_id":76561198174332826,"connected_time":512000000000,"state":"active","ping":57},{"user_id":435,"name":"Anemia","steam_id":76561198071595988,"connected_time":2435000000000,"state":"active","ping":36},{"user_id":438,"name":"trite","steam_id":76561197983765323,"connected_time":1574000000000,"state":"active","ping":52},{"user_id":434,"name":"fallingpencil","steam_id":76561199230233148,"connected_time":2649000000000,"state":"active","ping":67},{"user_id":379,"name":"SOPHIIEE","steam_id":76561198443798981,"connected_time":5743000000000,"state":"active","ping":50},{"user_id":449,"name":"gamer of all","steam_id":76561198366374718,"connected_time":1083000000000,"state":"active","ping":102},{"user_id":404,"name":"cooch","steam_id":76561197971509889,"connected_time":5140000000000,"state":"active","ping":45},{"user_id":450,"name":"Gio'sMonkey","steam_id":76561198892432223,"connected_time":736000000000,"state":"active","ping":80},{"user_id":415,"name":"Relix18144","steam_id":76561199202454318,"connected_time":4903000000000,"state":"active","ping":114},{"user_id":281,"name":"Caerot","steam_id":76561198839000676,"connected_time":13037000000000,"state":"active","ping":72},{"user_id":455,"name":"Dwevy","steam_id":76561198090379437,"connected_time":320000000000,"state":"active","ping":54},{"user_id":445,"name":"MeBandae","steam_id":76561198910770432,"connected_time":1373000000000,"state":"active","ping":79},{"user_id":436,"name":"‚éù‚ßπpolar_bear‚ß∏‚é†","steam_id":76561198409154467,"connected_time":2252000000000,"state":"active","ping":102},{"user_id":454,"name":"mr.edderkopper","steam_id":76561198152614478,"connected_time":341000000000,"state":"active","ping":133},{"user_id":458,"name":"Asfreild","steam_id":76561198055901120,"connected_time":167000000000,"state":"active","ping":74},{"user_id":425,"name":"Forgetful","steam_id":76561198147445965,"connected_time":3659000000000,"state":"active","ping":63},{"user_id":457,"name":"Just_Tommy","steam_id":76561199229233472,"connected_time":194000000000,"state":"active","ping":60},{"user_id":444,"name":"MatiX","steam_id":76561198273121669,"connected_time":1382000000000,"state":"active","ping":93},{"user_id":426,"name":"Bill (real)","steam_id":76561199017872113,"connected_time":3568000000000,"state":"active","ping":48},{"user_id":461,"name":"Kaky≈çin Noriaki","steam_id":76561198123809642,"connected_time":34000000000,"state":"spawning","ping":161},{"user_id":307,"name":"[No Class]","steam_id":76561199019412162,"connected_time":11090000000000,"state":"active","ping":50},{"user_id":448,"name":"Pelaxis","steam_id":76561198180030121,"connected_time":1343000000000,"state":"active","ping":84},{"user_id":430,"name":"Kahvi","steam_id":76561198723244199,"connected_time":3546000000000,"state":"active","ping":81}]},{"server_id":114,"name":"Uncletopia | London | 2 | All Maps","name_short":"lon-2","host":"lon-1.uk.uncletopia.com","port":27025,"enabled":true,"region":"eu","cc":"gb","latitude":51.509865,"longitude":-0.118092,"reserved":0,"last_update":"0001-01-01T00:00:00Z","name_a2s":"Uncletopia | London | 2 | All Maps","protocol":17,"map":"pl_badwater","folder":"tf","game":"Team Fortress","app_id":440,"player_count":24,"max_players":24,"Bots":0,"server_type":"Dedicated","server_os":"Linux","password":true,"vac":true,"version":"7757534","steam_id":85568392924470941,"keywords":["nocrits","nodmgspread","payload","uncletopia"],"game_id":440,"stv_port":27026,"stv_name":"Uncletopia | London | 2 | All Maps | STV","players":[{"user_id":124,"name":"holykyckling","steam_id":76561198040661615,"connected_time":1019000000000,"state":"active","ping":75},{"user_id":127,"name":"Dovakin","steam_id":76561198103265377,"connected_time":921000000000,"state":"active","ping":114},{"user_id":54,"name":"nemelex","steam_id":76561198958005865,"connected_time":5186000000000,"state":"active","ping":48},{"user_id":126,"name":"addicted","steam_id":76561199129801006,"connected_time":962000000000,"state":"active","ping":56},{"user_id":138,"name":"Marcin Tofan","steam_id":76561198044369819,"connected_time":354000000000,"state":"active","ping":85},{"user_id":108,"name":"Pancakes","steam_id":76561198196259989,"connected_time":2192000000000,"state":"active","ping":49},{"user_id":131,"name":"cov","steam_id":76561198328047855,"connected_time":602000000000,"state":"active","ping":86},{"user_id":132,"name":"Jag √§r ett anka","steam_id":76561198059978438,"connected_time":599000000000,"state":"active","ping":60},{"user_id":91,"name":"2BCD","steam_id":76561198178254946,"connected_time":4012000000000,"state":"active","ping":59},{"user_id":88,"name":"GuSkand","steam_id":76561198043775605,"connected_time":4068000000000,"state":"active","ping":87},{"user_id":142,"name":"Princess Fuzz","steam_id":76561198025783000,"connected_time":33000000000,"state":"active","ping":32},{"user_id":120,"name":"RLCrazyCat3","steam_id":76561197983757878,"connected_time":1331000000000,"state":"active","ping":55},{"user_id":121,"name":"the_Qcumber","steam_id":76561199152515819,"connected_time":1308000000000,"state":"active","ping":71},{"user_id":66,"name":"Microsoft PowerPoint","steam_id":76561198204290539,"connected_time":4614000000000,"state":"active","ping":90},{"user_id":122,"name":"reik","steam_id":76561198075239099,"connected_time":1287000000000,"state":"active","ping":64},{"user_id":69,"name":"TTV_redrhuadri","steam_id":76561198351948998,"connected_time":4488000000000,"state":"active","ping":70},{"user_id":140,"name":"Caliban","steam_id":76561197999696839,"connected_time":291000000000,"state":"active","ping":104},{"user_id":125,"name":"alpha","steam_id":76561198250491640,"connected_time":985000000000,"state":"active","ping":42},{"user_id":81,"name":"Femboy with the wrong pronouns","steam_id":76561198072320671,"connected_time":4295000000000,"state":"active","ping":34},{"user_id":137,"name":"***** ***","steam_id":76561198048037379,"connected_time":366000000000,"state":"active","ping":82},{"user_id":101,"name":"StandAlloy","steam_id":76561199466218699,"connected_time":3250000000000,"state":"active","ping":109},{"user_id":129,"name":"Borat","steam_id":76561198122226417,"connected_time":755000000000,"state":"active","ping":35},{"user_id":135,"name":"Masquerade queen","steam_id":76561198218299273,"connected_time":569000000000,"state":"active","ping":91},{"user_id":143,"name":"When Life gives you Lemons","steam_id":76561198318290663,"connected_time":33000000000,"state":"active","ping":58}]},{"server_id":320,"name":"Uncletopia | London | 3 | All Maps","name_short":"lon-3","host":"lon-1.uk.uncletopia.com","port":27035,"enabled":true,"region":"eu","cc":"gb","latitude":51.509865,"longitude":-0.118092,"reserved":0,"last_update":"0001-01-01T00:00:00Z","name_a2s":"Uncletopia | London | 3 | All Maps","protocol":17,"map":"pl_thundermountain","folder":"tf","game":"Team Fortress","app_id":440,"player_count":24,"max_players":24,"Bots":0,"server_type":"Dedicated","server_os":"Linux","password":true,"vac":true,"version":"7757534","steam_id":85568392924510192,"keywords":["nocrits","nodmgspread","payload","uncletopia"],"game_id":440,"stv_port":27036,"stv_name":"Uncletopia | London | 3 | All Maps | STV","players":[{"user_id":749,"name":"Zmora","steam_id":76561199057422095,"connected_time":2470000000000,"state":"active","ping":84},{"user_id":773,"name":"doge de portugal","steam_id":76561198359541030,"connected_time":854000000000,"state":"active","ping":82},{"user_id":751,"name":"big tiddy goth bf","steam_id":76561198170609049,"connected_time":2336000000000,"state":"active","ping":87},{"user_id":753,"name":"ferizmer","steam_id":76561198806968871,"connected_time":2202000000000,"state":"active","ping":101},{"user_id":768,"name":"mt","steam_id":76561197961319303,"connected_time":1885000000000,"state":"active","ping":56},{"user_id":780,"name":"Bolton Freeman","steam_id":76561198096196978,"connected_time":635000000000,"state":"active","ping":56},{"user_id":774,"name":"QUASO","steam_id":76561198295305088,"connected_time":831000000000,"state":"active","ping":62},{"user_id":781,"name":"limdungbeetle","steam_id":76561198026160958,"connected_time":626000000000,"state":"active","ping":79},{"user_id":742,"name":"Fat Pigeon","steam_id":76561198817940142,"connected_time":2631000000000,"state":"active","ping":45},{"user_id":758,"name":"Fratm_Wolf","steam_id":76561199100512277,"connected_time":2019000000000,"state":"active","ping":72},{"user_id":770,"name":"Fran","steam_id":76561199070516960,"connected_time":1724000000000,"state":"active","ping":72},{"user_id":732,"name":"Never √úber Me","steam_id":76561198140522687,"connected_time":2882000000000,"state":"active","ping":89},{"user_id":712,"name":"big tiddy goth gf","steam_id":76561198097507847,"connected_time":4377000000000,"state":"active","ping":83},{"user_id":760,"name":"markbon2000","steam_id":76561199019459436,"connected_time":2006000000000,"state":"active","ping":98},{"user_id":769,"name":"Coach McFish","steam_id":76561198210456405,"connected_time":1852000000000,"state":"active","ping":176},{"user_id":761,"name":"Official_Bananakin_Ita","steam_id":76561199208682492,"connected_time":2005000000000,"state":"active","ping":74},{"user_id":762,"name":"Seail_M","steam_id":76561198002405605,"connected_time":1990000000000,"state":"active","ping":63},{"user_id":772,"name":"Milosz52","steam_id":76561199060940204,"connected_time":1136000000000,"state":"active","ping":89},{"user_id":763,"name":"Hann√º","steam_id":76561197969886128,"connected_time":1983000000000,"state":"active","ping":55},{"user_id":783,"name":"k","steam_id":76561198089342103,"connected_time":500000000000,"state":"active","ping":89},{"user_id":777,"name":"hud_saytext_time 0","steam_id":76561198010327228,"connected_time":712000000000,"state":"active","ping":67},{"user_id":784,"name":"Tobb_Harvard","steam_id":76561199222100485,"connected_time":479000000000,"state":"active","ping":84},{"user_id":767,"name":"CosminSL","steam_id":76561198055827684,"connected_time":1948000000000,"state":"active","ping":75},{"user_id":786,"name":"Svettiga Gunnar","steam_id":76561197998579531,"connected_time":141000000000,"state":"active","ping":75}]},{"server_id":321,"name":"Uncletopia | London | 4 | All Maps","name_short":"lon-4","host":"lon-1.uk.uncletopia.com","port":27045,"enabled":true,"region":"eu","cc":"gb","latitude":51.509865,"longitude":-0.118092,"reserved":0,"last_update":"0001-01-01T00:00:00Z","name_a2s":"Uncletopia | London | 4 | All Maps","protocol":17,"map":"pl_snowycoast","folder":"tf","game":"Team Fortress","app_id":440,"player_count":24,"max_players":24,"Bots":0,"server_type":"Dedicated","server_os":"Linux","password":true,"vac":true,"version":"7757534","steam_id":85568392924510193,"keywords":["nocrits","nodmgspread","payload","uncletopia"],"game_id":440,"stv_port":27046,"stv_name":"Uncletopia | London | 4 | All Maps | STV","players":[{"user_id":205,"name":"MaKo","steam_id":76561199013535305,"connected_time":7030000000000,"state":"active","ping":69},{"user_id":249,"name":"Certified Hood pybro (ua)","steam_id":76561198970562699,"connected_time":4639000000000,"state":"active","ping":63},{"user_id":250,"name":"Kamanie","steam_id":76561198135448255,"connected_time":4605000000000,"state":"active","ping":61},{"user_id":303,"name":"woosh (poopy joe)","steam_id":76561198061127604,"connected_time":761000000000,"state":"active","ping":45},{"user_id":302,"name":"muZ","steam_id":76561198060145190,"connected_time":1169000000000,"state":"active","ping":65},{"user_id":261,"name":"LSKi","steam_id":76561198215470228,"connected_time":3494000000000,"state":"active","ping":56},{"user_id":290,"name":"Doctor Mobius","steam_id":76561197971281806,"connected_time":2527000000000,"state":"active","ping":75},{"user_id":262,"name":"P Diddy","steam_id":76561198829344838,"connected_time":3480000000000,"state":"active","ping":50},{"user_id":306,"name":"I might","steam_id":76561198121256258,"connected_time":653000000000,"state":"active","ping":154},{"user_id":305,"name":"Vezage","steam_id":76561198064916164,"connected_time":660000000000,"state":"active","ping":69},{"user_id":301,"name":"Largo","steam_id":76561198844368927,"connected_time":1542000000000,"state":"active","ping":75},{"user_id":260,"name":"Houlles","steam_id":76561198095277383,"connected_time":3666000000000,"state":"active","ping":49},{"user_id":286,"name":"TheUnusualLee","steam_id":76561198091736413,"connected_time":2843000000000,"state":"active","ping":40},{"user_id":307,"name":"Dirt Road","steam_id":76561198210372012,"connected_time":584000000000,"state":"active","ping":141},{"user_id":208,"name":"JunketsGM","steam_id":76561199122728626,"connected_time":7006000000000,"state":"active","ping":75},{"user_id":297,"name":"kreeekz","steam_id":76561198014431602,"connected_time":2215000000000,"state":"active","ping":77},{"user_id":308,"name":"BLACK MAN FROM JOJO","steam_id":76561198272948471,"connected_time":536000000000,"state":"active","ping":127},{"user_id":298,"name":"Red Dynamite","steam_id":76561199073167935,"connected_time":2152000000000,"state":"active","ping":157},{"user_id":299,"name":"Grandpa Dingelberg","steam_id":76561198072166743,"connected_time":2071000000000,"state":"active","ping":147},{"user_id":304,"name":"Screedle","steam_id":76561198004252281,"connected_time":715000000000,"state":"active","ping":54},{"user_id":309,"name":"3 oily men in a trench coat","steam_id":76561198983900735,"connected_time":523000000000,"state":"active","ping":66},{"user_id":291,"name":"transgender e-girl","steam_id":76561198168589809,"connected_time":2432000000000,"state":"active","ping":59},{"user_id":244,"name":"Shwupas","steam_id":76561198045493529,"connected_time":4936000000000,"state":"active","ping":37},{"user_id":288,"name":"‚ô• Aura ‚ô•","steam_id":76561198066258544,"connected_time":2782000000000,"state":"active","ping":62}]},{"server_id":21,"name":"Uncletopia | London | 5 | All Maps","name_short":"lon-5","host":"lon-1.uk.uncletopia.com","port":27055,"enabled":true,"region":"eu","cc":"gb","latitude":51.509865,"longitude":-0.118092,"reserved":0,"last_update":"0001-01-01T00:00:00Z","name_a2s":"Uncletopia | London | 5 | All Maps","protocol":17,"map":"koth_lakeside_final","folder":"tf","game":"Team Fortress","app_id":440,"player_count":5,"max_players":24,"Bots":0,"server_type":"Dedicated","server_os":"Linux","password":true,"vac":true,"version":"7757534","steam_id":85568392924742829,"keywords":["cp","nocrits","nodmgspread","uncletopia"],"game_id":440,"stv_port":27056,"stv_name":"Uncletopia | London | 5 | All Maps | STV","players":[{"user_id":33,"name":"ran is running","steam_id":76561199443185667,"connected_time":400000000000,"state":"active","ping":125},{"user_id":34,"name":"justin_ (f2p) (real)","steam_id":76561198839843428,"connected_time":395000000000,"state":"active","ping":113},{"user_id":35,"name":"Drekad√≥ttir","steam_id":76561198119979169,"connected_time":363000000000,"state":"active","ping":70},{"user_id":36,"name":"Ciara","steam_id":76561198044331457,"connected_time":57000000000,"state":"active","ping":127},{"user_id":37,"name":"Speedyjoestar","steam_id":76561198907130963,"connected_time":16000000000,"state":"spawning","ping":75}]},{"server_id":22,"name":"Uncletopia | London | 6 | All Maps","name_short":"lon-6","host":"lon-1.uk.uncletopia.com","port":27065,"enabled":true,"region":"eu","cc":"gb","latitude":51.509865,"longitude":-0.118092,"reserved":0,"last_update":"0001-01-01T00:00:00Z","name_a2s":"Uncletopia | London | 6 | All Maps","protocol":17,"map":"cp_dustbowl","folder":"tf","game":"Team Fortress","app_id":440,"player_count":0,"max_players":24,"Bots":0,"server_type":"Dedicated","server_os":"Linux","password":true,"vac":true,"version":"7757534","steam_id":85568392924742830,"keywords":["cp","nocrits","nodmgspread","uncletopia"],"game_id":440,"stv_port":27066,"stv_name":"Uncletopia | London | 6 | All Maps | STV","players":null},{"server_id":40,"name":"Uncletopia | London | 7 | No Payload","name_short":"lon-7","host":"lon-1.uk.uncletopia.com","port":27075,"enabled":true,"region":"eu","cc":"gb","latitude":51.509865,"longitude":-0.118092,"reserved":0,"last_update":"0001-01-01T00:00:00Z","name_a2s":"Uncletopia | London | 7 | No Payload","protocol":17,"map":"cp_snakewater_final1","folder":"tf","game":"Team Fortress","app_id":440,"player_count":24,"max_players":24,"Bots":0,"server_type":"Dedicated","server_os":"Linux","password":true,"vac":true,"version":"7757534","steam_id":85568392924964314,"keywords":["cp","nocrits","nodmgspread","uncletopia"],"game_id":440,"stv_port":27076,"stv_name":"Uncletopia | London | 7 | No Payload | STV","players":[{"user_id":645,"name":"hananamanna","steam_id":76561198006570285,"connected_time":367000000000,"state":"active","ping":113},{"user_id":636,"name":"Magic","steam_id":76561198401602586,"connected_time":728000000000,"state":"active","ping":81},{"user_id":630,"name":"Zonts","steam_id":76561198850176432,"connected_time":1156000000000,"state":"active","ping":89},{"user_id":648,"name":"eeeeee","steam_id":76561198017786875,"connected_time":275000000000,"state":"active","ping":74},{"user_id":637,"name":"Big Tits","steam_id":76561198071226377,"connected_time":716000000000,"state":"active","ping":82},{"user_id":391,"name":"New","steam_id":76561198402195911,"connected_time":15946000000000,"state":"active","ping":118},{"user_id":634,"name":"—Ç–æ–ª—è","steam_id":76561199098518615,"connected_time":912000000000,"state":"active","ping":96},{"user_id":575,"name":"sleep","steam_id":76561198034882276,"connected_time":4404000000000,"state":"active","ping":90},{"user_id":631,"name":"Rowan Atkinson","steam_id":76561199378865926,"connected_time":1063000000000,"state":"active","ping":84},{"user_id":608,"name":"7arc","steam_id":76561198146405761,"connected_time":2417000000000,"state":"active","ping":50},{"user_id":525,"name":"Uncle Mickey","steam_id":76561198050945401,"connected_time":8255000000000,"state":"active","ping":86},{"user_id":638,"name":"ttk","steam_id":76561198094684065,"connected_time":706000000000,"state":"active","ping":78},{"user_id":649,"name":"reino76","steam_id":76561198068943733,"connected_time":65000000000,"state":"active","ping":78},{"user_id":644,"name":"VeliTomaatti","steam_id":76561198158482564,"connected_time":564000000000,"state":"active","ping":70},{"user_id":572,"name":"alphawarrior999","steam_id":76561199001580062,"connected_time":4890000000000,"state":"active","ping":161},{"user_id":643,"name":"Unvid","steam_id":76561198031588080,"connected_time":577000000000,"state":"active","ping":58},{"user_id":609,"name":"RudiPrico4","steam_id":76561199014381495,"connected_time":2408000000000,"state":"active","ping":60},{"user_id":641,"name":"Rykita","steam_id":76561198135931968,"connected_time":662000000000,"state":"active","ping":77},{"user_id":628,"name":"BROOMSTER","steam_id":76561198344833818,"connected_time":1592000000000,"state":"active","ping":62},{"user_id":642,"name":"[T]aKer","steam_id":76561198001778013,"connected_time":661000000000,"state":"active","ping":54},{"user_id":607,"name":"Jamierogers","steam_id":76561198007043853,"connected_time":2558000000000,"state":"active","ping":57},{"user_id":647,"name":"unnamed","steam_id":76561198870764276,"connected_time":311000000000,"state":"active","ping":63},{"user_id":559,"name":"I Bleed Butter","steam_id":76561198130814770,"connected_time":6057000000000,"state":"active","ping":81},{"user_id":584,"name":"Bob","steam_id":76561198059559471,"connected_time":3833000000000,"state":"active","ping":100}]},{"server_id":41,"name":"Uncletopia | London | 8 | Community","name_short":"lon-8","host":"lon-1.uk.uncletopia.com","port":27085,"enabled":true,"region":"eu","cc":"gb","latitude":51.509865,"longitude":-0.118092,"reserved":0,"last_update":"0001-01-01T00:00:00Z","name_a2s":"Uncletopia | London | 8 | Community","protocol":17,"map":"workshop/koth_ramjam_rc1.ugc459778887","folder":"tf","game":"Team Fortress","app_id":440,"player_count":5,"max_players":24,"Bots":0,"server_type":"Dedicated","server_os":"Linux","password":true,"vac":true,"version":"7757534","steam_id":85568392924964315,"keywords":["cp","nocrits","nodmgspread","uncletopia"],"game_id":440,"stv_port":27086,"stv_name":"Uncletopia | London | 8 | Community | STV","players":[{"user_id":181,"name":"[P-roc] Cmm Bert","steam_id":76561198016658674,"connected_time":153000000000,"state":"active","ping":59},{"user_id":182,"name":"Wrath","steam_id":76561198054368494,"connected_time":139000000000,"state":"active","ping":74},{"user_id":183,"name":"vertty","steam_id":76561199021408510,"connected_time":37000000000,"state":"active","ping":77},{"user_id":178,"name":"Fish Bait","steam_id":76561198196406966,"connected_time":268000000000,"state":"active","ping":87},{"user_id":179,"name":"Dehydrated lft","steam_id":76561198970587989,"connected_time":255000000000,"state":"active","ping":83}]},{"server_id":300,"name":"Uncletopia | Montr√©al | 1 | All Maps","name_short":"mtl-1","host":"mtl-1.ca.uncletopia.com","port":27015,"enabled":true,"region":"us-east","cc":"ca","latitude":45.50889,"longitude":-73.56167,"reserved":0,"last_update":"0001-01-01T00:00:00Z","name_a2s":"Uncletopia | Montr√©al | 1 | All Maps","protocol":17,"map":"koth_cascade","folder":"tf","game":"Team Fortress","app_id":440,"player_count":0,"max_players":24,"Bots":0,"server_type":"Dedicated","server_os":"Linux","password":true,"vac":true,"version":"7757534","steam_id":85568392924500087,"keywords":["cp","nocrits","nodmgspread","uncletopia"],"game_id":440,"stv_port":27016,"stv_name":"Uncletopia | Montr√©al | 1 | All Maps | STV","players":null},{"server_id":301,"name":"Uncletopia | Montr√©al | 2 | All Maps","name_short":"mtl-2","host":"mtl-1.ca.uncletopia.com","port":27025,"enabled":true,"region":"us-east","cc":"ca","latitude":45.50889,"longitude":-73.56167,"reserved":0,"last_update":"0001-01-01T00:00:00Z","name_a2s":"Uncletopia | Montr√©al | 2 | All Maps","protocol":17,"map":"pl_badwater","folder":"tf","game":"Team Fortress","app_id":440,"player_count":23,"max_players":24,"Bots":0,"server_type":"Dedicated","server_os":"Linux","password":true,"vac":true,"version":"7757534","steam_id":85568392924500088,"keywords":["nocrits","nodmgspread","payload","uncletopia"],"game_id":440,"stv_port":27026,"stv_name":"Uncletopia | Montr√©al | 2 | All Maps | STV","players":[{"user_id":71,"name":"Stupid","steam_id":76561198127348089,"connected_time":901000000000,"state":"active","ping":59},{"user_id":65,"name":"Caretnose","steam_id":76561198021762583,"connected_time":1653000000000,"state":"active","ping":42},{"user_id":10,"name":"Maple!","steam_id":76561199315167502,"connected_time":6894000000000,"state":"active","ping":47},{"user_id":82,"name":"Uncle Majic the Hip Hop Magicia","steam_id":76561198107924303,"connected_time":506000000000,"state":"active","ping":41},{"user_id":14,"name":"custodian","steam_id":76561198058793778,"connected_time":4674000000000,"state":"active","ping":58},{"user_id":33,"name":"Master Shake","steam_id":76561199427729136,"connected_time":2573000000000,"state":"active","ping":87},{"user_id":34,"name":"Inevitable","steam_id":76561198210050169,"connected_time":2485000000000,"state":"active","ping":59},{"user_id":36,"name":"Flinko","steam_id":76561198041767012,"connected_time":2474000000000,"state":"active","ping":111},{"user_id":35,"name":"Zububu","steam_id":76561198024293060,"connected_time":2480000000000,"state":"active","ping":61},{"user_id":58,"name":"John Stossel","steam_id":76561198066821270,"connected_time":1841000000000,"state":"active","ping":72},{"user_id":49,"name":"nhbiker","steam_id":76561198081277675,"connected_time":2192000000000,"state":"active","ping":63},{"user_id":81,"name":"Monst3r","steam_id":76561198900654469,"connected_time":523000000000,"state":"active","ping":57},{"user_id":83,"name":"Yankee_Pirate","steam_id":76561198260667117,"connected_time":472000000000,"state":"active","ping":67},{"user_id":41,"name":"your local forecast","steam_id":76561198042243083,"connected_time":2334000000000,"state":"active","ping":60},{"user_id":85,"name":"Quansen","steam_id":76561198151594550,"connected_time":352000000000,"state":"active","ping":55},{"user_id":59,"name":"Scum!","steam_id":76561198051805219,"connected_time":1831000000000,"state":"active","ping":67},{"user_id":60,"name":"MagikarpEX","steam_id":76561198166172279,"connected_time":1811000000000,"state":"active","ping":72},{"user_id":75,"name":"turd ferguson","steam_id":76561198071620782,"connected_time":698000000000,"state":"active","ping":78},{"user_id":77,"name":"evnobev","steam_id":76561198038966462,"connected_time":618000000000,"state":"active","ping":45},{"user_id":66,"name":"hpesoJ*","steam_id":76561198031341893,"connected_time":1253000000000,"state":"active","ping":54},{"user_id":78,"name":"jmrnz","steam_id":76561198265230558,"connected_time":617000000000,"state":"active","ping":130},{"user_id":79,"name":"Kingsab16","steam_id":76561199096795723,"connected_time":599000000000,"state":"active","ping":70},{"user_id":84,"name":"Token","steam_id":76561198067814426,"connected_time":465000000000,"state":"active","ping":97}]},{"server_id":302,"name":"Uncletopia | Montr√©al | 3 | All Maps","name_short":"mtl-3","host":"mtl-1.ca.uncletopia.com","port":27035,"enabled":true,"region":"us-east","cc":"ca","latitude":45.50889,"longitude":-73.56167,"reserved":0,"last_update":"0001-01-01T00:00:00Z","name_a2s":"Uncletopia | Montr√©al | 3 | All Maps","protocol":17,"map":"pl_swiftwater_final1","folder":"tf","game":"Team Fortress","app_id":440,"player_count":0,"max_players":24,"Bots":0,"server_type":"Dedicated","server_os":"Linux","password":true,"vac":true,"version":"7757534","steam_id":85568392924500089,"keywords":["nocrits","nodmgspread","payload","uncletopia"],"game_id":440,"stv_port":27036,"stv_name":"Uncletopia | Montr√©al | 3 | All Maps | STV","players":null},{"server_id":303,"name":"Uncletopia | Montr√©al | 4 | No Payload","name_short":"mtl-4","host":"mtl-1.ca.uncletopia.com","port":27045,"enabled":true,"region":"us-east","cc":"ca","latitude":45.50889,"longitude":-73.56167,"reserved":0,"last_update":"0001-01-01T00:00:00Z","name_a2s":"Uncletopia | Montr√©al | 4 | No Payload","protocol":17,"map":"ctf_sawmill","folder":"tf","game":"Team Fortress","app_id":440,"player_count":0,"max_players":24,"Bots":0,"server_type":"Dedicated","server_os":"Linux","password":true,"vac":true,"version":"7757534","steam_id":85568392924500090,"keywords":["ctf","nocrits","nodmgspread","uncletopia"],"game_id":440,"stv_port":27046,"stv_name":"Uncletopia | Montr√©al | 4 | No Payload | STV","players":null},{"server_id":13,"name":"Uncletopia | New York City | 1 | All Maps","name_short":"nyc-1","host":"nyc-1.us.uncletopia.com","port":27015,"enabled":true,"region":"us-east","cc":"us","latitude":40.73061,"longitude":-73.93524,"reserved":0,"last_update":"0001-01-01T00:00:00Z","name_a2s":"Uncletopia | New York City | 1 | All Maps","protocol":17,"map":"pl_badwater","folder":"tf","game":"Team Fortress","app_id":440,"player_count":20,"max_players":24,"Bots":0,"server_type":"Dedicated","server_os":"Linux","password":true,"vac":true,"version":"7757534","steam_id":85568392924469993,"keywords":["nocrits","nodmgspread","payload","uncletopia"],"game_id":440,"stv_port":27016,"stv_name":"Uncletopia | New York City | 1 | All Maps | STV","players":[{"user_id":422,"name":"Kymat","steam_id":76561198056367793,"connected_time":2436000000000,"state":"active","ping":102},{"user_id":400,"name":"Gerald Jay Sussman","steam_id":76561198114515026,"connected_time":3488000000000,"state":"active","ping":47},{"user_id":431,"name":"The Escape Plan","steam_id":76561199278125206,"connected_time":2040000000000,"state":"active","ping":164},{"user_id":449,"name":"kaleb","steam_id":76561198997126286,"connected_time":440000000000,"state":"active","ping":71},{"user_id":453,"name":"Glammy!","steam_id":76561198042009171,"connected_time":14000000000,"state":"active","ping":111},{"user_id":452,"name":"Glitchy stick","steam_id":76561199013429386,"connected_time":198000000000,"state":"active","ping":56},{"user_id":432,"name":"joe","steam_id":76561198332876604,"connected_time":2011000000000,"state":"active","ping":72},{"user_id":448,"name":"FattSucc","steam_id":76561198009500503,"connected_time":827000000000,"state":"active","ping":92},{"user_id":387,"name":"WibbyOne","steam_id":76561198052843846,"connected_time":4203000000000,"state":"active","ping":20},{"user_id":436,"name":"BNTF","steam_id":76561198062740087,"connected_time":1457000000000,"state":"active","ping":65},{"user_id":445,"name":"swat","steam_id":76561198803159110,"connected_time":990000000000,"state":"active","ping":90},{"user_id":443,"name":"aimware.edu","steam_id":76561198070380404,"connected_time":999000000000,"state":"active","ping":45},{"user_id":450,"name":"Frosty Nug","steam_id":76561198070187464,"connected_time":344000000000,"state":"active","ping":66},{"user_id":414,"name":"DiscoTraveler","steam_id":76561199240168088,"connected_time":2679000000000,"state":"active","ping":33},{"user_id":440,"name":"defendic27","steam_id":76561199092484762,"connected_time":1150000000000,"state":"active","ping":165},{"user_id":416,"name":"TF2 need a sex update","steam_id":76561199103964705,"connected_time":2657000000000,"state":"active","ping":114},{"user_id":446,"name":"Wookie","steam_id":76561198019780053,"connected_time":976000000000,"state":"active","ping":121},{"user_id":420,"name":"holyblade12","steam_id":76561198090842572,"connected_time":2495000000000,"state":"active","ping":36},{"user_id":396,"name":"Macro","steam_id":76561199442846226,"connected_time":3806000000000,"state":"active","ping":81},{"user_id":427,"name":"Periwinkle","steam_id":76561198092154097,"connected_time":2196000000000,"state":"active","ping":47}]},{"server_id":14,"name":"Uncletopia | New York City | 2 | All Maps","name_short":"nyc-2","host":"nyc-1.us.uncletopia.com","port":27025,"enabled":true,"region":"us-east","cc":"us","latitude":40.73061,"longitude":-73.93524,"reserved":0,"last_update":"0001-01-01T00:00:00Z","name_a2s":"Uncletopia | New York City | 2 | All Maps","protocol":17,"map":"pl_hoodoo_final","folder":"tf","game":"Team Fortress","app_id":440,"player_count":24,"max_players":24,"Bots":0,"server_type":"Dedicated","server_os":"Linux","password":true,"vac":true,"version":"7757534","steam_id":85568392924469994,"keywords":["nocrits","nodmgspread","payload","uncletopia"],"game_id":440,"stv_port":27026,"stv_name":"Uncletopia | New York City | 2 | All Maps | STV","players":[{"user_id":174,"name":"tokki","steam_id":76561198328173826,"connected_time":6068000000000,"state":"active","ping":135},{"user_id":253,"name":"Uncle Dale","steam_id":76561199144302768,"connected_time":499000000000,"state":"active","ping":51},{"user_id":233,"name":"Gandalf Gaming","steam_id":76561198368151490,"connected_time":1202000000000,"state":"active","ping":46},{"user_id":206,"name":"stewfat","steam_id":76561198084066964,"connected_time":3607000000000,"state":"active","ping":44},{"user_id":248,"name":"hipster_doofus","steam_id":76561197970902697,"connected_time":722000000000,"state":"active","ping":139},{"user_id":247,"name":"Aiko","steam_id":76561198262395873,"connected_time":765000000000,"state":"active","ping":127},{"user_id":223,"name":"Gian","steam_id":76561198041434512,"connected_time":2218000000000,"state":"active","ping":96},{"user_id":172,"name":"Best Gorilla Joke of 1897","steam_id":76561198149775502,"connected_time":6249000000000,"state":"active","ping":61},{"user_id":238,"name":"femboy slayer","steam_id":76561199260467614,"connected_time":1022000000000,"state":"active","ping":84},{"user_id":242,"name":"Rusted Cake","steam_id":76561198209755931,"connected_time":806000000000,"state":"active","ping":104},{"user_id":239,"name":"goodheartchris","steam_id":76561198045836210,"connected_time":1010000000000,"state":"active","ping":72},{"user_id":243,"name":"marshmallow","steam_id":76561197961959293,"connected_time":791000000000,"state":"active","ping":54},{"user_id":229,"name":"Ursus Ludius","steam_id":76561198025470722,"connected_time":1568000000000,"state":"active","ping":68},{"user_id":194,"name":"Nassu","steam_id":76561198147367577,"connected_time":5318000000000,"state":"active","ping":90},{"user_id":210,"name":"b1doof","steam_id":76561198078934921,"connected_time":3543000000000,"state":"active","ping":175},{"user_id":197,"name":"Hank","steam_id":76561198094830509,"connected_time":4964000000000,"state":"active","ping":63},{"user_id":232,"name":"PunchGhost","steam_id":76561198041668043,"connected_time":1528000000000,"state":"active","ping":64},{"user_id":254,"name":"morphtext","steam_id":76561199021314980,"connected_time":478000000000,"state":"active","ping":85},{"user_id":250,"name":"Banks","steam_id":76561198276505537,"connected_time":647000000000,"state":"active","ping":67},{"user_id":225,"name":"whoopsydoodle","steam_id":76561198045145360,"connected_time":1696000000000,"state":"active","ping":45},{"user_id":204,"name":"guyinatophat51","steam_id":76561198180230694,"connected_time":3633000000000,"state":"active","ping":59},{"user_id":251,"name":"Zoecient","steam_id":76561199094903005,"connected_time":635000000000,"state":"active","ping":84},{"user_id":236,"name":"Kumquat","steam_id":76561198200490386,"connected_time":1043000000000,"state":"active","ping":134},{"user_id":155,"name":"Training Arc","steam_id":76561198038832034,"connected_time":7776000000000,"state":"active","ping":121}]},{"server_id":15,"name":"Uncletopia | New York City | 3 | Stopwatch Beta","name_short":"nyc-3","host":"nyc-1.us.uncletopia.com","port":27035,"enabled":true,"region":"us-east","cc":"us","latitude":40.73061,"longitude":-73.93524,"reserved":0,"last_update":"0001-01-01T00:00:00Z","name_a2s":"Uncletopia | New York City | 3 | Stopwatch Beta","protocol":17,"map":"workshop/pl_badwater_pro_v12.ugc2142942074","folder":"tf","game":"Team Fortress","app_id":440,"player_count":0,"max_players":24,"Bots":0,"server_type":"Dedicated","server_os":"Linux","password":true,"vac":true,"version":"7757534","steam_id":85568392924742820,"keywords":["nocrits","nodmgspread","payload","uncletopia"],"game_id":440,"stv_port":27036,"stv_name":"Uncletopia | New York City | 3 | Stopwatch Beta | STV","players":null},{"server_id":16,"name":"Uncletopia | New York City | 4 | Community","name_short":"nyc-4","host":"nyc-1.us.uncletopia.com","port":27045,"enabled":true,"region":"us-east","cc":"us","latitude":40.73061,"longitude":-73.93524,"reserved":0,"last_update":"0001-01-01T00:00:00Z","name_a2s":"Uncletopia | New York City | 4 | Community","protocol":17,"map":"workshop/rd_asteroid_redux_b1.ugc2154902912","folder":"tf","game":"Team Fortress","app_id":440,"player_count":0,"max_players":24,"Bots":0,"server_type":"Dedicated","server_os":"Linux","password":true,"vac":true,"version":"7757534","steam_id":85568392924742821,"keywords":["beta","nocrits","nodmgspread","rd","uncletopia"],"game_id":440,"stv_port":27046,"stv_name":"Uncletopia | New York City | 4 | Community | STV","players":null},{"server_id":142,"name":"Uncletopia | S√£o Paulo | 1 | All Maps","name_short":"sao-1","host":"sao-1.br.uncletopia.com","port":27015,"enabled":true,"region":"sa","cc":"br","latitude":-23.533773,"longitude":-46.62529,"reserved":0,"last_update":"0001-01-01T00:00:00Z","name_a2s":"Uncletopia | S√£o Paulo | 1 | All Maps","protocol":17,"map":"koth_highpass","folder":"tf","game":"Team Fortress","app_id":440,"player_count":0,"max_players":24,"Bots":0,"server_type":"Dedicated","server_os":"Linux","password":true,"vac":true,"version":"7757534","steam_id":85568392924469996,"keywords":["cp","nocrits","nodmgspread","uncletopia"],"game_id":440,"stv_port":27016,"stv_name":"Uncletopia | S√£o Paulo | 1 | All Maps | STV","players":null},{"server_id":143,"name":"Uncletopia | S√£o Paulo | 2 | All Maps","name_short":"sao-2","host":"sao-2.br.uncletopia.com","port":27015,"enabled":true,"region":"sa","cc":"br","latitude":-23.533773,"longitude":-46.62529,"reserved":0,"last_update":"0001-01-01T00:00:00Z","name_a2s":"Uncletopia | S√£o Paulo | 2 | All Maps","protocol":17,"map":"pl_snowycoast","folder":"tf","game":"Team Fortress","app_id":440,"player_count":0,"max_players":24,"Bots":0,"server_type":"Dedicated","server_os":"Linux","password":true,"vac":true,"version":"7757534","steam_id":85568392924485349,"keywords":["nocrits","nodmgspread","payload","uncletopia"],"game_id":440,"stv_port":27016,"stv_name":"Uncletopia | S√£o Paulo | 2 | All Maps | STV","players":null},{"server_id":7,"name":"Uncletopia | Seattle | 1 | All Maps","name_short":"sea-1","host":"sea-1.us.uncletopia.com","port":27015,"enabled":true,"region":"us-west","cc":"us","latitude":47.608013,"longitude":-122.33517,"reserved":0,"last_update":"0001-01-01T00:00:00Z","name_a2s":"Uncletopia | Seattle | 1 | All Maps","protocol":17,"map":"koth_lakeside_final","folder":"tf","game":"Team Fortress","app_id":440,"player_count":20,"max_players":24,"Bots":0,"server_type":"Dedicated","server_os":"Linux","password":true,"vac":true,"version":"7757534","steam_id":85568392924469997,"keywords":["cp","nocrits","nodmgspread","uncletopia"],"game_id":440,"stv_port":27016,"stv_name":"Uncletopia | Seattle | 1 | All Maps | STV","players":[{"user_id":279,"name":"a chicken","steam_id":76561198313121580,"connected_time":739000000000,"state":"active","ping":77},{"user_id":242,"name":"Zumbah","steam_id":76561197975403036,"connected_time":2438000000000,"state":"active","ping":86},{"user_id":287,"name":"MrLeftTurn","steam_id":76561198856743969,"connected_time":154000000000,"state":"active","ping":82},{"user_id":268,"name":"MS Paint Gamer","steam_id":76561198964527916,"connected_time":1600000000000,"state":"active","ping":46},{"user_id":269,"name":"Joe Chi Minh","steam_id":76561198070838770,"connected_time":1599000000000,"state":"active","ping":59},{"user_id":280,"name":"LILIUM","steam_id":76561198086591493,"connected_time":692000000000,"state":"active","ping":85},{"user_id":109,"name":"wlnecro1","steam_id":76561199157418402,"connected_time":13560000000000,"state":"active","ping":100},{"user_id":270,"name":"1dk","steam_id":76561198135104742,"connected_time":1584000000000,"state":"active","ping":48},{"user_id":285,"name":"j","steam_id":76561198162075431,"connected_time":223000000000,"state":"active","ping":81},{"user_id":286,"name":"the journey of scout HO","steam_id":76561198842567021,"connected_time":223000000000,"state":"active","ping":127},{"user_id":274,"name":"we300men","steam_id":76561198060549722,"connected_time":1138000000000,"state":"active","ping":78},{"user_id":267,"name":"Milotic(demo arc day 3)","steam_id":76561198047995713,"connected_time":1605000000000,"state":"active","ping":97},{"user_id":281,"name":"‚ùÑ «ùldd…ê«ùu·¥âd ‚ùÑ","steam_id":76561198041108726,"connected_time":274000000000,"state":"active","ping":55},{"user_id":288,"name":"greens beans","steam_id":76561198153611491,"connected_time":141000000000,"state":"active","ping":45},{"user_id":234,"name":"Little Linguine","steam_id":76561198816986370,"connected_time":3645000000000,"state":"active","ping":57},{"user_id":276,"name":"pizzapie46","steam_id":76561198063577250,"connected_time":873000000000,"state":"active","ping":78},{"user_id":237,"name":"noellemeow","steam_id":76561198159622003,"connected_time":3181000000000,"state":"active","ping":108},{"user_id":260,"name":"weegeebad","steam_id":76561198280841437,"connected_time":1771000000000,"state":"active","ping":117},{"user_id":282,"name":"discord kitten","steam_id":76561198210322871,"connected_time":269000000000,"state":"active","ping":69},{"user_id":251,"name":"Your kinky Onee-san","steam_id":76561199146582356,"connected_time":2352000000000,"state":"active","ping":59}]},{"server_id":119,"name":"Uncletopia | Seattle | 2 | All Maps","name_short":"sea-2","host":"sea-1.us.uncletopia.com","port":27025,"enabled":true,"region":"us-west","cc":"us","latitude":47.608013,"longitude":-122.33517,"reserved":0,"last_update":"0001-01-01T00:00:00Z","name_a2s":"Uncletopia | Seattle | 2 | All Maps","protocol":17,"map":"cp_altitude","folder":"tf","game":"Team Fortress","app_id":440,"player_count":24,"max_players":24,"Bots":0,"server_type":"Dedicated","server_os":"Linux","password":true,"vac":true,"version":"7757534","steam_id":85568392924469998,"keywords":["cp","nocrits","nodmgspread","uncletopia"],"game_id":440,"stv_port":27026,"stv_name":"Uncletopia | Seattle | 2 | All Maps | STV","players":[{"user_id":194,"name":"antoniov00gaming","steam_id":76561198364632073,"connected_time":892000000000,"state":"active","ping":131},{"user_id":203,"name":"Daz","steam_id":76561198041431938,"connected_time":255000000000,"state":"active","ping":124},{"user_id":178,"name":"BurningKev","steam_id":76561198057688837,"connected_time":1782000000000,"state":"active","ping":76},{"user_id":163,"name":"HOG RIDER","steam_id":76561198298589502,"connected_time":3041000000000,"state":"active","ping":78},{"user_id":175,"name":"MatchMatch","steam_id":76561198048925904,"connected_time":2182000000000,"state":"active","ping":90},{"user_id":176,"name":"MisterManne","steam_id":76561198106598600,"connected_time":2147000000000,"state":"active","ping":56},{"user_id":192,"name":"grass","steam_id":76561199089573133,"connected_time":927000000000,"state":"active","ping":143},{"user_id":201,"name":"run fast fall down","steam_id":76561198167207112,"connected_time":366000000000,"state":"active","ping":74},{"user_id":183,"name":"PinguEnjoyer6","steam_id":76561199186723516,"connected_time":1366000000000,"state":"active","ping":73},{"user_id":85,"name":"Wizowd","steam_id":76561198167702261,"connected_time":7708000000000,"state":"active","ping":75},{"user_id":142,"name":"Chad the Sex Haver","steam_id":76561198058236528,"connected_time":4551000000000,"state":"active","ping":88},{"user_id":86,"name":"Gonotic gnelf","steam_id":76561199135847219,"connected_time":7706000000000,"state":"active","ping":132},{"user_id":204,"name":"M@verick","steam_id":76561198006363519,"connected_time":198000000000,"state":"active","ping":122},{"user_id":196,"name":"kodynotcody","steam_id":76561198340685758,"connected_time":853000000000,"state":"active","ping":63},{"user_id":197,"name":"FoodzAreGoodz","steam_id":76561198309262052,"connected_time":778000000000,"state":"active","ping":88},{"user_id":177,"name":"Whiskey","steam_id":76561198858154667,"connected_time":2074000000000,"state":"active","ping":75},{"user_id":191,"name":"Ch4rl33","steam_id":76561198037008621,"connected_time":967000000000,"state":"active","ping":111},{"user_id":205,"name":"Admiral Crumbs","steam_id":76561198108791583,"connected_time":12000000000,"state":"active","ping":59},{"user_id":202,"name":"Olblue2u","steam_id":76561199130563247,"connected_time":284000000000,"state":"active","ping":141},{"user_id":189,"name":"nucket","steam_id":76561198028658527,"connected_time":1031000000000,"state":"active","ping":75},{"user_id":184,"name":"Clit Yeastwood","steam_id":76561199042672094,"connected_time":1357000000000,"state":"active","ping":68},{"user_id":199,"name":"Little Green Man, Clayton","steam_id":76561198038945235,"connected_time":720000000000,"state":"active","ping":121},{"user_id":120,"name":"purple‚Ñ¢","steam_id":76561198057459725,"connected_time":5770000000000,"state":"active","ping":55},{"user_id":200,"name":"boulder","steam_id":76561198347225801,"connected_time":697000000000,"state":"active","ping":54}]},{"server_id":406,"name":"Uncletopia | Seattle | 3 | Stopwatch Beta","name_short":"sea-3","host":"sea-1.us.uncletopia.com","port":27035,"enabled":true,"region":"us-west","cc":"us","latitude":47.608013,"longitude":-122.33517,"reserved":0,"last_update":"0001-01-01T00:00:00Z","name_a2s":"Uncletopia | Seattle | 3 | Stopwatch Beta","protocol":17,"map":"workshop/koth_ashville_final.ugc2130459942","folder":"tf","game":"Team Fortress","app_id":440,"player_count":0,"max_players":24,"Bots":0,"server_type":"Dedicated","server_os":"Linux","password":true,"vac":true,"version":"7757534","steam_id":85568392924515217,"keywords":["cp","nocrits","nodmgspread","uncletopia"],"game_id":440,"stv_port":27036,"stv_name":"Uncletopia | Seattle | 3 | Stopwatch Beta | STV","players":null},{"server_id":17,"name":"Uncletopia | San Francisco | 1 | All Maps","name_short":"sfo-1","host":"sfo-1.us.uncletopia.com","port":27015,"enabled":true,"region":"us-west","cc":"us","latitude":37.77397,"longitude":-122.4313,"reserved":0,"last_update":"0001-01-01T00:00:00Z","name_a2s":"Uncletopia | San Francisco | 1 | All Maps","protocol":17,"map":"cp_mountainlab","folder":"tf","game":"Team Fortress","app_id":440,"player_count":0,"max_players":24,"Bots":0,"server_type":"Dedicated","server_os":"Linux","password":true,"vac":true,"version":"7757534","steam_id":85568392924469999,"keywords":["cp","nocrits","nodmgspread","uncletopia"],"game_id":440,"stv_port":27016,"stv_name":"Uncletopia | San Francisco | 1 | All Maps | STV","players":null},{"server_id":18,"name":"Uncletopia | San Francisco | 2 | All Maps","name_short":"sfo-2","host":"sfo-1.us.uncletopia.com","port":27025,"enabled":true,"region":"us-west","cc":"us","latitude":37.77397,"longitude":-122.4313,"reserved":0,"last_update":"0001-01-01T00:00:00Z","name_a2s":"Uncletopia | San Francisco | 2 | All Maps","protocol":17,"map":"pl_badwater","folder":"tf","game":"Team Fortress","app_id":440,"player_count":7,"max_players":24,"Bots":0,"server_type":"Dedicated","server_os":"Linux","password":true,"vac":true,"version":"7757534","steam_id":85568392924470000,"keywords":["nocrits","nodmgspread","payload","uncletopia"],"game_id":440,"stv_port":27026,"stv_name":"Uncletopia | San Francisco | 2 | All Maps | STV","players":[{"user_id":13,"name":"kenshi","steam_id":76561197999350004,"connected_time":1757000000000,"state":"active","ping":54},{"user_id":10,"name":"Birdman743","steam_id":76561198799636748,"connected_time":2473000000000,"state":"active","ping":72},{"user_id":14,"name":"Juno","steam_id":76561199326170824,"connected_time":1678000000000,"state":"active","ping":99},{"user_id":15,"name":"nfseskimo","steam_id":76561198078745666,"connected_time":670000000000,"state":"active","ping":60},{"user_id":16,"name":"heyglow","steam_id":76561198151095901,"connected_time":565000000000,"state":"active","ping":109},{"user_id":17,"name":"hardsowen100","steam_id":76561199239908316,"connected_time":407000000000,"state":"active","ping":201},{"user_id":18,"name":"sex defender","steam_id":76561199386363103,"connected_time":47000000000,"state":"active","ping":70}]},{"server_id":19,"name":"Uncletopia | San Francisco | 3 | Stopwatch Beta","name_short":"sfo-3","host":"sfo-1.us.uncletopia.com","port":27035,"enabled":true,"region":"us-west","cc":"us","latitude":37.77397,"longitude":-122.4313,"reserved":0,"last_update":"0001-01-01T00:00:00Z","name_a2s":"Uncletopia | San Francisco | 3 | Stopwatch Beta","protocol":17,"map":"workshop/koth_bagel_rc6.ugc2514036946","folder":"tf","game":"Team Fortress","app_id":440,"player_count":0,"max_players":24,"Bots":0,"server_type":"Dedicated","server_os":"Linux","password":true,"vac":true,"version":"7757534","steam_id":85568392924742824,"keywords":["cp","nocrits","nodmgspread","uncletopia"],"game_id":440,"stv_port":27036,"stv_name":"Uncletopia | San Francisco | 3 | Stopwatch Beta | STV","players":null},{"server_id":20,"name":"Uncletopia | San Francisco | 4 | Community","name_short":"sfo-4","host":"sfo-1.us.uncletopia.com","port":27045,"enabled":true,"region":"us-west","cc":"us","latitude":37.77397,"longitude":-122.4313,"reserved":0,"last_update":"0001-01-01T00:00:00Z","name_a2s":"Uncletopia | San Francisco | 4 | Community","protocol":17,"map":"workshop/pl_barnblitz_pro7.ugc582280235","folder":"tf","game":"Team Fortress","app_id":440,"player_count":22,"max_players":24,"Bots":0,"server_type":"Dedicated","server_os":"Linux","password":true,"vac":true,"version":"7757534","steam_id":85568392924742826,"keywords":["nocrits","nodmgspread","payload","uncletopia"],"game_id":440,"stv_port":27046,"stv_name":"Uncletopia | San Francisco | 4 | Community | STV","players":[{"user_id":109,"name":"jawnymac","steam_id":76561198179529599,"connected_time":535000000000,"state":"active","ping":48},{"user_id":71,"name":"Phlogging Solly","steam_id":76561198020580071,"connected_time":2993000000000,"state":"active","ping":56},{"user_id":81,"name":"Tech Deck","steam_id":76561199070437675,"connected_time":2182000000000,"state":"active","ping":67},{"user_id":107,"name":"Broadsword","steam_id":76561198011160411,"connected_time":714000000000,"state":"active","ping":125},{"user_id":73,"name":"ApplesMate","steam_id":76561198832763278,"connected_time":2661000000000,"state":"active","ping":61},{"user_id":97,"name":"asm_ghost","steam_id":76561199205363547,"connected_time":1369000000000,"state":"active","ping":72},{"user_id":100,"name":"magotago","steam_id":76561198013650292,"connected_time":1282000000000,"state":"active","ping":127},{"user_id":101,"name":"Hairy Pear","steam_id":76561198087397457,"connected_time":1195000000000,"state":"active","ping":88},{"user_id":89,"name":"armadahamnsterx","steam_id":76561198333027263,"connected_time":1857000000000,"state":"active","ping":54},{"user_id":114,"name":"gamer","steam_id":76561198334059206,"connected_time":319000000000,"state":"active","ping":52},{"user_id":22,"name":"ChromeOwl","steam_id":76561198953786715,"connected_time":5355000000000,"state":"active","ping":68},{"user_id":108,"name":"Maid 'n' China","steam_id":76561198423392976,"connected_time":707000000000,"state":"active","ping":52},{"user_id":117,"name":"wAck","steam_id":76561198072385729,"connected_time":37000000000,"state":"spawning","ping":292},{"user_id":106,"name":"Momazos","steam_id":76561198346410032,"connected_time":778000000000,"state":"active","ping":66},{"user_id":102,"name":"i take myself very seriously","steam_id":76561198161067554,"connected_time":936000000000,"state":"active","ping":44},{"user_id":112,"name":"Ros","steam_id":76561199055963822,"connected_time":494000000000,"state":"active","ping":105},{"user_id":90,"name":"George","steam_id":76561199246754425,"connected_time":1800000000000,"state":"active","ping":163},{"user_id":91,"name":"axelwashed","steam_id":76561198101196930,"connected_time":1786000000000,"state":"active","ping":106},{"user_id":115,"name":"banana97286","steam_id":76561199367847817,"connected_time":181000000000,"state":"active","ping":113},{"user_id":86,"name":"Raphael","steam_id":76561198101425586,"connected_time":2030000000000,"state":"active","ping":71},{"user_id":84,"name":"Pilot","steam_id":76561198253929922,"connected_time":2141000000000,"state":"active","ping":59},{"user_id":95,"name":"Captain Dain","steam_id":76561198204045832,"connected_time":1574000000000,"state":"active","ping":108}]},{"server_id":141,"name":"Uncletopia | Sydney | 1 | All Maps","name_short":"syd-1","host":"syd-1.au.uncletopia.com","port":27015,"enabled":true,"region":"au","cc":"au","latitude":-33.865143,"longitude":151.2099,"reserved":0,"last_update":"0001-01-01T00:00:00Z","name_a2s":"Uncletopia | Sydney | 1 | All Maps","protocol":17,"map":"pl_borneo","folder":"tf","game":"Team Fortress","app_id":440,"player_count":0,"max_players":24,"Bots":0,"server_type":"Dedicated","server_os":"Linux","password":true,"vac":true,"version":"7757534","steam_id":85568392924470001,"keywords":["nocrits","nodmgspread","payload","uncletopia"],"game_id":440,"stv_port":27016,"stv_name":"Uncletopia | Sydney | 1 | All Maps | STV","players":null},{"server_id":123,"name":"Uncletopia | Sydney | 2 | All Maps","name_short":"syd-2","host":"syd-1.au.uncletopia.com","port":27025,"enabled":true,"region":"au","cc":"au","latitude":-33.865143,"longitude":151.2099,"reserved":0,"last_update":"0001-01-01T00:00:00Z","name_a2s":"Uncletopia | Sydney | 2 | All Maps","protocol":17,"map":"cp_snakewater_final1","folder":"tf","game":"Team Fortress","app_id":440,"player_count":0,"max_players":24,"Bots":0,"server_type":"Dedicated","server_os":"Linux","password":true,"vac":true,"version":"7757534","steam_id":85568392924470002,"keywords":["cp","nocrits","nodmgspread","uncletopia"],"game_id":440,"stv_port":27026,"stv_name":"Uncletopia | Sydney | 2 | All Maps | STV","players":null},{"server_id":395,"name":"Uncletopia | Sydney | 3 | All Maps","name_short":"syd-3","host":"syd-1.au.uncletopia.com","port":27035,"enabled":true,"region":"au","cc":"au","latitude":-33.865143,"longitude":151.2099,"reserved":0,"last_update":"0001-01-01T00:00:00Z","name_a2s":"Uncletopia | Sydney | 3 | All Maps","protocol":17,"map":"pl_borneo","folder":"tf","game":"Team Fortress","app_id":440,"player_count":0,"max_players":24,"Bots":0,"server_type":"Dedicated","server_os":"Linux","password":true,"vac":true,"version":"7757534","steam_id":85568392925194467,"keywords":["nocrits","nodmgspread","payload","uncletopia"],"game_id":440,"stv_port":27036,"stv_name":"Uncletopia | Sydney | 3 | All Maps | STV","players":null},{"server_id":396,"name":"Uncletopia | Sydney | 4 | All Maps","name_short":"syd-4","host":"syd-1.au.uncletopia.com","port":27045,"enabled":true,"region":"au","cc":"au","latitude":-33.865143,"longitude":151.2099,"reserved":0,"last_update":"0001-01-01T00:00:00Z","name_a2s":"Uncletopia | Sydney | 4 | All Maps","protocol":17,"map":"cp_process_final","folder":"tf","game":"Team Fortress","app_id":440,"player_count":0,"max_players":24,"Bots":0,"server_type":"Dedicated","server_os":"Linux","password":true,"vac":true,"version":"7757534","steam_id":85568392925397958,"keywords":["cp","nocrits","nodmgspread","uncletopia"],"game_id":440,"stv_port":27046,"stv_name":"Uncletopia | Sydney | 4 | All Maps | STV","players":null},{"server_id":58,"name":"Uncletopia | Sydney | 5 | Stopwatch Beta","name_short":"syd-5","host":"syd-1.au.uncletopia.com","port":27055,"enabled":true,"region":"au","cc":"au","latitude":-33.865143,"longitude":151.2099,"reserved":0,"last_update":"0001-01-01T00:00:00Z","name_a2s":"Uncletopia | Sydney | 5 | Stopwatch Beta","protocol":17,"map":"cp_process_final","folder":"tf","game":"Team Fortress","app_id":440,"player_count":0,"max_players":24,"Bots":0,"server_type":"Dedicated","server_os":"Linux","password":true,"vac":true,"version":"7757534","steam_id":85568392925397959,"keywords":["cp","nocrits","nodmgspread","uncletopia"],"game_id":440,"stv_port":27056,"stv_name":"Uncletopia | Sydney | 5 | Stopwatch Beta | STV","players":null},{"server_id":59,"name":"Uncletopia | Sydney | 6 | Community","name_short":"syd-6","host":"syd-1.au.uncletopia.com","port":27065,"enabled":true,"region":"au","cc":"au","latitude":-33.865143,"longitude":151.2099,"reserved":0,"last_update":"0001-01-01T00:00:00Z","name_a2s":"Uncletopia | Sydney | 6 | Community","protocol":17,"map":"pl_badwater","folder":"tf","game":"Team Fortress","app_id":440,"player_count":0,"max_players":24,"Bots":0,"server_type":"Dedicated","server_os":"Linux","password":true,"vac":true,"version":"7757534","steam_id":85568392925397960,"keywords":["nocrits","nodmgspread","payload","uncletopia"],"game_id":440,"stv_port":27066,"stv_name":"Uncletopia | Sydney | 6 | Community | STV","players":null},{"server_id":49,"name":"Uncletopia | Warsaw | 1 | All Maps","name_short":"waw-1","host":"waw-1.pl.uncletopia.com","port":27015,"enabled":true,"region":"eu","cc":"pl","latitude":52.2297,"longitude":21.017532,"reserved":0,"last_update":"0001-01-01T00:00:00Z","name_a2s":"","protocol":0,"map":"","folder":"","game":"","app_id":0,"player_count":0,"max_players":0,"Bots":0,"server_type":"","server_os":"","password":false,"vac":false,"version":"","steam_id":0,"keywords":null,"game_id":0,"stv_port":0,"stv_name":"","players":null},{"server_id":50,"name":"Uncletopia | Warsaw | 2 | All Maps","name_short":"waw-2","host":"waw-1.pl.uncletopia.com","port":27025,"enabled":true,"region":"eu","cc":"pl","latitude":52.2297,"longitude":21.017532,"reserved":0,"last_update":"0001-01-01T00:00:00Z","name_a2s":"Uncletopia | Warsaw | 2 | All Maps","protocol":17,"map":"koth_highpass","folder":"tf","game":"Team Fortress","app_id":440,"player_count":2,"max_players":24,"Bots":0,"server_type":"Dedicated","server_os":"Linux","password":true,"vac":true,"version":"7757534","steam_id":85568392925397851,"keywords":["cp","nocrits","nodmgspread","uncletopia"],"game_id":440,"stv_port":27026,"stv_name":"Uncletopia | Warsaw | 2 | All Maps | STV","players":[{"user_id":199,"name":"Wojtasek0505","steam_id":76561199236721669,"connected_time":58000000000,"state":"active","ping":76},{"user_id":198,"name":"Rybigiusz","steam_id":76561198799311754,"connected_time":822000000000,"state":"active","ping":55}]},{"server_id":51,"name":"Uncletopia | Warsaw | 3 | All Maps","name_short":"waw-3","host":"waw-1.pl.uncletopia.com","port":27035,"enabled":true,"region":"eu","cc":"pl","latitude":52.2297,"longitude":21.017532,"reserved":0,"last_update":"0001-01-01T00:00:00Z","name_a2s":"Uncletopia | Warsaw | 3 | All Maps","protocol":17,"map":"pl_frontier_final","folder":"tf","game":"Team Fortress","app_id":440,"player_count":2,"max_players":24,"Bots":0,"server_type":"Dedicated","server_os":"Linux","password":true,"vac":true,"version":"7757534","steam_id":85568392925397852,"keywords":["nocrits","nodmgspread","payload","uncletopia"],"game_id":440,"stv_port":27036,"stv_name":"Uncletopia | Warsaw | 3 | All Maps | STV","players":[{"user_id":6,"name":"Jacek Daniel's","steam_id":76561198021411547,"connected_time":26000000000,"state":"active","ping":55},{"user_id":8,"name":"Per≈Ça Cechu Import","steam_id":76561198120302217,"connected_time":8000000000,"state":"spawning","ping":41}]},{"server_id":52,"name":"Uncletopia | Warsaw | 4 | All Maps","name_short":"waw-4","host":"waw-1.pl.uncletopia.com","port":27045,"enabled":true,"region":"eu","cc":"pl","latitude":52.2297,"longitude":21.017532,"reserved":0,"last_update":"0001-01-01T00:00:00Z","name_a2s":"Uncletopia | Warsaw | 4 | All Maps","protocol":17,"map":"koth_highpass","folder":"tf","game":"Team Fortress","app_id":440,"player_count":0,"max_players":24,"Bots":0,"server_type":"Dedicated","server_os":"Linux","password":true,"vac":true,"version":"7757534","steam_id":85568392925397853,"keywords":["cp","nocrits","nodmgspread","uncletopia"],"game_id":440,"stv_port":27046,"stv_name":"Uncletopia | Warsaw | 4 | All Maps | STV","players":null},{"server_id":53,"name":"Uncletopia | Warsaw | 5 | Stopwatch Beta","name_short":"waw-5","host":"waw-1.pl.uncletopia.com","port":27055,"enabled":true,"region":"eu","cc":"pl","latitude":52.2297,"longitude":21.017532,"reserved":0,"last_update":"0001-01-01T00:00:00Z","name_a2s":"Uncletopia | Warsaw | 5 | Stopwatch Beta","protocol":17,"map":"pl_pier","folder":"tf","game":"Team Fortress","app_id":440,"player_count":0,"max_players":24,"Bots":0,"server_type":"Dedicated","server_os":"Linux","password":true,"vac":true,"version":"7757534","steam_id":85568392925397854,"keywords":["nocrits","nodmgspread","payload","uncletopia"],"game_id":440,"stv_port":27056,"stv_name":"Uncletopia | Warsaw | 5 | Stopwatch Beta | STV","players":null},{"server_id":54,"name":"Uncletopia | Warsaw | 6 | Community","name_short":"waw-6","host":"waw-1.pl.uncletopia.com","port":27065,"enabled":true,"region":"eu","cc":"pl","latitude":52.2297,"longitude":21.017532,"reserved":0,"last_update":"0001-01-01T00:00:00Z","name_a2s":"Uncletopia | Warsaw | 6 | Community","protocol":17,"map":"workshop/pl_divulgence_b4b.ugc2884808746","folder":"tf","game":"Team Fortress","app_id":440,"player_count":1,"max_players":24,"Bots":0,"server_type":"Dedicated","server_os":"Linux","password":true,"vac":true,"version":"7757534","steam_id":85568392925397856,"keywords":["nocrits","nodmgspread","payload","uncletopia"],"game_id":440,"stv_port":27066,"stv_name":"Uncletopia | Warsaw | 6 | Community | STV","players":[{"user_id":7,"name":"Darko","steam_id":76561198318825528,"connected_time":9000000000,"state":"spawning","ping":248}]}]}