{"status":true,"message":"","result":[{"server_id":9,"name":"Uncletopia | Atlanta | 1 | All Maps","name_short":"atl-1","host":"atl-1.us.uncletopia.com","port":27015,"enabled":true,"region":"us-east","cc":"us","latitude":33.753746,"longitude":-84.38633,"reserved":0,"last_update":"0001-01-01T00:00:00Z","name_a2s":"Uncletopia | Atlanta | 1 | All Maps","protocol":17,"map":"pl_borneo","folder":"tf","game":"Team Fortress","app_id":440,"player_count":24,"max_players":24,"Bots":0,"server_type":"Dedicated","server_os":"Linux","password":true,"vac":true,"version":"7757534","steam_id":85568392924469982,"keywords":["nocrits","nodmgspread","payload","uncletopia"],"game_id":440,"stv_port":27016,"stv_name":"Uncletopia | Atlanta | 1 | All Maps | STV","players":[{"user_id":825,"name":"ATL1 | Psionic Box","steam_id":76561198151019322,"connected_time":5256000000000,"state":"active","ping":61},{"user_id":831,"name":"tacofever","steam_id":76561198010966507,"connected_time":4416000000000,"state":"active","ping":108},{"user_id":853,"name":"0","steam_id":76561199481428061,"connected_time":961000000000,"state":"active","ping":62},{"user_id":837,"name":"Just PYE","steam_id":76561199439622967,"connected_time":3213000000000,"state":"active","ping":69},{"user_id":780,"name":"Crystron","steam_id":76561198880437428,"connected_time":9875000000000,"state":"active","ping":79},{"user_id":838,"name":"Toonice","steam_id":76561198402994885,"connected_time":2730000000000,"state":"active","ping":78},{"user_id":848,"name":"Aniz","steam_id":76561199226665024,"connected_time":1230000000000,"state":"active","ping":139},{"user_id":783,"name":"TheRealMud","steam_id":76561198138312993,"connected_time":9538000000000,"state":"active","ping":83},{"user_id":835,"name":"milo","steam_id":76561199061380038,"connected_time":3620000000000,"state":"active","ping":52},{"user_id":854,"name":"raya","steam_id":76561198051504581,"connected_time":663000000000,"state":"active","ping":60},{"user_id":841,"name":"BIG HOG","steam_id":76561198079923652,"connected_time":1870000000000,"state":"active","ping":74},{"user_id":802,"name":"David De Bergerac","steam_id":76561198010306294,"connected_time":7581000000000,"state":"active","ping":83},{"user_id":849,"name":"rainingmudkips","steam_id":76561198018010854,"connected_time":1207000000000,"state":"active","ping":76},{"user_id":832,"name":"bad spy player","steam_id":76561198873699671,"connected_time":4416000000000,"state":"active","ping":106},{"user_id":830,"name":"Epifiny","steam_id":76561198027958086,"connected_time":4471000000000,"state":"active","ping":81},{"user_id":826,"name":"Lemonade Juice","steam_id":76561198402892608,"connected_time":5175000000000,"state":"active","ping":104},{"user_id":843,"name":"Goyslop","steam_id":76561198142949496,"connected_time":1257000000000,"state":"active","ping":75},{"user_id":789,"name":"nft airshotter","steam_id":76561198158137522,"connected_time":9178000000000,"state":"active","ping":32},{"user_id":852,"name":"spoon","steam_id":76561198927517471,"connected_time":992000000000,"state":"active","ping":56},{"user_id":844,"name":"ATL 1 | Save your wifi","steam_id":76561198286147372,"connected_time":1256000000000,"state":"active","ping":52},{"user_id":855,"name":"wretched thing","steam_id":76561198120973162,"connected_time":270000000000,"state":"active","ping":83},{"user_id":846,"name":"Raine","steam_id":76561198098860903,"connected_time":1251000000000,"state":"active","ping":145},{"user_id":851,"name":"oakaokokakaokoa","steam_id":76561198092135570,"connected_time":1185000000000,"state":"active","ping":61},{"user_id":331,"name":"lil hog","steam_id":76561199230929836,"connected_time":38746000000000,"state":"active","ping":88}]},{"server_id":104,"name":"Uncletopia | Atlanta | 2 | All Maps","name_short":"atl-2","host":"atl-1.us.uncletopia.com","port":27025,"enabled":true,"region":"us-east","cc":"us","latitude":33.753746,"longitude":-84.38633,"reserved":0,"last_update":"0001-01-01T00:00:00Z","name_a2s":"Uncletopia | Atlanta | 2 | All Maps","protocol":17,"map":"cp_dustbowl","folder":"tf","game":"Team Fortress","app_id":440,"player_count":22,"max_players":24,"Bots":0,"server_type":"Dedicated","server_os":"Linux","password":true,"vac":true,"version":"7757534","steam_id":85568392924469983,"keywords":["cp","nocrits","nodmgspread","uncletopia"],"game_id":440,"stv_port":27026,"stv_name":"Uncletopia | Atlanta | 2 | All Maps | STV","players":[{"user_id":631,"name":"Spooper","steam_id":76561198119443320,"connected_time":528000000000,"state":"active","ping":82},{"user_id":617,"name":"BiggSlorp","steam_id":76561199130776156,"connected_time":1125000000000,"state":"active","ping":64},{"user_id":628,"name":"Dask","steam_id":76561198043385839,"connected_time":566000000000,"state":"active","ping":71},{"user_id":597,"name":"CEO of non-economic inflation","steam_id":76561198258126130,"connected_time":2575000000000,"state":"active","ping":63},{"user_id":619,"name":"galunga","steam_id":76561198027184320,"connected_time":867000000000,"state":"active","ping":139},{"user_id":604,"name":"Average Caber Fan","steam_id":76561199451299044,"connected_time":2030000000000,"state":"active","ping":66},{"user_id":624,"name":"DatBackflipTho","steam_id":76561198083062587,"connected_time":681000000000,"state":"active","ping":97},{"user_id":640,"name":"Pasta","steam_id":76561198170042173,"connected_time":283000000000,"state":"active","ping":73},{"user_id":642,"name":"originalakalil","steam_id":76561199481172481,"connected_time":107000000000,"state":"active","ping":70},{"user_id":629,"name":"Melancholia","steam_id":76561198197066783,"connected_time":561000000000,"state":"active","ping":91},{"user_id":641,"name":"Discourse","steam_id":76561198984286678,"connected_time":272000000000,"state":"active","ping":72},{"user_id":634,"name":"happy camper","steam_id":76561198209813328,"connected_time":440000000000,"state":"active","ping":62},{"user_id":630,"name":"The Ghost of Jay Leno","steam_id":76561198058938897,"connected_time":559000000000,"state":"active","ping":72},{"user_id":633,"name":"Maurix6","steam_id":76561198066634370,"connected_time":472000000000,"state":"active","ping":93},{"user_id":613,"name":"PinguEnjoyer6","steam_id":76561199186723516,"connected_time":1534000000000,"state":"active","ping":87},{"user_id":643,"name":"ǰếţţ ヅ-road to 25k hours","steam_id":76561198355883165,"connected_time":83000000000,"state":"active","ping":85},{"user_id":636,"name":"TTV.silverfan420","steam_id":76561198013873028,"connected_time":412000000000,"state":"active","ping":92},{"user_id":637,"name":"Gaz","steam_id":76561198112838904,"connected_time":407000000000,"state":"active","ping":105},{"user_id":577,"name":"shitass","steam_id":76561198355094896,"connected_time":4441000000000,"state":"active","ping":53},{"user_id":615,"name":"Poptart From Mars","steam_id":76561197979930960,"connected_time":1420000000000,"state":"active","ping":90},{"user_id":638,"name":"Persona404","steam_id":76561198109635077,"connected_time":404000000000,"state":"active","ping":99},{"user_id":639,"name":"chem⭑","steam_id":76561198972045654,"connected_time":319000000000,"state":"active","ping":60}]},{"server_id":400,"name":"Uncletopia | Atlanta | 3 | Community","name_short":"atl-3","host":"atl-1.us.uncletopia.com","port":27035,"enabled":true,"region":"us-east","cc":"us","latitude":33.753746,"longitude":-84.38633,"reserved":0,"last_update":"0001-01-01T00:00:00Z","name_a2s":"Uncletopia | Atlanta | 3 | Community","protocol":17,"map":"workshop/cp_sulfur_rc2.ugc619869471","folder":"tf","game":"Team Fortress","app_id":440,"player_count":0,"max_players":24,"Bots":0,"server_type":"Dedicated","server_os":"Linux","password":true,"vac":true,"version":"7757534","steam_id":85568392924515187,"keywords":["cp","nocrits","nodmgspread","uncletopia"],"game_id":440,"stv_port":27036,"stv_name":"Uncletopia | Atlanta | 3 | Community | STV","players":null},{"server_id":401,"name":"Uncletopia | Atlanta | 4 | No Payload","name_short":"atl-4","host":"atl-1.us.uncletopia.com","port":27045,"enabled":true,"region":"us-east","cc":"us","latitude":33.753746,"longitude":-84.38633,"reserved":0,"last_update":"0001-01-01T00:00:00Z","name_a2s":"","protocol":0,"map":"","folder":"","game":"","app_id":0,"player_count":0,"max_players":0,"Bots":0,"server_type":"","server_os":"","password":false,"vac":false,"version":"","steam_id":0,"keywords":null,"game_id":0,"stv_port":0,"stv_name":"","players":null},{"server_id":2,"name":"Uncletopia | Chicago | 1 | All Maps","name_short":"chi-1","host":"chi-1.us.uncletopia.com","port":27015,"enabled":true,"region":"us-central","cc":"us","latitude":41.881832,"longitude":-87.62318,"reserved":0,"last_update":"0001-01-01T00:00:00Z","name_a2s":"Uncletopia | Chicago | 1 | All Maps","protocol":17,"map":"cp_dustbowl","folder":"tf","game":"Team Fortress","app_id":440,"player_count":21,"max_players":24,"Bots":0,"server_type":"Dedicated","server_os":"Linux","password":true,"vac":true,"version":"7757534","steam_id":85568392924469984,"keywords":["cp","nocrits","nodmgspread","uncletopia"],"game_id":440,"stv_port":27016,"stv_name":"Uncletopia | Chicago | 1 | All Maps | STV","players":[{"user_id":835,"name":"Kakyōin Noriaki","steam_id":76561198123809642,"connected_time":2536000000000,"state":"active","ping":62},{"user_id":823,"name":"Joeyd2129","steam_id":76561198238471088,"connected_time":3296000000000,"state":"active","ping":101},{"user_id":852,"name":"Cutie","steam_id":76561198126686695,"connected_time":454000000000,"state":"active","ping":49},{"user_id":787,"name":"Mackrel","steam_id":76561199021620267,"connected_time":5862000000000,"state":"active","ping":51},{"user_id":849,"name":"the biggest bird","steam_id":76561198361999761,"connected_time":614000000000,"state":"active","ping":108},{"user_id":848,"name":"Psych","steam_id":76561198138727311,"connected_time":615000000000,"state":"active","ping":60},{"user_id":851,"name":"bucket'o'racoons","steam_id":76561199086234004,"connected_time":512000000000,"state":"active","ping":102},{"user_id":817,"name":"ciro12lori","steam_id":76561198300790534,"connected_time":3695000000000,"state":"active","ping":85},{"user_id":850,"name":"Caj","steam_id":76561198007055853,"connected_time":565000000000,"state":"active","ping":109},{"user_id":856,"name":"Raccoon.Of.Waffle.House","steam_id":76561199018770554,"connected_time":193000000000,"state":"active","ping":82},{"user_id":857,"name":"Deacon","steam_id":76561197998532724,"connected_time":173000000000,"state":"active","ping":100},{"user_id":844,"name":"upside down cat","steam_id":76561198028288349,"connected_time":1170000000000,"state":"active","ping":85},{"user_id":864,"name":"TheGuysMan","steam_id":76561198163677812,"connected_time":3000000000,"state":"spawning","ping":67},{"user_id":836,"name":"[ Clantag ] Pun-slinger","steam_id":76561198230348008,"connected_time":1986000000000,"state":"active","ping":60},{"user_id":839,"name":"Astro Knight","steam_id":76561198062767484,"connected_time":1523000000000,"state":"active","ping":82},{"user_id":860,"name":"AkimboAoki","steam_id":76561198158323058,"connected_time":119000000000,"state":"active","ping":91},{"user_id":861,"name":"apples","steam_id":76561198032787233,"connected_time":60000000000,"state":"spawning","ping":179},{"user_id":862,"name":"BrokenHalo83","steam_id":76561197996592808,"connected_time":52000000000,"state":"active","ping":94},{"user_id":863,"name":"Ice Man","steam_id":76561198073249999,"connected_time":10000000000,"state":"active","ping":86},{"user_id":837,"name":"Acehay14","steam_id":76561198052373291,"connected_time":1883000000000,"state":"active","ping":55},{"user_id":841,"name":"Captain S. Forrest","steam_id":76561198062463029,"connected_time":1433000000000,"state":"active","ping":68}]},{"server_id":106,"name":"Uncletopia | Chicago | 2 | All Maps","name_short":"chi-2","host":"chi-1.us.uncletopia.com","port":27025,"enabled":true,"region":"us-central","cc":"us","latitude":41.881832,"longitude":-87.62318,"reserved":0,"last_update":"0001-01-01T00:00:00Z","name_a2s":"Uncletopia | Chicago | 2 | All Maps","protocol":17,"map":"pl_rumford_event","folder":"tf","game":"Team Fortress","app_id":440,"player_count":24,"max_players":24,"Bots":0,"server_type":"Dedicated","server_os":"Linux","password":true,"vac":true,"version":"7757534","steam_id":85568392924469985,"keywords":["nocrits","nodmgspread","payload","uncletopia"],"game_id":440,"stv_port":27026,"stv_name":"Uncletopia | Chicago | 2 | All Maps | STV","players":[{"user_id":677,"name":"dr.sex","steam_id":76561198218497904,"connected_time":124000000000,"state":"active","ping":82},{"user_id":638,"name":"Ice","steam_id":76561198045076794,"connected_time":3380000000000,"state":"active","ping":52},{"user_id":659,"name":"OWEENIE","steam_id":76561198083135927,"connected_time":1026000000000,"state":"active","ping":45},{"user_id":676,"name":"bungo","steam_id":76561198065145850,"connected_time":174000000000,"state":"active","ping":78},{"user_id":619,"name":"Kanbaru Suruga","steam_id":76561198164782653,"connected_time":4346000000000,"state":"active","ping":65},{"user_id":618,"name":"gerg","steam_id":76561197997127387,"connected_time":4356000000000,"state":"active","ping":103},{"user_id":666,"name":"a bag of deep-fried pickles","steam_id":76561198411870808,"connected_time":821000000000,"state":"active","ping":57},{"user_id":671,"name":"Estuarion","steam_id":76561198057682951,"connected_time":674000000000,"state":"active","ping":95},{"user_id":631,"name":"Kick Down Door 6:00AM TUCK☃RO","steam_id":76561197976146738,"connected_time":4113000000000,"state":"active","ping":80},{"user_id":647,"name":"Mr.Hour's 24 Hour Island Challe","steam_id":76561198018995498,"connected_time":2959000000000,"state":"active","ping":58},{"user_id":672,"name":"gt","steam_id":76561198033033884,"connected_time":664000000000,"state":"active","ping":70},{"user_id":665,"name":"上帝选中的有趣的人","steam_id":76561198072396659,"connected_time":840000000000,"state":"active","ping":70},{"user_id":656,"name":"social distance warrior","steam_id":76561198128992994,"connected_time":1812000000000,"state":"active","ping":89},{"user_id":679,"name":"DaggerDouk","steam_id":76561199035811769,"connected_time":33000000000,"state":"active","ping":87},{"user_id":657,"name":"kanya east","steam_id":76561198919287084,"connected_time":1432000000000,"state":"active","ping":122},{"user_id":674,"name":"♡ ironterrortrain ♡","steam_id":76561198046460418,"connected_time":322000000000,"state":"active","ping":106},{"user_id":658,"name":"Tamalito109","steam_id":76561198310531554,"connected_time":1166000000000,"state":"active","ping":95},{"user_id":678,"name":"Alice in Rubberland","steam_id":76561198087328346,"connected_time":120000000000,"state":"active","ping":45},{"user_id":650,"name":"ATL 1 | POOP DRINKER","steam_id":76561198132372435,"connected_time":2796000000000,"state":"active","ping":81},{"user_id":627,"name":"VX_","steam_id":76561198211529143,"connected_time":4228000000000,"state":"active","ping":61},{"user_id":611,"name":"Drachma","steam_id":76561198007310514,"connected_time":5677000000000,"state":"active","ping":59},{"user_id":628,"name":"☯㉨❅flameskull3☠㉨☯","steam_id":76561198129000490,"connected_time":4218000000000,"state":"active","ping":96},{"user_id":649,"name":"doughboy","steam_id":76561198219012928,"connected_time":2857000000000,"state":"active","ping":106},{"user_id":645,"name":"Rock and Stone","steam_id":76561198057374871,"connected_time":3232000000000,"state":"active","ping":64}]},{"server_id":402,"name":"Uncletopia | Chicago | 3 | All Maps","name_short":"chi-3","host":"chi-1.us.uncletopia.com","port":27035,"enabled":true,"region":"us-central","cc":"us","latitude":41.881832,"longitude":-87.62318,"reserved":0,"last_update":"0001-01-01T00:00:00Z","name_a2s":"Uncletopia | Chicago | 3 | All Maps","protocol":17,"map":"pl_frontier_final","folder":"tf","game":"Team Fortress","app_id":440,"player_count":21,"max_players":24,"Bots":0,"server_type":"Dedicated","server_os":"Linux","password":true,"vac":true,"version":"7757534","steam_id":85568392924515191,"keywords":["nocrits","nodmgspread","payload","uncletopia"],"game_id":440,"stv_port":27036,"stv_name":"Uncletopia | Chicago | 3 | All Maps | STV","players":[{"user_id":727,"name":"carch1222","steam_id":76561198111665597,"connected_time":3086000000000,"state":"active","ping":83},{"user_id":768,"name":"caption cool","steam_id":76561197990612056,"connected_time":208000000000,"state":"active","ping":42},{"user_id":741,"name":"skag","steam_id":76561198016157051,"connected_time":1488000000000,"state":"active","ping":71},{"user_id":769,"name":"Juvice","steam_id":76561198843371502,"connected_time":30000000000,"state":"active","ping":52},{"user_id":743,"name":"Corpus Christi","steam_id":76561198417999443,"connected_time":1243000000000,"state":"active","ping":181},{"user_id":770,"name":"Aristotle Voulton","steam_id":76561198100174923,"connected_time":20000000000,"state":"active","ping":101},{"user_id":745,"name":"knu7x","steam_id":76561198035475805,"connected_time":1159000000000,"state":"active","ping":82},{"user_id":702,"name":"Sposeidon","steam_id":76561199044781490,"connected_time":5312000000000,"state":"active","ping":59},{"user_id":760,"name":"Poppet","steam_id":76561198012301951,"connected_time":578000000000,"state":"active","ping":53},{"user_id":734,"name":"Conrad Murray","steam_id":76561198141682876,"connected_time":2540000000000,"state":"active","ping":84},{"user_id":726,"name":"FoodzAreGoodz","steam_id":76561198309262052,"connected_time":3111000000000,"state":"active","ping":107},{"user_id":746,"name":"Vetenigga","steam_id":76561198129546803,"connected_time":1131000000000,"state":"active","ping":89},{"user_id":747,"name":"jalen","steam_id":76561198065205306,"connected_time":1125000000000,"state":"active","ping":75},{"user_id":761,"name":"i WILL ego peek","steam_id":76561199013337543,"connected_time":567000000000,"state":"active","ping":62},{"user_id":757,"name":"Kretim","steam_id":76561199204273483,"connected_time":664000000000,"state":"active","ping":70},{"user_id":711,"name":"MEGATRON","steam_id":76561198820480684,"connected_time":4868000000000,"state":"active","ping":57},{"user_id":766,"name":"_Ati","steam_id":76561198339777801,"connected_time":246000000000,"state":"active","ping":102},{"user_id":752,"name":"JelloSniffer","steam_id":76561198142770733,"connected_time":950000000000,"state":"active","ping":55},{"user_id":737,"name":"Fiendish Frog","steam_id":76561198029478821,"connected_time":2418000000000,"state":"active","ping":72},{"user_id":767,"name":"Shamrock Shake Oct.10.2020 @8pm","steam_id":76561198833313201,"connected_time":241000000000,"state":"active","ping":108},{"user_id":715,"name":"Hashyterps Visioncs.de","steam_id":76561198110563958,"connected_time":4821000000000,"state":"active","ping":90}]},{"server_id":403,"name":"Uncletopia | Chicago | 4 | All Maps","name_short":"chi-4","host":"chi-1.us.uncletopia.com","port":27045,"enabled":true,"region":"us-central","cc":"us","latitude":41.881832,"longitude":-87.62318,"reserved":0,"last_update":"0001-01-01T00:00:00Z","name_a2s":"Uncletopia | Chicago | 4 | All Maps","protocol":17,"map":"pl_badwater","folder":"tf","game":"Team Fortress","app_id":440,"player_count":24,"max_players":24,"Bots":0,"server_type":"Dedicated","server_os":"Linux","password":true,"vac":true,"version":"7757534","steam_id":85568392924515193,"keywords":["nocrits","nodmgspread","payload","uncletopia"],"game_id":440,"stv_port":27046,"stv_name":"Uncletopia | Chicago | 4 | All Maps | STV","players":[{"user_id":560,"name":"Tranq","steam_id":76561197967250757,"connected_time":2232000000000,"state":"active","ping":53},{"user_id":538,"name":"Professionally Braindead ツ","steam_id":76561198276714220,"connected_time":4276000000000,"state":"active","ping":57},{"user_id":561,"name":"Rain","steam_id":76561198346977332,"connected_time":2046000000000,"state":"active","ping":50},{"user_id":587,"name":"Minus","steam_id":76561198037887887,"connected_time":695000000000,"state":"active","ping":46},{"user_id":594,"name":"Fermenting Kiwi","steam_id":76561198253303497,"connected_time":235000000000,"state":"active","ping":76},{"user_id":546,"name":"ultralisk52","steam_id":76561198051666604,"connected_time":3693000000000,"state":"active","ping":59},{"user_id":583,"name":"[S]Mr. X [No Monitor]","steam_id":76561197963746035,"connected_time":736000000000,"state":"active","ping":102},{"user_id":584,"name":"centuronstar","steam_id":76561198277177841,"connected_time":723000000000,"state":"active","ping":69},{"user_id":581,"name":"tyg","steam_id":76561198056246867,"connected_time":942000000000,"state":"active","ping":64},{"user_id":491,"name":"Goat","steam_id":76561198068447650,"connected_time":8995000000000,"state":"active","ping":67},{"user_id":590,"name":"krwax","steam_id":76561198272053849,"connected_time":480000000000,"state":"active","ping":46},{"user_id":564,"name":"Crafty Butcher","steam_id":76561197993426667,"connected_time":1832000000000,"state":"active","ping":50},{"user_id":579,"name":"Spike","steam_id":76561198141356571,"connected_time":1037000000000,"state":"active","ping":59},{"user_id":577,"name":"psy","steam_id":76561198013195018,"connected_time":1049000000000,"state":"active","ping":76},{"user_id":492,"name":"Volati!e","steam_id":76561198020147226,"connected_time":8908000000000,"state":"active","ping":114},{"user_id":582,"name":"schizophrenic Stack stan","steam_id":76561198214370515,"connected_time":791000000000,"state":"active","ping":75},{"user_id":593,"name":"zaku","steam_id":76561199227854899,"connected_time":421000000000,"state":"active","ping":90},{"user_id":598,"name":"TÖZI","steam_id":76561198045268695,"connected_time":11000000000,"state":"spawning","ping":49},{"user_id":595,"name":"GOON","steam_id":76561198327993003,"connected_time":204000000000,"state":"active","ping":112},{"user_id":597,"name":"Bananadu","steam_id":76561198078062042,"connected_time":61000000000,"state":"active","ping":60},{"user_id":415,"name":"Hindmost","steam_id":76561199081837220,"connected_time":14455000000000,"state":"active","ping":82},{"user_id":580,"name":"funny little vtuber","steam_id":76561198000522179,"connected_time":957000000000,"state":"active","ping":65},{"user_id":589,"name":"Eoka Gaming","steam_id":76561198315596929,"connected_time":689000000000,"state":"active","ping":56},{"user_id":592,"name":"GUINNESS ANYONE?","steam_id":76561197985970131,"connected_time":469000000000,"state":"active","ping":66}]},{"server_id":36,"name":"Uncletopia | Chicago | 5 | All Maps","name_short":"chi-5","host":"chi-2.us.uncletopia.com","port":27015,"enabled":true,"region":"us-central","cc":"us","latitude":41.881832,"longitude":-87.62318,"reserved":0,"last_update":"0001-01-01T00:00:00Z","name_a2s":"Uncletopia | Chicago | 5 | All Maps","protocol":17,"map":"pl_borneo","folder":"tf","game":"Team Fortress","app_id":440,"player_count":0,"max_players":24,"Bots":0,"server_type":"Dedicated","server_os":"Linux","password":true,"vac":true,"version":"7757534","steam_id":85568392924866362,"keywords":["nocrits","nodmgspread","payload","uncletopia"],"game_id":440,"stv_port":27016,"stv_name":"Uncletopia | Chicago | 5 | All Maps | STV","players":null},{"server_id":37,"name":"Uncletopia | Chicago | 6 | All Maps","name_short":"chi-6","host":"chi-2.us.uncletopia.com","port":27025,"enabled":true,"region":"us-central","cc":"us","latitude":41.881832,"longitude":-87.62318,"reserved":0,"last_update":"0001-01-01T00:00:00Z","name_a2s":"Uncletopia | Chicago | 6 | All Maps","protocol":17,"map":"pl_swiftwater_final1","folder":"tf","game":"Team Fortress","app_id":440,"player_count":0,"max_players":24,"Bots":0,"server_type":"Dedicated","server_os":"Linux","password":true,"vac":true,"version":"7757534","steam_id":85568392924866363,"keywords":["nocrits","nodmgspread","payload","uncletopia"],"game_id":440,"stv_port":27026,"stv_name":"Uncletopia | Chicago | 6 | All Maps | STV","players":null},{"server_id":38,"name":"Uncletopia | Chicago | 7 | Stopwatch Beta","name_short":"chi-7","host":"chi-2.us.uncletopia.com","port":27035,"enabled":true,"region":"us-central","cc":"us","latitude":41.881832,"longitude":-87.62318,"reserved":0,"last_update":"0001-01-01T00:00:00Z","name_a2s":"Uncletopia | Chicago | 7 | Stopwatch Beta","protocol":17,"map":"pl_barnblitz","folder":"tf","game":"Team Fortress","app_id":440,"player_count":0,"max_players":24,"Bots":0,"server_type":"Dedicated","server_os":"Linux","password":true,"vac":true,"version":"7757534","steam_id":85568392924866364,"keywords":["nocrits","nodmgspread","payload","uncletopia"],"game_id":440,"stv_port":27036,"stv_name":"Uncletopia | Chicago | 7 | Stopwatch Beta | STV","players":null},{"server_id":39,"name":"Uncletopia | Chicago | 8 | Community","name_short":"chi-8","host":"chi-2.us.uncletopia.com","port":27045,"enabled":true,"region":"us-central","cc":"us","latitude":41.881832,"longitude":-87.62318,"reserved":0,"last_update":"0001-01-01T00:00:00Z","name_a2s":"Uncletopia | Chicago | 8 | Community","protocol":17,"map":"workshop/koth_slaughter_rc1.ugc1712845210","folder":"tf","game":"Team Fortress","app_id":440,"player_count":18,"max_players":24,"Bots":0,"server_type":"Dedicated","server_os":"Linux","password":true,"vac":true,"version":"7757534","steam_id":85568392924866365,"keywords":["cp","nocrits","nodmgspread","uncletopia"],"game_id":440,"stv_port":27046,"stv_name":"Uncletopia | Chicago | 8 | Community | STV","players":[{"user_id":462,"name":"Uncle Ron","steam_id":76561198145439487,"connected_time":2984000000000,"state":"active","ping":89},{"user_id":465,"name":"ReTrying","steam_id":76561198976162684,"connected_time":2586000000000,"state":"active","ping":87},{"user_id":458,"name":"the.land.of.avalon","steam_id":76561198245431668,"connected_time":3346000000000,"state":"active","ping":60},{"user_id":479,"name":"bingus","steam_id":76561199198633203,"connected_time":853000000000,"state":"active","ping":86},{"user_id":466,"name":"redzach","steam_id":76561198444094359,"connected_time":2462000000000,"state":"active","ping":53},{"user_id":490,"name":"Mighty","steam_id":76561198096569755,"connected_time":259000000000,"state":"active","ping":93},{"user_id":482,"name":"CuM LicKer | bapp","steam_id":76561198855110147,"connected_time":816000000000,"state":"active","ping":87},{"user_id":481,"name":"bonk man","steam_id":76561198386542309,"connected_time":833000000000,"state":"active","ping":89},{"user_id":428,"name":"I'm so full of stem cells","steam_id":76561198329087915,"connected_time":5232000000000,"state":"active","ping":106},{"user_id":426,"name":"Brain Tumor","steam_id":76561198805526881,"connected_time":5362000000000,"state":"active","ping":80},{"user_id":468,"name":"DeckofDragons","steam_id":76561198057398213,"connected_time":2161000000000,"state":"active","ping":68},{"user_id":485,"name":"(0.0)","steam_id":76561198217747041,"connected_time":606000000000,"state":"active","ping":91},{"user_id":457,"name":"GuyGoom","steam_id":76561198254522178,"connected_time":3463000000000,"state":"active","ping":59},{"user_id":471,"name":"[DEEP] Danmar33","steam_id":76561198056453091,"connected_time":1883000000000,"state":"active","ping":48},{"user_id":488,"name":"The Notorious T.A.F.T.","steam_id":76561198073012352,"connected_time":342000000000,"state":"active","ping":75},{"user_id":489,"name":"gi","steam_id":76561199037067957,"connected_time":303000000000,"state":"active","ping":60},{"user_id":390,"name":"Missing Minus","steam_id":76561198120822928,"connected_time":8120000000000,"state":"active","ping":59},{"user_id":432,"name":"Infinitytacos","steam_id":76561198884260211,"connected_time":5200000000000,"state":"active","ping":45}]},{"server_id":8,"name":"Uncletopia | Dallas | 1 | All Maps","name_short":"dal-1","host":"dal-1.us.uncletopia.com","port":27015,"enabled":true,"region":"us-central","cc":"us","latitude":32.779167,"longitude":-96.80889,"reserved":0,"last_update":"0001-01-01T00:00:00Z","name_a2s":"Uncletopia | Dallas | 1 | All Maps","protocol":17,"map":"pl_badwater","folder":"tf","game":"Team Fortress","app_id":440,"player_count":21,"max_players":24,"Bots":0,"server_type":"Dedicated","server_os":"Linux","password":true,"vac":true,"version":"7757534","steam_id":85568392924469986,"keywords":["nocrits","nodmgspread","payload","uncletopia"],"game_id":440,"stv_port":27016,"stv_name":"Uncletopia | Dallas | 1 | All Maps | STV","players":[{"user_id":850,"name":"FI LO","steam_id":76561198976530881,"connected_time":1414000000000,"state":"active","ping":60},{"user_id":759,"name":"errant","steam_id":76561197961758410,"connected_time":10099000000000,"state":"active","ping":31},{"user_id":828,"name":"naur","steam_id":76561198103496593,"connected_time":3730000000000,"state":"active","ping":61},{"user_id":846,"name":"jumbi","steam_id":76561198353456379,"connected_time":1833000000000,"state":"active","ping":60},{"user_id":865,"name":"Kamikazedoctor","steam_id":76561198157078818,"connected_time":526000000000,"state":"active","ping":71},{"user_id":845,"name":"BarelyBearable","steam_id":76561198079627665,"connected_time":1843000000000,"state":"active","ping":87},{"user_id":871,"name":"Partime_Spycrab","steam_id":76561199012897027,"connected_time":42000000000,"state":"active","ping":112},{"user_id":872,"name":"bunny girl bimbo!","steam_id":76561198122027532,"connected_time":7000000000,"state":"spawning","ping":61},{"user_id":858,"name":"Dreyma","steam_id":76561198227372596,"connected_time":1061000000000,"state":"active","ping":87},{"user_id":823,"name":"ShadowDragon0125","steam_id":76561198343849022,"connected_time":4866000000000,"state":"active","ping":82},{"user_id":860,"name":"『Hazon』","steam_id":76561198119852107,"connected_time":831000000000,"state":"active","ping":82},{"user_id":857,"name":"River Rat","steam_id":76561198116383976,"connected_time":1201000000000,"state":"active","ping":115},{"user_id":822,"name":"Oro from Simpsons","steam_id":76561199481745795,"connected_time":4930000000000,"state":"active","ping":45},{"user_id":864,"name":"Lore","steam_id":76561198098407538,"connected_time":529000000000,"state":"active","ping":66},{"user_id":851,"name":"Creeperlad 33","steam_id":76561199027120873,"connected_time":1336000000000,"state":"active","ping":115},{"user_id":835,"name":"vertical orientation correction","steam_id":76561198007464245,"connected_time":3680000000000,"state":"active","ping":75},{"user_id":867,"name":"Hashslinging Slasher","steam_id":76561198099015430,"connected_time":470000000000,"state":"active","ping":100},{"user_id":870,"name":"Legit_Jaxer","steam_id":76561198172234053,"connected_time":106000000000,"state":"active","ping":105},{"user_id":869,"name":"OctoBlitzVA","steam_id":76561198073909202,"connected_time":186000000000,"state":"active","ping":78},{"user_id":868,"name":"panpanpanpanpan","steam_id":76561198277478746,"connected_time":469000000000,"state":"active","ping":89},{"user_id":856,"name":"rain","steam_id":76561198848929793,"connected_time":1248000000000,"state":"active","ping":50}]},{"server_id":108,"name":"Uncletopia | Dallas | 2 | All Maps","name_short":"dal-2","host":"dal-1.us.uncletopia.com","port":27025,"enabled":true,"region":"us-central","cc":"us","latitude":32.779167,"longitude":-96.80889,"reserved":0,"last_update":"0001-01-01T00:00:00Z","name_a2s":"Uncletopia | Dallas | 2 | All Maps","protocol":17,"map":"koth_viaduct","folder":"tf","game":"Team Fortress","app_id":440,"player_count":24,"max_players":24,"Bots":0,"server_type":"Dedicated","server_os":"Linux","password":true,"vac":true,"version":"7757534","steam_id":85568392924469988,"keywords":["cp","nocrits","nodmgspread","uncletopia"],"game_id":440,"stv_port":27026,"stv_name":"Uncletopia | Dallas | 2 | All Maps | STV","players":[{"user_id":810,"name":"Alva","steam_id":76561198023665618,"connected_time":1014000000000,"state":"active","ping":75},{"user_id":800,"name":"k3nny11","steam_id":76561198182533757,"connected_time":1428000000000,"state":"active","ping":66},{"user_id":778,"name":"Yams","steam_id":76561198068084541,"connected_time":3489000000000,"state":"active","ping":60},{"user_id":815,"name":"Chuck Jenkins Noris III","steam_id":76561198076069359,"connected_time":438000000000,"state":"active","ping":105},{"user_id":716,"name":"iaPK","steam_id":76561198056618642,"connected_time":7668000000000,"state":"active","ping":44},{"user_id":811,"name":"HeroProc","steam_id":76561197993296892,"connected_time":988000000000,"state":"active","ping":69},{"user_id":802,"name":"NYT","steam_id":76561198041151763,"connected_time":1387000000000,"state":"active","ping":79},{"user_id":812,"name":"Turudo","steam_id":76561197997648031,"connected_time":709000000000,"state":"active","ping":55},{"user_id":805,"name":"Lemon Pine-Sol","steam_id":76561198068326695,"connected_time":1281000000000,"state":"active","ping":58},{"user_id":690,"name":"Shiny","steam_id":76561198172286358,"connected_time":10127000000000,"state":"active","ping":72},{"user_id":771,"name":"Frontier Psychiatrist","steam_id":76561198038689088,"connected_time":3804000000000,"state":"active","ping":91},{"user_id":809,"name":"herb","steam_id":76561198185980055,"connected_time":1164000000000,"state":"active","ping":67},{"user_id":816,"name":"cuckboi","steam_id":76561198343060961,"connected_time":268000000000,"state":"active","ping":101},{"user_id":779,"name":"kazoo2","steam_id":76561198260473504,"connected_time":3487000000000,"state":"active","ping":78},{"user_id":772,"name":"Remmy","steam_id":76561198268857418,"connected_time":3797000000000,"state":"active","ping":87},{"user_id":758,"name":"Project_Counter","steam_id":76561198152786076,"connected_time":4901000000000,"state":"active","ping":53},{"user_id":793,"name":"NexFrost","steam_id":76561197985774837,"connected_time":2412000000000,"state":"active","ping":44},{"user_id":804,"name":"the smiling zombie","steam_id":76561199246231090,"connected_time":1346000000000,"state":"active","ping":83},{"user_id":814,"name":"Melonfrog","steam_id":76561198389885427,"connected_time":492000000000,"state":"active","ping":78},{"user_id":776,"name":"Kuyumiester","steam_id":76561198126835302,"connected_time":3584000000000,"state":"active","ping":61},{"user_id":788,"name":"Jacob Hornberger 2016","steam_id":76561198204549723,"connected_time":2773000000000,"state":"active","ping":139},{"user_id":762,"name":"Pope","steam_id":76561198053768137,"connected_time":4505000000000,"state":"active","ping":52},{"user_id":783,"name":"Underscore","steam_id":76561198374209415,"connected_time":3438000000000,"state":"active","ping":61},{"user_id":792,"name":"Francis Cockrel 2016","steam_id":76561198078391538,"connected_time":2692000000000,"state":"active","ping":78}]},{"server_id":5,"name":"Uncletopia | Frankfurt | 1 | All Maps","name_short":"frk-1","host":"frk-1.de.uncletopia.com","port":27015,"enabled":true,"region":"eu","cc":"de","latitude":50.110924,"longitude":8.682127,"reserved":0,"last_update":"0001-01-01T00:00:00Z","name_a2s":"Uncletopia | Frankfurt | 1 | All Maps","protocol":17,"map":"pl_snowycoast","folder":"tf","game":"Team Fortress","app_id":440,"player_count":0,"max_players":24,"Bots":0,"server_type":"Dedicated","server_os":"Linux","password":true,"vac":true,"version":"7757534","steam_id":85568392924469989,"keywords":["nocrits","nodmgspread","payload","uncletopia"],"game_id":440,"stv_port":27016,"stv_name":"Uncletopia | Frankfurt | 1 | All Maps | STV","players":null},{"server_id":110,"name":"Uncletopia | Frankfurt | 2 | All Maps","name_short":"frk-2","host":"frk-1.de.uncletopia.com","port":27025,"enabled":true,"region":"eu","cc":"de","latitude":50.110924,"longitude":8.682127,"reserved":0,"last_update":"0001-01-01T00:00:00Z","name_a2s":"Uncletopia | Frankfurt | 2 | All Maps","protocol":17,"map":"cp_snakewater_final1","folder":"tf","game":"Team Fortress","app_id":440,"player_count":0,"max_players":24,"Bots":0,"server_type":"Dedicated","server_os":"Linux","password":true,"vac":true,"version":"7757534","steam_id":85568392924469990,"keywords":["cp","nocrits","nodmgspread","uncletopia"],"game_id":440,"stv_port":27026,"stv_name":"Uncletopia | Frankfurt | 2 | All Maps | STV","players":null},{"server_id":308,"name":"Uncletopia | Frankfurt | 3 | All Maps","name_short":"frk-3","host":"frk-1.de.uncletopia.com","port":27035,"enabled":true,"region":"eu","cc":"de","latitude":50.110924,"longitude":8.682127,"reserved":0,"last_update":"0001-01-01T00:00:00Z","name_a2s":"Uncletopia | Frankfurt | 3 | All Maps","protocol":17,"map":"pl_swiftwater_final1","folder":"tf","game":"Team Fortress","app_id":440,"player_count":0,"max_players":24,"Bots":0,"server_type":"Dedicated","server_os":"Linux","password":true,"vac":true,"version":"7757534","steam_id":85568392924504274,"keywords":["nocrits","nodmgspread","payload","uncletopia"],"game_id":440,"stv_port":27036,"stv_name":"Uncletopia | Frankfurt | 3 | All Maps | STV","players":null},{"server_id":309,"name":"Uncletopia | Frankfurt | 4 | All Maps","name_short":"frk-4","host":"frk-1.de.uncletopia.com","port":27045,"enabled":true,"region":"eu","cc":"de","latitude":50.110924,"longitude":8.682127,"reserved":0,"last_update":"0001-01-01T00:00:00Z","name_a2s":"Uncletopia | Frankfurt | 4 | All Maps","protocol":17,"map":"koth_viaduct","folder":"tf","game":"Team Fortress","app_id":440,"player_count":0,"max_players":24,"Bots":0,"server_type":"Dedicated","server_os":"Linux","password":true,"vac":true,"version":"7757534","steam_id":85568392924504275,"keywords":["cp","nocrits","nodmgspread","uncletopia"],"game_id":440,"stv_port":27046,"stv_name":"Uncletopia | Frankfurt | 4 | All Maps | STV","players":null},{"server_id":310,"name":"Uncletopia | Frankfurt | 5 | All Maps","name_short":"frk-5","host":"frk-1.de.uncletopia.com","port":27055,"enabled":true,"region":"eu","cc":"de","latitude":50.110924,"longitude":8.682127,"reserved":0,"last_update":"0001-01-01T00:00:00Z","name_a2s":"Uncletopia | Frankfurt | 5 | All Maps","protocol":17,"map":"koth_lakeside_final","folder":"tf","game":"Team Fortress","app_id":440,"player_count":0,"max_players":24,"Bots":0,"server_type":"Dedicated","server_os":"Linux","password":true,"vac":true,"version":"7757534","steam_id":85568392924504277,"keywords":["cp","nocrits","nodmgspread","uncletopia"],"game_id":440,"stv_port":27056,"stv_name":"Uncletopia | Frankfurt | 5 | All Maps | STV","players":null},{"server_id":311,"name":"Uncletopia | Frankfurt | 6 | All Maps","name_short":"frk-6","host":"frk-1.de.uncletopia.com","port":27065,"enabled":true,"region":"eu","cc":"de","latitude":50.110924,"longitude":8.682127,"reserved":0,"last_update":"0001-01-01T00:00:00Z","name_a2s":"Uncletopia | Frankfurt | 6 | All Maps","protocol":17,"map":"cp_altitude","folder":"tf","game":"Team Fortress","app_id":440,"player_count":0,"max_players":24,"Bots":0,"server_type":"Dedicated","server_os":"Linux","password":true,"vac":true,"version":"7757534","steam_id":85568392924504278,"keywords":["cp","nocrits","nodmgspread","uncletopia"],"game_id":440,"stv_port":27066,"stv_name":"Uncletopia | Frankfurt | 6 | All Maps | STV","players":null},{"server_id":23,"name":"Uncletopia | Frankfurt | 7 | Stopwatch Beta","name_short":"frk-7","host":"frk-1.de.uncletopia.com","port":27075,"enabled":true,"region":"eu","cc":"de","latitude":50.110924,"longitude":8.682127,"reserved":0,"last_update":"0001-01-01T00:00:00Z","name_a2s":"Uncletopia | Frankfurt | 7 | Stopwatch Beta","protocol":17,"map":"cp_sunshine","folder":"tf","game":"Team Fortress","app_id":440,"player_count":0,"max_players":24,"Bots":0,"server_type":"Dedicated","server_os":"Linux","password":true,"vac":true,"version":"7757534","steam_id":85568392924742827,"keywords":["cp","nocrits","nodmgspread","uncletopia"],"game_id":440,"stv_port":27076,"stv_name":"Uncletopia | Frankfurt | 7 | Stopwatch Beta | STV","players":null},{"server_id":24,"name":"Uncletopia | Frankfurt | 8 | Community","name_short":"frk-8","host":"frk-1.de.uncletopia.com","port":27085,"enabled":true,"region":"eu","cc":"de","latitude":50.110924,"longitude":8.682127,"reserved":0,"last_update":"0001-01-01T00:00:00Z","name_a2s":"Uncletopia | Frankfurt | 8 | Community","protocol":17,"map":"koth_lakeside_final","folder":"tf","game":"Team Fortress","app_id":440,"player_count":0,"max_players":24,"Bots":0,"server_type":"Dedicated","server_os":"Linux","password":true,"vac":true,"version":"7757534","steam_id":85568392924742828,"keywords":["cp","nocrits","nodmgspread","uncletopia"],"game_id":440,"stv_port":27086,"stv_name":"Uncletopia | Frankfurt | 8 | Community | STV","players":null},{"server_id":202,"name":"Uncletopia | Hong Kong | 1 | All Maps","name_short":"hgk-1","host":"hgk-1.hk.uncletopia.com","port":27015,"enabled":true,"region":"asia","cc":"hk","latitude":22.302711,"longitude":114.177216,"reserved":0,"last_update":"0001-01-01T00:00:00Z","name_a2s":"Uncletopia | Hong Kong | 1 | All Maps","protocol":17,"map":"pl_badwater","folder":"tf","game":"Team Fortress","app_id":440,"player_count":24,"max_players":24,"Bots":0,"server_type":"Dedicated","server_os":"Linux","password":true,"vac":true,"version":"7757534","steam_id":85568392924494504,"keywords":["nocrits","nodmgspread","payload","uncletopia"],"game_id":440,"stv_port":27016,"stv_name":"Uncletopia | Hong Kong | 1 | All Maps | STV","players":[{"user_id":155,"name":"im_0ff","steam_id":76561198339346695,"connected_time":1591000000000,"state":"active","ping":124},{"user_id":156,"name":"Robo-Ky","steam_id":76561198158666692,"connected_time":1277000000000,"state":"active","ping":34},{"user_id":133,"name":"Corhix","steam_id":76561198968706355,"connected_time":3490000000000,"state":"active","ping":48},{"user_id":144,"name":"Ashe","steam_id":76561199127979769,"connected_time":2743000000000,"state":"active","ping":80},{"user_id":128,"name":"cellum95","steam_id":76561198172146871,"connected_time":3849000000000,"state":"active","ping":87},{"user_id":137,"name":"Hay","steam_id":76561199438952901,"connected_time":3208000000000,"state":"active","ping":51},{"user_id":201,"name":"Beef Wellington","steam_id":76561197995635241,"connected_time":295000000000,"state":"active","ping":116},{"user_id":197,"name":"Leroy","steam_id":76561199137927625,"connected_time":369000000000,"state":"active","ping":95},{"user_id":204,"name":"Panfoolery","steam_id":76561199042318535,"connected_time":116000000000,"state":"active","ping":91},{"user_id":149,"name":"In(e)","steam_id":76561198362097007,"connected_time":2369000000000,"state":"active","ping":58},{"user_id":141,"name":"silverhouse7","steam_id":76561198349634906,"connected_time":2949000000000,"state":"active","ping":90},{"user_id":157,"name":"HAHHAHAHAHAHAHHAHAHAHAHAHAA","steam_id":76561198850021147,"connected_time":1240000000000,"state":"active","ping":88},{"user_id":86,"name":"UltraFat","steam_id":76561198253918132,"connected_time":9724000000000,"state":"active","ping":88},{"user_id":148,"name":"tiden2000","steam_id":76561198092969425,"connected_time":2526000000000,"state":"active","ping":106},{"user_id":129,"name":"Seiko Shinohara.png","steam_id":76561198089493039,"connected_time":3845000000000,"state":"active","ping":127},{"user_id":158,"name":"ღJun.","steam_id":76561198275846469,"connected_time":1216000000000,"state":"active","ping":77},{"user_id":199,"name":"Lu","steam_id":76561198320532821,"connected_time":355000000000,"state":"active","ping":85},{"user_id":68,"name":"Gordon.Freeman","steam_id":76561198337746852,"connected_time":11109000000000,"state":"active","ping":67},{"user_id":153,"name":"Milk❤","steam_id":76561198163911560,"connected_time":1781000000000,"state":"active","ping":137},{"user_id":116,"name":"Vortex Medico","steam_id":76561198833527091,"connected_time":5459000000000,"state":"active","ping":94},{"user_id":130,"name":"善良の墨","steam_id":76561199102754539,"connected_time":3823000000000,"state":"active","ping":89},{"user_id":108,"name":"David Keithson","steam_id":76561199279393636,"connected_time":5607000000000,"state":"active","ping":70},{"user_id":205,"name":"TomProPlayer","steam_id":76561199223292521,"connected_time":9000000000,"state":"spawning","ping":59},{"user_id":203,"name":"Kyo","steam_id":76561198088550274,"connected_time":217000000000,"state":"active","ping":37}]},{"server_id":1,"name":"Uncletopia | Los Angeles | 1 | All Maps","name_short":"lax-1","host":"lax-1.us.uncletopia.com","port":27015,"enabled":true,"region":"us-west","cc":"us","latitude":33.94279,"longitude":-118.41004,"reserved":0,"last_update":"0001-01-01T00:00:00Z","name_a2s":"Uncletopia | Los Angeles | 1 | All Maps","protocol":17,"map":"pl_borneo","folder":"tf","game":"Team Fortress","app_id":440,"player_count":14,"max_players":24,"Bots":0,"server_type":"Dedicated","server_os":"Linux","password":true,"vac":true,"version":"7757534","steam_id":85568392924469991,"keywords":["nocrits","nodmgspread","payload","uncletopia"],"game_id":440,"stv_port":27016,"stv_name":"Uncletopia | Los Angeles | 1 | All Maps | STV","players":[{"user_id":614,"name":"❤[Candy]❤","steam_id":76561198817361963,"connected_time":1262000000000,"state":"active","ping":63},{"user_id":615,"name":"Entreezy","steam_id":76561198271093809,"connected_time":1058000000000,"state":"active","ping":58},{"user_id":616,"name":"pt","steam_id":76561198143023330,"connected_time":1050000000000,"state":"active","ping":44},{"user_id":604,"name":"sophie","steam_id":76561198374224659,"connected_time":3193000000000,"state":"active","ping":71},{"user_id":632,"name":"squid","steam_id":76561198070236972,"connected_time":6000000000,"state":"active","ping":56},{"user_id":602,"name":"$neezers","steam_id":76561198028107725,"connected_time":3304000000000,"state":"active","ping":78},{"user_id":625,"name":"Jake The Snake","steam_id":76561198917115201,"connected_time":558000000000,"state":"active","ping":80},{"user_id":610,"name":"Not A Rapper","steam_id":76561198077523537,"connected_time":2034000000000,"state":"active","ping":106},{"user_id":628,"name":"Mancoos","steam_id":76561198798922515,"connected_time":107000000000,"state":"active","ping":56},{"user_id":633,"name":"Veritox","steam_id":76561198075778026,"connected_time":6000000000,"state":"active","ping":173},{"user_id":619,"name":"Taco+Taco=Burrito","steam_id":76561198063128663,"connected_time":1006000000000,"state":"active","ping":47},{"user_id":634,"name":"Pink-Beard","steam_id":76561199013777200,"connected_time":0,"state":"spawning","ping":0},{"user_id":605,"name":"charley","steam_id":76561198828238339,"connected_time":2934000000000,"state":"active","ping":83},{"user_id":589,"name":"lil peanut","steam_id":76561198028398745,"connected_time":4156000000000,"state":"active","ping":71}]},{"server_id":112,"name":"Uncletopia | Los Angeles | 2 | All Maps","name_short":"lax-2","host":"lax-1.us.uncletopia.com","port":27025,"enabled":true,"region":"us-west","cc":"us","latitude":33.94279,"longitude":-118.41004,"reserved":0,"last_update":"0001-01-01T00:00:00Z","name_a2s":"Uncletopia | Los Angeles | 2 | All Maps","protocol":17,"map":"pl_swiftwater_final1","folder":"tf","game":"Team Fortress","app_id":440,"player_count":24,"max_players":24,"Bots":0,"server_type":"Dedicated","server_os":"Linux","password":true,"vac":true,"version":"7757534","steam_id":85568392924469992,"keywords":["nocrits","nodmgspread","payload","uncletopia"],"game_id":440,"stv_port":27026,"stv_name":"Uncletopia | Los Angeles | 2 | All Maps | STV","players":[{"user_id":234,"name":"Medic","steam_id":76561198152570304,"connected_time":1840000000000,"state":"active","ping":58},{"user_id":254,"name":"Blankrq","steam_id":76561198261030763,"connected_time":434000000000,"state":"active","ping":68},{"user_id":224,"name":"SanitysEdge","steam_id":76561198130732813,"connected_time":3190000000000,"state":"active","ping":46},{"user_id":258,"name":"mr.edderkopper","steam_id":76561198152614478,"connected_time":132000000000,"state":"active","ping":86},{"user_id":253,"name":"phlog reliant uncletopia player","steam_id":76561198046526036,"connected_time":473000000000,"state":"active","ping":47},{"user_id":193,"name":"BatBread","steam_id":76561198047064919,"connected_time":4811000000000,"state":"active","ping":128},{"user_id":239,"name":"Major_Pippy","steam_id":76561198004482878,"connected_time":1644000000000,"state":"active","ping":77},{"user_id":251,"name":"AbsurdSiren","steam_id":76561199196666330,"connected_time":482000000000,"state":"active","ping":114},{"user_id":255,"name":"Empty","steam_id":76561198289696924,"connected_time":425000000000,"state":"active","ping":44},{"user_id":245,"name":"MBK®Furryy","steam_id":76561198200785531,"connected_time":1084000000000,"state":"active","ping":32},{"user_id":235,"name":"TransWomanGaming","steam_id":76561198809645656,"connected_time":1780000000000,"state":"active","ping":106},{"user_id":248,"name":"Sir_Cheddar","steam_id":76561198132354554,"connected_time":724000000000,"state":"active","ping":58},{"user_id":246,"name":"xbox record that","steam_id":76561198150117455,"connected_time":1042000000000,"state":"active","ping":57},{"user_id":48,"name":"nori_420","steam_id":76561199117134203,"connected_time":16853000000000,"state":"active","ping":60},{"user_id":247,"name":"O Dog","steam_id":76561198133498912,"connected_time":945000000000,"state":"active","ping":46},{"user_id":240,"name":"Ceatharlach","steam_id":76561198318126190,"connected_time":1591000000000,"state":"active","ping":158},{"user_id":256,"name":"Lumberjane37 (She/Her)","steam_id":76561198014841793,"connected_time":343000000000,"state":"active","ping":61},{"user_id":174,"name":"H4V0C","steam_id":76561199129350925,"connected_time":6192000000000,"state":"active","ping":82},{"user_id":175,"name":"your mom calls me princess too","steam_id":76561198020400899,"connected_time":6163000000000,"state":"active","ping":75},{"user_id":257,"name":"ryqset","steam_id":76561198349299874,"connected_time":195000000000,"state":"active","ping":97},{"user_id":227,"name":"monkey squirts","steam_id":76561197983101644,"connected_time":2690000000000,"state":"active","ping":47},{"user_id":177,"name":"Poopie Babie","steam_id":76561198047500494,"connected_time":6149000000000,"state":"active","ping":75},{"user_id":238,"name":"Jaydyn","steam_id":76561198140326797,"connected_time":1760000000000,"state":"active","ping":123},{"user_id":249,"name":"RagingRoosevelt","steam_id":76561197985483153,"connected_time":723000000000,"state":"active","ping":70}]},{"server_id":324,"name":"Uncletopia | Los Angeles | 3 | All Maps","name_short":"lax-3","host":"lax-1.us.uncletopia.com","port":27035,"enabled":true,"region":"us-west","cc":"us","latitude":33.94279,"longitude":-118.41004,"reserved":0,"last_update":"0001-01-01T00:00:00Z","name_a2s":"Uncletopia | Los Angeles | 3 | All Maps","protocol":17,"map":"cp_sunshine","folder":"tf","game":"Team Fortress","app_id":440,"player_count":24,"max_players":24,"Bots":0,"server_type":"Dedicated","server_os":"Linux","password":true,"vac":true,"version":"7757534","steam_id":85568392924510198,"keywords":["cp","nocrits","nodmgspread","uncletopia"],"game_id":440,"stv_port":27036,"stv_name":"Uncletopia | Los Angeles | 3 | All Maps | STV","players":[{"user_id":407,"name":"John Wick's puppy","steam_id":76561198064662875,"connected_time":5512000000000,"state":"active","ping":52},{"user_id":442,"name":"Demoslow","steam_id":76561198805592656,"connected_time":1663000000000,"state":"active","ping":65},{"user_id":364,"name":"kiviviviviviviviviviviviviviviv","steam_id":76561198838223023,"connected_time":8329000000000,"state":"active","ping":105},{"user_id":443,"name":"JumboLove","steam_id":76561198010239771,"connected_time":1647000000000,"state":"active","ping":76},{"user_id":403,"name":"Clagger","steam_id":76561198066701092,"connected_time":5864000000000,"state":"active","ping":62},{"user_id":439,"name":"StarJesus","steam_id":76561198187728043,"connected_time":1715000000000,"state":"active","ping":46},{"user_id":451,"name":"COVID-9000","steam_id":76561198042458180,"connected_time":574000000000,"state":"active","ping":81},{"user_id":440,"name":"Sgt. Satire","steam_id":76561198104193483,"connected_time":1707000000000,"state":"active","ping":72},{"user_id":449,"name":"bigman1","steam_id":76561198050225055,"connected_time":1265000000000,"state":"active","ping":52},{"user_id":452,"name":"QuesaDiaz","steam_id":76561198355667850,"connected_time":74000000000,"state":"active","ping":42},{"user_id":444,"name":"Benis Gonzalez","steam_id":76561198799391259,"connected_time":1644000000000,"state":"active","ping":59},{"user_id":412,"name":"Agent Q","steam_id":76561198830829003,"connected_time":5281000000000,"state":"active","ping":60},{"user_id":432,"name":"cinnamonguyfromapplejacks","steam_id":76561198068351675,"connected_time":2800000000000,"state":"active","ping":78},{"user_id":445,"name":"epicgameslauncherplaer878","steam_id":76561198360279519,"connected_time":1640000000000,"state":"active","ping":83},{"user_id":446,"name":"✪ Y V E S","steam_id":76561198299479796,"connected_time":1625000000000,"state":"active","ping":45},{"user_id":397,"name":"big car","steam_id":76561198067082350,"connected_time":6456000000000,"state":"active","ping":59},{"user_id":448,"name":"r u guys going trick or treatin","steam_id":76561199074585110,"connected_time":1428000000000,"state":"active","ping":48},{"user_id":422,"name":"MrHour","steam_id":76561198097762732,"connected_time":4066000000000,"state":"active","ping":46},{"user_id":426,"name":"Soozy420","steam_id":76561198809074422,"connected_time":3915000000000,"state":"active","ping":49},{"user_id":381,"name":"eccuC","steam_id":76561198034818632,"connected_time":7502000000000,"state":"active","ping":111},{"user_id":428,"name":"A.Z.X.","steam_id":76561198834347360,"connected_time":3741000000000,"state":"active","ping":57},{"user_id":430,"name":"beblonski","steam_id":76561198067053408,"connected_time":3467000000000,"state":"active","ping":56},{"user_id":360,"name":"mobe","steam_id":76561198121633820,"connected_time":8679000000000,"state":"active","ping":68},{"user_id":374,"name":"triph","steam_id":76561198067196509,"connected_time":7740000000000,"state":"active","ping":44}]},{"server_id":25,"name":"Uncletopia | Los Angeles | 4 | Stopwatch Beta","name_short":"lax-4","host":"lax-1.us.uncletopia.com","port":27045,"enabled":true,"region":"us-west","cc":"us","latitude":33.94279,"longitude":-118.41004,"reserved":0,"last_update":"0001-01-01T00:00:00Z","name_a2s":"Uncletopia | Los Angeles | 4 | Stopwatch Beta","protocol":17,"map":"cp_gullywash_final1","folder":"tf","game":"Team Fortress","app_id":440,"player_count":4,"max_players":24,"Bots":0,"server_type":"Dedicated","server_os":"Linux","password":true,"vac":true,"version":"7757534","steam_id":85568392924510199,"keywords":["cp","nocrits","nodmgspread","uncletopia"],"game_id":440,"stv_port":27046,"stv_name":"Uncletopia | Los Angeles | 4 | Stopwatch Beta | STV","players":[{"user_id":38,"name":"Mub","steam_id":76561198356426602,"connected_time":576000000000,"state":"active","ping":31},{"user_id":34,"name":"Gazelle","steam_id":76561198336397088,"connected_time":1194000000000,"state":"active","ping":47},{"user_id":24,"name":"Dinoman1995","steam_id":76561198244642140,"connected_time":2665000000000,"state":"active","ping":67},{"user_id":25,"name":"Gamer","steam_id":76561199157361352,"connected_time":2600000000000,"state":"active","ping":85}]},{"server_id":11,"name":"Uncletopia | London | 1 | All Maps","name_short":"lon-1","host":"lon-1.uk.uncletopia.com","port":27015,"enabled":true,"region":"eu","cc":"gb","latitude":51.509865,"longitude":-0.118092,"reserved":0,"last_update":"0001-01-01T00:00:00Z","name_a2s":"Uncletopia | London | 1 | All Maps","protocol":17,"map":"koth_highpass","folder":"tf","game":"Team Fortress","app_id":440,"player_count":0,"max_players":24,"Bots":0,"server_type":"Dedicated","server_os":"Linux","password":true,"vac":true,"version":"7757534","steam_id":85568392924367362,"keywords":["cp","nocrits","nodmgspread","uncletopia"],"game_id":440,"stv_port":27016,"stv_name":"Uncletopia | London | 1 | All Maps | STV","players":null},{"server_id":114,"name":"Uncletopia | London | 2 | All Maps","name_short":"lon-2","host":"lon-1.uk.uncletopia.com","port":27025,"enabled":true,"region":"eu","cc":"gb","latitude":51.509865,"longitude":-0.118092,"reserved":0,"last_update":"0001-01-01T00:00:00Z","name_a2s":"Uncletopia | London | 2 | All Maps","protocol":17,"map":"koth_viaduct","folder":"tf","game":"Team Fortress","app_id":440,"player_count":0,"max_players":24,"Bots":0,"server_type":"Dedicated","server_os":"Linux","password":true,"vac":true,"version":"7757534","steam_id":85568392924470941,"keywords":["cp","nocrits","nodmgspread","uncletopia"],"game_id":440,"stv_port":27026,"stv_name":"Uncletopia | London | 2 | All Maps | STV","players":null},{"server_id":320,"name":"Uncletopia | London | 3 | All Maps","name_short":"lon-3","host":"lon-1.uk.uncletopia.com","port":27035,"enabled":true,"region":"eu","cc":"gb","latitude":51.509865,"longitude":-0.118092,"reserved":0,"last_update":"0001-01-01T00:00:00Z","name_a2s":"Uncletopia | London | 3 | All Maps","protocol":17,"map":"pl_barnblitz","folder":"tf","game":"Team Fortress","app_id":440,"player_count":0,"max_players":24,"Bots":0,"server_type":"Dedicated","server_os":"Linux","password":true,"vac":true,"version":"7757534","steam_id":85568392924510192,"keywords":["nocrits","nodmgspread","payload","uncletopia"],"game_id":440,"stv_port":27036,"stv_name":"Uncletopia | London | 3 | All Maps | STV","players":null},{"server_id":321,"name":"Uncletopia | London | 4 | All Maps","name_short":"lon-4","host":"lon-1.uk.uncletopia.com","port":27045,"enabled":true,"region":"eu","cc":"gb","latitude":51.509865,"longitude":-0.118092,"reserved":0,"last_update":"0001-01-01T00:00:00Z","name_a2s":"Uncletopia | London | 4 | All Maps","protocol":17,"map":"cp_dustbowl","folder":"tf","game":"Team Fortress","app_id":440,"player_count":0,"max_players":24,"Bots":0,"server_type":"Dedicated","server_os":"Linux","password":true,"vac":true,"version":"7757534","steam_id":85568392924510193,"keywords":["cp","nocrits","nodmgspread","uncletopia"],"game_id":440,"stv_port":27046,"stv_name":"Uncletopia | London | 4 | All Maps | STV","players":null},{"server_id":21,"name":"Uncletopia | London | 5 | All Maps","name_short":"lon-5","host":"lon-1.uk.uncletopia.com","port":27055,"enabled":true,"region":"eu","cc":"gb","latitude":51.509865,"longitude":-0.118092,"reserved":0,"last_update":"0001-01-01T00:00:00Z","name_a2s":"Uncletopia | London | 5 | All Maps","protocol":17,"map":"cp_altitude","folder":"tf","game":"Team Fortress","app_id":440,"player_count":0,"max_players":24,"Bots":0,"server_type":"Dedicated","server_os":"Linux","password":true,"vac":true,"version":"7757534","steam_id":85568392924742829,"keywords":["cp","nocrits","nodmgspread","uncletopia"],"game_id":440,"stv_port":27056,"stv_name":"Uncletopia | London | 5 | All Maps | STV","players":null},{"server_id":22,"name":"Uncletopia | London | 6 | All Maps","name_short":"lon-6","host":"lon-1.uk.uncletopia.com","port":27065,"enabled":true,"region":"eu","cc":"gb","latitude":51.509865,"longitude":-0.118092,"reserved":0,"last_update":"0001-01-01T00:00:00Z","name_a2s":"Uncletopia | London | 6 | All Maps","protocol":17,"map":"cp_mountainlab","folder":"tf","game":"Team Fortress","app_id":440,"player_count":0,"max_players":24,"Bots":0,"server_type":"Dedicated","server_os":"Linux","password":true,"vac":true,"version":"7757534","steam_id":85568392924742830,"keywords":["cp","nocrits","nodmgspread","uncletopia"],"game_id":440,"stv_port":27066,"stv_name":"Uncletopia | London | 6 | All Maps | STV","players":null},{"server_id":40,"name":"Uncletopia | London | 7 | No Payload","name_short":"lon-7","host":"lon-1.uk.uncletopia.com","port":27075,"enabled":true,"region":"eu","cc":"gb","latitude":51.509865,"longitude":-0.118092,"reserved":0,"last_update":"0001-01-01T00:00:00Z","name_a2s":"Uncletopia | London | 7 | No Payload","protocol":17,"map":"pl_badwater","folder":"tf","game":"Team Fortress","app_id":440,"player_count":0,"max_players":24,"Bots":0,"server_type":"Dedicated","server_os":"Linux","password":true,"vac":true,"version":"7757534","steam_id":85568392924964314,"keywords":["nocrits","nodmgspread","payload","uncletopia"],"game_id":440,"stv_port":27076,"stv_name":"Uncletopia | London | 7 | No Payload | STV","players":null},{"server_id":41,"name":"Uncletopia | London | 8 | Community","name_short":"lon-8","host":"lon-1.uk.uncletopia.com","port":27085,"enabled":true,"region":"eu","cc":"gb","latitude":51.509865,"longitude":-0.118092,"reserved":0,"last_update":"0001-01-01T00:00:00Z","name_a2s":"Uncletopia | London | 8 | Community","protocol":17,"map":"pl_barnblitz","folder":"tf","game":"Team Fortress","app_id":440,"player_count":0,"max_players":24,"Bots":0,"server_type":"Dedicated","server_os":"Linux","password":true,"vac":true,"version":"7757534","steam_id":85568392924964315,"keywords":["nocrits","nodmgspread","payload","uncletopia"],"game_id":440,"stv_port":27086,"stv_name":"Uncletopia | London | 8 | Community | STV","players":null},{"server_id":300,"name":"Uncletopia | Montréal | 1 | All Maps","name_short":"mtl-1","host":"mtl-1.ca.uncletopia.com","port":27015,"enabled":true,"region":"us-east","cc":"ca","latitude":45.50889,"longitude":-73.56167,"reserved":0,"last_update":"0001-01-01T00:00:00Z","name_a2s":"Uncletopia | Montréal | 1 | All Maps","protocol":17,"map":"pl_upward","folder":"tf","game":"Team Fortress","app_id":440,"player_count":24,"max_players":24,"Bots":0,"server_type":"Dedicated","server_os":"Linux","password":true,"vac":true,"version":"7757534","steam_id":85568392924500087,"keywords":["nocrits","nodmgspread","payload","uncletopia"],"game_id":440,"stv_port":27016,"stv_name":"Uncletopia | Montréal | 1 | All Maps | STV","players":[{"user_id":283,"name":"Doodle gamer 23","steam_id":76561198407763630,"connected_time":7159000000000,"state":"active","ping":129},{"user_id":288,"name":"MegaMasterZ","steam_id":76561198164954173,"connected_time":6327000000000,"state":"active","ping":152},{"user_id":304,"name":"Shifty Louie","steam_id":76561197990872608,"connected_time":5175000000000,"state":"active","ping":142},{"user_id":322,"name":"FLUx27A","steam_id":76561199213127917,"connected_time":1008000000000,"state":"active","ping":158},{"user_id":302,"name":"Crystal Toa","steam_id":76561198033861221,"connected_time":5541000000000,"state":"active","ping":128},{"user_id":306,"name":"๖Ðiestow","steam_id":76561198046662484,"connected_time":4925000000000,"state":"active","ping":69},{"user_id":276,"name":"Seaweed","steam_id":76561198331376583,"connected_time":7841000000000,"state":"active","ping":119},{"user_id":319,"name":"Dreamzapp","steam_id":76561199084936632,"connected_time":2456000000000,"state":"active","ping":137},{"user_id":290,"name":"American Hogie","steam_id":76561198065822625,"connected_time":6242000000000,"state":"active","ping":98},{"user_id":326,"name":"Mr.Dies a lot","steam_id":76561199061602946,"connected_time":721000000000,"state":"active","ping":166},{"user_id":215,"name":"Jerry Kool-Aid","steam_id":76561198030281560,"connected_time":12272000000000,"state":"active","ping":81},{"user_id":328,"name":"Jojō","steam_id":76561198864691307,"connected_time":407000000000,"state":"active","ping":74},{"user_id":291,"name":"Heyday","steam_id":76561198001984882,"connected_time":6216000000000,"state":"active","ping":69},{"user_id":292,"name":"DOG WITH HOT MILK","steam_id":76561198022903061,"connected_time":6174000000000,"state":"active","ping":68},{"user_id":267,"name":"josie","steam_id":76561198170848553,"connected_time":8259000000000,"state":"active","ping":109},{"user_id":321,"name":"Randumb","steam_id":76561199083286636,"connected_time":1914000000000,"state":"active","ping":55},{"user_id":293,"name":"A Ninja","steam_id":76561198032679512,"connected_time":6169000000000,"state":"active","ping":71},{"user_id":254,"name":"NO MA'AM Local 420","steam_id":76561198160572249,"connected_time":9280000000000,"state":"active","ping":74},{"user_id":217,"name":"PizzaThot","steam_id":76561198278237289,"connected_time":12246000000000,"state":"active","ping":109},{"user_id":314,"name":"Eden Hazard","steam_id":76561198089241053,"connected_time":4304000000000,"state":"active","ping":52},{"user_id":315,"name":"TheDeathBirb","steam_id":76561198325012257,"connected_time":3876000000000,"state":"active","ping":93},{"user_id":318,"name":"Air Fried Spam","steam_id":76561198296510386,"connected_time":2560000000000,"state":"active","ping":168},{"user_id":327,"name":"Person","steam_id":76561198093244204,"connected_time":652000000000,"state":"active","ping":65},{"user_id":295,"name":"UwU Enforcer","steam_id":76561198083684571,"connected_time":6167000000000,"state":"active","ping":127}]},{"server_id":301,"name":"Uncletopia | Montréal | 2 | All Maps","name_short":"mtl-2","host":"mtl-1.ca.uncletopia.com","port":27025,"enabled":true,"region":"us-east","cc":"ca","latitude":45.50889,"longitude":-73.56167,"reserved":0,"last_update":"0001-01-01T00:00:00Z","name_a2s":"Uncletopia | Montréal | 2 | All Maps","protocol":17,"map":"koth_viaduct","folder":"tf","game":"Team Fortress","app_id":440,"player_count":0,"max_players":24,"Bots":0,"server_type":"Dedicated","server_os":"Linux","password":true,"vac":true,"version":"7757534","steam_id":85568392924500088,"keywords":["cp","nocrits","nodmgspread","uncletopia"],"game_id":440,"stv_port":27026,"stv_name":"Uncletopia | Montréal | 2 | All Maps | STV","players":null},{"server_id":302,"name":"Uncletopia | Montréal | 3 | All Maps","name_short":"mtl-3","host":"mtl-1.ca.uncletopia.com","port":27035,"enabled":true,"region":"us-east","cc":"ca","latitude":45.50889,"longitude":-73.56167,"reserved":0,"last_update":"0001-01-01T00:00:00Z","name_a2s":"Uncletopia | Montréal | 3 | All Maps","protocol":17,"map":"koth_cascade","folder":"tf","game":"Team Fortress","app_id":440,"player_count":3,"max_players":24,"Bots":0,"server_type":"Dedicated","server_os":"Linux","password":true,"vac":true,"version":"7757534","steam_id":85568392924500089,"keywords":["cp","nocrits","nodmgspread","uncletopia"],"game_id":440,"stv_port":27036,"stv_name":"Uncletopia | Montréal | 3 | All Maps | STV","players":[{"user_id":265,"name":"CivilWarMike","steam_id":76561198141188839,"connected_time":3462000000000,"state":"active","ping":68},{"user_id":268,"name":"Bip","steam_id":76561199022962204,"connected_time":3450000000000,"state":"active","ping":79},{"user_id":273,"name":"averagesoldiermain","steam_id":76561198158447466,"connected_time":3378000000000,"state":"active","ping":79}]},{"server_id":303,"name":"Uncletopia | Montréal | 4 | No Payload","name_short":"mtl-4","host":"mtl-1.ca.uncletopia.com","port":27045,"enabled":true,"region":"us-east","cc":"ca","latitude":45.50889,"longitude":-73.56167,"reserved":0,"last_update":"0001-01-01T00:00:00Z","name_a2s":"Uncletopia | Montréal | 4 | No Payload","protocol":17,"map":"plr_pipeline","folder":"tf","game":"Team Fortress","app_id":440,"player_count":0,"max_players":24,"Bots":0,"server_type":"Dedicated","server_os":"Linux","password":true,"vac":true,"version":"7757534","steam_id":85568392924500090,"keywords":["nocrits","nodmgspread","payload","uncletopia"],"game_id":440,"stv_port":27046,"stv_name":"Uncletopia | Montréal | 4 | No Payload | STV","players":null},{"server_id":13,"name":"Uncletopia | New York City | 1 | All Maps","name_short":"nyc-1","host":"nyc-1.us.uncletopia.com","port":27015,"enabled":true,"region":"us-east","cc":"us","latitude":40.73061,"longitude":-73.93524,"reserved":0,"last_update":"0001-01-01T00:00:00Z","name_a2s":"Uncletopia | New York City | 1 | All Maps","protocol":17,"map":"pl_upward","folder":"tf","game":"Team Fortress","app_id":440,"player_count":24,"max_players":24,"Bots":0,"server_type":"Dedicated","server_os":"Linux","password":true,"vac":true,"version":"7757534","steam_id":85568392924469993,"keywords":["nocrits","nodmgspread","payload","uncletopia"],"game_id":440,"stv_port":27016,"stv_name":"Uncletopia | New York City | 1 | All Maps | STV","players":[{"user_id":867,"name":"seems_fishy","steam_id":76561199028846656,"connected_time":1879000000000,"state":"active","ping":50},{"user_id":872,"name":"Bored Barred Owl","steam_id":76561198263895597,"connected_time":1357000000000,"state":"active","ping":57},{"user_id":876,"name":"Yakul","steam_id":76561198100040013,"connected_time":1022000000000,"state":"active","ping":88},{"user_id":882,"name":"the taxi driver","steam_id":76561198830243167,"connected_time":612000000000,"state":"active","ping":61},{"user_id":873,"name":"如願","steam_id":76561198038486613,"connected_time":1259000000000,"state":"active","ping":45},{"user_id":874,"name":"Blue Eyes Ace Dragon.","steam_id":76561198048214237,"connected_time":1161000000000,"state":"active","ping":44},{"user_id":887,"name":"Duncan Idaho","steam_id":76561197988963861,"connected_time":12000000000,"state":"active","ping":107},{"user_id":883,"name":"BeepBoop","steam_id":76561198071213900,"connected_time":557000000000,"state":"active","ping":105},{"user_id":868,"name":"Krellah","steam_id":76561198287045069,"connected_time":1805000000000,"state":"active","ping":57},{"user_id":809,"name":"ferin","steam_id":76561198137607046,"connected_time":4603000000000,"state":"active","ping":54},{"user_id":881,"name":"Florist","steam_id":76561198009121060,"connected_time":620000000000,"state":"active","ping":106},{"user_id":861,"name":"fart chamber","steam_id":76561198292086977,"connected_time":2214000000000,"state":"active","ping":72},{"user_id":884,"name":"Feistypanda34","steam_id":76561198260910134,"connected_time":551000000000,"state":"active","ping":79},{"user_id":875,"name":"depressing","steam_id":76561198032121669,"connected_time":1140000000000,"state":"active","ping":56},{"user_id":859,"name":"I eat rocks","steam_id":76561198182285577,"connected_time":2278000000000,"state":"active","ping":69},{"user_id":877,"name":"KentYardAssociate","steam_id":76561198290499758,"connected_time":1003000000000,"state":"active","ping":88},{"user_id":819,"name":"Dazzleberry","steam_id":76561198030369150,"connected_time":3885000000000,"state":"active","ping":62},{"user_id":863,"name":"917-258-3609","steam_id":76561198174436329,"connected_time":1985000000000,"state":"active","ping":67},{"user_id":768,"name":"Whole Wheat Lemon","steam_id":76561199025265182,"connected_time":7979000000000,"state":"active","ping":54},{"user_id":885,"name":"SmoothCheese27","steam_id":76561199010399381,"connected_time":425000000000,"state":"active","ping":56},{"user_id":871,"name":"The ghostly Piss MN","steam_id":76561198209197020,"connected_time":1646000000000,"state":"active","ping":56},{"user_id":880,"name":"Knower","steam_id":76561198036213722,"connected_time":825000000000,"state":"active","ping":75},{"user_id":878,"name":"Girox","steam_id":76561198009921751,"connected_time":992000000000,"state":"active","ping":55},{"user_id":879,"name":"Spag Hekki","steam_id":76561198207579353,"connected_time":974000000000,"state":"active","ping":83}]},{"server_id":14,"name":"Uncletopia | New York City | 2 | All Maps","name_short":"nyc-2","host":"nyc-1.us.uncletopia.com","port":27025,"enabled":true,"region":"us-east","cc":"us","latitude":40.73061,"longitude":-73.93524,"reserved":0,"last_update":"0001-01-01T00:00:00Z","name_a2s":"Uncletopia | New York City | 2 | All Maps","protocol":17,"map":"koth_cascade","folder":"tf","game":"Team Fortress","app_id":440,"player_count":24,"max_players":24,"Bots":0,"server_type":"Dedicated","server_os":"Linux","password":true,"vac":true,"version":"7757534","steam_id":85568392924469994,"keywords":["cp","nocrits","nodmgspread","uncletopia"],"game_id":440,"stv_port":27026,"stv_name":"Uncletopia | New York City | 2 | All Maps | STV","players":[{"user_id":801,"name":"Vacket","steam_id":76561198161868015,"connected_time":5927000000000,"state":"active","ping":46},{"user_id":847,"name":"the scary/ed...","steam_id":76561198053046161,"connected_time":1396000000000,"state":"active","ping":45},{"user_id":849,"name":"Misty Blu ✿","steam_id":76561198011442255,"connected_time":922000000000,"state":"active","ping":107},{"user_id":846,"name":"Dr. Money Stacks","steam_id":76561198058144219,"connected_time":1455000000000,"state":"active","ping":70},{"user_id":850,"name":"dzcreeper","steam_id":76561198072250723,"connected_time":907000000000,"state":"active","ping":111},{"user_id":835,"name":"blockchain culture","steam_id":76561198040996386,"connected_time":2217000000000,"state":"active","ping":111},{"user_id":839,"name":"XCellent","steam_id":76561198805514323,"connected_time":1977000000000,"state":"active","ping":129},{"user_id":845,"name":"Joshy","steam_id":76561198061405421,"connected_time":1460000000000,"state":"active","ping":73},{"user_id":833,"name":"Fl4mingo","steam_id":76561198025601344,"connected_time":2309000000000,"state":"active","ping":75},{"user_id":859,"name":"acurlyquote","steam_id":76561198110033420,"connected_time":355000000000,"state":"active","ping":77},{"user_id":856,"name":"mika kagehira","steam_id":76561198799326339,"connected_time":647000000000,"state":"active","ping":35},{"user_id":852,"name":"High Medic","steam_id":76561198082405984,"connected_time":888000000000,"state":"active","ping":65},{"user_id":811,"name":"Ludcmorais","steam_id":76561198359217809,"connected_time":5066000000000,"state":"active","ping":175},{"user_id":836,"name":"McLovin","steam_id":76561198163123631,"connected_time":2139000000000,"state":"active","ping":69},{"user_id":853,"name":"Draco6257","steam_id":76561199147322448,"connected_time":884000000000,"state":"active","ping":30},{"user_id":792,"name":"Wimojimo12","steam_id":76561198370459596,"connected_time":6475000000000,"state":"active","ping":50},{"user_id":795,"name":"tubby","steam_id":76561198174982661,"connected_time":6376000000000,"state":"active","ping":83},{"user_id":854,"name":"MooGoesCow","steam_id":76561199441528448,"connected_time":871000000000,"state":"active","ping":161},{"user_id":857,"name":"FX","steam_id":76561198096889040,"connected_time":633000000000,"state":"active","ping":47},{"user_id":858,"name":"Alias","steam_id":76561198140584050,"connected_time":615000000000,"state":"active","ping":45},{"user_id":834,"name":"Pineapple Pizza","steam_id":76561197997233176,"connected_time":2299000000000,"state":"active","ping":68},{"user_id":844,"name":"volkiano","steam_id":76561198319802031,"connected_time":1533000000000,"state":"active","ping":135},{"user_id":797,"name":"Capitán Äxis-Flores","steam_id":76561198353865006,"connected_time":6368000000000,"state":"active","ping":75},{"user_id":815,"name":"the pest","steam_id":76561198826298849,"connected_time":4035000000000,"state":"active","ping":90}]},{"server_id":15,"name":"Uncletopia | New York City | 3 | Stopwatch Beta","name_short":"nyc-3","host":"nyc-1.us.uncletopia.com","port":27035,"enabled":true,"region":"us-east","cc":"us","latitude":40.73061,"longitude":-73.93524,"reserved":0,"last_update":"0001-01-01T00:00:00Z","name_a2s":"Uncletopia | New York City | 3 | Stopwatch Beta","protocol":17,"map":"workshop/pl_summercoast_rc8e.ugc1761528829","folder":"tf","game":"Team Fortress","app_id":440,"player_count":0,"max_players":24,"Bots":0,"server_type":"Dedicated","server_os":"Linux","password":true,"vac":true,"version":"7757534","steam_id":85568392924742820,"keywords":["nocrits","nodmgspread","payload","uncletopia"],"game_id":440,"stv_port":27036,"stv_name":"Uncletopia | New York City | 3 | Stopwatch Beta | STV","players":null},{"server_id":16,"name":"Uncletopia | New York City | 4 | Community","name_short":"nyc-4","host":"nyc-1.us.uncletopia.com","port":27045,"enabled":true,"region":"us-east","cc":"us","latitude":40.73061,"longitude":-73.93524,"reserved":0,"last_update":"0001-01-01T00:00:00Z","name_a2s":"Uncletopia | New York City | 4 | Community","protocol":17,"map":"workshop/pl_cactuscanyon_redux_final2.ugc2579644293","folder":"tf","game":"Team Fortress","app_id":440,"player_count":0,"max_players":24,"Bots":0,"server_type":"Dedicated","server_os":"Linux","password":true,"vac":true,"version":"7757534","steam_id":85568392924742821,"keywords":["nocrits","nodmgspread","payload","uncletopia"],"game_id":440,"stv_port":27046,"stv_name":"Uncletopia | New York City | 4 | Community | STV","players":null},{"server_id":142,"name":"Uncletopia | São Paulo | 1 | All Maps","name_short":"sao-1","host":"sao-1.br.uncletopia.com","port":27015,"enabled":true,"region":"sa","cc":"br","latitude":-23.533773,"longitude":-46.62529,"reserved":0,"last_update":"0001-01-01T00:00:00Z","name_a2s":"Uncletopia | São Paulo | 1 | All Maps","protocol":17,"map":"cp_altitude","folder":"tf","game":"Team Fortress","app_id":440,"player_count":0,"max_players":24,"Bots":0,"server_type":"Dedicated","server_os":"Linux","password":true,"vac":true,"version":"7757534","steam_id":85568392924469996,"keywords":["cp","nocrits","nodmgspread","uncletopia"],"game_id":440,"stv_port":27016,"stv_name":"Uncletopia | São Paulo | 1 | All Maps | STV","players":null},{"server_id":143,"name":"Uncletopia | São Paulo | 2 | All Maps","name_short":"sao-2","host":"sao-2.br.uncletopia.com","port":27015,"enabled":true,"region":"sa","cc":"br","latitude":-23.533773,"longitude":-46.62529,"reserved":0,"last_update":"0001-01-01T00:00:00Z","name_a2s":"Uncletopia | São Paulo | 2 | All Maps","protocol":17,"map":"cp_process_final","folder":"tf","game":"Team Fortress","app_id":440,"player_count":0,"max_players":24,"Bots":0,"server_type":"Dedicated","server_os":"Linux","password":true,"vac":true,"version":"7757534","steam_id":85568392924485349,"keywords":["cp","nocrits","nodmgspread","uncletopia"],"game_id":440,"stv_port":27016,"stv_name":"Uncletopia | São Paulo | 2 | All Maps | STV","players":null},{"server_id":7,"name":"Uncletopia | Seattle | 1 | All Maps","name_short":"sea-1","host":"sea-1.us.uncletopia.com","port":27015,"enabled":true,"region":"us-west","cc":"us","latitude":47.608013,"longitude":-122.33517,"reserved":0,"last_update":"0001-01-01T00:00:00Z","name_a2s":"Uncletopia | Seattle | 1 | All Maps","protocol":17,"map":"cp_dustbowl","folder":"tf","game":"Team Fortress","app_id":440,"player_count":24,"max_players":24,"Bots":0,"server_type":"Dedicated","server_os":"Linux","password":true,"vac":true,"version":"7757534","steam_id":85568392924469997,"keywords":["cp","nocrits","nodmgspread","uncletopia"],"game_id":440,"stv_port":27016,"stv_name":"Uncletopia | Seattle | 1 | All Maps | STV","players":[{"user_id":719,"name":"lili ezili","steam_id":76561199391478575,"connected_time":1272000000000,"state":"active","ping":69},{"user_id":726,"name":"Cheezbeargur","steam_id":76561198164702899,"connected_time":1071000000000,"state":"active","ping":70},{"user_id":728,"name":"ImmuneToPeas","steam_id":76561198342411594,"connected_time":934000000000,"state":"active","ping":65},{"user_id":650,"name":"DoctorHa","steam_id":76561198044026008,"connected_time":10238000000000,"state":"active","ping":91},{"user_id":710,"name":"comet","steam_id":76561198149217841,"connected_time":2466000000000,"state":"active","ping":51},{"user_id":702,"name":"cracky","steam_id":76561197971365444,"connected_time":3698000000000,"state":"active","ping":51},{"user_id":704,"name":"Mignyanne :3","steam_id":76561198048754056,"connected_time":3039000000000,"state":"active","ping":60},{"user_id":718,"name":"Fumpo","steam_id":76561198206873365,"connected_time":1492000000000,"state":"active","ping":118},{"user_id":712,"name":"Cup O' Tea","steam_id":76561199181963791,"connected_time":2396000000000,"state":"active","ping":80},{"user_id":721,"name":"Action_Quacktion","steam_id":76561198407062426,"connected_time":1180000000000,"state":"active","ping":116},{"user_id":693,"name":"Wafflemuscle","steam_id":76561198868628982,"connected_time":5190000000000,"state":"active","ping":53},{"user_id":722,"name":"bbbbb","steam_id":76561198095480838,"connected_time":1157000000000,"state":"active","ping":46},{"user_id":678,"name":"mega","steam_id":76561198089520959,"connected_time":6718000000000,"state":"active","ping":96},{"user_id":731,"name":"Attrition","steam_id":76561197969881916,"connected_time":107000000000,"state":"active","ping":49},{"user_id":696,"name":"Lazy-assed Prophet","steam_id":76561198214400452,"connected_time":4957000000000,"state":"active","ping":68},{"user_id":680,"name":"Ayayayayahuasca","steam_id":76561199002906056,"connected_time":6711000000000,"state":"active","ping":48},{"user_id":670,"name":"Agent86","steam_id":76561198046794593,"connected_time":9007000000000,"state":"active","ping":160},{"user_id":729,"name":"ornithopter_02","steam_id":76561198267827977,"connected_time":928000000000,"state":"active","ping":97},{"user_id":697,"name":"Pneumo.","steam_id":76561197987911883,"connected_time":4729000000000,"state":"active","ping":64},{"user_id":703,"name":"The King of Piss World","steam_id":76561198082806956,"connected_time":3047000000000,"state":"active","ping":128},{"user_id":727,"name":"rinkl","steam_id":76561198965756070,"connected_time":976000000000,"state":"active","ping":58},{"user_id":705,"name":"gloobern","steam_id":76561198341190679,"connected_time":3035000000000,"state":"active","ping":59},{"user_id":698,"name":"Rain","steam_id":76561198065612273,"connected_time":4336000000000,"state":"active","ping":47},{"user_id":730,"name":"jorts","steam_id":76561199041179985,"connected_time":871000000000,"state":"active","ping":63}]},{"server_id":119,"name":"Uncletopia | Seattle | 2 | All Maps","name_short":"sea-2","host":"sea-1.us.uncletopia.com","port":27025,"enabled":true,"region":"us-west","cc":"us","latitude":47.608013,"longitude":-122.33517,"reserved":0,"last_update":"0001-01-01T00:00:00Z","name_a2s":"Uncletopia | Seattle | 2 | All Maps","protocol":17,"map":"pl_badwater","folder":"tf","game":"Team Fortress","app_id":440,"player_count":24,"max_players":24,"Bots":0,"server_type":"Dedicated","server_os":"Linux","password":true,"vac":true,"version":"7757534","steam_id":85568392924469998,"keywords":["nocrits","nodmgspread","payload","uncletopia"],"game_id":440,"stv_port":27026,"stv_name":"Uncletopia | Seattle | 2 | All Maps | STV","players":[{"user_id":712,"name":"They/Them Rattussy","steam_id":76561198238186628,"connected_time":2407000000000,"state":"active","ping":80},{"user_id":674,"name":"Stoney Goblin","steam_id":76561198141215376,"connected_time":6128000000000,"state":"active","ping":116},{"user_id":722,"name":"ttv/californjoe","steam_id":76561197965047795,"connected_time":1369000000000,"state":"active","ping":83},{"user_id":662,"name":"Acto","steam_id":76561198043025164,"connected_time":6547000000000,"state":"active","ping":57},{"user_id":726,"name":"Thanks Ants","steam_id":76561197966221018,"connected_time":1292000000000,"state":"active","ping":47},{"user_id":723,"name":"Kurtle","steam_id":76561199099898602,"connected_time":1364000000000,"state":"active","ping":86},{"user_id":566,"name":"pandy fackler","steam_id":76561198833099152,"connected_time":11719000000000,"state":"active","ping":54},{"user_id":729,"name":"moopmop","steam_id":76561198065224965,"connected_time":689000000000,"state":"active","ping":60},{"user_id":720,"name":"Zesty Italian","steam_id":76561198117835053,"connected_time":1865000000000,"state":"active","ping":71},{"user_id":734,"name":"CatChat","steam_id":76561198283631727,"connected_time":17000000000,"state":"spawning","ping":120},{"user_id":724,"name":"Feel the bern","steam_id":76561198078824519,"connected_time":1323000000000,"state":"active","ping":104},{"user_id":709,"name":"Cr0w!","steam_id":76561198178437265,"connected_time":2896000000000,"state":"active","ping":55},{"user_id":718,"name":"O","steam_id":76561198450073779,"connected_time":2078000000000,"state":"active","ping":48},{"user_id":692,"name":"SvicidalBug","steam_id":76561198221390504,"connected_time":4219000000000,"state":"active","ping":61},{"user_id":710,"name":"ItzGhXst","steam_id":76561198129761524,"connected_time":2634000000000,"state":"active","ping":54},{"user_id":645,"name":"El Gato Paranoico","steam_id":76561198116567116,"connected_time":7092000000000,"state":"active","ping":114},{"user_id":733,"name":"Retesaurus","steam_id":76561198045189319,"connected_time":192000000000,"state":"active","ping":48},{"user_id":714,"name":"Akustin","steam_id":76561198110015463,"connected_time":2203000000000,"state":"active","ping":81},{"user_id":725,"name":"Red on Red","steam_id":76561198802356746,"connected_time":1319000000000,"state":"active","ping":89},{"user_id":668,"name":"Bonks","steam_id":76561198972835565,"connected_time":6483000000000,"state":"active","ping":44},{"user_id":669,"name":"Floaty","steam_id":76561198100029503,"connected_time":6460000000000,"state":"active","ping":61},{"user_id":732,"name":"Optimore","steam_id":76561198047662990,"connected_time":666000000000,"state":"active","ping":70},{"user_id":608,"name":"Dosario","steam_id":76561198298095535,"connected_time":9241000000000,"state":"active","ping":64},{"user_id":728,"name":"Callahan","steam_id":76561197976928457,"connected_time":711000000000,"state":"active","ping":48}]},{"server_id":406,"name":"Uncletopia | Seattle | 3 | Stopwatch Beta","name_short":"sea-3","host":"sea-1.us.uncletopia.com","port":27035,"enabled":true,"region":"us-west","cc":"us","latitude":47.608013,"longitude":-122.33517,"reserved":0,"last_update":"0001-01-01T00:00:00Z","name_a2s":"Uncletopia | Seattle | 3 | Stopwatch Beta","protocol":17,"map":"workshop/koth_clearcut_b15.ugc2107050255","folder":"tf","game":"Team Fortress","app_id":440,"player_count":0,"max_players":24,"Bots":0,"server_type":"Dedicated","server_os":"Linux","password":true,"vac":true,"version":"7757534","steam_id":85568392924515217,"keywords":["cp","nocrits","nodmgspread","uncletopia"],"game_id":440,"stv_port":27036,"stv_name":"Uncletopia | Seattle | 3 | Stopwatch Beta | STV","players":null},{"server_id":17,"name":"Uncletopia | San Francisco | 1 | All Maps","name_short":"sfo-1","host":"sfo-1.us.uncletopia.com","port":27015,"enabled":true,"region":"us-west","cc":"us","latitude":37.77397,"longitude":-122.4313,"reserved":0,"last_update":"0001-01-01T00:00:00Z","name_a2s":"Uncletopia | San Francisco | 1 | All Maps","protocol":17,"map":"pl_goldrush","folder":"tf","game":"Team Fortress","app_id":440,"player_count":24,"max_players":24,"Bots":0,"server_type":"Dedicated","server_os":"Linux","password":true,"vac":true,"version":"7757534","steam_id":85568392924469999,"keywords":["nocrits","nodmgspread","payload","uncletopia"],"game_id":440,"stv_port":27016,"stv_name":"Uncletopia | San Francisco | 1 | All Maps | STV","players":[{"user_id":474,"name":"FuzzToaster","steam_id":76561199201045563,"connected_time":2591000000000,"state":"active","ping":165},{"user_id":476,"name":"Morgan","steam_id":76561199224141679,"connected_time":2499000000000,"state":"active","ping":64},{"user_id":480,"name":"ragnarok","steam_id":76561198273579889,"connected_time":1982000000000,"state":"active","ping":69},{"user_id":513,"name":"shoe","steam_id":76561198451476220,"connected_time":500000000000,"state":"active","ping":62},{"user_id":479,"name":"Tarruin","steam_id":76561198009677876,"connected_time":2065000000000,"state":"active","ping":128},{"user_id":521,"name":"DOPEam1ne","steam_id":76561198112204774,"connected_time":74000000000,"state":"active","ping":49},{"user_id":518,"name":"Excrement","steam_id":76561198167740127,"connected_time":155000000000,"state":"active","ping":61},{"user_id":469,"name":"luna","steam_id":76561198327390236,"connected_time":2831000000000,"state":"active","ping":49},{"user_id":487,"name":"SquidFurBrains","steam_id":76561198293899688,"connected_time":1718000000000,"state":"active","ping":91},{"user_id":496,"name":"Antwan","steam_id":76561198246200638,"connected_time":1561000000000,"state":"active","ping":77},{"user_id":505,"name":"Blorgh","steam_id":76561197990534924,"connected_time":1106000000000,"state":"active","ping":55},{"user_id":519,"name":"GENUINE ANGER","steam_id":76561198829069588,"connected_time":99000000000,"state":"active","ping":73},{"user_id":467,"name":"Don't follow DonBongo","steam_id":76561197993533157,"connected_time":2868000000000,"state":"active","ping":73},{"user_id":516,"name":"Perfectly Dreadful","steam_id":76561198165728680,"connected_time":217000000000,"state":"active","ping":69},{"user_id":488,"name":"cyke","steam_id":76561198827919358,"connected_time":1713000000000,"state":"active","ping":61},{"user_id":510,"name":"Summer's Snowman","steam_id":76561198057140854,"connected_time":775000000000,"state":"active","ping":62},{"user_id":497,"name":"5th Tier","steam_id":76561198348513187,"connected_time":1537000000000,"state":"active","ping":60},{"user_id":466,"name":"twitch.tv/Don_Bongo","steam_id":76561197976735155,"connected_time":2878000000000,"state":"active","ping":85},{"user_id":514,"name":"Imitation Caucasian","steam_id":76561198320536166,"connected_time":437000000000,"state":"active","ping":80},{"user_id":515,"name":"Grungus","steam_id":76561198047700230,"connected_time":331000000000,"state":"active","ping":50},{"user_id":509,"name":"DMJanitor","steam_id":76561198058929753,"connected_time":935000000000,"state":"active","ping":62},{"user_id":511,"name":"oil","steam_id":76561198099980149,"connected_time":761000000000,"state":"active","ping":61},{"user_id":502,"name":"jello","steam_id":76561198149683030,"connected_time":1336000000000,"state":"active","ping":60},{"user_id":520,"name":"Yugibeaux2","steam_id":76561199448697659,"connected_time":98000000000,"state":"active","ping":134}]},{"server_id":18,"name":"Uncletopia | San Francisco | 2 | All Maps","name_short":"sfo-2","host":"sfo-1.us.uncletopia.com","port":27025,"enabled":true,"region":"us-west","cc":"us","latitude":37.77397,"longitude":-122.4313,"reserved":0,"last_update":"0001-01-01T00:00:00Z","name_a2s":"Uncletopia | San Francisco | 2 | All Maps","protocol":17,"map":"pl_pier","folder":"tf","game":"Team Fortress","app_id":440,"player_count":24,"max_players":24,"Bots":0,"server_type":"Dedicated","server_os":"Linux","password":true,"vac":true,"version":"7757534","steam_id":85568392924470000,"keywords":["nocrits","nodmgspread","payload","uncletopia"],"game_id":440,"stv_port":27026,"stv_name":"Uncletopia | San Francisco | 2 | All Maps | STV","players":[{"user_id":395,"name":"Angelhasagun","steam_id":76561198279694559,"connected_time":390000000000,"state":"active","ping":74},{"user_id":396,"name":"reymundo","steam_id":76561197989412830,"connected_time":363000000000,"state":"active","ping":70},{"user_id":301,"name":"zeel107","steam_id":76561198063892990,"connected_time":5199000000000,"state":"active","ping":65},{"user_id":380,"name":"darksnows1","steam_id":76561198875843071,"connected_time":1232000000000,"state":"active","ping":61},{"user_id":397,"name":"catswork","steam_id":76561198081130757,"connected_time":361000000000,"state":"active","ping":71},{"user_id":355,"name":"The3picPoptart","steam_id":76561198184505653,"connected_time":2487000000000,"state":"active","ping":72},{"user_id":390,"name":"reverie","steam_id":76561198168158637,"connected_time":827000000000,"state":"active","ping":59},{"user_id":349,"name":"Big Yoshi #savetf2","steam_id":76561198009916036,"connected_time":2745000000000,"state":"active","ping":85},{"user_id":377,"name":"Ratchet55","steam_id":76561198208655521,"connected_time":1348000000000,"state":"active","ping":64},{"user_id":361,"name":"mela ♡","steam_id":76561198301598124,"connected_time":2308000000000,"state":"active","ping":80},{"user_id":373,"name":"Dive(z)","steam_id":76561198140843225,"connected_time":1492000000000,"state":"active","ping":85},{"user_id":398,"name":"yawn","steam_id":76561198067753179,"connected_time":358000000000,"state":"active","ping":84},{"user_id":399,"name":"solitaire","steam_id":76561198964025682,"connected_time":339000000000,"state":"active","ping":49},{"user_id":400,"name":"Mickmissión","steam_id":76561199133527421,"connected_time":333000000000,"state":"active","ping":68},{"user_id":401,"name":"Racc","steam_id":76561198053855381,"connected_time":326000000000,"state":"active","ping":133},{"user_id":354,"name":"G. Howard Dee","steam_id":76561198058382812,"connected_time":2579000000000,"state":"active","ping":61},{"user_id":381,"name":"fart with reverb","steam_id":76561198861823583,"connected_time":1223000000000,"state":"active","ping":116},{"user_id":384,"name":"I am in your base","steam_id":76561199123338267,"connected_time":974000000000,"state":"active","ping":56},{"user_id":392,"name":"Fat Fur Gaming","steam_id":76561198072774915,"connected_time":759000000000,"state":"active","ping":80},{"user_id":329,"name":"JawnyMac","steam_id":76561198179529599,"connected_time":4379000000000,"state":"active","ping":50},{"user_id":391,"name":"Kuchio","steam_id":76561198161218914,"connected_time":800000000000,"state":"active","ping":56},{"user_id":387,"name":"Sky","steam_id":76561198853245153,"connected_time":915000000000,"state":"active","ping":65},{"user_id":404,"name":"Funkmaster Yee","steam_id":76561198037738918,"connected_time":221000000000,"state":"active","ping":85},{"user_id":358,"name":"Crowvette","steam_id":76561198000457496,"connected_time":2354000000000,"state":"active","ping":60}]},{"server_id":19,"name":"Uncletopia | San Francisco | 3 | Stopwatch Beta","name_short":"sfo-3","host":"sfo-1.us.uncletopia.com","port":27035,"enabled":true,"region":"us-west","cc":"us","latitude":37.77397,"longitude":-122.4313,"reserved":0,"last_update":"0001-01-01T00:00:00Z","name_a2s":"Uncletopia | San Francisco | 3 | Stopwatch Beta","protocol":17,"map":"koth_highpass","folder":"tf","game":"Team Fortress","app_id":440,"player_count":0,"max_players":24,"Bots":0,"server_type":"Dedicated","server_os":"Linux","password":true,"vac":true,"version":"7757534","steam_id":85568392924742824,"keywords":["cp","nocrits","nodmgspread","uncletopia"],"game_id":440,"stv_port":27036,"stv_name":"Uncletopia | San Francisco | 3 | Stopwatch Beta | STV","players":null},{"server_id":20,"name":"Uncletopia | San Francisco | 4 | Community","name_short":"sfo-4","host":"sfo-1.us.uncletopia.com","port":27045,"enabled":true,"region":"us-west","cc":"us","latitude":37.77397,"longitude":-122.4313,"reserved":0,"last_update":"0001-01-01T00:00:00Z","name_a2s":"Uncletopia | San Francisco | 4 | Community","protocol":17,"map":"workshop/koth_trenchfoot_b1a.ugc731436616","folder":"tf","game":"Team Fortress","app_id":440,"player_count":0,"max_players":24,"Bots":0,"server_type":"Dedicated","server_os":"Linux","password":true,"vac":true,"version":"7757534","steam_id":85568392924742826,"keywords":["cp","nocrits","nodmgspread","uncletopia"],"game_id":440,"stv_port":27046,"stv_name":"Uncletopia | San Francisco | 4 | Community | STV","players":null},{"server_id":141,"name":"Uncletopia | Sydney | 1 | All Maps","name_short":"syd-1","host":"syd-1.au.uncletopia.com","port":27015,"enabled":true,"region":"au","cc":"au","latitude":-33.865143,"longitude":151.2099,"reserved":0,"last_update":"0001-01-01T00:00:00Z","name_a2s":"Uncletopia | Sydney | 1 | All Maps","protocol":17,"map":"cp_dustbowl","folder":"tf","game":"Team Fortress","app_id":440,"player_count":24,"max_players":24,"Bots":0,"server_type":"Dedicated","server_os":"Linux","password":true,"vac":true,"version":"7757534","steam_id":85568392924470001,"keywords":["cp","nocrits","nodmgspread","uncletopia"],"game_id":440,"stv_port":27016,"stv_name":"Uncletopia | Sydney | 1 | All Maps | STV","players":[{"user_id":129,"name":"Van","steam_id":76561198027324852,"connected_time":2185000000000,"state":"active","ping":75},{"user_id":112,"name":"biff","steam_id":76561198069603865,"connected_time":3287000000000,"state":"active","ping":60},{"user_id":142,"name":"Toil Mill","steam_id":76561198192226758,"connected_time":408000000000,"state":"active","ping":31},{"user_id":85,"name":"MrSnoly","steam_id":76561199474418098,"connected_time":4184000000000,"state":"active","ping":76},{"user_id":68,"name":"OofImDuck","steam_id":76561198806600517,"connected_time":4903000000000,"state":"active","ping":69},{"user_id":64,"name":"mental institute gaming","steam_id":76561198815730749,"connected_time":5196000000000,"state":"active","ping":56},{"user_id":135,"name":"Bateman","steam_id":76561198071905445,"connected_time":1894000000000,"state":"active","ping":60},{"user_id":103,"name":"YeahJJ","steam_id":76561198838332365,"connected_time":3490000000000,"state":"active","ping":68},{"user_id":74,"name":"Thestancis","steam_id":76561198031656496,"connected_time":4720000000000,"state":"active","ping":55},{"user_id":126,"name":"Rodan","steam_id":76561198038401873,"connected_time":2410000000000,"state":"active","ping":85},{"user_id":71,"name":"GattlingGoose","steam_id":76561199021498300,"connected_time":4811000000000,"state":"active","ping":76},{"user_id":98,"name":"Grumple","steam_id":76561198089208147,"connected_time":3864000000000,"state":"active","ping":66},{"user_id":73,"name":"Sover blw.tf","steam_id":76561198136347837,"connected_time":4741000000000,"state":"active","ping":132},{"user_id":130,"name":"Piklz","steam_id":76561198043384139,"connected_time":2124000000000,"state":"active","ping":59},{"user_id":139,"name":"look lyke a fly or sumn","steam_id":76561198836003115,"connected_time":1383000000000,"state":"active","ping":62},{"user_id":134,"name":"Original Dog","steam_id":76561198046480594,"connected_time":1990000000000,"state":"active","ping":72},{"user_id":131,"name":"nojnosbod11","steam_id":76561199176012151,"connected_time":2023000000000,"state":"active","ping":67},{"user_id":102,"name":"Mr Doctor","steam_id":76561198081415999,"connected_time":3598000000000,"state":"active","ping":75},{"user_id":143,"name":"bison","steam_id":76561198183851230,"connected_time":176000000000,"state":"active","ping":76},{"user_id":127,"name":"Turbo_dip","steam_id":76561198446508846,"connected_time":2363000000000,"state":"active","ping":67},{"user_id":132,"name":"whiteshaq","steam_id":76561198131988811,"connected_time":2013000000000,"state":"active","ping":42},{"user_id":128,"name":"HeyHeyItsGreyGrey","steam_id":76561198047955263,"connected_time":2333000000000,"state":"active","ping":70},{"user_id":110,"name":"Jodelkönig Franzl Lang","steam_id":76561198007667830,"connected_time":3349000000000,"state":"active","ping":57},{"user_id":115,"name":"pongschlap","steam_id":76561198346216658,"connected_time":3196000000000,"state":"active","ping":61}]},{"server_id":123,"name":"Uncletopia | Sydney | 2 | All Maps","name_short":"syd-2","host":"syd-1.au.uncletopia.com","port":27025,"enabled":true,"region":"au","cc":"au","latitude":-33.865143,"longitude":151.2099,"reserved":0,"last_update":"0001-01-01T00:00:00Z","name_a2s":"Uncletopia | Sydney | 2 | All Maps","protocol":17,"map":"pl_borneo","folder":"tf","game":"Team Fortress","app_id":440,"player_count":24,"max_players":24,"Bots":0,"server_type":"Dedicated","server_os":"Linux","password":true,"vac":true,"version":"7757534","steam_id":85568392924470002,"keywords":["nocrits","nodmgspread","payload","uncletopia"],"game_id":440,"stv_port":27026,"stv_name":"Uncletopia | Sydney | 2 | All Maps | STV","players":[{"user_id":366,"name":"Tweet","steam_id":76561198268795538,"connected_time":2348000000000,"state":"active","ping":54},{"user_id":411,"name":"schizocrow","steam_id":76561199126710327,"connected_time":87000000000,"state":"active","ping":55},{"user_id":410,"name":"Tony Abbot (non-fictitious)","steam_id":76561198304102996,"connected_time":144000000000,"state":"active","ping":69},{"user_id":370,"name":"Zieria","steam_id":76561199261811388,"connected_time":2098000000000,"state":"active","ping":36},{"user_id":373,"name":"kisses you","steam_id":76561198288970258,"connected_time":1839000000000,"state":"active","ping":51},{"user_id":395,"name":"fig","steam_id":76561198097964297,"connected_time":525000000000,"state":"active","ping":55},{"user_id":389,"name":"Doodles ♛","steam_id":76561198023807247,"connected_time":1032000000000,"state":"active","ping":65},{"user_id":396,"name":"Scott Morrison (Real)","steam_id":76561199191313063,"connected_time":478000000000,"state":"active","ping":52},{"user_id":375,"name":"burfdae boi","steam_id":76561199000827969,"connected_time":1796000000000,"state":"active","ping":37},{"user_id":404,"name":"₮Ɇ₴₮ł₵ɄⱠØⱤɄ₥","steam_id":76561199349964541,"connected_time":277000000000,"state":"active","ping":66},{"user_id":390,"name":"bat country","steam_id":76561197980015398,"connected_time":939000000000,"state":"active","ping":46},{"user_id":328,"name":"Local Trash Expert","steam_id":76561198145598622,"connected_time":4541000000000,"state":"active","ping":82},{"user_id":354,"name":"Dupiter","steam_id":76561198108820767,"connected_time":2830000000000,"state":"active","ping":59},{"user_id":408,"name":"Sparky","steam_id":76561198117687688,"connected_time":190000000000,"state":"active","ping":64},{"user_id":405,"name":"Gavin.","steam_id":76561198405783348,"connected_time":273000000000,"state":"active","ping":64},{"user_id":355,"name":"coles","steam_id":76561198356037391,"connected_time":2761000000000,"state":"active","ping":75},{"user_id":399,"name":"♥ᴿᵘˢᵏʸ♥","steam_id":76561198277453108,"connected_time":475000000000,"state":"active","ping":70},{"user_id":393,"name":"Float","steam_id":76561198021812511,"connected_time":601000000000,"state":"active","ping":54},{"user_id":380,"name":"\u003e:FrozenDragon:\u003c","steam_id":76561198227960928,"connected_time":1640000000000,"state":"active","ping":101},{"user_id":381,"name":"SkoKiE","steam_id":76561198283542986,"connected_time":1601000000000,"state":"active","ping":72},{"user_id":401,"name":"wombatrat","steam_id":76561199375834537,"connected_time":427000000000,"state":"active","ping":124},{"user_id":406,"name":"Hey Paul!","steam_id":76561198152210509,"connected_time":244000000000,"state":"active","ping":37},{"user_id":409,"name":"Tiger_Tan","steam_id":76561198221733844,"connected_time":189000000000,"state":"active","ping":74},{"user_id":385,"name":"Enchanted Cat","steam_id":76561198866538028,"connected_time":1383000000000,"state":"active","ping":88}]},{"server_id":395,"name":"Uncletopia | Sydney | 3 | All Maps","name_short":"syd-3","host":"syd-1.au.uncletopia.com","port":27035,"enabled":true,"region":"au","cc":"au","latitude":-33.865143,"longitude":151.2099,"reserved":0,"last_update":"0001-01-01T00:00:00Z","name_a2s":"Uncletopia | Sydney | 3 | All Maps","protocol":17,"map":"pl_barnblitz","folder":"tf","game":"Team Fortress","app_id":440,"player_count":0,"max_players":24,"Bots":0,"server_type":"Dedicated","server_os":"Linux","password":true,"vac":true,"version":"7757534","steam_id":85568392925194467,"keywords":["nocrits","nodmgspread","payload","uncletopia"],"game_id":440,"stv_port":27036,"stv_name":"Uncletopia | Sydney | 3 | All Maps | STV","players":null},{"server_id":396,"name":"Uncletopia | Sydney | 4 | All Maps","name_short":"syd-4","host":"syd-1.au.uncletopia.com","port":27045,"enabled":true,"region":"au","cc":"au","latitude":-33.865143,"longitude":151.2099,"reserved":0,"last_update":"0001-01-01T00:00:00Z","name_a2s":"Uncletopia | Sydney | 4 | All Maps","protocol":17,"map":"koth_highpass","folder":"tf","game":"Team Fortress","app_id":440,"player_count":0,"max_players":24,"Bots":0,"server_type":"Dedicated","server_os":"Linux","password":true,"vac":true,"version":"7757534","steam_id":85568392925397958,"keywords":["cp","nocrits","nodmgspread","uncletopia"],"game_id":440,"stv_port":27046,"stv_name":"Uncletopia | Sydney | 4 | All Maps | STV","players":null},{"server_id":58,"name":"Uncletopia | Sydney | 5 | Stopwatch Beta","name_short":"syd-5","host":"syd-1.au.uncletopia.com","port":27055,"enabled":true,"region":"au","cc":"au","latitude":-33.865143,"longitude":151.2099,"reserved":0,"last_update":"0001-01-01T00:00:00Z","name_a2s":"Uncletopia | Sydney | 5 | Stopwatch Beta","protocol":17,"map":"workshop/pl_summercoast_rc8e.ugc1761528829","folder":"tf","game":"Team Fortress","app_id":440,"player_count":0,"max_players":24,"Bots":0,"server_type":"Dedicated","server_os":"Linux","password":true,"vac":true,"version":"7757534","steam_id":85568392925397959,"keywords":["nocrits","nodmgspread","payload","uncletopia"],"game_id":440,"stv_port":27056,"stv_name":"Uncletopia | Sydney | 5 | Stopwatch Beta | STV","players":null},{"server_id":59,"name":"Uncletopia | Sydney | 6 | Community","name_short":"syd-6","host":"syd-1.au.uncletopia.com","port":27065,"enabled":true,"region":"au","cc":"au","latitude":-33.865143,"longitude":151.2099,"reserved":0,"last_update":"0001-01-01T00:00:00Z","name_a2s":"Uncletopia | Sydney | 6 | Community","protocol":17,"map":"workshop/pl_corrode_rc2.ugc546577989","folder":"tf","game":"Team Fortress","app_id":440,"player_count":0,"max_players":24,"Bots":0,"server_type":"Dedicated","server_os":"Linux","password":true,"vac":true,"version":"7757534","steam_id":85568392925397960,"keywords":["nocrits","nodmgspread","payload","uncletopia"],"game_id":440,"stv_port":27066,"stv_name":"Uncletopia | Sydney | 6 | Community | STV","players":null},{"server_id":49,"name":"Uncletopia | Warsaw | 1 | All Maps","name_short":"waw-1","host":"waw-1.pl.uncletopia.com","port":27015,"enabled":true,"region":"eu","cc":"pl","latitude":52.2297,"longitude":21.017532,"reserved":0,"last_update":"0001-01-01T00:00:00Z","name_a2s":"","protocol":0,"map":"","folder":"","game":"","app_id":0,"player_count":0,"max_players":0,"Bots":0,"server_type":"","server_os":"","password":false,"vac":false,"version":"","steam_id":0,"keywords":null,"game_id":0,"stv_port":0,"stv_name":"","players":null},{"server_id":50,"name":"Uncletopia | Warsaw | 2 | All Maps","name_short":"waw-2","host":"waw-1.pl.uncletopia.com","port":27025,"enabled":true,"region":"eu","cc":"pl","latitude":52.2297,"longitude":21.017532,"reserved":0,"last_update":"0001-01-01T00:00:00Z","name_a2s":"Uncletopia | Warsaw | 2 | All Maps","protocol":17,"map":"koth_viaduct","folder":"tf","game":"Team Fortress","app_id":440,"player_count":0,"max_players":24,"Bots":0,"server_type":"Dedicated","server_os":"Linux","password":true,"vac":true,"version":"7757534","steam_id":85568392925397851,"keywords":["cp","nocrits","nodmgspread","uncletopia"],"game_id":440,"stv_port":27026,"stv_name":"Uncletopia | Warsaw | 2 | All Maps | STV","players":null},{"server_id":51,"name":"Uncletopia | Warsaw | 3 | All Maps","name_short":"waw-3","host":"waw-1.pl.uncletopia.com","port":27035,"enabled":true,"region":"eu","cc":"pl","latitude":52.2297,"longitude":21.017532,"reserved":0,"last_update":"0001-01-01T00:00:00Z","name_a2s":"Uncletopia | Warsaw | 3 | All Maps","protocol":17,"map":"pl_badwater","folder":"tf","game":"Team Fortress","app_id":440,"player_count":0,"max_players":24,"Bots":0,"server_type":"Dedicated","server_os":"Linux","password":true,"vac":true,"version":"7757534","steam_id":85568392925397852,"keywords":["nocrits","nodmgspread","payload","uncletopia"],"game_id":440,"stv_port":27036,"stv_name":"Uncletopia | Warsaw | 3 | All Maps | STV","players":null},{"server_id":52,"name":"Uncletopia | Warsaw | 4 | All Maps","name_short":"waw-4","host":"waw-1.pl.uncletopia.com","port":27045,"enabled":true,"region":"eu","cc":"pl","latitude":52.2297,"longitude":21.017532,"reserved":0,"last_update":"0001-01-01T00:00:00Z","name_a2s":"Uncletopia | Warsaw | 4 | All Maps","protocol":17,"map":"koth_lakeside_final","folder":"tf","game":"Team Fortress","app_id":440,"player_count":0,"max_players":24,"Bots":0,"server_type":"Dedicated","server_os":"Linux","password":true,"vac":true,"version":"7757534","steam_id":85568392925397853,"keywords":["cp","nocrits","nodmgspread","uncletopia"],"game_id":440,"stv_port":27046,"stv_name":"Uncletopia | Warsaw | 4 | All Maps | STV","players":null},{"server_id":53,"name":"Uncletopia | Warsaw | 5 | Stopwatch Beta","name_short":"waw-5","host":"waw-1.pl.uncletopia.com","port":27055,"enabled":true,"region":"eu","cc":"pl","latitude":52.2297,"longitude":21.017532,"reserved":0,"last_update":"0001-01-01T00:00:00Z","name_a2s":"Uncletopia | Warsaw | 5 | Stopwatch Beta","protocol":17,"map":"pl_borneo","folder":"tf","game":"Team Fortress","app_id":440,"player_count":0,"max_players":24,"Bots":0,"server_type":"Dedicated","server_os":"Linux","password":true,"vac":true,"version":"7757534","steam_id":85568392925397854,"keywords":["nocrits","nodmgspread","payload","uncletopia"],"game_id":440,"stv_port":27056,"stv_name":"Uncletopia | Warsaw | 5 | Stopwatch Beta | STV","players":null},{"server_id":54,"name":"Uncletopia | Warsaw | 6 | Community","name_short":"waw-6","host":"waw-1.pl.uncletopia.com","port":27065,"enabled":true,"region":"eu","cc":"pl","latitude":52.2297,"longitude":21.017532,"reserved":0,"last_update":"0001-01-01T00:00:00Z","name_a2s":"Uncletopia | Warsaw | 6 | Community","protocol":17,"map":"koth_lakeside_final","folder":"tf","game":"Team Fortress","app_id":440,"player_count":0,"max_players":24,"Bots":0,"server_type":"Dedicated","server_os":"Linux","password":true,"vac":true,"version":"7757534","steam_id":85568392925397856,"keywords":["cp","nocrits","nodmgspread","uncletopia"],"game_id":440,"stv_port":27066,"stv_name":"Uncletopia | Warsaw | 6 | Community | STV","players":null}]}