{"status":true,"message":"","result":[{"server_id":9,"name":"Uncletopia | Atlanta | 1 | All Maps","name_short":"atl-1","host":"atl-1.us.uncletopia.com","port":27015,"enabled":true,"region":"us-east","cc":"us","latitude":33.753746,"longitude":-84.38633,"reserved":0,"last_update":"0001-01-01T00:00:00Z","name_a2s":"Uncletopia | Atlanta | 1 | All Maps","protocol":17,"map":"pl_borneo","folder":"tf","game":"Team Fortress","app_id":440,"player_count":24,"max_players":24,"Bots":0,"server_type":"Dedicated","server_os":"Linux","password":true,"vac":true,"version":"7961495","steam_id":85568392924469982,"keywords":["nocrits","nodmgspread","payload","uncletopia"],"game_id":440,"stv_port":27016,"stv_name":"Uncletopia | Atlanta | 1 | All Maps | STV","players":[{"user_id":324,"name":"ash","steam_id":76561198127890645,"connected_time":1556000000000,"state":"active","ping":62},{"user_id":240,"name":"Brown_Dream","steam_id":76561198975766145,"connected_time":8963000000000,"state":"active","ping":76},{"user_id":325,"name":"1998 Volvo S70 T5","steam_id":76561198258615044,"connected_time":1536000000000,"state":"active","ping":84},{"user_id":337,"name":"e doctor","steam_id":76561198081851446,"connected_time":1135000000000,"state":"active","ping":60},{"user_id":315,"name":"He rolls his own","steam_id":76561198058162684,"connected_time":2490000000000,"state":"active","ping":84},{"user_id":326,"name":"Xavibite","steam_id":76561198209380493,"connected_time":1513000000000,"state":"active","ping":66},{"user_id":341,"name":"HarryjusttHarry","steam_id":76561198982810452,"connected_time":201000000000,"state":"active","ping":82},{"user_id":274,"name":"Butthole Cafeteria","steam_id":76561197986078333,"connected_time":5367000000000,"state":"active","ping":81},{"user_id":184,"name":"Le4n!!!","steam_id":76561198045522596,"connected_time":12663000000000,"state":"active","ping":62},{"user_id":333,"name":"z #based","steam_id":76561198377478982,"connected_time":1276000000000,"state":"active","ping":77},{"user_id":321,"name":"Im High","steam_id":76561198049954886,"connected_time":2126000000000,"state":"active","ping":77},{"user_id":323,"name":"Koyo","steam_id":76561198290256750,"connected_time":1620000000000,"state":"active","ping":98},{"user_id":339,"name":"Kuri","steam_id":76561199037050183,"connected_time":798000000000,"state":"active","ping":98},{"user_id":336,"name":"Albino Jellyfish","steam_id":76561198208561097,"connected_time":1158000000000,"state":"active","ping":59},{"user_id":309,"name":"andyiscolorless","steam_id":76561199239870921,"connected_time":3178000000000,"state":"active","ping":138},{"user_id":232,"name":"Intro Bonito","steam_id":76561198119478838,"connected_time":9793000000000,"state":"active","ping":53},{"user_id":331,"name":"Johnny Lawrence #JohnnyMaxxing","steam_id":76561199367141671,"connected_time":1452000000000,"state":"active","ping":74},{"user_id":322,"name":"Onyx","steam_id":76561198275349640,"connected_time":1786000000000,"state":"active","ping":78},{"user_id":317,"name":"I'm a Capricorn I was born goat","steam_id":76561198092135570,"connected_time":2379000000000,"state":"active","ping":60},{"user_id":338,"name":"LadyAnon","steam_id":76561198014709418,"connected_time":920000000000,"state":"active","ping":51},{"user_id":186,"name":"twitch.tv/kegaman_","steam_id":76561198043632775,"connected_time":12602000000000,"state":"active","ping":113},{"user_id":306,"name":"Ninjasupahman","steam_id":76561198083284498,"connected_time":3192000000000,"state":"active","ping":60},{"user_id":314,"name":"TacoMan4Life","steam_id":76561198832562728,"connected_time":2773000000000,"state":"active","ping":121},{"user_id":311,"name":"Cryo_Dave","steam_id":76561198796748347,"connected_time":3103000000000,"state":"active","ping":124}]},{"server_id":104,"name":"Uncletopia | Atlanta | 2 | All Maps","name_short":"atl-2","host":"atl-1.us.uncletopia.com","port":27025,"enabled":true,"region":"us-east","cc":"us","latitude":33.753746,"longitude":-84.38633,"reserved":0,"last_update":"0001-01-01T00:00:00Z","name_a2s":"Uncletopia | Atlanta | 2 | All Maps","protocol":17,"map":"plr_bananabay","folder":"tf","game":"Team Fortress","app_id":440,"player_count":14,"max_players":24,"Bots":0,"server_type":"Dedicated","server_os":"Linux","password":true,"vac":true,"version":"7961495","steam_id":85568392924469983,"keywords":["nocrits","nodmgspread","payload","uncletopia"],"game_id":440,"stv_port":27026,"stv_name":"Uncletopia | Atlanta | 2 | All Maps | STV","players":[{"user_id":572,"name":"Wey","steam_id":76561198089235065,"connected_time":416000000000,"state":"active","ping":82},{"user_id":578,"name":"invisible baguette slapper","steam_id":76561198953608051,"connected_time":69000000000,"state":"active","ping":42},{"user_id":574,"name":"lucky","steam_id":76561198323426623,"connected_time":292000000000,"state":"active","ping":78},{"user_id":577,"name":"batman","steam_id":76561198872723148,"connected_time":116000000000,"state":"active","ping":71},{"user_id":509,"name":"Waff00","steam_id":76561198848377100,"connected_time":4993000000000,"state":"active","ping":67},{"user_id":575,"name":"ckravatsky","steam_id":76561199189104895,"connected_time":255000000000,"state":"active","ping":86},{"user_id":576,"name":"NerdyEnforcement","steam_id":76561198437710820,"connected_time":253000000000,"state":"active","ping":91},{"user_id":562,"name":"Hobo Shanker","steam_id":76561198001785187,"connected_time":1338000000000,"state":"active","ping":78},{"user_id":529,"name":"Tactically A Coward","steam_id":76561199274044215,"connected_time":3064000000000,"state":"active","ping":102},{"user_id":549,"name":"Boulvier","steam_id":76561198067834895,"connected_time":2176000000000,"state":"active","ping":83},{"user_id":566,"name":"Legit_Jaxer","steam_id":76561198172234053,"connected_time":1009000000000,"state":"active","ping":105},{"user_id":508,"name":"Nubert","steam_id":76561198990445167,"connected_time":5035000000000,"state":"active","ping":42},{"user_id":553,"name":"Lennu","steam_id":76561198060730154,"connected_time":2052000000000,"state":"active","ping":62},{"user_id":561,"name":"Smooth, Refreshing Bleach™","steam_id":76561197981060504,"connected_time":1377000000000,"state":"active","ping":57}]},{"server_id":400,"name":"Uncletopia | Atlanta | 3 | Stopwatch","name_short":"atl-3","host":"atl-1.us.uncletopia.com","port":27035,"enabled":true,"region":"us-east","cc":"us","latitude":33.753746,"longitude":-84.38633,"reserved":0,"last_update":"0001-01-01T00:00:00Z","name_a2s":"Uncletopia | Atlanta | 3 | Stopwatch","protocol":17,"map":"workshop/koth_bagel_rc6.ugc2514036946","folder":"tf","game":"Team Fortress","app_id":440,"player_count":0,"max_players":24,"Bots":0,"server_type":"Dedicated","server_os":"Linux","password":true,"vac":true,"version":"7961495","steam_id":85568392924515187,"keywords":["cp","nocrits","nodmgspread","uncletopia"],"game_id":440,"stv_port":27036,"stv_name":"Uncletopia | Atlanta | 3 | Stopwatch | STV","players":null},{"server_id":401,"name":"Uncletopia | Atlanta | 4 | Community","name_short":"atl-4","host":"atl-1.us.uncletopia.com","port":27045,"enabled":true,"region":"us-east","cc":"us","latitude":33.753746,"longitude":-84.38633,"reserved":0,"last_update":"0001-01-01T00:00:00Z","name_a2s":"Uncletopia | Atlanta | 4 | Community","protocol":17,"map":"workshop/koth_jamram_rc1a.ugc2964065613","folder":"tf","game":"Team Fortress","app_id":440,"player_count":0,"max_players":24,"Bots":0,"server_type":"Dedicated","server_os":"Linux","password":true,"vac":true,"version":"7961495","steam_id":85568392924515188,"keywords":["cp","nocrits","nodmgspread","uncletopia"],"game_id":440,"stv_port":27046,"stv_name":"Uncletopia | Atlanta | 4 | Community | STV","players":null},{"server_id":2,"name":"Uncletopia | Chicago | 1 | All Maps","name_short":"chi-1","host":"chi-1.us.uncletopia.com","port":27015,"enabled":true,"region":"us-central","cc":"us","latitude":41.881832,"longitude":-87.62318,"reserved":0,"last_update":"0001-01-01T00:00:00Z","name_a2s":"Uncletopia | Chicago | 1 | All Maps","protocol":17,"map":"koth_highpass","folder":"tf","game":"Team Fortress","app_id":440,"player_count":24,"max_players":24,"Bots":0,"server_type":"Dedicated","server_os":"Linux","password":true,"vac":true,"version":"7961495","steam_id":85568392924469984,"keywords":["cp","nocrits","nodmgspread","uncletopia"],"game_id":440,"stv_port":27016,"stv_name":"Uncletopia | Chicago | 1 | All Maps | STV","players":[{"user_id":385,"name":"Adawnby","steam_id":76561198103057295,"connected_time":271000000000,"state":"active","ping":78},{"user_id":386,"name":"Notorious H.R.T.","steam_id":76561198069008085,"connected_time":201000000000,"state":"active","ping":77},{"user_id":347,"name":"Lia_Rein","steam_id":76561198151569597,"connected_time":2823000000000,"state":"active","ping":145},{"user_id":392,"name":"Retro","steam_id":76561198414744723,"connected_time":35000000000,"state":"active","ping":157},{"user_id":381,"name":"Drilly22","steam_id":76561198068838338,"connected_time":335000000000,"state":"active","ping":90},{"user_id":283,"name":"Mushroom","steam_id":76561198980693043,"connected_time":7277000000000,"state":"active","ping":60},{"user_id":365,"name":"ohhhl0rd","steam_id":76561199066793578,"connected_time":1125000000000,"state":"active","ping":63},{"user_id":354,"name":"Cellus","steam_id":76561198067204847,"connected_time":2207000000000,"state":"active","ping":63},{"user_id":325,"name":"Stanv","steam_id":76561198259530604,"connected_time":4464000000000,"state":"active","ping":44},{"user_id":390,"name":"FattSucc","steam_id":76561198009500503,"connected_time":113000000000,"state":"active","ping":89},{"user_id":372,"name":"Box","steam_id":76561198826701192,"connected_time":434000000000,"state":"active","ping":85},{"user_id":332,"name":"hearthian","steam_id":76561198113235260,"connected_time":4156000000000,"state":"active","ping":91},{"user_id":382,"name":"Thats one spicy meat'a'ball","steam_id":76561199230265354,"connected_time":319000000000,"state":"active","ping":64},{"user_id":387,"name":"gaming123","steam_id":76561198801780168,"connected_time":196000000000,"state":"active","ping":66},{"user_id":373,"name":"your local dipshit","steam_id":76561198291984726,"connected_time":426000000000,"state":"active","ping":78},{"user_id":363,"name":"CrankShaft","steam_id":76561197970750813,"connected_time":1177000000000,"state":"active","ping":59},{"user_id":374,"name":"aop","steam_id":76561199510343690,"connected_time":416000000000,"state":"active","ping":55},{"user_id":391,"name":"lego star wars on the psp","steam_id":76561198148014773,"connected_time":91000000000,"state":"active","ping":82},{"user_id":344,"name":"donnie danko","steam_id":76561198148956323,"connected_time":3146000000000,"state":"active","ping":77},{"user_id":389,"name":"⚡Mr.Muff ლ๊","steam_id":76561198217103553,"connected_time":147000000000,"state":"active","ping":66},{"user_id":366,"name":"Bear","steam_id":76561198062949510,"connected_time":823000000000,"state":"active","ping":59},{"user_id":348,"name":"14K COMPUTER WIZARD","steam_id":76561198090704108,"connected_time":2729000000000,"state":"active","ping":59},{"user_id":377,"name":"Papyrusthepuzzlemaster","steam_id":76561199114900350,"connected_time":398000000000,"state":"active","ping":84},{"user_id":379,"name":"BootlegMario","steam_id":76561198041504280,"connected_time":357000000000,"state":"active","ping":60}]},{"server_id":106,"name":"Uncletopia | Chicago | 2 | All Maps","name_short":"chi-2","host":"chi-1.us.uncletopia.com","port":27025,"enabled":true,"region":"us-central","cc":"us","latitude":41.881832,"longitude":-87.62318,"reserved":0,"last_update":"0001-01-01T00:00:00Z","name_a2s":"Uncletopia | Chicago | 2 | All Maps","protocol":17,"map":"koth_cascade","folder":"tf","game":"Team Fortress","app_id":440,"player_count":22,"max_players":24,"Bots":0,"server_type":"Dedicated","server_os":"Linux","password":true,"vac":true,"version":"7961495","steam_id":85568392924469985,"keywords":["cp","nocrits","nodmgspread","uncletopia"],"game_id":440,"stv_port":27026,"stv_name":"Uncletopia | Chicago | 2 | All Maps | STV","players":[{"user_id":188,"name":"gas pump","steam_id":76561199007216815,"connected_time":322000000000,"state":"active","ping":89},{"user_id":189,"name":"sweglord227","steam_id":76561198415510262,"connected_time":236000000000,"state":"active","ping":55},{"user_id":179,"name":"Paulktw1","steam_id":76561198362380245,"connected_time":722000000000,"state":"active","ping":188},{"user_id":154,"name":"speer","steam_id":76561198143826450,"connected_time":2595000000000,"state":"active","ping":39},{"user_id":180,"name":"swift","steam_id":76561198190461447,"connected_time":707000000000,"state":"active","ping":58},{"user_id":163,"name":"Big Yoshi","steam_id":76561199160576376,"connected_time":1997000000000,"state":"active","ping":122},{"user_id":167,"name":"The Benefactor","steam_id":76561198307247913,"connected_time":1894000000000,"state":"active","ping":105},{"user_id":175,"name":"Oh, it's Zach","steam_id":76561198103309672,"connected_time":1466000000000,"state":"active","ping":57},{"user_id":182,"name":"totoro","steam_id":76561198210420871,"connected_time":649000000000,"state":"active","ping":44},{"user_id":181,"name":"God of bread","steam_id":76561198373688035,"connected_time":664000000000,"state":"active","ping":63},{"user_id":165,"name":"Lyps","steam_id":76561198095459318,"connected_time":1913000000000,"state":"active","ping":52},{"user_id":101,"name":"dog","steam_id":76561198263873491,"connected_time":5895000000000,"state":"active","ping":47},{"user_id":146,"name":"Kylex","steam_id":76561198131504296,"connected_time":3621000000000,"state":"active","ping":80},{"user_id":120,"name":"the.land.of.avalon","steam_id":76561198245431668,"connected_time":4936000000000,"state":"active","ping":57},{"user_id":166,"name":"Napa cabbage","steam_id":76561198103825541,"connected_time":1904000000000,"state":"active","ping":67},{"user_id":183,"name":"Yosh","steam_id":76561198027078899,"connected_time":593000000000,"state":"active","ping":83},{"user_id":177,"name":"Crunchy","steam_id":76561198060342804,"connected_time":1260000000000,"state":"active","ping":84},{"user_id":184,"name":"Sweater-Fan","steam_id":76561199389567214,"connected_time":558000000000,"state":"active","ping":68},{"user_id":168,"name":"Dat1SpenceyBoi","steam_id":76561199446171976,"connected_time":1890000000000,"state":"active","ping":105},{"user_id":85,"name":"Metbol","steam_id":76561198001362410,"connected_time":7405000000000,"state":"active","ping":89},{"user_id":185,"name":"the Fuck.","steam_id":76561198003772062,"connected_time":553000000000,"state":"active","ping":63},{"user_id":190,"name":"doingus","steam_id":76561199509178765,"connected_time":235000000000,"state":"active","ping":47}]},{"server_id":402,"name":"Uncletopia | Chicago | 3 | All Maps","name_short":"chi-3","host":"chi-1.us.uncletopia.com","port":27035,"enabled":true,"region":"us-central","cc":"us","latitude":41.881832,"longitude":-87.62318,"reserved":0,"last_update":"0001-01-01T00:00:00Z","name_a2s":"Uncletopia | Chicago | 3 | All Maps","protocol":17,"map":"cp_gorge","folder":"tf","game":"Team Fortress","app_id":440,"player_count":24,"max_players":24,"Bots":0,"server_type":"Dedicated","server_os":"Linux","password":true,"vac":true,"version":"7961495","steam_id":85568392924515191,"keywords":["cp","nocrits","nodmgspread","uncletopia"],"game_id":440,"stv_port":27036,"stv_name":"Uncletopia | Chicago | 3 | All Maps | STV","players":[{"user_id":486,"name":"conner","steam_id":76561198052911241,"connected_time":651000000000,"state":"active","ping":73},{"user_id":481,"name":"Nicholas","steam_id":76561198206306996,"connected_time":1710000000000,"state":"active","ping":61},{"user_id":489,"name":"Dark Lord","steam_id":76561198044199150,"connected_time":546000000000,"state":"active","ping":79},{"user_id":487,"name":"(●･̆⍛･̆●) ⋆⁺₊","steam_id":76561198796711809,"connected_time":588000000000,"state":"active","ping":77},{"user_id":484,"name":"MausWaffles","steam_id":76561198193160991,"connected_time":1198000000000,"state":"active","ping":100},{"user_id":465,"name":"Snivy64","steam_id":76561198423445376,"connected_time":2602000000000,"state":"active","ping":92},{"user_id":474,"name":"Monika","steam_id":76561198111657111,"connected_time":1770000000000,"state":"active","ping":89},{"user_id":449,"name":"freyja","steam_id":76561198249206656,"connected_time":3113000000000,"state":"active","ping":59},{"user_id":475,"name":"Nazmir Boglord","steam_id":76561198162890584,"connected_time":1764000000000,"state":"active","ping":70},{"user_id":460,"name":"The_Skull_boy","steam_id":76561198227692664,"connected_time":2804000000000,"state":"active","ping":116},{"user_id":471,"name":"BIDEN BLASTER","steam_id":76561198065650507,"connected_time":2132000000000,"state":"active","ping":68},{"user_id":379,"name":"GorbTheImmortal","steam_id":76561198125936721,"connected_time":6316000000000,"state":"active","ping":98},{"user_id":482,"name":"Carpetspill","steam_id":76561198240023406,"connected_time":1566000000000,"state":"active","ping":79},{"user_id":450,"name":"terrytennisball418","steam_id":76561198048882285,"connected_time":3028000000000,"state":"active","ping":60},{"user_id":476,"name":"giant shoe","steam_id":76561198329590943,"connected_time":1761000000000,"state":"active","ping":93},{"user_id":477,"name":"Nega Goku","steam_id":76561198841559088,"connected_time":1759000000000,"state":"active","ping":64},{"user_id":478,"name":"C₄H₈Cl₂SGamez","steam_id":76561198250471340,"connected_time":1754000000000,"state":"active","ping":58},{"user_id":462,"name":"lilscot","steam_id":76561198099212453,"connected_time":2741000000000,"state":"active","ping":69},{"user_id":490,"name":"dogerich404","steam_id":76561199124102546,"connected_time":521000000000,"state":"active","ping":105},{"user_id":469,"name":"TLG, Certified Gamer Mom","steam_id":76561198076669951,"connected_time":2292000000000,"state":"active","ping":68},{"user_id":467,"name":"Ramblin_Man2-3","steam_id":76561198986586238,"connected_time":2454000000000,"state":"active","ping":103},{"user_id":479,"name":"Saturnalien","steam_id":76561198057056295,"connected_time":1746000000000,"state":"active","ping":71},{"user_id":480,"name":"Onyx_RR","steam_id":76561198155815365,"connected_time":1737000000000,"state":"active","ping":79},{"user_id":485,"name":"table joe","steam_id":76561198010900487,"connected_time":796000000000,"state":"active","ping":47}]},{"server_id":403,"name":"Uncletopia | Chicago | 4 | All Maps","name_short":"chi-4","host":"chi-1.us.uncletopia.com","port":27045,"enabled":true,"region":"us-central","cc":"us","latitude":41.881832,"longitude":-87.62318,"reserved":0,"last_update":"0001-01-01T00:00:00Z","name_a2s":"Uncletopia | Chicago | 4 | All Maps","protocol":17,"map":"koth_viaduct","folder":"tf","game":"Team Fortress","app_id":440,"player_count":0,"max_players":24,"Bots":0,"server_type":"Dedicated","server_os":"Linux","password":true,"vac":true,"version":"7961495","steam_id":85568392924515193,"keywords":["cp","nocrits","nodmgspread","uncletopia"],"game_id":440,"stv_port":27046,"stv_name":"Uncletopia | Chicago | 4 | All Maps | STV","players":null},{"server_id":36,"name":"Uncletopia | Chicago | 5 | All Maps","name_short":"chi-5","host":"chi-2.us.uncletopia.com","port":27015,"enabled":true,"region":"us-central","cc":"us","latitude":41.881832,"longitude":-87.62318,"reserved":0,"last_update":"0001-01-01T00:00:00Z","name_a2s":"Uncletopia | Chicago | 5 | All Maps","protocol":17,"map":"cp_snakewater_final1","folder":"tf","game":"Team Fortress","app_id":440,"player_count":1,"max_players":24,"Bots":0,"server_type":"Dedicated","server_os":"Linux","password":true,"vac":true,"version":"7961495","steam_id":85568392924866362,"keywords":["cp","nocrits","nodmgspread","uncletopia"],"game_id":440,"stv_port":27016,"stv_name":"Uncletopia | Chicago | 5 | All Maps | STV","players":[{"user_id":12,"name":"Frog","steam_id":76561199160808722,"connected_time":151000000000,"state":"active","ping":201}]},{"server_id":37,"name":"Uncletopia | Chicago | 6 | All Maps","name_short":"chi-6","host":"chi-2.us.uncletopia.com","port":27025,"enabled":true,"region":"us-central","cc":"us","latitude":41.881832,"longitude":-87.62318,"reserved":0,"last_update":"0001-01-01T00:00:00Z","name_a2s":"Uncletopia | Chicago | 6 | All Maps","protocol":17,"map":"cp_mountainlab","folder":"tf","game":"Team Fortress","app_id":440,"player_count":19,"max_players":24,"Bots":0,"server_type":"Dedicated","server_os":"Linux","password":true,"vac":true,"version":"7961495","steam_id":85568392924866363,"keywords":["cp","nocrits","nodmgspread","uncletopia"],"game_id":440,"stv_port":27026,"stv_name":"Uncletopia | Chicago | 6 | All Maps | STV","players":[{"user_id":192,"name":"dadgummit","steam_id":76561198005806915,"connected_time":1487000000000,"state":"active","ping":55},{"user_id":206,"name":"SubZeroDestruction","steam_id":76561198145082209,"connected_time":267000000000,"state":"active","ping":67},{"user_id":199,"name":"Mannamannaa","steam_id":76561198024438635,"connected_time":812000000000,"state":"active","ping":57},{"user_id":197,"name":"MMAD","steam_id":76561198026446420,"connected_time":940000000000,"state":"active","ping":77},{"user_id":213,"name":"IAmAProfesonal","steam_id":76561199171858953,"connected_time":111000000000,"state":"active","ping":46},{"user_id":212,"name":"fully vacced, fully autistic","steam_id":76561198968058652,"connected_time":196000000000,"state":"active","ping":96},{"user_id":202,"name":"Bright Noa","steam_id":76561198099494670,"connected_time":473000000000,"state":"active","ping":86},{"user_id":154,"name":"milk","steam_id":76561198079843730,"connected_time":2795000000000,"state":"active","ping":64},{"user_id":136,"name":"ndvr (femboy (REAL))","steam_id":76561199379200102,"connected_time":3707000000000,"state":"active","ping":55},{"user_id":209,"name":"Willow.","steam_id":76561198229691912,"connected_time":206000000000,"state":"active","ping":64},{"user_id":210,"name":"Blight_CA","steam_id":76561198811130843,"connected_time":203000000000,"state":"active","ping":78},{"user_id":211,"name":"TheColdChiliPepper","steam_id":76561199027155811,"connected_time":201000000000,"state":"active","ping":102},{"user_id":216,"name":"Average Lime Scout","steam_id":76561198144049265,"connected_time":46000000000,"state":"active","ping":100},{"user_id":170,"name":"Dreyma","steam_id":76561198227372596,"connected_time":2582000000000,"state":"active","ping":108},{"user_id":158,"name":"Griffin","steam_id":76561198159339442,"connected_time":2789000000000,"state":"active","ping":69},{"user_id":162,"name":"TerracottaP","steam_id":76561199402983168,"connected_time":2657000000000,"state":"active","ping":82},{"user_id":140,"name":"Chillin Turt","steam_id":76561198025796849,"connected_time":3549000000000,"state":"active","ping":65},{"user_id":147,"name":"corntent","steam_id":76561198824847948,"connected_time":3065000000000,"state":"active","ping":59},{"user_id":174,"name":"VibingVicinity","steam_id":76561198208211285,"connected_time":2406000000000,"state":"active","ping":65}]},{"server_id":38,"name":"Uncletopia | Chicago | 7 | Stopwatch","name_short":"chi-7","host":"chi-2.us.uncletopia.com","port":27035,"enabled":true,"region":"us-central","cc":"us","latitude":41.881832,"longitude":-87.62318,"reserved":0,"last_update":"0001-01-01T00:00:00Z","name_a2s":"Uncletopia | Chicago | 7 | Stopwatch","protocol":17,"map":"workshop/koth_ashville_final.ugc2130459942","folder":"tf","game":"Team Fortress","app_id":440,"player_count":0,"max_players":24,"Bots":0,"server_type":"Dedicated","server_os":"Linux","password":true,"vac":true,"version":"7961495","steam_id":85568392924866364,"keywords":["cp","nocrits","nodmgspread","uncletopia"],"game_id":440,"stv_port":27036,"stv_name":"Uncletopia | Chicago | 7 | Stopwatch | STV","players":null},{"server_id":39,"name":"Uncletopia | Chicago | 8 | Community","name_short":"chi-8","host":"chi-2.us.uncletopia.com","port":27045,"enabled":true,"region":"us-central","cc":"us","latitude":41.881832,"longitude":-87.62318,"reserved":0,"last_update":"0001-01-01T00:00:00Z","name_a2s":"Uncletopia | Chicago | 8 | Community","protocol":17,"map":"workshop/koth_ashville_final.ugc2130459942","folder":"tf","game":"Team Fortress","app_id":440,"player_count":0,"max_players":24,"Bots":0,"server_type":"Dedicated","server_os":"Linux","password":true,"vac":true,"version":"7961495","steam_id":85568392924866365,"keywords":["cp","nocrits","nodmgspread","uncletopia"],"game_id":440,"stv_port":27046,"stv_name":"Uncletopia | Chicago | 8 | Community | STV","players":null},{"server_id":8,"name":"Uncletopia | Dallas | 1 | All Maps","name_short":"dal-1","host":"dal-1.us.uncletopia.com","port":27015,"enabled":true,"region":"us-central","cc":"us","latitude":32.779167,"longitude":-96.80889,"reserved":0,"last_update":"0001-01-01T00:00:00Z","name_a2s":"Uncletopia | Dallas | 1 | All Maps","protocol":17,"map":"pl_upward","folder":"tf","game":"Team Fortress","app_id":440,"player_count":23,"max_players":24,"Bots":0,"server_type":"Dedicated","server_os":"Linux","password":true,"vac":true,"version":"7961495","steam_id":85568392924469986,"keywords":["nocrits","nodmgspread","payload","uncletopia"],"game_id":440,"stv_port":27016,"stv_name":"Uncletopia | Dallas | 1 | All Maps | STV","players":[{"user_id":696,"name":"big ol' buford","steam_id":76561198290675957,"connected_time":199000000000,"state":"active","ping":40},{"user_id":681,"name":"Speed Waggin","steam_id":76561198082232924,"connected_time":455000000000,"state":"active","ping":92},{"user_id":633,"name":"Wilhelmktx","steam_id":76561198158102295,"connected_time":2930000000000,"state":"active","ping":84},{"user_id":693,"name":"Falleax","steam_id":76561198021154908,"connected_time":245000000000,"state":"active","ping":35},{"user_id":596,"name":"Rex","steam_id":76561198138365053,"connected_time":4496000000000,"state":"active","ping":134},{"user_id":620,"name":"Domster536","steam_id":76561198152695768,"connected_time":3542000000000,"state":"active","ping":62},{"user_id":576,"name":"-={o.W.n.}=- Dark Murkrow 3","steam_id":76561198174432643,"connected_time":5727000000000,"state":"active","ping":97},{"user_id":667,"name":"pop :)","steam_id":76561198085278224,"connected_time":880000000000,"state":"active","ping":91},{"user_id":665,"name":"Flavortown Thanos","steam_id":76561198004853966,"connected_time":1016000000000,"state":"active","ping":98},{"user_id":702,"name":"goblin","steam_id":76561199004451589,"connected_time":23000000000,"state":"active","ping":49},{"user_id":657,"name":"DrD","steam_id":76561198067266383,"connected_time":1512000000000,"state":"active","ping":77},{"user_id":635,"name":"ZombieMaster428","steam_id":76561198085251146,"connected_time":2731000000000,"state":"active","ping":85},{"user_id":687,"name":"Stoopnagle","steam_id":76561198011942560,"connected_time":357000000000,"state":"active","ping":100},{"user_id":668,"name":"An Unhappy Clown","steam_id":76561198175516514,"connected_time":880000000000,"state":"active","ping":37},{"user_id":641,"name":"doubledanage","steam_id":76561198418629356,"connected_time":2516000000000,"state":"active","ping":45},{"user_id":664,"name":"cumgoblin","steam_id":76561198113270138,"connected_time":1024000000000,"state":"active","ping":48},{"user_id":640,"name":"jestor","steam_id":76561198248148760,"connected_time":2569000000000,"state":"active","ping":65},{"user_id":680,"name":"Eomy","steam_id":76561198297783627,"connected_time":491000000000,"state":"active","ping":102},{"user_id":701,"name":"cactus eater","steam_id":76561199107499844,"connected_time":51000000000,"state":"active","ping":86},{"user_id":700,"name":"the man","steam_id":76561199103120314,"connected_time":76000000000,"state":"active","ping":77},{"user_id":671,"name":"HumbDoe","steam_id":76561198065556553,"connected_time":820000000000,"state":"active","ping":89},{"user_id":672,"name":"Ethanol Buttchugger","steam_id":76561199127590316,"connected_time":655000000000,"state":"active","ping":89},{"user_id":673,"name":"Nebula","steam_id":76561198079578011,"connected_time":647000000000,"state":"active","ping":57}]},{"server_id":108,"name":"Uncletopia | Dallas | 2 | All Maps","name_short":"dal-2","host":"dal-1.us.uncletopia.com","port":27025,"enabled":true,"region":"us-central","cc":"us","latitude":32.779167,"longitude":-96.80889,"reserved":0,"last_update":"0001-01-01T00:00:00Z","name_a2s":"Uncletopia | Dallas | 2 | All Maps","protocol":17,"map":"cp_process_final","folder":"tf","game":"Team Fortress","app_id":440,"player_count":21,"max_players":24,"Bots":0,"server_type":"Dedicated","server_os":"Linux","password":true,"vac":true,"version":"7961495","steam_id":85568392924469988,"keywords":["cp","nocrits","nodmgspread","uncletopia"],"game_id":440,"stv_port":27026,"stv_name":"Uncletopia | Dallas | 2 | All Maps | STV","players":[{"user_id":338,"name":"71 Folding Chairs","steam_id":76561198080700483,"connected_time":415000000000,"state":"active","ping":50},{"user_id":345,"name":"Triwq","steam_id":76561198054810406,"connected_time":69000000000,"state":"active","ping":45},{"user_id":342,"name":"Bluedemon","steam_id":76561199212058684,"connected_time":116000000000,"state":"active","ping":83},{"user_id":326,"name":"Sentinel","steam_id":76561198057008450,"connected_time":2457000000000,"state":"active","ping":85},{"user_id":343,"name":"trash beast","steam_id":76561198015792736,"connected_time":114000000000,"state":"active","ping":77},{"user_id":76,"name":"Eden","steam_id":76561198081284664,"connected_time":18841000000000,"state":"active","ping":92},{"user_id":315,"name":"HeadOfB.O.XNews","steam_id":76561198823322405,"connected_time":3041000000000,"state":"active","ping":46},{"user_id":339,"name":"Junowo","steam_id":76561199136179696,"connected_time":256000000000,"state":"active","ping":68},{"user_id":344,"name":"otwtomarsoffdabars(spacecore)","steam_id":76561199085974120,"connected_time":74000000000,"state":"active","ping":100},{"user_id":332,"name":"pan","steam_id":76561198093968095,"connected_time":1630000000000,"state":"active","ping":82},{"user_id":333,"name":"Butteryback","steam_id":76561198049642485,"connected_time":1582000000000,"state":"active","ping":59},{"user_id":302,"name":"JAMeep3102","steam_id":76561198167456886,"connected_time":3959000000000,"state":"active","ping":62},{"user_id":263,"name":"SanitysEdge","steam_id":76561198130732813,"connected_time":5413000000000,"state":"active","ping":71},{"user_id":336,"name":"xhutrx117","steam_id":76561198037226115,"connected_time":611000000000,"state":"active","ping":75},{"user_id":308,"name":"Some random dude","steam_id":76561199477705792,"connected_time":3657000000000,"state":"active","ping":123},{"user_id":291,"name":"Crλf227","steam_id":76561198196211121,"connected_time":4626000000000,"state":"active","ping":61},{"user_id":327,"name":"EMPTY WITCH","steam_id":76561198068800572,"connected_time":2320000000000,"state":"active","ping":77},{"user_id":310,"name":"Nestor","steam_id":76561198070782619,"connected_time":3515000000000,"state":"active","ping":89},{"user_id":331,"name":"beats (16:38)","steam_id":76561199245717718,"connected_time":2159000000000,"state":"active","ping":73},{"user_id":304,"name":"Decapitation Station","steam_id":76561198201796098,"connected_time":3872000000000,"state":"active","ping":74},{"user_id":334,"name":"DrPepperTacos","steam_id":76561198055977369,"connected_time":1339000000000,"state":"active","ping":67}]},{"server_id":404,"name":"Uncletopia | Dallas | 3 | All Maps","name_short":"dal-3","host":"dal-1.us.uncletopia.com","port":27035,"enabled":true,"region":"us-central","cc":"us","latitude":32.779167,"longitude":-96.80889,"reserved":0,"last_update":"0001-01-01T00:00:00Z","name_a2s":"Uncletopia | Dallas | 3 | All Maps","protocol":17,"map":"koth_viaduct","folder":"tf","game":"Team Fortress","app_id":440,"player_count":0,"max_players":24,"Bots":0,"server_type":"Dedicated","server_os":"Linux","password":true,"vac":true,"version":"7961495","steam_id":85568392924515219,"keywords":["cp","nocrits","nodmgspread","uncletopia"],"game_id":440,"stv_port":27036,"stv_name":"Uncletopia | Dallas | 3 | All Maps | STV","players":null},{"server_id":405,"name":"Uncletopia | Dallas | 4 | Community","name_short":"dal-4","host":"dal-1.us.uncletopia.com","port":27045,"enabled":true,"region":"us-central","cc":"us","latitude":32.779167,"longitude":-96.80889,"reserved":0,"last_update":"0001-01-01T00:00:00Z","name_a2s":"Uncletopia | Dallas | 4 | Community","protocol":17,"map":"workshop/cp_croissant_final.ugc458840209","folder":"tf","game":"Team Fortress","app_id":440,"player_count":0,"max_players":24,"Bots":0,"server_type":"Dedicated","server_os":"Linux","password":true,"vac":true,"version":"7961495","steam_id":85568392924515220,"keywords":["cp","nocrits","nodmgspread","uncletopia"],"game_id":440,"stv_port":27046,"stv_name":"Uncletopia | Dallas | 4 | Community | STV","players":null},{"server_id":5,"name":"Uncletopia | Frankfurt | 1 | All Maps","name_short":"frk-1","host":"frk-1.de.uncletopia.com","port":27015,"enabled":true,"region":"eu","cc":"de","latitude":50.110924,"longitude":8.682127,"reserved":0,"last_update":"0001-01-01T00:00:00Z","name_a2s":"Uncletopia | Frankfurt | 1 | All Maps","protocol":17,"map":"koth_viaduct","folder":"tf","game":"Team Fortress","app_id":440,"player_count":0,"max_players":24,"Bots":0,"server_type":"Dedicated","server_os":"Linux","password":true,"vac":true,"version":"7961495","steam_id":85568392924469989,"keywords":["cp","nocrits","nodmgspread","uncletopia"],"game_id":440,"stv_port":27016,"stv_name":"Uncletopia | Frankfurt | 1 | All Maps | STV","players":null},{"server_id":110,"name":"Uncletopia | Frankfurt | 2 | All Maps","name_short":"frk-2","host":"frk-1.de.uncletopia.com","port":27025,"enabled":true,"region":"eu","cc":"de","latitude":50.110924,"longitude":8.682127,"reserved":0,"last_update":"0001-01-01T00:00:00Z","name_a2s":"Uncletopia | Frankfurt | 2 | All Maps","protocol":17,"map":"pl_badwater","folder":"tf","game":"Team Fortress","app_id":440,"player_count":0,"max_players":24,"Bots":0,"server_type":"Dedicated","server_os":"Linux","password":true,"vac":true,"version":"7961495","steam_id":85568392924469990,"keywords":["nocrits","nodmgspread","payload","uncletopia"],"game_id":440,"stv_port":27026,"stv_name":"Uncletopia | Frankfurt | 2 | All Maps | STV","players":null},{"server_id":308,"name":"Uncletopia | Frankfurt | 3 | All Maps","name_short":"frk-3","host":"frk-1.de.uncletopia.com","port":27035,"enabled":true,"region":"eu","cc":"de","latitude":50.110924,"longitude":8.682127,"reserved":0,"last_update":"0001-01-01T00:00:00Z","name_a2s":"Uncletopia | Frankfurt | 3 | All Maps","protocol":17,"map":"pl_thundermountain","folder":"tf","game":"Team Fortress","app_id":440,"player_count":10,"max_players":24,"Bots":0,"server_type":"Dedicated","server_os":"Linux","password":true,"vac":true,"version":"7961495","steam_id":85568392924504274,"keywords":["nocrits","nodmgspread","payload","uncletopia"],"game_id":440,"stv_port":27036,"stv_name":"Uncletopia | Frankfurt | 3 | All Maps | STV","players":[{"user_id":353,"name":"Salt_Shaker309","steam_id":76561198086931010,"connected_time":598000000000,"state":"active","ping":57},{"user_id":354,"name":"Oaky Leaf","steam_id":76561198162821920,"connected_time":584000000000,"state":"active","ping":100},{"user_id":341,"name":"PROFILE NAME","steam_id":76561198180056982,"connected_time":1345000000000,"state":"active","ping":64},{"user_id":340,"name":"Benedictus XVI","steam_id":76561199233979726,"connected_time":1356000000000,"state":"active","ping":75},{"user_id":344,"name":"SocialistBacon","steam_id":76561198055872267,"connected_time":1227000000000,"state":"active","ping":91},{"user_id":337,"name":"slippin jimmy","steam_id":76561198090788590,"connected_time":1772000000000,"state":"active","ping":53},{"user_id":328,"name":"osmangazi","steam_id":76561198076009537,"connected_time":2122000000000,"state":"active","ping":90},{"user_id":348,"name":"Seb, Comrade","steam_id":76561198040279587,"connected_time":1019000000000,"state":"active","ping":86},{"user_id":350,"name":"Peri","steam_id":76561198255311543,"connected_time":940000000000,"state":"active","ping":206},{"user_id":351,"name":"csg.amppis","steam_id":76561198083505031,"connected_time":828000000000,"state":"active","ping":51}]},{"server_id":309,"name":"Uncletopia | Frankfurt | 4 | All Maps","name_short":"frk-4","host":"frk-1.de.uncletopia.com","port":27045,"enabled":true,"region":"eu","cc":"de","latitude":50.110924,"longitude":8.682127,"reserved":0,"last_update":"0001-01-01T00:00:00Z","name_a2s":"Uncletopia | Frankfurt | 4 | All Maps","protocol":17,"map":"cp_mountainlab","folder":"tf","game":"Team Fortress","app_id":440,"player_count":0,"max_players":24,"Bots":0,"server_type":"Dedicated","server_os":"Linux","password":true,"vac":true,"version":"7961495","steam_id":85568392924504275,"keywords":["cp","nocrits","nodmgspread","uncletopia"],"game_id":440,"stv_port":27046,"stv_name":"Uncletopia | Frankfurt | 4 | All Maps | STV","players":null},{"server_id":310,"name":"Uncletopia | Frankfurt | 5 | All Maps","name_short":"frk-5","host":"frk-1.de.uncletopia.com","port":27055,"enabled":true,"region":"eu","cc":"de","latitude":50.110924,"longitude":8.682127,"reserved":0,"last_update":"0001-01-01T00:00:00Z","name_a2s":"Uncletopia | Frankfurt | 5 | All Maps","protocol":17,"map":"koth_cascade","folder":"tf","game":"Team Fortress","app_id":440,"player_count":0,"max_players":24,"Bots":0,"server_type":"Dedicated","server_os":"Linux","password":true,"vac":true,"version":"7961495","steam_id":85568392924504277,"keywords":["cp","nocrits","nodmgspread","uncletopia"],"game_id":440,"stv_port":27056,"stv_name":"Uncletopia | Frankfurt | 5 | All Maps | STV","players":null},{"server_id":311,"name":"Uncletopia | Frankfurt | 6 | All Maps","name_short":"frk-6","host":"frk-1.de.uncletopia.com","port":27065,"enabled":true,"region":"eu","cc":"de","latitude":50.110924,"longitude":8.682127,"reserved":0,"last_update":"0001-01-01T00:00:00Z","name_a2s":"Uncletopia | Frankfurt | 6 | All Maps","protocol":17,"map":"pl_badwater","folder":"tf","game":"Team Fortress","app_id":440,"player_count":24,"max_players":24,"Bots":0,"server_type":"Dedicated","server_os":"Linux","password":true,"vac":true,"version":"7961495","steam_id":85568392924504278,"keywords":["nocrits","nodmgspread","payload","uncletopia"],"game_id":440,"stv_port":27066,"stv_name":"Uncletopia | Frankfurt | 6 | All Maps | STV","players":[{"user_id":697,"name":"Sirzen","steam_id":76561198170155434,"connected_time":1578000000000,"state":"active","ping":55},{"user_id":672,"name":"MrTalon63","steam_id":76561198169518632,"connected_time":3575000000000,"state":"active","ping":79},{"user_id":702,"name":"Kenny","steam_id":76561198994898206,"connected_time":1320000000000,"state":"active","ping":74},{"user_id":661,"name":"Koppa","steam_id":76561197972286376,"connected_time":4294000000000,"state":"active","ping":70},{"user_id":649,"name":"Dougie","steam_id":76561198079567499,"connected_time":6381000000000,"state":"active","ping":67},{"user_id":717,"name":"Dr. Hannibal Erekter","steam_id":76561198256093319,"connected_time":228000000000,"state":"active","ping":93},{"user_id":703,"name":"Yui_Tayuun","steam_id":76561198133495294,"connected_time":1225000000000,"state":"active","ping":92},{"user_id":679,"name":"tone","steam_id":76561197975301462,"connected_time":3023000000000,"state":"active","ping":56},{"user_id":718,"name":"PurpleLightning","steam_id":76561198103537029,"connected_time":140000000000,"state":"active","ping":150},{"user_id":695,"name":"Krefa12","steam_id":76561198268375393,"connected_time":2169000000000,"state":"active","ping":75},{"user_id":719,"name":"jonas","steam_id":76561199441196540,"connected_time":33000000000,"state":"active","ping":53},{"user_id":711,"name":"angry russian man","steam_id":76561198386712795,"connected_time":837000000000,"state":"active","ping":70},{"user_id":677,"name":"Killroywashere","steam_id":76561198169854979,"connected_time":3268000000000,"state":"active","ping":94},{"user_id":653,"name":"Mr.B","steam_id":76561198399729189,"connected_time":5621000000000,"state":"active","ping":72},{"user_id":700,"name":"turbo shart","steam_id":76561198012351808,"connected_time":1445000000000,"state":"active","ping":65},{"user_id":691,"name":"Otsoser","steam_id":76561198066795423,"connected_time":2463000000000,"state":"active","ping":96},{"user_id":701,"name":"please do not the cat","steam_id":76561198089003514,"connected_time":1389000000000,"state":"active","ping":45},{"user_id":683,"name":"weed problem II - V","steam_id":76561198054012474,"connected_time":2886000000000,"state":"active","ping":56},{"user_id":706,"name":"Balling","steam_id":76561198240320806,"connected_time":1164000000000,"state":"active","ping":70},{"user_id":705,"name":"Xiqui","steam_id":76561198818386611,"connected_time":1196000000000,"state":"active","ping":82},{"user_id":666,"name":"Frazzle","steam_id":76561198262577951,"connected_time":3929000000000,"state":"active","ping":78},{"user_id":685,"name":"O q?Nunca viste um ovo jogar CS","steam_id":76561198888821129,"connected_time":2735000000000,"state":"active","ping":88},{"user_id":692,"name":"Sir Bomberlicht","steam_id":76561198222308636,"connected_time":2306000000000,"state":"active","ping":74},{"user_id":715,"name":"Lyncurion","steam_id":76561199260022725,"connected_time":417000000000,"state":"active","ping":77}]},{"server_id":23,"name":"Uncletopia | Frankfurt | 7 | Stopwatch","name_short":"frk-7","host":"frk-1.de.uncletopia.com","port":27075,"enabled":true,"region":"eu","cc":"de","latitude":50.110924,"longitude":8.682127,"reserved":0,"last_update":"0001-01-01T00:00:00Z","name_a2s":"Uncletopia | Frankfurt | 7 | Stopwatch","protocol":17,"map":"workshop/pl_badwater_pro_v12.ugc2142942074","folder":"tf","game":"Team Fortress","app_id":440,"player_count":0,"max_players":24,"Bots":0,"server_type":"Dedicated","server_os":"Linux","password":true,"vac":true,"version":"7961495","steam_id":85568392924742827,"keywords":["nocrits","nodmgspread","payload","uncletopia"],"game_id":440,"stv_port":27076,"stv_name":"Uncletopia | Frankfurt | 7 | Stopwatch | STV","players":null},{"server_id":24,"name":"Uncletopia | Frankfurt | 8 | Community","name_short":"frk-8","host":"frk-1.de.uncletopia.com","port":27085,"enabled":true,"region":"eu","cc":"de","latitude":50.110924,"longitude":8.682127,"reserved":0,"last_update":"0001-01-01T00:00:00Z","name_a2s":"Uncletopia | Frankfurt | 8 | Community","protocol":17,"map":"workshop/cp_croissant_final.ugc458840209","folder":"tf","game":"Team Fortress","app_id":440,"player_count":0,"max_players":24,"Bots":0,"server_type":"Dedicated","server_os":"Linux","password":true,"vac":true,"version":"7961495","steam_id":85568392924742828,"keywords":["cp","nocrits","nodmgspread","uncletopia"],"game_id":440,"stv_port":27086,"stv_name":"Uncletopia | Frankfurt | 8 | Community | STV","players":null},{"server_id":202,"name":"Uncletopia | Hong Kong | 1 | All Maps","name_short":"hgk-1","host":"hgk-1.hk.uncletopia.com","port":27015,"enabled":true,"region":"asia","cc":"hk","latitude":22.302711,"longitude":114.177216,"reserved":0,"last_update":"0001-01-01T00:00:00Z","name_a2s":"Uncletopia | Hong Kong | 1 | All Maps","protocol":17,"map":"cp_metalworks","folder":"tf","game":"Team Fortress","app_id":440,"player_count":0,"max_players":24,"Bots":0,"server_type":"Dedicated","server_os":"Linux","password":true,"vac":true,"version":"7961495","steam_id":85568392924494504,"keywords":["cp","nocrits","nodmgspread","uncletopia"],"game_id":440,"stv_port":27016,"stv_name":"Uncletopia | Hong Kong | 1 | All Maps | STV","players":null},{"server_id":1,"name":"Uncletopia | Los Angeles | 1 | All Maps","name_short":"lax-1","host":"lax-1.us.uncletopia.com","port":27015,"enabled":true,"region":"us-west","cc":"us","latitude":33.94279,"longitude":-118.41004,"reserved":0,"last_update":"0001-01-01T00:00:00Z","name_a2s":"Uncletopia | Los Angeles | 1 | All Maps","protocol":17,"map":"cp_mountainlab","folder":"tf","game":"Team Fortress","app_id":440,"player_count":24,"max_players":24,"Bots":0,"server_type":"Dedicated","server_os":"Linux","password":true,"vac":true,"version":"7961495","steam_id":85568392924469991,"keywords":["cp","nocrits","nodmgspread","uncletopia"],"game_id":440,"stv_port":27016,"stv_name":"Uncletopia | Los Angeles | 1 | All Maps | STV","players":[{"user_id":215,"name":"countstinkdevil666","steam_id":76561198073914311,"connected_time":1965000000000,"state":"active","ping":45},{"user_id":206,"name":"the pizza","steam_id":76561198221331476,"connected_time":2865000000000,"state":"active","ping":47},{"user_id":232,"name":"Hemorrhoid Gaming","steam_id":76561199006526991,"connected_time":767000000000,"state":"active","ping":45},{"user_id":228,"name":"Eggs","steam_id":76561198060148916,"connected_time":1133000000000,"state":"active","ping":49},{"user_id":196,"name":"Solreaper34","steam_id":76561198391271782,"connected_time":3424000000000,"state":"active","ping":74},{"user_id":233,"name":"Mocha Josie","steam_id":76561198066452726,"connected_time":758000000000,"state":"active","ping":67},{"user_id":234,"name":"Chad the Sex Haver","steam_id":76561198058236528,"connected_time":751000000000,"state":"active","ping":53},{"user_id":244,"name":"[TKC]NZNinja99","steam_id":76561198079315815,"connected_time":83000000000,"state":"active","ping":45},{"user_id":182,"name":"123","steam_id":76561199093006282,"connected_time":4730000000000,"state":"active","ping":44},{"user_id":205,"name":"Mirce","steam_id":76561198100889621,"connected_time":2946000000000,"state":"active","ping":100},{"user_id":236,"name":"ack.awesome676","steam_id":76561199109415958,"connected_time":659000000000,"state":"active","ping":41},{"user_id":230,"name":"Poopisviel Von Einzbern","steam_id":76561198259260433,"connected_time":964000000000,"state":"active","ping":110},{"user_id":117,"name":"EightySix","steam_id":76561198186678831,"connected_time":9063000000000,"state":"active","ping":57},{"user_id":237,"name":"Biggest Dude In Town 4U","steam_id":76561198070281464,"connected_time":634000000000,"state":"active","ping":103},{"user_id":150,"name":"Trips","steam_id":76561198054581597,"connected_time":7046000000000,"state":"active","ping":55},{"user_id":221,"name":"ronald_stackerusa55","steam_id":76561198150406851,"connected_time":1680000000000,"state":"active","ping":60},{"user_id":188,"name":"Viewie","steam_id":76561198280108853,"connected_time":4396000000000,"state":"active","ping":110},{"user_id":223,"name":"walting white","steam_id":76561198072156623,"connected_time":1607000000000,"state":"active","ping":96},{"user_id":217,"name":"carrots","steam_id":76561199001918194,"connected_time":1911000000000,"state":"active","ping":65},{"user_id":214,"name":"Dusk","steam_id":76561198088681558,"connected_time":2148000000000,"state":"active","ping":73},{"user_id":240,"name":"Keamy","steam_id":76561199471434875,"connected_time":368000000000,"state":"active","ping":75},{"user_id":243,"name":"noceof","steam_id":76561198043656816,"connected_time":236000000000,"state":"active","ping":174},{"user_id":225,"name":"Futanari of the Amazon Enjoyer","steam_id":76561198074294849,"connected_time":1524000000000,"state":"active","ping":72},{"user_id":176,"name":"Born_In_Xixax","steam_id":76561197960464479,"connected_time":5141000000000,"state":"active","ping":82}]},{"server_id":112,"name":"Uncletopia | Los Angeles | 2 | All Maps","name_short":"lax-2","host":"lax-1.us.uncletopia.com","port":27025,"enabled":true,"region":"us-west","cc":"us","latitude":33.94279,"longitude":-118.41004,"reserved":0,"last_update":"0001-01-01T00:00:00Z","name_a2s":"Uncletopia | Los Angeles | 2 | All Maps","protocol":17,"map":"koth_lazarus","folder":"tf","game":"Team Fortress","app_id":440,"player_count":0,"max_players":24,"Bots":0,"server_type":"Dedicated","server_os":"Linux","password":true,"vac":true,"version":"7961495","steam_id":85568392924469992,"keywords":["cp","nocrits","nodmgspread","uncletopia"],"game_id":440,"stv_port":27026,"stv_name":"Uncletopia | Los Angeles | 2 | All Maps | STV","players":null},{"server_id":324,"name":"Uncletopia | Los Angeles | 3 | All Maps","name_short":"lax-3","host":"lax-1.us.uncletopia.com","port":27035,"enabled":true,"region":"us-west","cc":"us","latitude":33.94279,"longitude":-118.41004,"reserved":0,"last_update":"0001-01-01T00:00:00Z","name_a2s":"Uncletopia | Los Angeles | 3 | All Maps","protocol":17,"map":"pl_badwater","folder":"tf","game":"Team Fortress","app_id":440,"player_count":0,"max_players":24,"Bots":0,"server_type":"Dedicated","server_os":"Linux","password":true,"vac":true,"version":"7961495","steam_id":85568392924510198,"keywords":["nocrits","nodmgspread","payload","uncletopia"],"game_id":440,"stv_port":27036,"stv_name":"Uncletopia | Los Angeles | 3 | All Maps | STV","players":null},{"server_id":25,"name":"Uncletopia | Los Angeles | 4 | Stopwatch","name_short":"lax-4","host":"lax-1.us.uncletopia.com","port":27045,"enabled":true,"region":"us-west","cc":"us","latitude":33.94279,"longitude":-118.41004,"reserved":0,"last_update":"0001-01-01T00:00:00Z","name_a2s":"Uncletopia | Los Angeles | 4 | Stopwatch","protocol":17,"map":"pl_upward","folder":"tf","game":"Team Fortress","app_id":440,"player_count":0,"max_players":24,"Bots":0,"server_type":"Dedicated","server_os":"Linux","password":true,"vac":true,"version":"7961495","steam_id":85568392924510199,"keywords":["nocrits","nodmgspread","payload","uncletopia"],"game_id":440,"stv_port":27046,"stv_name":"Uncletopia | Los Angeles | 4 | Stopwatch | STV","players":null},{"server_id":11,"name":"Uncletopia | London | 1 | All Maps","name_short":"lon-1","host":"lon-1.uk.uncletopia.com","port":27015,"enabled":true,"region":"eu","cc":"gb","latitude":51.509865,"longitude":-0.118092,"reserved":0,"last_update":"0001-01-01T00:00:00Z","name_a2s":"Uncletopia | London | 1 | All Maps","protocol":17,"map":"pl_pier","folder":"tf","game":"Team Fortress","app_id":440,"player_count":24,"max_players":24,"Bots":0,"server_type":"Dedicated","server_os":"Linux","password":true,"vac":true,"version":"7961495","steam_id":85568392924367362,"keywords":["nocrits","nodmgspread","payload","uncletopia"],"game_id":440,"stv_port":27016,"stv_name":"Uncletopia | London | 1 | All Maps | STV","players":[{"user_id":639,"name":"scarfweather","steam_id":76561198121331836,"connected_time":1502000000000,"state":"active","ping":59},{"user_id":614,"name":"⸸aura⸸","steam_id":76561198066258544,"connected_time":3317000000000,"state":"active","ping":60},{"user_id":616,"name":"(قرد) stun","steam_id":76561198276681691,"connected_time":3042000000000,"state":"active","ping":48},{"user_id":653,"name":"curious femboy","steam_id":76561199199388221,"connected_time":831000000000,"state":"active","ping":57},{"user_id":629,"name":"CLEANUH! alice","steam_id":76561198180361759,"connected_time":2479000000000,"state":"active","ping":44},{"user_id":640,"name":"Usagi Alohaoe","steam_id":76561198981191925,"connected_time":1498000000000,"state":"active","ping":40},{"user_id":645,"name":"Pats (Gifted items Collector)","steam_id":76561198418538887,"connected_time":1292000000000,"state":"active","ping":96},{"user_id":604,"name":"Cryo","steam_id":76561198324132940,"connected_time":3746000000000,"state":"active","ping":51},{"user_id":596,"name":"Jeff (♀)","steam_id":76561198280101970,"connected_time":4834000000000,"state":"active","ping":56},{"user_id":646,"name":"Slender","steam_id":76561198884448755,"connected_time":1184000000000,"state":"active","ping":55},{"user_id":617,"name":"XDDDDD","steam_id":76561198088624259,"connected_time":3037000000000,"state":"active","ping":60},{"user_id":618,"name":"blastfurnace","steam_id":76561198798803845,"connected_time":3036000000000,"state":"active","ping":54},{"user_id":619,"name":"Akio","steam_id":76561198197606282,"connected_time":3033000000000,"state":"active","ping":49},{"user_id":650,"name":"kavun","steam_id":76561198023461869,"connected_time":1046000000000,"state":"active","ping":90},{"user_id":620,"name":"Brian","steam_id":76561198077756206,"connected_time":3032000000000,"state":"active","ping":42},{"user_id":621,"name":"60hz \u003e","steam_id":76561198307037169,"connected_time":2985000000000,"state":"active","ping":59},{"user_id":635,"name":"cora","steam_id":76561199474154775,"connected_time":2141000000000,"state":"active","ping":56},{"user_id":626,"name":"Sandshee","steam_id":76561198088574666,"connected_time":2707000000000,"state":"active","ping":45},{"user_id":649,"name":"Sang","steam_id":76561198008510868,"connected_time":1083000000000,"state":"active","ping":75},{"user_id":655,"name":"snauusey","steam_id":76561199134329212,"connected_time":802000000000,"state":"active","ping":47},{"user_id":656,"name":"Purps","steam_id":76561198053886680,"connected_time":708000000000,"state":"active","ping":44},{"user_id":623,"name":"Пригожин","steam_id":76561198358431840,"connected_time":2963000000000,"state":"active","ping":86},{"user_id":647,"name":"Cencut","steam_id":76561198989449047,"connected_time":1169000000000,"state":"active","ping":128},{"user_id":652,"name":"Edla","steam_id":76561198062815315,"connected_time":943000000000,"state":"active","ping":127}]},{"server_id":114,"name":"Uncletopia | London | 2 | All Maps","name_short":"lon-2","host":"lon-1.uk.uncletopia.com","port":27025,"enabled":true,"region":"eu","cc":"gb","latitude":51.509865,"longitude":-0.118092,"reserved":0,"last_update":"0001-01-01T00:00:00Z","name_a2s":"Uncletopia | London | 2 | All Maps","protocol":17,"map":"pl_upward","folder":"tf","game":"Team Fortress","app_id":440,"player_count":21,"max_players":24,"Bots":0,"server_type":"Dedicated","server_os":"Linux","password":true,"vac":true,"version":"7961495","steam_id":85568392924470941,"keywords":["nocrits","nodmgspread","payload","uncletopia"],"game_id":440,"stv_port":27026,"stv_name":"Uncletopia | London | 2 | All Maps | STV","players":[{"user_id":669,"name":"Mr consistent rockets","steam_id":76561198132922827,"connected_time":449000000000,"state":"active","ping":31},{"user_id":680,"name":"gypsy slayer 3000","steam_id":76561198331480295,"connected_time":21000000000,"state":"active","ping":56},{"user_id":541,"name":"Your honor Freebird was playing","steam_id":76561198017513012,"connected_time":9506000000000,"state":"active","ping":58},{"user_id":670,"name":"MEOWRON","steam_id":76561198423803012,"connected_time":446000000000,"state":"active","ping":45},{"user_id":671,"name":"๖ۣۜDonny","steam_id":76561199061016340,"connected_time":442000000000,"state":"active","ping":50},{"user_id":648,"name":"videotape","steam_id":76561198815271970,"connected_time":1349000000000,"state":"active","ping":70},{"user_id":672,"name":"armadillo","steam_id":76561198324656652,"connected_time":432000000000,"state":"active","ping":50},{"user_id":673,"name":"Business Man","steam_id":76561198200723863,"connected_time":349000000000,"state":"active","ping":75},{"user_id":676,"name":"[HOL] Solringen","steam_id":76561198003584681,"connected_time":302000000000,"state":"active","ping":76},{"user_id":610,"name":"alibi","steam_id":76561198079490000,"connected_time":4038000000000,"state":"active","ping":59},{"user_id":681,"name":"Psycho Foxy","steam_id":76561198142758544,"connected_time":18000000000,"state":"active","ping":52},{"user_id":674,"name":"dog?","steam_id":76561199232839385,"connected_time":337000000000,"state":"active","ping":100},{"user_id":650,"name":"電子マネーで決済　～\ufffd","steam_id":76561198118412910,"connected_time":1277000000000,"state":"active","ping":49},{"user_id":663,"name":"aSourLemonade","steam_id":76561198872382968,"connected_time":771000000000,"state":"active","ping":73},{"user_id":651,"name":"Wee bit espresso","steam_id":76561198067204908,"connected_time":1252000000000,"state":"active","ping":60},{"user_id":678,"name":"Octomal800","steam_id":76561199453595616,"connected_time":205000000000,"state":"active","ping":125},{"user_id":659,"name":"upisfree","steam_id":76561198064037857,"connected_time":1116000000000,"state":"active","ping":92},{"user_id":675,"name":"tl.rybar","steam_id":76561197960377282,"connected_time":311000000000,"state":"active","ping":61},{"user_id":677,"name":"Dei Genetrix","steam_id":76561198305678122,"connected_time":244000000000,"state":"active","ping":46},{"user_id":656,"name":"ULTIDUO CUP BatChest","steam_id":76561198051852765,"connected_time":1177000000000,"state":"active","ping":75},{"user_id":666,"name":"joachym","steam_id":76561198428579761,"connected_time":673000000000,"state":"active","ping":59}]},{"server_id":320,"name":"Uncletopia | London | 3 | All Maps","name_short":"lon-3","host":"lon-1.uk.uncletopia.com","port":27035,"enabled":true,"region":"eu","cc":"gb","latitude":51.509865,"longitude":-0.118092,"reserved":0,"last_update":"0001-01-01T00:00:00Z","name_a2s":"Uncletopia | London | 3 | All Maps","protocol":17,"map":"pl_barnblitz","folder":"tf","game":"Team Fortress","app_id":440,"player_count":0,"max_players":24,"Bots":0,"server_type":"Dedicated","server_os":"Linux","password":true,"vac":true,"version":"7961495","steam_id":85568392924510192,"keywords":["nocrits","nodmgspread","payload","uncletopia"],"game_id":440,"stv_port":27036,"stv_name":"Uncletopia | London | 3 | All Maps | STV","players":null},{"server_id":321,"name":"Uncletopia | London | 4 | All Maps","name_short":"lon-4","host":"lon-1.uk.uncletopia.com","port":27045,"enabled":true,"region":"eu","cc":"gb","latitude":51.509865,"longitude":-0.118092,"reserved":0,"last_update":"0001-01-01T00:00:00Z","name_a2s":"Uncletopia | London | 4 | All Maps","protocol":17,"map":"pl_upward","folder":"tf","game":"Team Fortress","app_id":440,"player_count":23,"max_players":24,"Bots":0,"server_type":"Dedicated","server_os":"Linux","password":true,"vac":true,"version":"7961495","steam_id":85568392924510193,"keywords":["nocrits","nodmgspread","payload","uncletopia"],"game_id":440,"stv_port":27046,"stv_name":"Uncletopia | London | 4 | All Maps | STV","players":[{"user_id":274,"name":"finbar","steam_id":76561198056812396,"connected_time":10936000000000,"state":"active","ping":78},{"user_id":369,"name":"❤ToxicAngel❤","steam_id":76561198062208751,"connected_time":4068000000000,"state":"active","ping":47},{"user_id":421,"name":"Laru","steam_id":76561197998838438,"connected_time":803000000000,"state":"active","ping":78},{"user_id":337,"name":"cropping","steam_id":76561198026586456,"connected_time":5842000000000,"state":"active","ping":58},{"user_id":402,"name":"W","steam_id":76561198273623211,"connected_time":1848000000000,"state":"active","ping":86},{"user_id":424,"name":"FutabaUchiha","steam_id":76561199436467630,"connected_time":188000000000,"state":"active","ping":125},{"user_id":400,"name":"Arigato Gozaimasu!","steam_id":76561198052342856,"connected_time":2014000000000,"state":"active","ping":65},{"user_id":404,"name":"Haku*","steam_id":76561198013292193,"connected_time":1844000000000,"state":"active","ping":71},{"user_id":425,"name":"Lennox","steam_id":76561198069063554,"connected_time":125000000000,"state":"active","ping":46},{"user_id":396,"name":"Depressed","steam_id":76561198154405093,"connected_time":2199000000000,"state":"active","ping":74},{"user_id":426,"name":"Voodoo Child","steam_id":76561198110788281,"connected_time":120000000000,"state":"active","ping":77},{"user_id":313,"name":"lark","steam_id":76561198091724522,"connected_time":7390000000000,"state":"active","ping":50},{"user_id":407,"name":"Borat","steam_id":76561198122226417,"connected_time":1791000000000,"state":"active","ping":43},{"user_id":427,"name":"Sage-Bong","steam_id":76561198132968103,"connected_time":57000000000,"state":"spawning","ping":46},{"user_id":428,"name":"Gorgeous George","steam_id":76561198144256544,"connected_time":52000000000,"state":"active","ping":33},{"user_id":321,"name":"Dirty goblin","steam_id":76561198153207632,"connected_time":6982000000000,"state":"active","ping":71},{"user_id":409,"name":"Edsuedi","steam_id":76561198074722832,"connected_time":1774000000000,"state":"active","ping":61},{"user_id":410,"name":"free back real estate","steam_id":76561197999437155,"connected_time":1767000000000,"state":"active","ping":57},{"user_id":362,"name":"NFT(non functioning testicle)","steam_id":76561198092435966,"connected_time":4384000000000,"state":"active","ping":55},{"user_id":411,"name":"medick","steam_id":76561199380849468,"connected_time":1765000000000,"state":"active","ping":62},{"user_id":412,"name":"Krill","steam_id":76561198252192070,"connected_time":1741000000000,"state":"active","ping":62},{"user_id":417,"name":"cansado","steam_id":76561198003898089,"connected_time":1584000000000,"state":"active","ping":70},{"user_id":420,"name":"cinny","steam_id":76561198832112629,"connected_time":1283000000000,"state":"active","ping":87}]},{"server_id":21,"name":"Uncletopia | London | 5 | All Maps","name_short":"lon-5","host":"lon-1.uk.uncletopia.com","port":27055,"enabled":true,"region":"eu","cc":"gb","latitude":51.509865,"longitude":-0.118092,"reserved":0,"last_update":"0001-01-01T00:00:00Z","name_a2s":"Uncletopia | London | 5 | All Maps","protocol":17,"map":"koth_suijin","folder":"tf","game":"Team Fortress","app_id":440,"player_count":0,"max_players":24,"Bots":0,"server_type":"Dedicated","server_os":"Linux","password":true,"vac":true,"version":"7961495","steam_id":85568392924742829,"keywords":["cp","nocrits","nodmgspread","uncletopia"],"game_id":440,"stv_port":27056,"stv_name":"Uncletopia | London | 5 | All Maps | STV","players":null},{"server_id":22,"name":"Uncletopia | London | 6 | All Maps","name_short":"lon-6","host":"lon-1.uk.uncletopia.com","port":27065,"enabled":true,"region":"eu","cc":"gb","latitude":51.509865,"longitude":-0.118092,"reserved":0,"last_update":"0001-01-01T00:00:00Z","name_a2s":"Uncletopia | London | 6 | All Maps","protocol":17,"map":"pl_barnblitz","folder":"tf","game":"Team Fortress","app_id":440,"player_count":21,"max_players":24,"Bots":0,"server_type":"Dedicated","server_os":"Linux","password":true,"vac":true,"version":"7961495","steam_id":85568392924742830,"keywords":["nocrits","nodmgspread","payload","uncletopia"],"game_id":440,"stv_port":27066,"stv_name":"Uncletopia | London | 6 | All Maps | STV","players":[{"user_id":134,"name":"ChPerette 🎮","steam_id":76561198060004887,"connected_time":59000000000,"state":"active","ping":45},{"user_id":132,"name":"Galen Suedi","steam_id":76561198160975724,"connected_time":333000000000,"state":"active","ping":73},{"user_id":54,"name":"Jaddlemech","steam_id":76561198058105074,"connected_time":6373000000000,"state":"active","ping":83},{"user_id":133,"name":"Luxotrics","steam_id":76561198053455161,"connected_time":323000000000,"state":"active","ping":93},{"user_id":128,"name":"IceWaltz","steam_id":76561198146498522,"connected_time":644000000000,"state":"active","ping":49},{"user_id":121,"name":"Maoma112","steam_id":76561199012536447,"connected_time":1505000000000,"state":"active","ping":77},{"user_id":135,"name":"David \"Crash\" Murphy","steam_id":76561198292845505,"connected_time":18000000000,"state":"spawning","ping":83},{"user_id":129,"name":"Big Benn","steam_id":76561199024168373,"connected_time":610000000000,"state":"active","ping":103},{"user_id":107,"name":"V0iDZMAX","steam_id":76561198153592566,"connected_time":2718000000000,"state":"active","ping":40},{"user_id":122,"name":"mugshot","steam_id":76561198363841749,"connected_time":1414000000000,"state":"active","ping":75},{"user_id":81,"name":"generic alias","steam_id":76561198271607226,"connected_time":5090000000000,"state":"active","ping":80},{"user_id":108,"name":"Sabour","steam_id":76561197963965445,"connected_time":2713000000000,"state":"active","ping":68},{"user_id":124,"name":"wa","steam_id":76561198151121990,"connected_time":1294000000000,"state":"active","ping":63},{"user_id":48,"name":"NodeOne","steam_id":76561197993040629,"connected_time":6757000000000,"state":"active","ping":76},{"user_id":50,"name":"Serenity","steam_id":76561198170355609,"connected_time":6735000000000,"state":"active","ping":55},{"user_id":51,"name":"Lozzy","steam_id":76561198072392989,"connected_time":6640000000000,"state":"active","ping":49},{"user_id":130,"name":"Not A Fake Uncletopia Server","steam_id":76561198152871288,"connected_time":595000000000,"state":"active","ping":61},{"user_id":88,"name":"mercedes ben","steam_id":76561198000147423,"connected_time":4224000000000,"state":"active","ping":40},{"user_id":109,"name":"tired medic main","steam_id":76561198255340533,"connected_time":2705000000000,"state":"active","ping":80},{"user_id":75,"name":"Jansku","steam_id":76561198321340149,"connected_time":5610000000000,"state":"active","ping":85},{"user_id":131,"name":"She Dooby","steam_id":76561198334042273,"connected_time":474000000000,"state":"active","ping":57}]},{"server_id":40,"name":"Uncletopia | London | 7 | Stopwatch","name_short":"lon-7","host":"lon-1.uk.uncletopia.com","port":27075,"enabled":true,"region":"eu","cc":"gb","latitude":51.509865,"longitude":-0.118092,"reserved":0,"last_update":"0001-01-01T00:00:00Z","name_a2s":"Uncletopia | London | 7 | Stopwatch","protocol":17,"map":"pl_swiftwater_final1","folder":"tf","game":"Team Fortress","app_id":440,"player_count":0,"max_players":24,"Bots":0,"server_type":"Dedicated","server_os":"Linux","password":true,"vac":true,"version":"7961495","steam_id":85568392924964314,"keywords":["nocrits","nodmgspread","payload","uncletopia"],"game_id":440,"stv_port":27076,"stv_name":"Uncletopia | London | 7 | Stopwatch | STV","players":null},{"server_id":41,"name":"Uncletopia | London | 8 | Community","name_short":"lon-8","host":"lon-1.uk.uncletopia.com","port":27085,"enabled":true,"region":"eu","cc":"gb","latitude":51.509865,"longitude":-0.118092,"reserved":0,"last_update":"0001-01-01T00:00:00Z","name_a2s":"Uncletopia | London | 8 | Community","protocol":17,"map":"workshop/koth_bagel_rc6.ugc2514036946","folder":"tf","game":"Team Fortress","app_id":440,"player_count":0,"max_players":24,"Bots":0,"server_type":"Dedicated","server_os":"Linux","password":true,"vac":true,"version":"7961495","steam_id":85568392924964315,"keywords":["cp","nocrits","nodmgspread","uncletopia"],"game_id":440,"stv_port":27086,"stv_name":"Uncletopia | London | 8 | Community | STV","players":null},{"server_id":300,"name":"Uncletopia | Montréal | 1 | One Thousand Uncles","name_short":"mtl-1","host":"mtl-1.ca.uncletopia.com","port":27015,"enabled":true,"region":"us-east","cc":"ca","latitude":45.50889,"longitude":-73.56167,"reserved":0,"last_update":"0001-01-01T00:00:00Z","name_a2s":"Uncletopia | Montréal | 1 | One Thousand Uncles","protocol":17,"map":"pl_chilly","folder":"tf","game":"Team Fortress","app_id":440,"player_count":31,"max_players":32,"Bots":20,"server_type":"Dedicated","server_os":"Linux","password":true,"vac":true,"version":"7961495","steam_id":85568392924500087,"keywords":["alltalk","bots","danepve","increased_maxplayers","norespawntime","payload","uncletopia"],"game_id":440,"stv_port":0,"stv_name":"","players":[{"user_id":204,"name":"CCTV CAMERA","steam_id":76561198079973828,"connected_time":1588000000000,"state":"active","ping":94},{"user_id":135,"name":"Muffin","steam_id":76561198368438957,"connected_time":5832000000000,"state":"active","ping":61},{"user_id":132,"name":"Miss Steelheart","steam_id":76561198132562365,"connected_time":6845000000000,"state":"active","ping":123},{"user_id":181,"name":"blonk-182","steam_id":76561198035304483,"connected_time":2711000000000,"state":"active","ping":62},{"user_id":159,"name":"yougotsauled","steam_id":76561198880754695,"connected_time":2840000000000,"state":"active","ping":75},{"user_id":155,"name":"1-800-GHOST-DANCE","steam_id":76561198835430429,"connected_time":3339000000000,"state":"active","ping":75},{"user_id":207,"name":"DrMisteryous2","steam_id":76561198336307012,"connected_time":653000000000,"state":"active","ping":167},{"user_id":148,"name":"rb_quick","steam_id":76561197992053677,"connected_time":4733000000000,"state":"active","ping":106},{"user_id":157,"name":"JoeFalco","steam_id":76561198064005012,"connected_time":3273000000000,"state":"active","ping":102},{"user_id":209,"name":"Liminality","steam_id":76561198002601402,"connected_time":338000000000,"state":"active","ping":115},{"user_id":182,"name":"DeepDive","steam_id":76561198140542184,"connected_time":2024000000000,"state":"active","ping":55}]},{"server_id":301,"name":"Uncletopia | Montréal | 2 | One Thousand Uncles","name_short":"mtl-2","host":"mtl-1.ca.uncletopia.com","port":27025,"enabled":true,"region":"us-east","cc":"ca","latitude":45.50889,"longitude":-73.56167,"reserved":0,"last_update":"0001-01-01T00:00:00Z","name_a2s":"Uncletopia | Montréal | 2 | One Thousand Uncles","protocol":17,"map":"pl_goldrush","folder":"tf","game":"Team Fortress","app_id":440,"player_count":0,"max_players":32,"Bots":0,"server_type":"Dedicated","server_os":"Linux","password":true,"vac":true,"version":"7961495","steam_id":85568392924500088,"keywords":["alltalk","danepve","increased_maxplayers","norespawntime","payload","uncletopia"],"game_id":440,"stv_port":0,"stv_name":"","players":null},{"server_id":302,"name":"Uncletopia | Montréal | 3 | One Thousand Uncles","name_short":"mtl-3","host":"mtl-1.ca.uncletopia.com","port":27035,"enabled":true,"region":"us-east","cc":"ca","latitude":45.50889,"longitude":-73.56167,"reserved":0,"last_update":"0001-01-01T00:00:00Z","name_a2s":"Uncletopia | Montréal | 3 | One Thousand Uncles","protocol":17,"map":"pl_upward","folder":"tf","game":"Team Fortress","app_id":440,"player_count":0,"max_players":32,"Bots":0,"server_type":"Dedicated","server_os":"Linux","password":true,"vac":true,"version":"7961495","steam_id":85568392924500089,"keywords":["alltalk","danepve","increased_maxplayers","norespawntime","payload","uncletopia"],"game_id":440,"stv_port":0,"stv_name":"","players":null},{"server_id":13,"name":"Uncletopia | New York City | 1 | All Maps","name_short":"nyc-1","host":"nyc-1.us.uncletopia.com","port":27015,"enabled":true,"region":"us-east","cc":"us","latitude":40.73061,"longitude":-73.93524,"reserved":0,"last_update":"0001-01-01T00:00:00Z","name_a2s":"Uncletopia | New York City | 1 | All Maps","protocol":17,"map":"pl_pier","folder":"tf","game":"Team Fortress","app_id":440,"player_count":24,"max_players":24,"Bots":0,"server_type":"Dedicated","server_os":"Linux","password":true,"vac":true,"version":"7961495","steam_id":85568392924469993,"keywords":["nocrits","nodmgspread","payload","uncletopia"],"game_id":440,"stv_port":27016,"stv_name":"Uncletopia | New York City | 1 | All Maps | STV","players":[{"user_id":47,"name":"sus bread_stain","steam_id":76561199230268075,"connected_time":3422000000000,"state":"active","ping":87},{"user_id":93,"name":"OFWGKTA","steam_id":76561198428086758,"connected_time":755000000000,"state":"active","ping":106},{"user_id":91,"name":"Raizen","steam_id":76561199092445367,"connected_time":837000000000,"state":"active","ping":59},{"user_id":97,"name":"what","steam_id":76561198082336619,"connected_time":199000000000,"state":"active","ping":53},{"user_id":43,"name":"Kibbleis","steam_id":76561197995265195,"connected_time":3861000000000,"state":"active","ping":56},{"user_id":77,"name":"Candy Sparkles","steam_id":76561198126871264,"connected_time":1617000000000,"state":"active","ping":74},{"user_id":87,"name":"0","steam_id":76561198077882008,"connected_time":1330000000000,"state":"active","ping":50},{"user_id":75,"name":"Buck","steam_id":76561198064244796,"connected_time":1769000000000,"state":"active","ping":48},{"user_id":92,"name":"Jason","steam_id":76561198107058140,"connected_time":814000000000,"state":"active","ping":55},{"user_id":90,"name":"Jonny4Balls","steam_id":76561198979333994,"connected_time":1115000000000,"state":"active","ping":69},{"user_id":98,"name":"Government Plates","steam_id":76561198140866252,"connected_time":187000000000,"state":"active","ping":70},{"user_id":99,"name":"imng","steam_id":76561198014988031,"connected_time":165000000000,"state":"active","ping":68},{"user_id":83,"name":"Sir Cumference","steam_id":76561198068000747,"connected_time":1525000000000,"state":"active","ping":46},{"user_id":72,"name":"No teeth Birch","steam_id":76561198316231704,"connected_time":2017000000000,"state":"active","ping":44},{"user_id":101,"name":"dabsol","steam_id":76561198272096751,"connected_time":146000000000,"state":"active","ping":44},{"user_id":102,"name":"H20 melon","steam_id":76561199087545043,"connected_time":80000000000,"state":"active","ping":45},{"user_id":103,"name":"meow","steam_id":76561198236343140,"connected_time":67000000000,"state":"active","ping":75},{"user_id":104,"name":"Stonks","steam_id":76561199490085068,"connected_time":66000000000,"state":"active","ping":51},{"user_id":105,"name":"coda","steam_id":76561198092052685,"connected_time":60000000000,"state":"active","ping":54},{"user_id":106,"name":"Andallfor","steam_id":76561198350143349,"connected_time":56000000000,"state":"active","ping":61},{"user_id":86,"name":"Flyingmeadow","steam_id":76561198144687723,"connected_time":1465000000000,"state":"active","ping":71},{"user_id":107,"name":"Top Frog","steam_id":76561198072793446,"connected_time":45000000000,"state":"active","ping":63},{"user_id":66,"name":"Yumyumyaz","steam_id":76561198142866179,"connected_time":2697000000000,"state":"active","ping":77},{"user_id":96,"name":"the fox","steam_id":76561199030607136,"connected_time":460000000000,"state":"active","ping":69}]},{"server_id":14,"name":"Uncletopia | New York City | 2 | All Maps","name_short":"nyc-2","host":"nyc-1.us.uncletopia.com","port":27025,"enabled":true,"region":"us-east","cc":"us","latitude":40.73061,"longitude":-73.93524,"reserved":0,"last_update":"0001-01-01T00:00:00Z","name_a2s":"Uncletopia | New York City | 2 | All Maps","protocol":17,"map":"koth_cascade","folder":"tf","game":"Team Fortress","app_id":440,"player_count":0,"max_players":24,"Bots":0,"server_type":"Dedicated","server_os":"Linux","password":true,"vac":true,"version":"7961495","steam_id":85568392924469994,"keywords":["cp","nocrits","nodmgspread","uncletopia"],"game_id":440,"stv_port":27026,"stv_name":"Uncletopia | New York City | 2 | All Maps | STV","players":null},{"server_id":15,"name":"Uncletopia | New York City | 3 | Stopwatch","name_short":"nyc-3","host":"nyc-1.us.uncletopia.com","port":27035,"enabled":true,"region":"us-east","cc":"us","latitude":40.73061,"longitude":-73.93524,"reserved":0,"last_update":"0001-01-01T00:00:00Z","name_a2s":"Uncletopia | New York City | 3 | Stopwatch","protocol":17,"map":"workshop/cp_reckoner_rc6.ugc674719999","folder":"tf","game":"Team Fortress","app_id":440,"player_count":0,"max_players":24,"Bots":0,"server_type":"Dedicated","server_os":"Linux","password":true,"vac":true,"version":"7961495","steam_id":85568392924742820,"keywords":["cp","nocrits","nodmgspread","uncletopia"],"game_id":440,"stv_port":27036,"stv_name":"Uncletopia | New York City | 3 | Stopwatch | STV","players":null},{"server_id":16,"name":"Uncletopia | New York City | 4 | Community","name_short":"nyc-4","host":"nyc-1.us.uncletopia.com","port":27045,"enabled":true,"region":"us-east","cc":"us","latitude":40.73061,"longitude":-73.93524,"reserved":0,"last_update":"0001-01-01T00:00:00Z","name_a2s":"Uncletopia | New York City | 4 | Community","protocol":17,"map":"workshop/cp_overgrown_rc8.ugc503939302","folder":"tf","game":"Team Fortress","app_id":440,"player_count":0,"max_players":24,"Bots":0,"server_type":"Dedicated","server_os":"Linux","password":true,"vac":true,"version":"7961495","steam_id":85568392924742821,"keywords":["cp","nocrits","nodmgspread","uncletopia"],"game_id":440,"stv_port":27046,"stv_name":"Uncletopia | New York City | 4 | Community | STV","players":null},{"server_id":142,"name":"Uncletopia | São Paulo | 1 | All Maps","name_short":"sao-1","host":"sao-1.br.uncletopia.com","port":27015,"enabled":true,"region":"sa","cc":"br","latitude":-23.533773,"longitude":-46.62529,"reserved":0,"last_update":"0001-01-01T00:00:00Z","name_a2s":"Uncletopia | São Paulo | 1 | All Maps","protocol":17,"map":"cp_snakewater_final1","folder":"tf","game":"Team Fortress","app_id":440,"player_count":0,"max_players":24,"Bots":0,"server_type":"Dedicated","server_os":"Linux","password":true,"vac":true,"version":"7961495","steam_id":85568392924469996,"keywords":["cp","nocrits","nodmgspread","uncletopia"],"game_id":440,"stv_port":27016,"stv_name":"Uncletopia | São Paulo | 1 | All Maps | STV","players":null},{"server_id":143,"name":"Uncletopia | São Paulo | 2 | Community","name_short":"sao-2","host":"sao-2.br.uncletopia.com","port":27015,"enabled":true,"region":"sa","cc":"br","latitude":-23.533773,"longitude":-46.62529,"reserved":0,"last_update":"0001-01-01T00:00:00Z","name_a2s":"Uncletopia | São Paulo | 2 | Community","protocol":17,"map":"workshop/koth_slaughter_rc1.ugc1712845210","folder":"tf","game":"Team Fortress","app_id":440,"player_count":0,"max_players":24,"Bots":0,"server_type":"Dedicated","server_os":"Linux","password":true,"vac":true,"version":"7961495","steam_id":85568392924485349,"keywords":["cp","nocrits","nodmgspread","uncletopia"],"game_id":440,"stv_port":27016,"stv_name":"Uncletopia | São Paulo | 2 | Community | STV","players":null},{"server_id":7,"name":"Uncletopia | Seattle | 1 | All Maps","name_short":"sea-1","host":"sea-1.us.uncletopia.com","port":27015,"enabled":true,"region":"us-west","cc":"us","latitude":47.608013,"longitude":-122.33517,"reserved":0,"last_update":"0001-01-01T00:00:00Z","name_a2s":"Uncletopia | Seattle | 1 | All Maps","protocol":17,"map":"pl_frontier_final","folder":"tf","game":"Team Fortress","app_id":440,"player_count":24,"max_players":24,"Bots":0,"server_type":"Dedicated","server_os":"Linux","password":true,"vac":true,"version":"7961495","steam_id":85568392924469997,"keywords":["nocrits","nodmgspread","payload","uncletopia"],"game_id":440,"stv_port":27016,"stv_name":"Uncletopia | Seattle | 1 | All Maps | STV","players":[{"user_id":294,"name":"lukamine","steam_id":76561198166827208,"connected_time":346000000000,"state":"active","ping":46},{"user_id":290,"name":"dodecadron","steam_id":76561198027397222,"connected_time":602000000000,"state":"active","ping":71},{"user_id":288,"name":"The Shaq Attack","steam_id":76561198075285534,"connected_time":1739000000000,"state":"active","ping":42},{"user_id":287,"name":"KoolGuy","steam_id":76561199161896568,"connected_time":1807000000000,"state":"active","ping":113},{"user_id":221,"name":"Octopus","steam_id":76561198114639980,"connected_time":7637000000000,"state":"active","ping":62},{"user_id":296,"name":"Engynier Gaimeang (F2P)","steam_id":76561199013888779,"connected_time":173000000000,"state":"active","ping":80},{"user_id":169,"name":"Cheezbeargur","steam_id":76561198164702899,"connected_time":12416000000000,"state":"active","ping":68},{"user_id":295,"name":"Kawaiiestboi","steam_id":76561198182178703,"connected_time":248000000000,"state":"active","ping":54},{"user_id":297,"name":"Drake from State Farm","steam_id":76561199069029812,"connected_time":146000000000,"state":"active","ping":75},{"user_id":298,"name":"Monty","steam_id":76561197993567253,"connected_time":134000000000,"state":"active","ping":48},{"user_id":299,"name":"Genderneutron","steam_id":76561199022773775,"connected_time":128000000000,"state":"active","ping":126},{"user_id":300,"name":"The Businessman","steam_id":76561198352531234,"connected_time":122000000000,"state":"active","ping":97},{"user_id":285,"name":"Gwuf","steam_id":76561198091503282,"connected_time":1870000000000,"state":"active","ping":101},{"user_id":240,"name":"mega","steam_id":76561198089520959,"connected_time":6310000000000,"state":"active","ping":93},{"user_id":301,"name":"darkesther0","steam_id":76561198858282525,"connected_time":102000000000,"state":"active","ping":96},{"user_id":302,"name":"sheep","steam_id":76561198994761483,"connected_time":72000000000,"state":"active","ping":90},{"user_id":264,"name":"4-D Dream","steam_id":76561198072938403,"connected_time":3828000000000,"state":"active","ping":61},{"user_id":292,"name":"stankboxers #savetf2","steam_id":76561198058609582,"connected_time":592000000000,"state":"active","ping":152},{"user_id":260,"name":"paypur -rng","steam_id":76561198214370515,"connected_time":3900000000000,"state":"active","ping":78},{"user_id":265,"name":"DaddyGalaxy","steam_id":76561198139697796,"connected_time":3795000000000,"state":"active","ping":55},{"user_id":254,"name":"Banana Man","steam_id":76561199012105803,"connected_time":4348000000000,"state":"active","ping":52},{"user_id":281,"name":"goofy goober","steam_id":76561199024079388,"connected_time":1925000000000,"state":"active","ping":46},{"user_id":293,"name":"ed","steam_id":76561198080475712,"connected_time":442000000000,"state":"active","ping":60},{"user_id":262,"name":"Mr. Mystical Perfection","steam_id":76561198036444997,"connected_time":3882000000000,"state":"active","ping":46}]},{"server_id":119,"name":"Uncletopia | Seattle | 2 | All Maps","name_short":"sea-2","host":"sea-1.us.uncletopia.com","port":27025,"enabled":true,"region":"us-west","cc":"us","latitude":47.608013,"longitude":-122.33517,"reserved":0,"last_update":"0001-01-01T00:00:00Z","name_a2s":"Uncletopia | Seattle | 2 | All Maps","protocol":17,"map":"pl_badwater","folder":"tf","game":"Team Fortress","app_id":440,"player_count":1,"max_players":24,"Bots":0,"server_type":"Dedicated","server_os":"Linux","password":true,"vac":true,"version":"7961495","steam_id":85568392924469998,"keywords":["nocrits","nodmgspread","payload","uncletopia"],"game_id":440,"stv_port":27026,"stv_name":"Uncletopia | Seattle | 2 | All Maps | STV","players":[{"user_id":9,"name":"Villchip","steam_id":76561198198599982,"connected_time":837000000000,"state":"active","ping":44}]},{"server_id":406,"name":"Uncletopia | Seattle | 3 | Stopwatch","name_short":"sea-3","host":"sea-1.us.uncletopia.com","port":27035,"enabled":true,"region":"us-west","cc":"us","latitude":47.608013,"longitude":-122.33517,"reserved":0,"last_update":"0001-01-01T00:00:00Z","name_a2s":"Uncletopia | Seattle | 3 | Stopwatch","protocol":17,"map":"cp_gullywash_final1","folder":"tf","game":"Team Fortress","app_id":440,"player_count":0,"max_players":24,"Bots":0,"server_type":"Dedicated","server_os":"Linux","password":true,"vac":true,"version":"7961495","steam_id":85568392924515217,"keywords":["cp","nocrits","nodmgspread","uncletopia"],"game_id":440,"stv_port":27036,"stv_name":"Uncletopia | Seattle | 3 | Stopwatch | STV","players":null},{"server_id":17,"name":"Uncletopia | San Francisco | 1 | All Maps","name_short":"sfo-1","host":"sfo-1.us.uncletopia.com","port":27015,"enabled":true,"region":"us-west","cc":"us","latitude":37.77397,"longitude":-122.4313,"reserved":0,"last_update":"0001-01-01T00:00:00Z","name_a2s":"Uncletopia | San Francisco | 1 | All Maps","protocol":17,"map":"cp_gullywash_final1","folder":"tf","game":"Team Fortress","app_id":440,"player_count":0,"max_players":24,"Bots":0,"server_type":"Dedicated","server_os":"Linux","password":true,"vac":true,"version":"7961495","steam_id":85568392924469999,"keywords":["cp","nocrits","nodmgspread","uncletopia"],"game_id":440,"stv_port":27016,"stv_name":"Uncletopia | San Francisco | 1 | All Maps | STV","players":null},{"server_id":18,"name":"Uncletopia | San Francisco | 2 | All Maps","name_short":"sfo-2","host":"sfo-1.us.uncletopia.com","port":27025,"enabled":true,"region":"us-west","cc":"us","latitude":37.77397,"longitude":-122.4313,"reserved":0,"last_update":"0001-01-01T00:00:00Z","name_a2s":"Uncletopia | San Francisco | 2 | All Maps","protocol":17,"map":"pl_hoodoo_final","folder":"tf","game":"Team Fortress","app_id":440,"player_count":0,"max_players":24,"Bots":0,"server_type":"Dedicated","server_os":"Linux","password":true,"vac":true,"version":"7961495","steam_id":85568392924470000,"keywords":["nocrits","nodmgspread","payload","uncletopia"],"game_id":440,"stv_port":27026,"stv_name":"Uncletopia | San Francisco | 2 | All Maps | STV","players":null},{"server_id":19,"name":"Uncletopia | San Francisco | 3 | Stopwatch","name_short":"sfo-3","host":"sfo-1.us.uncletopia.com","port":27035,"enabled":true,"region":"us-west","cc":"us","latitude":37.77397,"longitude":-122.4313,"reserved":0,"last_update":"0001-01-01T00:00:00Z","name_a2s":"Uncletopia | San Francisco | 3 | Stopwatch","protocol":17,"map":"workshop/koth_bagel_rc6.ugc2514036946","folder":"tf","game":"Team Fortress","app_id":440,"player_count":0,"max_players":24,"Bots":0,"server_type":"Dedicated","server_os":"Linux","password":true,"vac":true,"version":"7961495","steam_id":85568392924742824,"keywords":["cp","nocrits","nodmgspread","uncletopia"],"game_id":440,"stv_port":27036,"stv_name":"Uncletopia | San Francisco | 3 | Stopwatch | STV","players":null},{"server_id":20,"name":"Uncletopia | San Francisco | 4 | Community","name_short":"sfo-4","host":"sfo-1.us.uncletopia.com","port":27045,"enabled":true,"region":"us-west","cc":"us","latitude":37.77397,"longitude":-122.4313,"reserved":0,"last_update":"0001-01-01T00:00:00Z","name_a2s":"Uncletopia | San Francisco | 4 | Community","protocol":17,"map":"workshop/cp_hazyfort_rc6.ugc1365963729","folder":"tf","game":"Team Fortress","app_id":440,"player_count":0,"max_players":24,"Bots":0,"server_type":"Dedicated","server_os":"Linux","password":true,"vac":true,"version":"7961495","steam_id":85568392924742826,"keywords":["cp","nocrits","nodmgspread","uncletopia"],"game_id":440,"stv_port":27046,"stv_name":"Uncletopia | San Francisco | 4 | Community | STV","players":null},{"server_id":141,"name":"Uncletopia | Sydney | 1 | All Maps","name_short":"syd-1","host":"syd-1.au.uncletopia.com","port":27015,"enabled":true,"region":"au","cc":"au","latitude":-33.865143,"longitude":151.2099,"reserved":0,"last_update":"0001-01-01T00:00:00Z","name_a2s":"Uncletopia | Sydney | 1 | All Maps","protocol":17,"map":"koth_cascade","folder":"tf","game":"Team Fortress","app_id":440,"player_count":0,"max_players":24,"Bots":0,"server_type":"Dedicated","server_os":"Linux","password":true,"vac":true,"version":"7961495","steam_id":85568392924470001,"keywords":["cp","nocrits","nodmgspread","uncletopia"],"game_id":440,"stv_port":27016,"stv_name":"Uncletopia | Sydney | 1 | All Maps | STV","players":null},{"server_id":123,"name":"Uncletopia | Sydney | 2 | All Maps","name_short":"syd-2","host":"syd-1.au.uncletopia.com","port":27025,"enabled":true,"region":"au","cc":"au","latitude":-33.865143,"longitude":151.2099,"reserved":0,"last_update":"0001-01-01T00:00:00Z","name_a2s":"Uncletopia | Sydney | 2 | All Maps","protocol":17,"map":"cp_mercenarypark","folder":"tf","game":"Team Fortress","app_id":440,"player_count":0,"max_players":24,"Bots":0,"server_type":"Dedicated","server_os":"Linux","password":true,"vac":true,"version":"7961495","steam_id":85568392924470002,"keywords":["cp","nocrits","nodmgspread","uncletopia"],"game_id":440,"stv_port":27026,"stv_name":"Uncletopia | Sydney | 2 | All Maps | STV","players":null},{"server_id":395,"name":"Uncletopia | Sydney | 3 | All Maps","name_short":"syd-3","host":"syd-1.au.uncletopia.com","port":27035,"enabled":true,"region":"au","cc":"au","latitude":-33.865143,"longitude":151.2099,"reserved":0,"last_update":"0001-01-01T00:00:00Z","name_a2s":"Uncletopia | Sydney | 3 | All Maps","protocol":17,"map":"koth_brazil","folder":"tf","game":"Team Fortress","app_id":440,"player_count":0,"max_players":24,"Bots":0,"server_type":"Dedicated","server_os":"Linux","password":true,"vac":true,"version":"7961495","steam_id":85568392925194467,"keywords":["cp","nocrits","nodmgspread","uncletopia"],"game_id":440,"stv_port":27036,"stv_name":"Uncletopia | Sydney | 3 | All Maps | STV","players":null},{"server_id":396,"name":"Uncletopia | Sydney | 4 | All Maps","name_short":"syd-4","host":"syd-1.au.uncletopia.com","port":27045,"enabled":true,"region":"au","cc":"au","latitude":-33.865143,"longitude":151.2099,"reserved":0,"last_update":"0001-01-01T00:00:00Z","name_a2s":"Uncletopia | Sydney | 4 | All Maps","protocol":17,"map":"cp_standin_final","folder":"tf","game":"Team Fortress","app_id":440,"player_count":0,"max_players":24,"Bots":0,"server_type":"Dedicated","server_os":"Linux","password":true,"vac":true,"version":"7961495","steam_id":85568392925397958,"keywords":["cp","nocrits","nodmgspread","uncletopia"],"game_id":440,"stv_port":27046,"stv_name":"Uncletopia | Sydney | 4 | All Maps | STV","players":null},{"server_id":58,"name":"Uncletopia | Sydney | 5 | Stopwatch","name_short":"syd-5","host":"syd-1.au.uncletopia.com","port":27055,"enabled":true,"region":"au","cc":"au","latitude":-33.865143,"longitude":151.2099,"reserved":0,"last_update":"0001-01-01T00:00:00Z","name_a2s":"Uncletopia | Sydney | 5 | Stopwatch","protocol":17,"map":"koth_highpass","folder":"tf","game":"Team Fortress","app_id":440,"player_count":0,"max_players":24,"Bots":0,"server_type":"Dedicated","server_os":"Linux","password":true,"vac":true,"version":"7961495","steam_id":85568392925397959,"keywords":["cp","nocrits","nodmgspread","uncletopia"],"game_id":440,"stv_port":27056,"stv_name":"Uncletopia | Sydney | 5 | Stopwatch | STV","players":null},{"server_id":59,"name":"Uncletopia | Sydney | 6 | Community","name_short":"syd-6","host":"syd-1.au.uncletopia.com","port":27065,"enabled":true,"region":"au","cc":"au","latitude":-33.865143,"longitude":151.2099,"reserved":0,"last_update":"0001-01-01T00:00:00Z","name_a2s":"Uncletopia | Sydney | 6 | Community","protocol":17,"map":"workshop/koth_soot_final1.ugc2969540689","folder":"tf","game":"Team Fortress","app_id":440,"player_count":0,"max_players":24,"Bots":0,"server_type":"Dedicated","server_os":"Linux","password":true,"vac":true,"version":"7961495","steam_id":85568392925397960,"keywords":["cp","nocrits","nodmgspread","uncletopia"],"game_id":440,"stv_port":27066,"stv_name":"Uncletopia | Sydney | 6 | Community | STV","players":null},{"server_id":49,"name":"Uncletopia | Warsaw | 1 | One Thousand Uncles","name_short":"waw-1","host":"waw-1.pl.uncletopia.com","port":27015,"enabled":true,"region":"eu","cc":"pl","latitude":52.2297,"longitude":21.017532,"reserved":0,"last_update":"0001-01-01T00:00:00Z","name_a2s":"Uncletopia | Warsaw | 1 | One Thousand Uncles","protocol":17,"map":"cp_dustbowl","folder":"tf","game":"Team Fortress","app_id":440,"player_count":25,"max_players":32,"Bots":20,"server_type":"Dedicated","server_os":"Linux","password":true,"vac":true,"version":"7961495","steam_id":85568392925397850,"keywords":["alltalk","bots","cp","danepve","increased_maxplayers","norespawntime","uncletopia"],"game_id":440,"stv_port":0,"stv_name":"","players":[{"user_id":594,"name":"padillacampos","steam_id":76561198161923970,"connected_time":1393000000000,"state":"active","ping":98},{"user_id":597,"name":"torn","steam_id":76561198223003236,"connected_time":462000000000,"state":"active","ping":66},{"user_id":598,"name":"Why?","steam_id":76561199102201832,"connected_time":398000000000,"state":"active","ping":89},{"user_id":495,"name":"[HK]我係香港人","steam_id":76561198165376815,"connected_time":8317000000000,"state":"active","ping":83},{"user_id":596,"name":"waffle toaster","steam_id":76561198799089628,"connected_time":684000000000,"state":"active","ping":74}]},{"server_id":50,"name":"Uncletopia | Warsaw | 2 | One Thousand Uncles","name_short":"waw-2","host":"waw-1.pl.uncletopia.com","port":27025,"enabled":true,"region":"eu","cc":"pl","latitude":52.2297,"longitude":21.017532,"reserved":0,"last_update":"0001-01-01T00:00:00Z","name_a2s":"Uncletopia | Warsaw | 2 | One Thousand Uncles","protocol":17,"map":"pl_thundermountain","folder":"tf","game":"Team Fortress","app_id":440,"player_count":0,"max_players":32,"Bots":0,"server_type":"Dedicated","server_os":"Linux","password":true,"vac":true,"version":"7961495","steam_id":85568392925397851,"keywords":["alltalk","danepve","increased_maxplayers","norespawntime","payload","uncletopia"],"game_id":440,"stv_port":0,"stv_name":"","players":null},{"server_id":51,"name":"Uncletopia | Warsaw | 3 | All Maps","name_short":"waw-3","host":"waw-1.pl.uncletopia.com","port":27035,"enabled":true,"region":"eu","cc":"pl","latitude":52.2297,"longitude":21.017532,"reserved":0,"last_update":"0001-01-01T00:00:00Z","name_a2s":"Uncletopia | Warsaw | 3 | All Maps","protocol":17,"map":"pl_barnblitz","folder":"tf","game":"Team Fortress","app_id":440,"player_count":0,"max_players":24,"Bots":0,"server_type":"Dedicated","server_os":"Linux","password":true,"vac":true,"version":"7961495","steam_id":85568392925397852,"keywords":["nocrits","nodmgspread","payload","uncletopia"],"game_id":440,"stv_port":27036,"stv_name":"Uncletopia | Warsaw | 3 | All Maps | STV","players":null},{"server_id":52,"name":"Uncletopia | Warsaw | 4 | All Maps","name_short":"waw-4","host":"waw-1.pl.uncletopia.com","port":27045,"enabled":true,"region":"eu","cc":"pl","latitude":52.2297,"longitude":21.017532,"reserved":0,"last_update":"0001-01-01T00:00:00Z","name_a2s":"Uncletopia | Warsaw | 4 | All Maps","protocol":17,"map":"koth_viaduct","folder":"tf","game":"Team Fortress","app_id":440,"player_count":0,"max_players":24,"Bots":0,"server_type":"Dedicated","server_os":"Linux","password":true,"vac":true,"version":"7961495","steam_id":85568392925397853,"keywords":["cp","nocrits","nodmgspread","uncletopia"],"game_id":440,"stv_port":27046,"stv_name":"Uncletopia | Warsaw | 4 | All Maps | STV","players":null},{"server_id":53,"name":"Uncletopia | Warsaw | 5 | Stopwatch","name_short":"waw-5","host":"waw-1.pl.uncletopia.com","port":27055,"enabled":true,"region":"eu","cc":"pl","latitude":52.2297,"longitude":21.017532,"reserved":0,"last_update":"0001-01-01T00:00:00Z","name_a2s":"Uncletopia | Warsaw | 5 | Stopwatch","protocol":17,"map":"workshop/pl_summercoast_rc8e.ugc1761528829","folder":"tf","game":"Team Fortress","app_id":440,"player_count":0,"max_players":24,"Bots":0,"server_type":"Dedicated","server_os":"Linux","password":true,"vac":true,"version":"7961495","steam_id":85568392925397854,"keywords":["nocrits","nodmgspread","payload","uncletopia"],"game_id":440,"stv_port":27056,"stv_name":"Uncletopia | Warsaw | 5 | Stopwatch | STV","players":null},{"server_id":54,"name":"Uncletopia | Warsaw | 6 | Community","name_short":"waw-6","host":"waw-1.pl.uncletopia.com","port":27065,"enabled":true,"region":"eu","cc":"pl","latitude":52.2297,"longitude":21.017532,"reserved":0,"last_update":"0001-01-01T00:00:00Z","name_a2s":"Uncletopia | Warsaw | 6 | Community","protocol":17,"map":"workshop/cp_fulgur_rc2a.ugc2068252300","folder":"tf","game":"Team Fortress","app_id":440,"player_count":0,"max_players":24,"Bots":0,"server_type":"Dedicated","server_os":"Linux","password":true,"vac":true,"version":"7961495","steam_id":85568392925397856,"keywords":["cp","nocrits","nodmgspread","uncletopia"],"game_id":440,"stv_port":27066,"stv_name":"Uncletopia | Warsaw | 6 | Community | STV","players":null}]}