{"status":true,"message":"","result":[{"server_id":9,"name":"Uncletopia | Atlanta | 1 | All Maps","name_short":"atl-1","host":"atl-1.us.uncletopia.com","port":27015,"enabled":true,"region":"us-east","cc":"us","latitude":33.753746,"longitude":-84.38633,"reserved":0,"last_update":"0001-01-01T00:00:00Z","name_a2s":"Uncletopia | Atlanta | 1 | All Maps","protocol":17,"map":"cp_snakewater_final1","folder":"tf","game":"Team Fortress","app_id":440,"player_count":0,"max_players":24,"Bots":0,"server_type":"Dedicated","server_os":"Linux","password":false,"vac":true,"version":"7961495","steam_id":85568392924469982,"keywords":["cp","nocrits","nodmgspread","uncletopia"],"game_id":440,"stv_port":27016,"stv_name":"Uncletopia | Atlanta | 1 | All Maps | STV","players":null},{"server_id":104,"name":"Uncletopia | Atlanta | 2 | All Maps","name_short":"atl-2","host":"atl-1.us.uncletopia.com","port":27025,"enabled":true,"region":"us-east","cc":"us","latitude":33.753746,"longitude":-84.38633,"reserved":0,"last_update":"0001-01-01T00:00:00Z","name_a2s":"Uncletopia | Atlanta | 2 | All Maps","protocol":17,"map":"cp_mountainlab","folder":"tf","game":"Team Fortress","app_id":440,"player_count":0,"max_players":24,"Bots":0,"server_type":"Dedicated","server_os":"Linux","password":false,"vac":true,"version":"7961495","steam_id":85568392924469983,"keywords":["cp","nocrits","nodmgspread","uncletopia"],"game_id":440,"stv_port":27026,"stv_name":"Uncletopia | Atlanta | 2 | All Maps | STV","players":null},{"server_id":400,"name":"Uncletopia | Atlanta | 3 | All Maps","name_short":"atl-3","host":"atl-1.us.uncletopia.com","port":27035,"enabled":true,"region":"us-east","cc":"us","latitude":33.753746,"longitude":-84.38633,"reserved":0,"last_update":"0001-01-01T00:00:00Z","name_a2s":"Uncletopia | Atlanta | 3 | All Maps","protocol":17,"map":"cp_process_final","folder":"tf","game":"Team Fortress","app_id":440,"player_count":0,"max_players":24,"Bots":0,"server_type":"Dedicated","server_os":"Linux","password":false,"vac":true,"version":"7961495","steam_id":85568392924515187,"keywords":["cp","nocrits","nodmgspread","uncletopia"],"game_id":440,"stv_port":27036,"stv_name":"Uncletopia | Atlanta | 3 | All Maps | STV","players":null},{"server_id":401,"name":"Uncletopia | Atlanta | 4 | Community","name_short":"atl-4","host":"atl-1.us.uncletopia.com","port":27045,"enabled":true,"region":"us-east","cc":"us","latitude":33.753746,"longitude":-84.38633,"reserved":0,"last_update":"0001-01-01T00:00:00Z","name_a2s":"Uncletopia | Atlanta | 4 | Community","protocol":17,"map":"koth_lakeside_final","folder":"tf","game":"Team Fortress","app_id":440,"player_count":0,"max_players":24,"Bots":0,"server_type":"Dedicated","server_os":"Linux","password":false,"vac":true,"version":"7961495","steam_id":85568392924515188,"keywords":["cp","nocrits","nodmgspread","uncletopia"],"game_id":440,"stv_port":27046,"stv_name":"Uncletopia | Atlanta | 4 | Community | STV","players":null},{"server_id":2,"name":"Uncletopia | Chicago | 1 | All Maps","name_short":"chi-1","host":"chi-1.us.uncletopia.com","port":27015,"enabled":true,"region":"us-central","cc":"us","latitude":41.881832,"longitude":-87.62318,"reserved":0,"last_update":"0001-01-01T00:00:00Z","name_a2s":"Uncletopia | Chicago | 1 | All Maps","protocol":17,"map":"pl_borneo","folder":"tf","game":"Team Fortress","app_id":440,"player_count":24,"max_players":24,"Bots":0,"server_type":"Dedicated","server_os":"Linux","password":true,"vac":true,"version":"7961495","steam_id":85568392924469984,"keywords":["nocrits","nodmgspread","payload","uncletopia"],"game_id":440,"stv_port":27016,"stv_name":"Uncletopia | Chicago | 1 | All Maps | STV","players":[{"user_id":875,"name":"geo","steam_id":76561198048748626,"connected_time":2660000000000,"state":"active","ping":86},{"user_id":879,"name":"hi","steam_id":76561198809577048,"connected_time":2440000000000,"state":"active","ping":104},{"user_id":889,"name":"Castroy","steam_id":76561198108160099,"connected_time":1728000000000,"state":"active","ping":54},{"user_id":907,"name":"Tibalt Nyahuma","steam_id":76561198034779431,"connected_time":223000000000,"state":"active","ping":73},{"user_id":890,"name":"Belloq","steam_id":76561198060279052,"connected_time":1522000000000,"state":"active","ping":46},{"user_id":902,"name":"cowtyper","steam_id":76561199239168878,"connected_time":422000000000,"state":"active","ping":97},{"user_id":893,"name":"ShapedSky0","steam_id":76561199486555735,"connected_time":957000000000,"state":"active","ping":87},{"user_id":903,"name":"guy","steam_id":76561198090531755,"connected_time":350000000000,"state":"active","ping":76},{"user_id":877,"name":"Sakrenn","steam_id":76561198329518008,"connected_time":2555000000000,"state":"active","ping":116},{"user_id":833,"name":"LennyGaggins","steam_id":76561198119768140,"connected_time":6407000000000,"state":"active","ping":74},{"user_id":900,"name":"QuakAtack","steam_id":76561198870770157,"connected_time":667000000000,"state":"active","ping":80},{"user_id":854,"name":"mollusk_obliteration","steam_id":76561198085388962,"connected_time":4951000000000,"state":"active","ping":45},{"user_id":863,"name":"AK on my nightstand","steam_id":76561198047340813,"connected_time":4163000000000,"state":"active","ping":50},{"user_id":891,"name":"YeshieSirYesSir","steam_id":76561198080214214,"connected_time":1434000000000,"state":"active","ping":33},{"user_id":908,"name":"Fudge_Cake","steam_id":76561198059218167,"connected_time":205000000000,"state":"active","ping":69},{"user_id":895,"name":"Eddy \"The Goat\"","steam_id":76561198064940458,"connected_time":815000000000,"state":"active","ping":67},{"user_id":869,"name":"Chiki","steam_id":76561198063590320,"connected_time":3118000000000,"state":"active","ping":67},{"user_id":867,"name":"Mayo Monkey","steam_id":76561198090023039,"connected_time":3781000000000,"state":"active","ping":96},{"user_id":909,"name":"Achtan","steam_id":76561198078189844,"connected_time":163000000000,"state":"active","ping":80},{"user_id":892,"name":"Aniz","steam_id":76561199226665024,"connected_time":1433000000000,"state":"active","ping":185},{"user_id":883,"name":"2L84U","steam_id":76561198079176017,"connected_time":2125000000000,"state":"active","ping":92},{"user_id":901,"name":"Lord Cutler Beckett","steam_id":76561198091356047,"connected_time":504000000000,"state":"active","ping":53},{"user_id":894,"name":"Fantastic","steam_id":76561198079088978,"connected_time":826000000000,"state":"active","ping":44},{"user_id":906,"name":"Watone","steam_id":76561198066213814,"connected_time":283000000000,"state":"active","ping":61}]},{"server_id":106,"name":"Uncletopia | Chicago | 2 | All Maps","name_short":"chi-2","host":"chi-1.us.uncletopia.com","port":27025,"enabled":true,"region":"us-central","cc":"us","latitude":41.881832,"longitude":-87.62318,"reserved":0,"last_update":"0001-01-01T00:00:00Z","name_a2s":"Uncletopia | Chicago | 2 | All Maps","protocol":17,"map":"cp_gravelpit","folder":"tf","game":"Team Fortress","app_id":440,"player_count":24,"max_players":24,"Bots":0,"server_type":"Dedicated","server_os":"Linux","password":true,"vac":true,"version":"7961495","steam_id":85568392924469985,"keywords":["cp","nocrits","nodmgspread","uncletopia"],"game_id":440,"stv_port":27026,"stv_name":"Uncletopia | Chicago | 2 | All Maps | STV","players":[{"user_id":782,"name":"stupid ape","steam_id":76561198350027075,"connected_time":4636000000000,"state":"active","ping":58},{"user_id":801,"name":"whitr","steam_id":76561198043981478,"connected_time":3239000000000,"state":"active","ping":83},{"user_id":827,"name":"bocaJ","steam_id":76561198374535092,"connected_time":355000000000,"state":"active","ping":79},{"user_id":826,"name":"Cthulwho?","steam_id":76561198165550810,"connected_time":418000000000,"state":"active","ping":60},{"user_id":653,"name":"x","steam_id":76561198013735714,"connected_time":13759000000000,"state":"active","ping":77},{"user_id":825,"name":"Gamba","steam_id":76561198069264650,"connected_time":548000000000,"state":"active","ping":60},{"user_id":820,"name":"chikin.sauce","steam_id":76561198042464635,"connected_time":1339000000000,"state":"active","ping":88},{"user_id":818,"name":"Qwerty","steam_id":76561198023525894,"connected_time":2402000000000,"state":"active","ping":167},{"user_id":830,"name":"metal pipe","steam_id":76561198849461209,"connected_time":237000000000,"state":"active","ping":66},{"user_id":822,"name":"Rambly Dambly","steam_id":76561198844496567,"connected_time":798000000000,"state":"active","ping":52},{"user_id":811,"name":"Zarg0n","steam_id":76561198199264549,"connected_time":2824000000000,"state":"active","ping":56},{"user_id":831,"name":"macmillerfan2009","steam_id":76561198040912048,"connected_time":220000000000,"state":"active","ping":50},{"user_id":772,"name":"shoobs","steam_id":76561198042507255,"connected_time":5794000000000,"state":"active","ping":83},{"user_id":697,"name":"halfpint","steam_id":76561198148217618,"connected_time":10206000000000,"state":"active","ping":85},{"user_id":775,"name":"Caverman156","steam_id":76561198295409223,"connected_time":5403000000000,"state":"active","ping":59},{"user_id":832,"name":"Jazz2T","steam_id":76561198154418867,"connected_time":165000000000,"state":"active","ping":105},{"user_id":770,"name":"Choctoling","steam_id":76561198351622498,"connected_time":6051000000000,"state":"active","ping":105},{"user_id":805,"name":"seldom","steam_id":76561198166193756,"connected_time":3201000000000,"state":"active","ping":68},{"user_id":759,"name":"MantisToboggan","steam_id":76561197969447887,"connected_time":6853000000000,"state":"active","ping":133},{"user_id":812,"name":"stormfoam","steam_id":76561198936871387,"connected_time":2820000000000,"state":"active","ping":62},{"user_id":833,"name":"OrangeSodaMachine","steam_id":76561198079230156,"connected_time":27000000000,"state":"active","ping":78},{"user_id":819,"name":"pabloramirez1998@gmail.com","steam_id":76561198969675306,"connected_time":1431000000000,"state":"active","ping":67},{"user_id":789,"name":"Madeline","steam_id":76561198002123006,"connected_time":4519000000000,"state":"active","ping":81},{"user_id":809,"name":"IanFishooks","steam_id":76561199403427527,"connected_time":3176000000000,"state":"active","ping":83}]},{"server_id":402,"name":"Uncletopia | Chicago | 3 | All Maps","name_short":"chi-3","host":"chi-1.us.uncletopia.com","port":27035,"enabled":true,"region":"us-central","cc":"us","latitude":41.881832,"longitude":-87.62318,"reserved":0,"last_update":"0001-01-01T00:00:00Z","name_a2s":"Uncletopia | Chicago | 3 | All Maps","protocol":17,"map":"cp_steel","folder":"tf","game":"Team Fortress","app_id":440,"player_count":21,"max_players":24,"Bots":0,"server_type":"Dedicated","server_os":"Linux","password":true,"vac":true,"version":"7961495","steam_id":85568392924515191,"keywords":["cp","nocrits","nodmgspread","uncletopia"],"game_id":440,"stv_port":27036,"stv_name":"Uncletopia | Chicago | 3 | All Maps | STV","players":[{"user_id":817,"name":"AdPo_SlyDog","steam_id":76561198295973612,"connected_time":260000000000,"state":"active","ping":93},{"user_id":822,"name":"Mr_Laba","steam_id":76561198039320389,"connected_time":58000000000,"state":"active","ping":85},{"user_id":819,"name":"Chad","steam_id":76561198222313772,"connected_time":132000000000,"state":"active","ping":71},{"user_id":736,"name":"Jesse Bear","steam_id":76561198217075305,"connected_time":5812000000000,"state":"active","ping":95},{"user_id":811,"name":"Mighty","steam_id":76561198096569755,"connected_time":818000000000,"state":"active","ping":97},{"user_id":808,"name":"TYPICAL-HUMAN","steam_id":76561198060914982,"connected_time":962000000000,"state":"active","ping":114},{"user_id":815,"name":"ARegularJohnDoe","steam_id":76561198015020139,"connected_time":793000000000,"state":"active","ping":57},{"user_id":806,"name":"dmikewilcox","steam_id":76561198060700489,"connected_time":1122000000000,"state":"active","ping":45},{"user_id":813,"name":"Misty Blu â™¥","steam_id":76561198011442255,"connected_time":808000000000,"state":"active","ping":96},{"user_id":820,"name":"SpicyTacoMan","steam_id":76561198335699828,"connected_time":109000000000,"state":"active","ping":72},{"user_id":814,"name":"Constipated Barry","steam_id":76561198004482269,"connected_time":796000000000,"state":"active","ping":92},{"user_id":793,"name":"freyja","steam_id":76561198012480197,"connected_time":2259000000000,"state":"active","ping":88},{"user_id":796,"name":"Ahten Xevious","steam_id":76561198075469828,"connected_time":2167000000000,"state":"active","ping":67},{"user_id":821,"name":"(^=Ëƒá†ºË‚)","steam_id":76561198030527553,"connected_time":87000000000,"state":"active","ping":75},{"user_id":794,"name":"Willowl","steam_id":76561198074612980,"connected_time":2239000000000,"state":"active","ping":83},{"user_id":823,"name":"Paech","steam_id":76561198012271724,"connected_time":44000000000,"state":"active","ping":76},{"user_id":803,"name":"urine trouble","steam_id":76561199013266640,"connected_time":1697000000000,"state":"active","ping":44},{"user_id":824,"name":"Victor","steam_id":76561198848984975,"connected_time":40000000000,"state":"active","ping":80},{"user_id":825,"name":"dirty laundry","steam_id":76561198164810699,"connected_time":17000000000,"state":"active","ping":86},{"user_id":802,"name":"Kramoisi","steam_id":76561198043386785,"connected_time":1955000000000,"state":"active","ping":82},{"user_id":798,"name":"A Cranky Cassowary","steam_id":76561198037372342,"connected_time":2141000000000,"state":"active","ping":54}]},{"server_id":403,"name":"Uncletopia | Chicago | 4 | All Maps","name_short":"chi-4","host":"chi-1.us.uncletopia.com","port":27045,"enabled":true,"region":"us-central","cc":"us","latitude":41.881832,"longitude":-87.62318,"reserved":0,"last_update":"0001-01-01T00:00:00Z","name_a2s":"Uncletopia | Chicago | 4 | All Maps","protocol":17,"map":"cp_steel","folder":"tf","game":"Team Fortress","app_id":440,"player_count":24,"max_players":24,"Bots":0,"server_type":"Dedicated","server_os":"Linux","password":true,"vac":true,"version":"7961495","steam_id":85568392924515193,"keywords":["cp","nocrits","nodmgspread","uncletopia"],"game_id":440,"stv_port":27046,"stv_name":"Uncletopia | Chicago | 4 | All Maps | STV","players":[{"user_id":347,"name":"kentrell jr.","steam_id":76561198136642793,"connected_time":2543000000000,"state":"active","ping":73},{"user_id":390,"name":"ivan","steam_id":76561199017754044,"connected_time":358000000000,"state":"active","ping":75},{"user_id":391,"name":"NiceHotCupOfBro","steam_id":76561197983150818,"connected_time":284000000000,"state":"active","ping":60},{"user_id":395,"name":"google me, chuck","steam_id":76561198247652212,"connected_time":193000000000,"state":"active","ping":53},{"user_id":385,"name":"atlas","steam_id":76561198398383076,"connected_time":585000000000,"state":"active","ping":82},{"user_id":364,"name":"ItsBrieDude","steam_id":76561198051971306,"connected_time":1602000000000,"state":"active","ping":60},{"user_id":394,"name":"playguy carter","steam_id":76561198080679337,"connected_time":206000000000,"state":"active","ping":47},{"user_id":393,"name":"Moss","steam_id":76561199122200727,"connected_time":252000000000,"state":"active","ping":61},{"user_id":293,"name":"Ichthyology Enthusiast","steam_id":76561198854662187,"connected_time":7586000000000,"state":"active","ping":72},{"user_id":333,"name":"Hendekka","steam_id":76561198091386392,"connected_time":4152000000000,"state":"active","ping":121},{"user_id":360,"name":"_cza","steam_id":76561198079793576,"connected_time":2173000000000,"state":"active","ping":105},{"user_id":396,"name":"Sh3ba Spaniel","steam_id":76561198047412394,"connected_time":158000000000,"state":"active","ping":55},{"user_id":272,"name":"yb saved my life","steam_id":76561198144766439,"connected_time":9741000000000,"state":"active","ping":44},{"user_id":387,"name":"Lumi","steam_id":76561198089978036,"connected_time":563000000000,"state":"active","ping":79},{"user_id":349,"name":"bingus","steam_id":76561199198633203,"connected_time":2532000000000,"state":"active","ping":95},{"user_id":361,"name":"3rdmann","steam_id":76561198071285213,"connected_time":2115000000000,"state":"active","ping":78},{"user_id":369,"name":"Iyyob","steam_id":76561199058376746,"connected_time":1415000000000,"state":"active","ping":59},{"user_id":397,"name":"McDonald's Chicken Big Mac","steam_id":76561198254991505,"connected_time":128000000000,"state":"active","ping":55},{"user_id":378,"name":"Pickled Walt Disney","steam_id":76561198129055951,"connected_time":1064000000000,"state":"active","ping":90},{"user_id":388,"name":"Walla","steam_id":76561198103379757,"connected_time":531000000000,"state":"active","ping":45},{"user_id":398,"name":"super dookie 69","steam_id":76561198300660227,"connected_time":122000000000,"state":"active","ping":44},{"user_id":399,"name":"hashmap","steam_id":76561198043794014,"connected_time":80000000000,"state":"active","ping":49},{"user_id":383,"name":"leonardo doujinshi","steam_id":76561198025810326,"connected_time":822000000000,"state":"active","ping":87},{"user_id":400,"name":"Ryan Lewis truther","steam_id":76561198050505826,"connected_time":75000000000,"state":"active","ping":82}]},{"server_id":36,"name":"Uncletopia | Chicago | 5 | All Maps","name_short":"chi-5","host":"chi-2.us.uncletopia.com","port":27015,"enabled":true,"region":"us-central","cc":"us","latitude":41.881832,"longitude":-87.62318,"reserved":0,"last_update":"0001-01-01T00:00:00Z","name_a2s":"Uncletopia | Chicago | 5 | All Maps","protocol":17,"map":"pl_swiftwater_final1","folder":"tf","game":"Team Fortress","app_id":440,"player_count":13,"max_players":24,"Bots":0,"server_type":"Dedicated","server_os":"Linux","password":true,"vac":true,"version":"7961495","steam_id":85568392924866362,"keywords":["nocrits","nodmgspread","payload","uncletopia"],"game_id":440,"stv_port":27016,"stv_name":"Uncletopia | Chicago | 5 | All Maps | STV","players":[{"user_id":151,"name":"ozemandea","steam_id":76561198019345003,"connected_time":13477000000000,"state":"active","ping":64},{"user_id":306,"name":"Cosmic sR","steam_id":76561198081738675,"connected_time":1649000000000,"state":"active","ping":86},{"user_id":316,"name":"Who shit my pants?","steam_id":76561198056590708,"connected_time":1180000000000,"state":"active","ping":60},{"user_id":303,"name":"oknotok03","steam_id":76561198842006846,"connected_time":1754000000000,"state":"active","ping":55},{"user_id":308,"name":"Saikou!!!","steam_id":76561198044045406,"connected_time":1584000000000,"state":"active","ping":75},{"user_id":309,"name":"too funky á—œË¬á—œ","steam_id":76561199120399776,"connected_time":1578000000000,"state":"active","ping":182},{"user_id":323,"name":"consent enjoyer","steam_id":76561198229294628,"connected_time":277000000000,"state":"active","ping":67},{"user_id":322,"name":"ColdTooth","steam_id":76561197994963901,"connected_time":531000000000,"state":"active","ping":69},{"user_id":319,"name":"BlasterPrime","steam_id":76561198084154062,"connected_time":1101000000000,"state":"active","ping":60},{"user_id":312,"name":"Stranger in a Strange Land","steam_id":76561198049843671,"connected_time":1517000000000,"state":"active","ping":52},{"user_id":302,"name":"Kretim","steam_id":76561199204273483,"connected_time":2114000000000,"state":"active","ping":69},{"user_id":283,"name":"puppy :3","steam_id":76561198011196264,"connected_time":4150000000000,"state":"active","ping":45},{"user_id":244,"name":"Ace Chromatica","steam_id":76561198042211131,"connected_time":7031000000000,"state":"active","ping":55}]},{"server_id":37,"name":"Uncletopia | Chicago | 6 | All Maps","name_short":"chi-6","host":"chi-2.us.uncletopia.com","port":27025,"enabled":true,"region":"us-central","cc":"us","latitude":41.881832,"longitude":-87.62318,"reserved":0,"last_update":"0001-01-01T00:00:00Z","name_a2s":"Uncletopia | Chicago | 6 | All Maps","protocol":17,"map":"pl_badwater","folder":"tf","game":"Team Fortress","app_id":440,"player_count":6,"max_players":24,"Bots":0,"server_type":"Dedicated","server_os":"Linux","password":true,"vac":true,"version":"7961495","steam_id":85568392924866363,"keywords":["nocrits","nodmgspread","payload","uncletopia"],"game_id":440,"stv_port":27026,"stv_name":"Uncletopia | Chicago | 6 | All Maps | STV","players":[{"user_id":446,"name":"Aeri","steam_id":76561198041809495,"connected_time":3236000000000,"state":"connecting","ping":118},{"user_id":447,"name":"Duckbeater","steam_id":76561198012421014,"connected_time":3236000000000,"state":"connecting","ping":111},{"user_id":448,"name":"PepðŸ’”","steam_id":76561197995411109,"connected_time":3216000000000,"state":"connecting","ping":83},{"user_id":449,"name":"Getter","steam_id":76561198001395991,"connected_time":3214000000000,"state":"connecting","ping":137},{"user_id":459,"name":"klover","steam_id":76561198072254781,"connected_time":556000000000,"state":"connecting","ping":113},{"user_id":462,"name":"MR MODE","steam_id":76561198046775352,"connected_time":204000000000,"state":"connecting","ping":116}]},{"server_id":38,"name":"Uncletopia | Chicago | 7 | Stopwatch Beta","name_short":"chi-7","host":"chi-2.us.uncletopia.com","port":27035,"enabled":true,"region":"us-central","cc":"us","latitude":41.881832,"longitude":-87.62318,"reserved":0,"last_update":"0001-01-01T00:00:00Z","name_a2s":"Uncletopia | Chicago | 7 | Stopwatch Beta","protocol":17,"map":"workshop/koth_product_final.ugc454272353","folder":"tf","game":"Team Fortress","app_id":440,"player_count":5,"max_players":24,"Bots":0,"server_type":"Dedicated","server_os":"Linux","password":true,"vac":true,"version":"7961495","steam_id":85568392924866364,"keywords":["cp","nocrits","nodmgspread","uncletopia"],"game_id":440,"stv_port":27036,"stv_name":"Uncletopia | Chicago | 7 | Stopwatch Beta | STV","players":[{"user_id":136,"name":"The Freak","steam_id":76561198272394205,"connected_time":1229000000000,"state":"active","ping":85},{"user_id":132,"name":"2ndWhiterunGuard","steam_id":76561198105382714,"connected_time":1868000000000,"state":"active","ping":74},{"user_id":138,"name":"Cookies","steam_id":76561198139996362,"connected_time":1205000000000,"state":"active","ping":98},{"user_id":139,"name":"Thane","steam_id":76561198867766237,"connected_time":521000000000,"state":"active","ping":67},{"user_id":111,"name":"pieftwc","steam_id":76561198844080556,"connected_time":3751000000000,"state":"active","ping":81}]},{"server_id":39,"name":"Uncletopia | Chicago | 8 | Community","name_short":"chi-8","host":"chi-2.us.uncletopia.com","port":27045,"enabled":true,"region":"us-central","cc":"us","latitude":41.881832,"longitude":-87.62318,"reserved":0,"last_update":"0001-01-01T00:00:00Z","name_a2s":"Uncletopia | Chicago | 8 | Community","protocol":17,"map":"workshop/koth_ramjam_rc1.ugc459778887","folder":"tf","game":"Team Fortress","app_id":440,"player_count":0,"max_players":24,"Bots":0,"server_type":"Dedicated","server_os":"Linux","password":true,"vac":true,"version":"7961495","steam_id":85568392924866365,"keywords":["cp","nocrits","nodmgspread","uncletopia"],"game_id":440,"stv_port":27046,"stv_name":"Uncletopia | Chicago | 8 | Community | STV","players":null},{"server_id":8,"name":"Uncletopia | Dallas | 1 | All Maps","name_short":"dal-1","host":"dal-1.us.uncletopia.com","port":27015,"enabled":true,"region":"us-central","cc":"us","latitude":32.779167,"longitude":-96.80889,"reserved":0,"last_update":"0001-01-01T00:00:00Z","name_a2s":"Uncletopia | Dallas | 1 | All Maps","protocol":17,"map":"pl_borneo","folder":"tf","game":"Team Fortress","app_id":440,"player_count":24,"max_players":24,"Bots":0,"server_type":"Dedicated","server_os":"Linux","password":true,"vac":true,"version":"7961495","steam_id":85568392924469986,"keywords":["nocrits","nodmgspread","payload","uncletopia"],"game_id":440,"stv_port":27016,"stv_name":"Uncletopia | Dallas | 1 | All Maps | STV","players":[{"user_id":774,"name":"codeine demon","steam_id":76561198051015496,"connected_time":1856000000000,"state":"active","ping":80},{"user_id":806,"name":"TheArachnidGamer","steam_id":76561198304986752,"connected_time":148000000000,"state":"active","ping":62},{"user_id":777,"name":"iStrava","steam_id":76561198088223717,"connected_time":1713000000000,"state":"active","ping":76},{"user_id":798,"name":"Randle of John","steam_id":76561198328210524,"connected_time":1285000000000,"state":"active","ping":83},{"user_id":782,"name":"BoyKisser","steam_id":76561199200969139,"connected_time":1546000000000,"state":"active","ping":112},{"user_id":760,"name":"Chub","steam_id":76561197960983902,"connected_time":3892000000000,"state":"active","ping":41},{"user_id":789,"name":"RUF","steam_id":76561198062315805,"connected_time":1431000000000,"state":"active","ping":89},{"user_id":803,"name":"meggie","steam_id":76561198038291026,"connected_time":653000000000,"state":"active","ping":33},{"user_id":778,"name":"SQU1DDY","steam_id":76561198027757551,"connected_time":1696000000000,"state":"active","ping":86},{"user_id":779,"name":"W1CKEDY","steam_id":76561198353447602,"connected_time":1689000000000,"state":"active","ping":103},{"user_id":781,"name":"Phoenix","steam_id":76561199465534945,"connected_time":1676000000000,"state":"active","ping":108},{"user_id":785,"name":"adios muchacho","steam_id":76561198068113347,"connected_time":1483000000000,"state":"active","ping":76},{"user_id":787,"name":"monkeycake","steam_id":76561198272061915,"connected_time":1468000000000,"state":"active","ping":69},{"user_id":743,"name":"Zorlovo","steam_id":76561198006443283,"connected_time":4614000000000,"state":"active","ping":81},{"user_id":805,"name":"loser","steam_id":76561198259380127,"connected_time":573000000000,"state":"active","ping":77},{"user_id":790,"name":"Lumberjane37 (She/Her)","steam_id":76561198014841793,"connected_time":1426000000000,"state":"active","ping":90},{"user_id":791,"name":"josie","steam_id":76561198170848553,"connected_time":1398000000000,"state":"active","ping":90},{"user_id":792,"name":"Thequirka","steam_id":76561198968058652,"connected_time":1397000000000,"state":"active","ping":99},{"user_id":793,"name":"ChozoChorizo","steam_id":76561198272609196,"connected_time":1397000000000,"state":"active","ping":57},{"user_id":799,"name":"Datguy","steam_id":76561198009429780,"connected_time":1127000000000,"state":"active","ping":78},{"user_id":795,"name":"nabuS","steam_id":76561198428124323,"connected_time":1383000000000,"state":"active","ping":54},{"user_id":772,"name":"Reague","steam_id":76561199092175631,"connected_time":2350000000000,"state":"active","ping":81},{"user_id":797,"name":"MyTeamIsAzz","steam_id":76561198241921220,"connected_time":1346000000000,"state":"active","ping":91},{"user_id":802,"name":"ROGUE-PLANET","steam_id":76561198116023052,"connected_time":830000000000,"state":"active","ping":75}]},{"server_id":108,"name":"Uncletopia | Dallas | 2 | All Maps","name_short":"dal-2","host":"dal-1.us.uncletopia.com","port":27025,"enabled":true,"region":"us-central","cc":"us","latitude":32.779167,"longitude":-96.80889,"reserved":0,"last_update":"0001-01-01T00:00:00Z","name_a2s":"Uncletopia | Dallas | 2 | All Maps","protocol":17,"map":"cp_dustbowl","folder":"tf","game":"Team Fortress","app_id":440,"player_count":23,"max_players":24,"Bots":0,"server_type":"Dedicated","server_os":"Linux","password":true,"vac":true,"version":"7961495","steam_id":85568392924469988,"keywords":["cp","nocrits","nodmgspread","uncletopia"],"game_id":440,"stv_port":27026,"stv_name":"Uncletopia | Dallas | 2 | All Maps | STV","players":[{"user_id":649,"name":"Mud Goblin","steam_id":76561198839118505,"connected_time":2801000000000,"state":"active","ping":102},{"user_id":683,"name":"Yarch0","steam_id":76561199106172477,"connected_time":1158000000000,"state":"active","ping":101},{"user_id":681,"name":"AffirmedDrip13","steam_id":76561198241951532,"connected_time":1268000000000,"state":"active","ping":70},{"user_id":658,"name":"J-Me","steam_id":76561198099112686,"connected_time":2640000000000,"state":"active","ping":85},{"user_id":656,"name":"Spring Beans","steam_id":76561197978546259,"connected_time":2695000000000,"state":"active","ping":31},{"user_id":669,"name":"Michaelpc1","steam_id":76561198088365519,"connected_time":2143000000000,"state":"active","ping":90},{"user_id":680,"name":"goooot","steam_id":76561198155591052,"connected_time":1410000000000,"state":"active","ping":49},{"user_id":670,"name":"Alfonso Molestro","steam_id":76561197998677099,"connected_time":2131000000000,"state":"active","ping":111},{"user_id":684,"name":"yolginmo","steam_id":76561198157985901,"connected_time":1146000000000,"state":"active","ping":116},{"user_id":695,"name":"Urist McDwarf","steam_id":76561198164004939,"connected_time":774000000000,"state":"active","ping":98},{"user_id":674,"name":"the master of cats","steam_id":76561198819255576,"connected_time":1966000000000,"state":"active","ping":80},{"user_id":641,"name":"Zambeast","steam_id":76561198137856177,"connected_time":3042000000000,"state":"active","ping":59},{"user_id":696,"name":"Hatter","steam_id":76561198010341986,"connected_time":440000000000,"state":"active","ping":65},{"user_id":698,"name":"RAWRWAIFU","steam_id":76561198032118386,"connected_time":182000000000,"state":"active","ping":70},{"user_id":687,"name":"EvilPigglet","steam_id":76561197987243470,"connected_time":1061000000000,"state":"active","ping":78},{"user_id":688,"name":"OmniMoto","steam_id":76561198091298557,"connected_time":1040000000000,"state":"active","ping":67},{"user_id":632,"name":"Broomfrog","steam_id":76561198197932090,"connected_time":3199000000000,"state":"active","ping":56},{"user_id":676,"name":"Flubdy_","steam_id":76561198073338521,"connected_time":1719000000000,"state":"active","ping":55},{"user_id":694,"name":"Killer_Byte_","steam_id":76561198153259922,"connected_time":825000000000,"state":"active","ping":92},{"user_id":701,"name":"Khaicchi","steam_id":76561198104454754,"connected_time":27000000000,"state":"spawning","ping":163},{"user_id":693,"name":"M4 Sherman","steam_id":76561198126990820,"connected_time":889000000000,"state":"active","ping":81},{"user_id":621,"name":"tsz","steam_id":76561199246231090,"connected_time":3972000000000,"state":"active","ping":81},{"user_id":631,"name":"McDonald","steam_id":76561199028533497,"connected_time":3219000000000,"state":"active","ping":81}]},{"server_id":404,"name":"Uncletopia | Dallas | 3 | All Maps","name_short":"dal-3","host":"dal-1.us.uncletopia.com","port":27035,"enabled":true,"region":"us-central","cc":"us","latitude":32.779167,"longitude":-96.80889,"reserved":0,"last_update":"0001-01-01T00:00:00Z","name_a2s":"Uncletopia | Dallas | 3 | All Maps","protocol":17,"map":"cp_altitude","folder":"tf","game":"Team Fortress","app_id":440,"player_count":0,"max_players":24,"Bots":0,"server_type":"Dedicated","server_os":"Linux","password":true,"vac":true,"version":"7961495","steam_id":85568392924515219,"keywords":["cp","nocrits","nodmgspread","uncletopia"],"game_id":440,"stv_port":27036,"stv_name":"Uncletopia | Dallas | 3 | All Maps | STV","players":null},{"server_id":405,"name":"Uncletopia | Dallas | 4 | Community","name_short":"dal-4","host":"dal-1.us.uncletopia.com","port":27045,"enabled":true,"region":"us-central","cc":"us","latitude":32.779167,"longitude":-96.80889,"reserved":0,"last_update":"0001-01-01T00:00:00Z","name_a2s":"Uncletopia | Dallas | 4 | Community","protocol":17,"map":"workshop/pl_shoreleave_rc2.ugc1238849347","folder":"tf","game":"Team Fortress","app_id":440,"player_count":0,"max_players":24,"Bots":0,"server_type":"Dedicated","server_os":"Linux","password":true,"vac":true,"version":"7961495","steam_id":85568392924515220,"keywords":["nocrits","nodmgspread","payload","uncletopia"],"game_id":440,"stv_port":27046,"stv_name":"Uncletopia | Dallas | 4 | Community | STV","players":null},{"server_id":5,"name":"Uncletopia | Frankfurt | 1 | All Maps","name_short":"frk-1","host":"frk-1.de.uncletopia.com","port":27015,"enabled":true,"region":"eu","cc":"de","latitude":50.110924,"longitude":8.682127,"reserved":0,"last_update":"0001-01-01T00:00:00Z","name_a2s":"Uncletopia | Frankfurt | 1 | All Maps","protocol":17,"map":"pl_badwater","folder":"tf","game":"Team Fortress","app_id":440,"player_count":0,"max_players":24,"Bots":0,"server_type":"Dedicated","server_os":"Linux","password":true,"vac":true,"version":"7961495","steam_id":85568392924469989,"keywords":["nocrits","nodmgspread","payload","uncletopia"],"game_id":440,"stv_port":27016,"stv_name":"Uncletopia | Frankfurt | 1 | All Maps | STV","players":null},{"server_id":110,"name":"Uncletopia | Frankfurt | 2 | All Maps","name_short":"frk-2","host":"frk-1.de.uncletopia.com","port":27025,"enabled":true,"region":"eu","cc":"de","latitude":50.110924,"longitude":8.682127,"reserved":0,"last_update":"0001-01-01T00:00:00Z","name_a2s":"Uncletopia | Frankfurt | 2 | All Maps","protocol":17,"map":"koth_lakeside_final","folder":"tf","game":"Team Fortress","app_id":440,"player_count":0,"max_players":24,"Bots":0,"server_type":"Dedicated","server_os":"Linux","password":true,"vac":true,"version":"7961495","steam_id":85568392924469990,"keywords":["cp","nocrits","nodmgspread","uncletopia"],"game_id":440,"stv_port":27026,"stv_name":"Uncletopia | Frankfurt | 2 | All Maps | STV","players":null},{"server_id":308,"name":"Uncletopia | Frankfurt | 3 | All Maps","name_short":"frk-3","host":"frk-1.de.uncletopia.com","port":27035,"enabled":true,"region":"eu","cc":"de","latitude":50.110924,"longitude":8.682127,"reserved":0,"last_update":"0001-01-01T00:00:00Z","name_a2s":"Uncletopia | Frankfurt | 3 | All Maps","protocol":17,"map":"cp_sunshine","folder":"tf","game":"Team Fortress","app_id":440,"player_count":0,"max_players":24,"Bots":0,"server_type":"Dedicated","server_os":"Linux","password":true,"vac":true,"version":"7961495","steam_id":85568392924504274,"keywords":["cp","nocrits","nodmgspread","uncletopia"],"game_id":440,"stv_port":27036,"stv_name":"Uncletopia | Frankfurt | 3 | All Maps | STV","players":null},{"server_id":309,"name":"Uncletopia | Frankfurt | 4 | All Maps","name_short":"frk-4","host":"frk-1.de.uncletopia.com","port":27045,"enabled":true,"region":"eu","cc":"de","latitude":50.110924,"longitude":8.682127,"reserved":0,"last_update":"0001-01-01T00:00:00Z","name_a2s":"Uncletopia | Frankfurt | 4 | All Maps","protocol":17,"map":"cp_altitude","folder":"tf","game":"Team Fortress","app_id":440,"player_count":0,"max_players":24,"Bots":0,"server_type":"Dedicated","server_os":"Linux","password":true,"vac":true,"version":"7961495","steam_id":85568392924504275,"keywords":["cp","nocrits","nodmgspread","uncletopia"],"game_id":440,"stv_port":27046,"stv_name":"Uncletopia | Frankfurt | 4 | All Maps | STV","players":null},{"server_id":310,"name":"Uncletopia | Frankfurt | 5 | All Maps","name_short":"frk-5","host":"frk-1.de.uncletopia.com","port":27055,"enabled":true,"region":"eu","cc":"de","latitude":50.110924,"longitude":8.682127,"reserved":0,"last_update":"0001-01-01T00:00:00Z","name_a2s":"Uncletopia | Frankfurt | 5 | All Maps","protocol":17,"map":"cp_process_final","folder":"tf","game":"Team Fortress","app_id":440,"player_count":0,"max_players":24,"Bots":0,"server_type":"Dedicated","server_os":"Linux","password":true,"vac":true,"version":"7961495","steam_id":85568392924504277,"keywords":["cp","nocrits","nodmgspread","uncletopia"],"game_id":440,"stv_port":27056,"stv_name":"Uncletopia | Frankfurt | 5 | All Maps | STV","players":null},{"server_id":311,"name":"Uncletopia | Frankfurt | 6 | All Maps","name_short":"frk-6","host":"frk-1.de.uncletopia.com","port":27065,"enabled":true,"region":"eu","cc":"de","latitude":50.110924,"longitude":8.682127,"reserved":0,"last_update":"0001-01-01T00:00:00Z","name_a2s":"Uncletopia | Frankfurt | 6 | All Maps","protocol":17,"map":"pl_barnblitz","folder":"tf","game":"Team Fortress","app_id":440,"player_count":0,"max_players":24,"Bots":0,"server_type":"Dedicated","server_os":"Linux","password":true,"vac":true,"version":"7961495","steam_id":85568392924504278,"keywords":["nocrits","nodmgspread","payload","uncletopia"],"game_id":440,"stv_port":27066,"stv_name":"Uncletopia | Frankfurt | 6 | All Maps | STV","players":null},{"server_id":23,"name":"Uncletopia | Frankfurt | 7 | Stopwatch Beta","name_short":"frk-7","host":"frk-1.de.uncletopia.com","port":27075,"enabled":true,"region":"eu","cc":"de","latitude":50.110924,"longitude":8.682127,"reserved":0,"last_update":"0001-01-01T00:00:00Z","name_a2s":"Uncletopia | Frankfurt | 7 | Stopwatch Beta","protocol":17,"map":"koth_cascade","folder":"tf","game":"Team Fortress","app_id":440,"player_count":0,"max_players":24,"Bots":0,"server_type":"Dedicated","server_os":"Linux","password":true,"vac":true,"version":"7961495","steam_id":85568392924742827,"keywords":["cp","nocrits","nodmgspread","uncletopia"],"game_id":440,"stv_port":27076,"stv_name":"Uncletopia | Frankfurt | 7 | Stopwatch Beta | STV","players":null},{"server_id":24,"name":"Uncletopia | Frankfurt | 8 | Community","name_short":"frk-8","host":"frk-1.de.uncletopia.com","port":27085,"enabled":true,"region":"eu","cc":"de","latitude":50.110924,"longitude":8.682127,"reserved":0,"last_update":"0001-01-01T00:00:00Z","name_a2s":"Uncletopia | Frankfurt | 8 | Community","protocol":17,"map":"cp_dustbowl","folder":"tf","game":"Team Fortress","app_id":440,"player_count":0,"max_players":24,"Bots":0,"server_type":"Dedicated","server_os":"Linux","password":true,"vac":true,"version":"7961495","steam_id":85568392924742828,"keywords":["cp","nocrits","nodmgspread","uncletopia"],"game_id":440,"stv_port":27086,"stv_name":"Uncletopia | Frankfurt | 8 | Community | STV","players":null},{"server_id":202,"name":"Uncletopia | Hong Kong | 1 | All Maps","name_short":"hgk-1","host":"hgk-1.hk.uncletopia.com","port":27015,"enabled":true,"region":"asia","cc":"hk","latitude":22.302711,"longitude":114.177216,"reserved":0,"last_update":"0001-01-01T00:00:00Z","name_a2s":"Uncletopia | Hong Kong | 1 | All Maps","protocol":17,"map":"koth_highpass","folder":"tf","game":"Team Fortress","app_id":440,"player_count":0,"max_players":24,"Bots":0,"server_type":"Dedicated","server_os":"Linux","password":true,"vac":true,"version":"7961495","steam_id":85568392924494504,"keywords":["cp","nocrits","nodmgspread","uncletopia"],"game_id":440,"stv_port":27016,"stv_name":"Uncletopia | Hong Kong | 1 | All Maps | STV","players":null},{"server_id":1,"name":"Uncletopia | Los Angeles | 1 | All Maps","name_short":"lax-1","host":"lax-1.us.uncletopia.com","port":27015,"enabled":true,"region":"us-west","cc":"us","latitude":33.94279,"longitude":-118.41004,"reserved":0,"last_update":"0001-01-01T00:00:00Z","name_a2s":"Uncletopia | Los Angeles | 1 | All Maps","protocol":17,"map":"cp_dustbowl","folder":"tf","game":"Team Fortress","app_id":440,"player_count":24,"max_players":24,"Bots":0,"server_type":"Dedicated","server_os":"Linux","password":true,"vac":true,"version":"7961495","steam_id":85568392924469991,"keywords":["cp","nocrits","nodmgspread","uncletopia"],"game_id":440,"stv_port":27016,"stv_name":"Uncletopia | Los Angeles | 1 | All Maps | STV","players":[{"user_id":472,"name":"Sakura Futaba","steam_id":76561198017153764,"connected_time":2284000000000,"state":"active","ping":50},{"user_id":462,"name":"HUMBY","steam_id":76561198065045867,"connected_time":2716000000000,"state":"active","ping":94},{"user_id":470,"name":"igotswag.com","steam_id":76561198083851689,"connected_time":2331000000000,"state":"active","ping":60},{"user_id":455,"name":"Mr. Yoshida","steam_id":76561198263829831,"connected_time":3012000000000,"state":"active","ping":72},{"user_id":488,"name":"Big Jack","steam_id":76561198132755619,"connected_time":947000000000,"state":"active","ping":41},{"user_id":482,"name":"Mr8bittripper","steam_id":76561198133894229,"connected_time":1374000000000,"state":"active","ping":46},{"user_id":469,"name":"luigiclub","steam_id":76561198180548194,"connected_time":2365000000000,"state":"active","ping":78},{"user_id":471,"name":"Big Heffah","steam_id":76561197974493959,"connected_time":2323000000000,"state":"active","ping":115},{"user_id":483,"name":"Ralph Kramden (Slim Charles)","steam_id":76561197981687895,"connected_time":1337000000000,"state":"active","ping":60},{"user_id":498,"name":"Lucky","steam_id":76561198828715832,"connected_time":381000000000,"state":"active","ping":56},{"user_id":449,"name":"xbox record that","steam_id":76561198150117455,"connected_time":3320000000000,"state":"active","ping":55},{"user_id":480,"name":"Culprit Shy","steam_id":76561198206506481,"connected_time":1526000000000,"state":"active","ping":49},{"user_id":497,"name":"Your Favorite Fearless Hero","steam_id":76561199127590316,"connected_time":409000000000,"state":"active","ping":61},{"user_id":484,"name":"Hawksgamer","steam_id":76561198152405941,"connected_time":1331000000000,"state":"active","ping":85},{"user_id":475,"name":"Tinhead","steam_id":76561198446806080,"connected_time":2099000000000,"state":"active","ping":99},{"user_id":417,"name":"FriskyDemon","steam_id":76561198043684646,"connected_time":5147000000000,"state":"active","ping":74},{"user_id":398,"name":"cielael","steam_id":76561198043971956,"connected_time":6585000000000,"state":"active","ping":46},{"user_id":476,"name":"usedhalfcart","steam_id":76561198072621852,"connected_time":1780000000000,"state":"active","ping":75},{"user_id":463,"name":"WesyUWU (The mini crit pig)","steam_id":76561198069188177,"connected_time":2711000000000,"state":"active","ping":85},{"user_id":457,"name":"xXBigGuapoXx","steam_id":76561198141093588,"connected_time":2995000000000,"state":"active","ping":62},{"user_id":464,"name":"gliZZY_G0bliN","steam_id":76561198088764516,"connected_time":2671000000000,"state":"active","ping":97},{"user_id":492,"name":"Chalupa Jones","steam_id":76561198335855588,"connected_time":463000000000,"state":"active","ping":55},{"user_id":502,"name":"Shazzy","steam_id":76561198145460523,"connected_time":28000000000,"state":"active","ping":73},{"user_id":496,"name":"Scienceiskewl","steam_id":76561198210382932,"connected_time":429000000000,"state":"active","ping":63}]},{"server_id":112,"name":"Uncletopia | Los Angeles | 2 | All Maps","name_short":"lax-2","host":"lax-1.us.uncletopia.com","port":27025,"enabled":true,"region":"us-west","cc":"us","latitude":33.94279,"longitude":-118.41004,"reserved":0,"last_update":"0001-01-01T00:00:00Z","name_a2s":"Uncletopia | Los Angeles | 2 | All Maps","protocol":17,"map":"koth_viaduct","folder":"tf","game":"Team Fortress","app_id":440,"player_count":0,"max_players":24,"Bots":0,"server_type":"Dedicated","server_os":"Linux","password":true,"vac":true,"version":"7961495","steam_id":85568392924469992,"keywords":["cp","nocrits","nodmgspread","uncletopia"],"game_id":440,"stv_port":27026,"stv_name":"Uncletopia | Los Angeles | 2 | All Maps | STV","players":null},{"server_id":324,"name":"Uncletopia | Los Angeles | 3 | All Maps","name_short":"lax-3","host":"lax-1.us.uncletopia.com","port":27035,"enabled":true,"region":"us-west","cc":"us","latitude":33.94279,"longitude":-118.41004,"reserved":0,"last_update":"0001-01-01T00:00:00Z","name_a2s":"Uncletopia | Los Angeles | 3 | All Maps","protocol":17,"map":"pl_frontier_final","folder":"tf","game":"Team Fortress","app_id":440,"player_count":11,"max_players":24,"Bots":0,"server_type":"Dedicated","server_os":"Linux","password":true,"vac":true,"version":"7961495","steam_id":85568392924510198,"keywords":["nocrits","nodmgspread","payload","uncletopia"],"game_id":440,"stv_port":27036,"stv_name":"Uncletopia | Los Angeles | 3 | All Maps | STV","players":[{"user_id":158,"name":"Zykron","steam_id":76561199056400800,"connected_time":335000000000,"state":"active","ping":53},{"user_id":154,"name":"SirKnight5067","steam_id":76561198377306047,"connected_time":522000000000,"state":"active","ping":116},{"user_id":155,"name":"NubNub21","steam_id":76561197995743317,"connected_time":511000000000,"state":"active","ping":101},{"user_id":126,"name":"Dranos","steam_id":76561198317456244,"connected_time":2451000000000,"state":"active","ping":57},{"user_id":156,"name":"Pootis420","steam_id":76561198390196058,"connected_time":481000000000,"state":"active","ping":68},{"user_id":159,"name":"The_RainbowTrout","steam_id":76561199309554436,"connected_time":61000000000,"state":"active","ping":63},{"user_id":130,"name":"Revenant-6","steam_id":76561198124566666,"connected_time":1999000000000,"state":"active","ping":34},{"user_id":131,"name":"ScaryCasperO1","steam_id":76561198176098342,"connected_time":1998000000000,"state":"active","ping":45},{"user_id":138,"name":"Nebulous","steam_id":76561198289990049,"connected_time":1927000000000,"state":"active","ping":69},{"user_id":134,"name":"Major","steam_id":76561198334210109,"connected_time":1990000000000,"state":"active","ping":44},{"user_id":135,"name":"Portaljumper02","steam_id":76561199199139402,"connected_time":1987000000000,"state":"active","ping":57}]},{"server_id":25,"name":"Uncletopia | Los Angeles | 4 | Stopwatch Beta","name_short":"lax-4","host":"lax-1.us.uncletopia.com","port":27045,"enabled":true,"region":"us-west","cc":"us","latitude":33.94279,"longitude":-118.41004,"reserved":0,"last_update":"0001-01-01T00:00:00Z","name_a2s":"Uncletopia | Los Angeles | 4 | Stopwatch Beta","protocol":17,"map":"pl_upward","folder":"tf","game":"Team Fortress","app_id":440,"player_count":0,"max_players":24,"Bots":0,"server_type":"Dedicated","server_os":"Linux","password":true,"vac":true,"version":"7961495","steam_id":85568392924510199,"keywords":["nocrits","nodmgspread","payload","uncletopia"],"game_id":440,"stv_port":27046,"stv_name":"Uncletopia | Los Angeles | 4 | Stopwatch Beta | STV","players":null},{"server_id":11,"name":"Uncletopia | London | 1 | All Maps","name_short":"lon-1","host":"lon-1.uk.uncletopia.com","port":27015,"enabled":true,"region":"eu","cc":"gb","latitude":51.509865,"longitude":-0.118092,"reserved":0,"last_update":"0001-01-01T00:00:00Z","name_a2s":"Uncletopia | London | 1 | All Maps","protocol":17,"map":"pl_pier","folder":"tf","game":"Team Fortress","app_id":440,"player_count":24,"max_players":24,"Bots":0,"server_type":"Dedicated","server_os":"Linux","password":true,"vac":true,"version":"7961495","steam_id":85568392924367362,"keywords":["nocrits","nodmgspread","payload","uncletopia"],"game_id":440,"stv_port":27016,"stv_name":"Uncletopia | London | 1 | All Maps | STV","players":[{"user_id":25,"name":"Immortalyes","steam_id":76561198050800698,"connected_time":2689000000000,"state":"active","ping":69},{"user_id":92,"name":"happyrain TF2.LT","steam_id":76561198216693185,"connected_time":243000000000,"state":"active","ping":73},{"user_id":28,"name":"capitan jamacia aka jayden","steam_id":76561198071440081,"connected_time":2565000000000,"state":"active","ping":105},{"user_id":66,"name":"bird ideas","steam_id":76561199480942903,"connected_time":1396000000000,"state":"active","ping":75},{"user_id":7,"name":"Perpetual Pub Push","steam_id":76561198256714846,"connected_time":3294000000000,"state":"active","ping":43},{"user_id":8,"name":"Lyncurion","steam_id":76561199260022725,"connected_time":3290000000000,"state":"active","ping":84},{"user_id":46,"name":"thog","steam_id":76561198219901556,"connected_time":1924000000000,"state":"active","ping":112},{"user_id":75,"name":"maggot !","steam_id":76561199075532033,"connected_time":859000000000,"state":"active","ping":92},{"user_id":58,"name":"buff men","steam_id":76561198996092998,"connected_time":1731000000000,"state":"active","ping":102},{"user_id":77,"name":"demoman","steam_id":76561198046170435,"connected_time":730000000000,"state":"active","ping":72},{"user_id":67,"name":"Lucky Seven","steam_id":76561198045222776,"connected_time":1366000000000,"state":"active","ping":65},{"user_id":15,"name":"Raeews","steam_id":76561198254646517,"connected_time":3240000000000,"state":"active","ping":46},{"user_id":85,"name":"Kepler_62f","steam_id":76561199005732555,"connected_time":509000000000,"state":"active","ping":77},{"user_id":59,"name":"duplicated","steam_id":76561198344952248,"connected_time":1720000000000,"state":"active","ping":63},{"user_id":86,"name":"Qdarks","steam_id":76561198013391340,"connected_time":505000000000,"state":"active","ping":130},{"user_id":65,"name":"Cloak and Dagger enjoyer","steam_id":76561199159885723,"connected_time":1432000000000,"state":"active","ping":107},{"user_id":22,"name":"yuck","steam_id":76561197987249568,"connected_time":2999000000000,"state":"active","ping":97},{"user_id":76,"name":"Jack_26","steam_id":76561198034566531,"connected_time":852000000000,"state":"active","ping":97},{"user_id":90,"name":"Ducky[WADZ]","steam_id":76561198060341245,"connected_time":285000000000,"state":"active","ping":71},{"user_id":27,"name":"night.s","steam_id":76561198326287823,"connected_time":2643000000000,"state":"active","ping":75},{"user_id":29,"name":"Lewylow","steam_id":76561198005425686,"connected_time":2530000000000,"state":"active","ping":52},{"user_id":69,"name":"CamodronV2","steam_id":76561198353415237,"connected_time":1317000000000,"state":"active","ping":62},{"user_id":73,"name":"Swanky","steam_id":76561198033898548,"connected_time":1075000000000,"state":"active","ping":58},{"user_id":91,"name":"kraftec","steam_id":76561198067990185,"connected_time":283000000000,"state":"active","ping":60}]},{"server_id":114,"name":"Uncletopia | London | 2 | All Maps","name_short":"lon-2","host":"lon-1.uk.uncletopia.com","port":27025,"enabled":true,"region":"eu","cc":"gb","latitude":51.509865,"longitude":-0.118092,"reserved":0,"last_update":"0001-01-01T00:00:00Z","name_a2s":"Uncletopia | London | 2 | All Maps","protocol":17,"map":"cp_snakewater_final1","folder":"tf","game":"Team Fortress","app_id":440,"player_count":0,"max_players":24,"Bots":0,"server_type":"Dedicated","server_os":"Linux","password":true,"vac":true,"version":"7961495","steam_id":85568392924470941,"keywords":["cp","nocrits","nodmgspread","uncletopia"],"game_id":440,"stv_port":27026,"stv_name":"Uncletopia | London | 2 | All Maps | STV","players":null},{"server_id":320,"name":"Uncletopia | London | 3 | All Maps","name_short":"lon-3","host":"lon-1.uk.uncletopia.com","port":27035,"enabled":true,"region":"eu","cc":"gb","latitude":51.509865,"longitude":-0.118092,"reserved":0,"last_update":"0001-01-01T00:00:00Z","name_a2s":"Uncletopia | London | 3 | All Maps","protocol":17,"map":"pl_pier","folder":"tf","game":"Team Fortress","app_id":440,"player_count":0,"max_players":24,"Bots":0,"server_type":"Dedicated","server_os":"Linux","password":true,"vac":true,"version":"7961495","steam_id":85568392924510192,"keywords":["nocrits","nodmgspread","payload","uncletopia"],"game_id":440,"stv_port":27036,"stv_name":"Uncletopia | London | 3 | All Maps | STV","players":null},{"server_id":321,"name":"Uncletopia | London | 4 | All Maps","name_short":"lon-4","host":"lon-1.uk.uncletopia.com","port":27045,"enabled":true,"region":"eu","cc":"gb","latitude":51.509865,"longitude":-0.118092,"reserved":0,"last_update":"0001-01-01T00:00:00Z","name_a2s":"Uncletopia | London | 4 | All Maps","protocol":17,"map":"koth_viaduct","folder":"tf","game":"Team Fortress","app_id":440,"player_count":0,"max_players":24,"Bots":0,"server_type":"Dedicated","server_os":"Linux","password":true,"vac":true,"version":"7961495","steam_id":85568392924510193,"keywords":["cp","nocrits","nodmgspread","uncletopia"],"game_id":440,"stv_port":27046,"stv_name":"Uncletopia | London | 4 | All Maps | STV","players":null},{"server_id":21,"name":"Uncletopia | London | 5 | All Maps","name_short":"lon-5","host":"lon-1.uk.uncletopia.com","port":27055,"enabled":true,"region":"eu","cc":"gb","latitude":51.509865,"longitude":-0.118092,"reserved":0,"last_update":"0001-01-01T00:00:00Z","name_a2s":"Uncletopia | London | 5 | All Maps","protocol":17,"map":"pl_barnblitz","folder":"tf","game":"Team Fortress","app_id":440,"player_count":0,"max_players":24,"Bots":0,"server_type":"Dedicated","server_os":"Linux","password":true,"vac":true,"version":"7961495","steam_id":85568392924742829,"keywords":["nocrits","nodmgspread","payload","uncletopia"],"game_id":440,"stv_port":27056,"stv_name":"Uncletopia | London | 5 | All Maps | STV","players":null},{"server_id":22,"name":"Uncletopia | London | 6 | All Maps","name_short":"lon-6","host":"lon-1.uk.uncletopia.com","port":27065,"enabled":true,"region":"eu","cc":"gb","latitude":51.509865,"longitude":-0.118092,"reserved":0,"last_update":"0001-01-01T00:00:00Z","name_a2s":"Uncletopia | London | 6 | All Maps","protocol":17,"map":"pl_borneo","folder":"tf","game":"Team Fortress","app_id":440,"player_count":0,"max_players":24,"Bots":0,"server_type":"Dedicated","server_os":"Linux","password":true,"vac":true,"version":"7961495","steam_id":85568392924742830,"keywords":["nocrits","nodmgspread","payload","uncletopia"],"game_id":440,"stv_port":27066,"stv_name":"Uncletopia | London | 6 | All Maps | STV","players":null},{"server_id":40,"name":"Uncletopia | London | 7 | No Payload","name_short":"lon-7","host":"lon-1.uk.uncletopia.com","port":27075,"enabled":true,"region":"eu","cc":"gb","latitude":51.509865,"longitude":-0.118092,"reserved":0,"last_update":"0001-01-01T00:00:00Z","name_a2s":"Uncletopia | London | 7 | No Payload","protocol":17,"map":"pl_pier","folder":"tf","game":"Team Fortress","app_id":440,"player_count":0,"max_players":24,"Bots":0,"server_type":"Dedicated","server_os":"Linux","password":true,"vac":true,"version":"7961495","steam_id":85568392924964314,"keywords":["nocrits","nodmgspread","payload","uncletopia"],"game_id":440,"stv_port":27076,"stv_name":"Uncletopia | London | 7 | No Payload | STV","players":null},{"server_id":41,"name":"Uncletopia | London | 8 | Community","name_short":"lon-8","host":"lon-1.uk.uncletopia.com","port":27085,"enabled":true,"region":"eu","cc":"gb","latitude":51.509865,"longitude":-0.118092,"reserved":0,"last_update":"0001-01-01T00:00:00Z","name_a2s":"Uncletopia | London | 8 | Community","protocol":17,"map":"pl_borneo","folder":"tf","game":"Team Fortress","app_id":440,"player_count":0,"max_players":24,"Bots":0,"server_type":"Dedicated","server_os":"Linux","password":true,"vac":true,"version":"7961495","steam_id":85568392924964315,"keywords":["nocrits","nodmgspread","payload","uncletopia"],"game_id":440,"stv_port":27086,"stv_name":"Uncletopia | London | 8 | Community | STV","players":null},{"server_id":300,"name":"Uncletopia | MontrÃ©al | 1 | All Maps","name_short":"mtl-1","host":"mtl-1.ca.uncletopia.com","port":27015,"enabled":true,"region":"us-east","cc":"ca","latitude":45.50889,"longitude":-73.56167,"reserved":0,"last_update":"0001-01-01T00:00:00Z","name_a2s":"Uncletopia | MontrÃ©al | 1 | All Maps","protocol":17,"map":"koth_highpass","folder":"tf","game":"Team Fortress","app_id":440,"player_count":0,"max_players":24,"Bots":0,"server_type":"Dedicated","server_os":"Linux","password":true,"vac":true,"version":"7961495","steam_id":85568392924500087,"keywords":["cp","nocrits","nodmgspread","uncletopia"],"game_id":440,"stv_port":27016,"stv_name":"Uncletopia | MontrÃ©al | 1 | All Maps | STV","players":null},{"server_id":301,"name":"Uncletopia | MontrÃ©al | 2 | All Maps","name_short":"mtl-2","host":"mtl-1.ca.uncletopia.com","port":27025,"enabled":true,"region":"us-east","cc":"ca","latitude":45.50889,"longitude":-73.56167,"reserved":0,"last_update":"0001-01-01T00:00:00Z","name_a2s":"Uncletopia | MontrÃ©al | 2 | All Maps","protocol":17,"map":"pl_swiftwater_final1","folder":"tf","game":"Team Fortress","app_id":440,"player_count":0,"max_players":24,"Bots":0,"server_type":"Dedicated","server_os":"Linux","password":true,"vac":true,"version":"7961495","steam_id":85568392924500088,"keywords":["nocrits","nodmgspread","payload","uncletopia"],"game_id":440,"stv_port":27026,"stv_name":"Uncletopia | MontrÃ©al | 2 | All Maps | STV","players":null},{"server_id":302,"name":"Uncletopia | MontrÃ©al | 3 | All Maps","name_short":"mtl-3","host":"mtl-1.ca.uncletopia.com","port":27035,"enabled":true,"region":"us-east","cc":"ca","latitude":45.50889,"longitude":-73.56167,"reserved":0,"last_update":"0001-01-01T00:00:00Z","name_a2s":"Uncletopia | MontrÃ©al | 3 | All Maps","protocol":17,"map":"koth_cascade","folder":"tf","game":"Team Fortress","app_id":440,"player_count":0,"max_players":24,"Bots":0,"server_type":"Dedicated","server_os":"Linux","password":true,"vac":true,"version":"7961495","steam_id":85568392924500089,"keywords":["cp","nocrits","nodmgspread","uncletopia"],"game_id":440,"stv_port":27036,"stv_name":"Uncletopia | MontrÃ©al | 3 | All Maps | STV","players":null},{"server_id":303,"name":"Uncletopia | MontrÃ©al | 4 | No Payload","name_short":"mtl-4","host":"mtl-1.ca.uncletopia.com","port":27045,"enabled":true,"region":"us-east","cc":"ca","latitude":45.50889,"longitude":-73.56167,"reserved":0,"last_update":"0001-01-01T00:00:00Z","name_a2s":"Uncletopia | MontrÃ©al | 4 | No Payload","protocol":17,"map":"koth_lakeside_final","folder":"tf","game":"Team Fortress","app_id":440,"player_count":0,"max_players":24,"Bots":0,"server_type":"Dedicated","server_os":"Linux","password":true,"vac":true,"version":"7961495","steam_id":85568392924500090,"keywords":["cp","nocrits","nodmgspread","uncletopia"],"game_id":440,"stv_port":27046,"stv_name":"Uncletopia | MontrÃ©al | 4 | No Payload | STV","players":null},{"server_id":13,"name":"Uncletopia | New York City | 1 | All Maps","name_short":"nyc-1","host":"nyc-1.us.uncletopia.com","port":27015,"enabled":true,"region":"us-east","cc":"us","latitude":40.73061,"longitude":-73.93524,"reserved":0,"last_update":"0001-01-01T00:00:00Z","name_a2s":"Uncletopia | New York City | 1 | All Maps","protocol":17,"map":"pl_upward","folder":"tf","game":"Team Fortress","app_id":440,"player_count":24,"max_players":24,"Bots":0,"server_type":"Dedicated","server_os":"Linux","password":true,"vac":true,"version":"7961495","steam_id":85568392924469993,"keywords":["nocrits","nodmgspread","payload","uncletopia"],"game_id":440,"stv_port":27016,"stv_name":"Uncletopia | New York City | 1 | All Maps | STV","players":[{"user_id":719,"name":"WhoThoughtWeWould","steam_id":76561199207409559,"connected_time":1609000000000,"state":"active","ping":78},{"user_id":711,"name":"why would anyone want me","steam_id":76561198445249255,"connected_time":3080000000000,"state":"active","ping":74},{"user_id":640,"name":"Zero","steam_id":76561198033384990,"connected_time":8456000000000,"state":"active","ping":57},{"user_id":701,"name":"Idiot Sandwich","steam_id":76561198393478716,"connected_time":3522000000000,"state":"active","ping":140},{"user_id":727,"name":"Bewen","steam_id":76561198325334261,"connected_time":487000000000,"state":"active","ping":44},{"user_id":707,"name":"wise","steam_id":76561198030066204,"connected_time":3329000000000,"state":"active","ping":40},{"user_id":715,"name":"Fever Dreams","steam_id":76561198116614620,"connected_time":2346000000000,"state":"active","ping":81},{"user_id":720,"name":"KingOfQuarries","steam_id":76561198084377713,"connected_time":1593000000000,"state":"active","ping":120},{"user_id":697,"name":"PieSpie","steam_id":76561198054531169,"connected_time":3882000000000,"state":"active","ping":81},{"user_id":721,"name":"wow120000000000000098","steam_id":76561198016826181,"connected_time":1551000000000,"state":"active","ping":51},{"user_id":678,"name":"aversa","steam_id":76561198840460101,"connected_time":6394000000000,"state":"active","ping":52},{"user_id":722,"name":"Ludcmorais","steam_id":76561198359217809,"connected_time":1493000000000,"state":"active","ping":173},{"user_id":704,"name":"Jo","steam_id":76561198078700131,"connected_time":3378000000000,"state":"active","ping":63},{"user_id":642,"name":"Galaga","steam_id":76561198076040225,"connected_time":8441000000000,"state":"active","ping":49},{"user_id":723,"name":"zpalmtree","steam_id":76561198134307620,"connected_time":1477000000000,"state":"active","ping":72},{"user_id":726,"name":"á—œË¬á—œ","steam_id":76561198049076233,"connected_time":516000000000,"state":"active","ping":56},{"user_id":718,"name":"Random","steam_id":76561198318879454,"connected_time":1795000000000,"state":"active","ping":65},{"user_id":632,"name":"space man","steam_id":76561198066333670,"connected_time":9086000000000,"state":"active","ping":75},{"user_id":728,"name":"Person","steam_id":76561198093244204,"connected_time":435000000000,"state":"active","ping":65},{"user_id":705,"name":"lisa","steam_id":76561198077865043,"connected_time":3357000000000,"state":"active","ping":68},{"user_id":725,"name":"Isilawuli","steam_id":76561198084150503,"connected_time":951000000000,"state":"active","ping":50},{"user_id":644,"name":"dilfbot","steam_id":76561198099988165,"connected_time":8428000000000,"state":"active","ping":91},{"user_id":709,"name":"ChatGPT Generated Username","steam_id":76561198127818333,"connected_time":3304000000000,"state":"active","ping":73},{"user_id":717,"name":"Pooch","steam_id":76561198011683299,"connected_time":2103000000000,"state":"active","ping":93}]},{"server_id":14,"name":"Uncletopia | New York City | 2 | All Maps","name_short":"nyc-2","host":"nyc-1.us.uncletopia.com","port":27025,"enabled":true,"region":"us-east","cc":"us","latitude":40.73061,"longitude":-73.93524,"reserved":0,"last_update":"0001-01-01T00:00:00Z","name_a2s":"Uncletopia | New York City | 2 | All Maps","protocol":17,"map":"cp_powerhouse","folder":"tf","game":"Team Fortress","app_id":440,"player_count":2,"max_players":24,"Bots":0,"server_type":"Dedicated","server_os":"Linux","password":true,"vac":true,"version":"7961495","steam_id":85568392924469994,"keywords":["cp","nocrits","nodmgspread","uncletopia"],"game_id":440,"stv_port":27026,"stv_name":"Uncletopia | New York City | 2 | All Maps | STV","players":[{"user_id":573,"name":"Spongyfall","steam_id":76561198053126208,"connected_time":835000000000,"state":"active","ping":65},{"user_id":575,"name":"Guitar's Tomboy","steam_id":76561198055614462,"connected_time":806000000000,"state":"active","ping":74}]},{"server_id":15,"name":"Uncletopia | New York City | 3 | Stopwatch Beta","name_short":"nyc-3","host":"nyc-1.us.uncletopia.com","port":27035,"enabled":true,"region":"us-east","cc":"us","latitude":40.73061,"longitude":-73.93524,"reserved":0,"last_update":"0001-01-01T00:00:00Z","name_a2s":"Uncletopia | New York City | 3 | Stopwatch Beta","protocol":17,"map":"workshop/koth_ramjam_rc1.ugc459778887","folder":"tf","game":"Team Fortress","app_id":440,"player_count":0,"max_players":24,"Bots":0,"server_type":"Dedicated","server_os":"Linux","password":true,"vac":true,"version":"7961495","steam_id":85568392924742820,"keywords":["cp","nocrits","nodmgspread","uncletopia"],"game_id":440,"stv_port":27036,"stv_name":"Uncletopia | New York City | 3 | Stopwatch Beta | STV","players":null},{"server_id":16,"name":"Uncletopia | New York City | 4 | Community","name_short":"nyc-4","host":"nyc-1.us.uncletopia.com","port":27045,"enabled":true,"region":"us-east","cc":"us","latitude":40.73061,"longitude":-73.93524,"reserved":0,"last_update":"0001-01-01T00:00:00Z","name_a2s":"Uncletopia | New York City | 4 | Community","protocol":17,"map":"workshop/koth_slaughter_rc1.ugc1712845210","folder":"tf","game":"Team Fortress","app_id":440,"player_count":0,"max_players":24,"Bots":0,"server_type":"Dedicated","server_os":"Linux","password":true,"vac":true,"version":"7961495","steam_id":85568392924742821,"keywords":["cp","nocrits","nodmgspread","uncletopia"],"game_id":440,"stv_port":27046,"stv_name":"Uncletopia | New York City | 4 | Community | STV","players":null},{"server_id":142,"name":"Uncletopia | SÃ£o Paulo | 1 | All Maps","name_short":"sao-1","host":"sao-1.br.uncletopia.com","port":27015,"enabled":true,"region":"sa","cc":"br","latitude":-23.533773,"longitude":-46.62529,"reserved":0,"last_update":"0001-01-01T00:00:00Z","name_a2s":"Uncletopia | SÃ£o Paulo | 1 | All Maps","protocol":17,"map":"pl_borneo","folder":"tf","game":"Team Fortress","app_id":440,"player_count":0,"max_players":24,"Bots":0,"server_type":"Dedicated","server_os":"Linux","password":true,"vac":true,"version":"7961495","steam_id":85568392924469996,"keywords":["nocrits","nodmgspread","payload","uncletopia"],"game_id":440,"stv_port":27016,"stv_name":"Uncletopia | SÃ£o Paulo | 1 | All Maps | STV","players":null},{"server_id":143,"name":"Uncletopia | SÃ£o Paulo | 2 | Community","name_short":"sao-2","host":"sao-2.br.uncletopia.com","port":27015,"enabled":true,"region":"sa","cc":"br","latitude":-23.533773,"longitude":-46.62529,"reserved":0,"last_update":"0001-01-01T00:00:00Z","name_a2s":"Uncletopia | SÃ£o Paulo | 2 | Community","protocol":17,"map":"workshop/koth_kemptown_rc1.ugc767410655","folder":"tf","game":"Team Fortress","app_id":440,"player_count":0,"max_players":24,"Bots":0,"server_type":"Dedicated","server_os":"Linux","password":true,"vac":true,"version":"7961495","steam_id":85568392924485349,"keywords":["cp","nocrits","nodmgspread","uncletopia"],"game_id":440,"stv_port":27016,"stv_name":"Uncletopia | SÃ£o Paulo | 2 | Community | STV","players":null},{"server_id":7,"name":"Uncletopia | Seattle | 1 | All Maps","name_short":"sea-1","host":"sea-1.us.uncletopia.com","port":27015,"enabled":true,"region":"us-west","cc":"us","latitude":47.608013,"longitude":-122.33517,"reserved":0,"last_update":"0001-01-01T00:00:00Z","name_a2s":"Uncletopia | Seattle | 1 | All Maps","protocol":17,"map":"pl_badwater","folder":"tf","game":"Team Fortress","app_id":440,"player_count":24,"max_players":24,"Bots":0,"server_type":"Dedicated","server_os":"Linux","password":true,"vac":true,"version":"7961495","steam_id":85568392924469997,"keywords":["nocrits","nodmgspread","payload","uncletopia"],"game_id":440,"stv_port":27016,"stv_name":"Uncletopia | Seattle | 1 | All Maps | STV","players":[{"user_id":589,"name":"Finkly","steam_id":76561198049828110,"connected_time":4080000000000,"state":"active","ping":44},{"user_id":489,"name":"ismellgood","steam_id":76561199005142939,"connected_time":12074000000000,"state":"active","ping":70},{"user_id":681,"name":"john.","steam_id":76561198982939658,"connected_time":548000000000,"state":"active","ping":90},{"user_id":664,"name":"Inflight","steam_id":76561198920049475,"connected_time":2469000000000,"state":"active","ping":109},{"user_id":671,"name":"squash","steam_id":76561198150281353,"connected_time":1283000000000,"state":"active","ping":57},{"user_id":640,"name":"lusty","steam_id":76561198138478947,"connected_time":2857000000000,"state":"active","ping":34},{"user_id":633,"name":"lasky","steam_id":76561198017030029,"connected_time":3073000000000,"state":"active","ping":71},{"user_id":676,"name":"HotHead","steam_id":76561198138468982,"connected_time":720000000000,"state":"active","ping":44},{"user_id":659,"name":"MxProf","steam_id":76561198044519572,"connected_time":2561000000000,"state":"active","ping":59},{"user_id":672,"name":"Arsonist Goose","steam_id":76561198147441830,"connected_time":1184000000000,"state":"active","ping":69},{"user_id":666,"name":"Craftyjumper","steam_id":76561198126421562,"connected_time":2189000000000,"state":"active","ping":112},{"user_id":679,"name":"Yack Skag","steam_id":76561198068251493,"connected_time":653000000000,"state":"active","ping":68},{"user_id":586,"name":"mub","steam_id":76561197961943948,"connected_time":4469000000000,"state":"active","ping":45},{"user_id":670,"name":"Fallen","steam_id":76561198206490352,"connected_time":1570000000000,"state":"active","ping":84},{"user_id":574,"name":"NEBULA","steam_id":76561198086878595,"connected_time":5519000000000,"state":"active","ping":71},{"user_id":680,"name":"Closed.","steam_id":76561198212598967,"connected_time":572000000000,"state":"active","ping":81},{"user_id":678,"name":"reiidaya","steam_id":76561198325306660,"connected_time":698000000000,"state":"active","ping":56},{"user_id":562,"name":"louie, flutes dad","steam_id":76561198168084763,"connected_time":5883000000000,"state":"active","ping":46},{"user_id":602,"name":"Translucentà«®â‚ â€¢ á´¥ â€¢","steam_id":76561199212057076,"connected_time":3693000000000,"state":"active","ping":75},{"user_id":668,"name":"Joe Blow","steam_id":76561198037700673,"connected_time":1624000000000,"state":"active","ping":56},{"user_id":607,"name":"Emily50AE","steam_id":76561198088619665,"connected_time":3421000000000,"state":"active","ping":87},{"user_id":675,"name":"Ayayayayayahuasca","steam_id":76561199002906056,"connected_time":877000000000,"state":"active","ping":56},{"user_id":604,"name":"Villchip","steam_id":76561198198599982,"connected_time":3595000000000,"state":"active","ping":56},{"user_id":580,"name":"roryisonamobilehotspot","steam_id":76561198065825165,"connected_time":5226000000000,"state":"active","ping":104}]},{"server_id":119,"name":"Uncletopia | Seattle | 2 | All Maps","name_short":"sea-2","host":"sea-1.us.uncletopia.com","port":27025,"enabled":true,"region":"us-west","cc":"us","latitude":47.608013,"longitude":-122.33517,"reserved":0,"last_update":"0001-01-01T00:00:00Z","name_a2s":"Uncletopia | Seattle | 2 | All Maps","protocol":17,"map":"pl_badwater","folder":"tf","game":"Team Fortress","app_id":440,"player_count":24,"max_players":24,"Bots":0,"server_type":"Dedicated","server_os":"Linux","password":true,"vac":true,"version":"7961495","steam_id":85568392924469998,"keywords":["nocrits","nodmgspread","payload","uncletopia"],"game_id":440,"stv_port":27026,"stv_name":"Uncletopia | Seattle | 2 | All Maps | STV","players":[{"user_id":805,"name":"lil boogie","steam_id":76561198064059721,"connected_time":537000000000,"state":"active","ping":45},{"user_id":793,"name":"Lump man","steam_id":76561198288198932,"connected_time":2098000000000,"state":"active","ping":47},{"user_id":807,"name":"Keamy","steam_id":76561199471434875,"connected_time":419000000000,"state":"active","ping":41},{"user_id":806,"name":"Tritium","steam_id":76561198043305626,"connected_time":434000000000,"state":"active","ping":77},{"user_id":792,"name":"Sly Marbo","steam_id":76561198135271741,"connected_time":2101000000000,"state":"active","ping":54},{"user_id":775,"name":"liam","steam_id":76561198046239819,"connected_time":4048000000000,"state":"active","ping":54},{"user_id":788,"name":"Irritated Duck","steam_id":76561198247792076,"connected_time":3001000000000,"state":"active","ping":112},{"user_id":730,"name":"Lucas","steam_id":76561198399704604,"connected_time":8962000000000,"state":"active","ping":81},{"user_id":800,"name":"EforEstrogen","steam_id":76561198086787295,"connected_time":1599000000000,"state":"active","ping":53},{"user_id":779,"name":"Megatron G","steam_id":76561198168864083,"connected_time":3746000000000,"state":"active","ping":45},{"user_id":808,"name":"Degreaser pyros arent real peop","steam_id":76561199093733603,"connected_time":408000000000,"state":"active","ping":85},{"user_id":794,"name":"DAYTONA","steam_id":76561198061975847,"connected_time":2096000000000,"state":"active","ping":82},{"user_id":739,"name":"Immortal8Reaper","steam_id":76561198297661559,"connected_time":8254000000000,"state":"active","ping":97},{"user_id":721,"name":"never knows best","steam_id":76561197989933601,"connected_time":9975000000000,"state":"active","ping":60},{"user_id":780,"name":"bluedaproto","steam_id":76561199000149623,"connected_time":3702000000000,"state":"active","ping":107},{"user_id":740,"name":"The_Skull","steam_id":76561198121244647,"connected_time":8244000000000,"state":"active","ping":134},{"user_id":754,"name":"sonks","steam_id":76561198028398745,"connected_time":6513000000000,"state":"active","ping":60},{"user_id":803,"name":"Trueno","steam_id":76561199080515661,"connected_time":1363000000000,"state":"active","ping":48},{"user_id":741,"name":"Toddinator","steam_id":76561198303329028,"connected_time":8205000000000,"state":"active","ping":77},{"user_id":785,"name":"EdxTheFig","steam_id":76561198108650109,"connected_time":3334000000000,"state":"active","ping":74},{"user_id":747,"name":"chickenburger","steam_id":76561198052576801,"connected_time":7571000000000,"state":"active","ping":111},{"user_id":789,"name":"Mapachito Lindo","steam_id":76561198031359995,"connected_time":2191000000000,"state":"active","ping":46},{"user_id":782,"name":"nae nae goblin68","steam_id":76561199115259028,"connected_time":3608000000000,"state":"active","ping":65},{"user_id":801,"name":"Apollo","steam_id":76561198162364702,"connected_time":1568000000000,"state":"active","ping":49}]},{"server_id":406,"name":"Uncletopia | Seattle | 3 | Stopwatch Beta","name_short":"sea-3","host":"sea-1.us.uncletopia.com","port":27035,"enabled":true,"region":"us-west","cc":"us","latitude":47.608013,"longitude":-122.33517,"reserved":0,"last_update":"0001-01-01T00:00:00Z","name_a2s":"Uncletopia | Seattle | 3 | Stopwatch Beta","protocol":17,"map":"koth_lakeside_final","folder":"tf","game":"Team Fortress","app_id":440,"player_count":0,"max_players":24,"Bots":0,"server_type":"Dedicated","server_os":"Linux","password":true,"vac":true,"version":"7961495","steam_id":85568392924515217,"keywords":["cp","nocrits","nodmgspread","uncletopia"],"game_id":440,"stv_port":27036,"stv_name":"Uncletopia | Seattle | 3 | Stopwatch Beta | STV","players":null},{"server_id":17,"name":"Uncletopia | San Francisco | 1 | All Maps","name_short":"sfo-1","host":"sfo-1.us.uncletopia.com","port":27015,"enabled":true,"region":"us-west","cc":"us","latitude":37.77397,"longitude":-122.4313,"reserved":0,"last_update":"0001-01-01T00:00:00Z","name_a2s":"Uncletopia | San Francisco | 1 | All Maps","protocol":17,"map":"pl_pier","folder":"tf","game":"Team Fortress","app_id":440,"player_count":24,"max_players":24,"Bots":0,"server_type":"Dedicated","server_os":"Linux","password":true,"vac":true,"version":"7961495","steam_id":85568392924469999,"keywords":["nocrits","nodmgspread","payload","uncletopia"],"game_id":440,"stv_port":27016,"stv_name":"Uncletopia | San Francisco | 1 | All Maps | STV","players":[{"user_id":214,"name":"riSygneD","steam_id":76561198331618687,"connected_time":5716000000000,"state":"active","ping":45},{"user_id":299,"name":"ElectronX","steam_id":76561198116034988,"connected_time":419000000000,"state":"active","ping":58},{"user_id":300,"name":"fitotutus","steam_id":76561197974993253,"connected_time":373000000000,"state":"active","ping":168},{"user_id":302,"name":"vulcan nightclub pon farr night","steam_id":76561197974283797,"connected_time":355000000000,"state":"active","ping":108},{"user_id":303,"name":"Ssamjang","steam_id":76561197966891870,"connected_time":335000000000,"state":"active","ping":67},{"user_id":293,"name":"nella","steam_id":76561198079349621,"connected_time":919000000000,"state":"active","ping":57},{"user_id":278,"name":"Human Resources Manager","steam_id":76561198066386411,"connected_time":2546000000000,"state":"active","ping":63},{"user_id":235,"name":"NEÐ¯O","steam_id":76561197965450216,"connected_time":4388000000000,"state":"active","ping":73},{"user_id":306,"name":"1000 Ping","steam_id":76561198098330939,"connected_time":257000000000,"state":"active","ping":85},{"user_id":271,"name":"InvaderAlex","steam_id":76561198039232451,"connected_time":2727000000000,"state":"active","ping":100},{"user_id":305,"name":"Escher","steam_id":76561198045058061,"connected_time":294000000000,"state":"active","ping":60},{"user_id":270,"name":"Raian","steam_id":76561199138048671,"connected_time":2747000000000,"state":"active","ping":48},{"user_id":307,"name":"Scorcho","steam_id":76561198071413833,"connected_time":218000000000,"state":"active","ping":77},{"user_id":295,"name":"PS2","steam_id":76561198108799902,"connected_time":715000000000,"state":"active","ping":102},{"user_id":252,"name":"Gerbias","steam_id":76561198001002427,"connected_time":3525000000000,"state":"active","ping":59},{"user_id":308,"name":"zinqi","steam_id":76561198376838848,"connected_time":193000000000,"state":"active","ping":145},{"user_id":289,"name":"SoldMyKidneyForCollege","steam_id":76561198096329559,"connected_time":1682000000000,"state":"active","ping":43},{"user_id":294,"name":"||BassMan||","steam_id":76561198279865229,"connected_time":859000000000,"state":"active","ping":81},{"user_id":310,"name":"KrylonHeretic","steam_id":76561198139811459,"connected_time":30000000000,"state":"active","ping":67},{"user_id":291,"name":"Bobby Ray","steam_id":76561198044131188,"connected_time":1441000000000,"state":"active","ping":65},{"user_id":297,"name":"â™ Silverâ™ ","steam_id":76561198206109224,"connected_time":546000000000,"state":"active","ping":125},{"user_id":309,"name":"AceSea","steam_id":76561198851176490,"connected_time":176000000000,"state":"active","ping":39},{"user_id":277,"name":"Manchurian Bandit","steam_id":76561198072410042,"connected_time":2617000000000,"state":"active","ping":310},{"user_id":287,"name":"Paper Clipp","steam_id":76561199065796296,"connected_time":1757000000000,"state":"active","ping":54}]},{"server_id":18,"name":"Uncletopia | San Francisco | 2 | All Maps","name_short":"sfo-2","host":"sfo-1.us.uncletopia.com","port":27025,"enabled":true,"region":"us-west","cc":"us","latitude":37.77397,"longitude":-122.4313,"reserved":0,"last_update":"0001-01-01T00:00:00Z","name_a2s":"Uncletopia | San Francisco | 2 | All Maps","protocol":17,"map":"cp_mountainlab","folder":"tf","game":"Team Fortress","app_id":440,"player_count":22,"max_players":24,"Bots":0,"server_type":"Dedicated","server_os":"Linux","password":true,"vac":true,"version":"7961495","steam_id":85568392924470000,"keywords":["cp","nocrits","nodmgspread","uncletopia"],"game_id":440,"stv_port":27026,"stv_name":"Uncletopia | San Francisco | 2 | All Maps | STV","players":[{"user_id":297,"name":"Mr. Boombox","steam_id":76561198070609120,"connected_time":721000000000,"state":"active","ping":100},{"user_id":277,"name":"achoo","steam_id":76561198009091066,"connected_time":1890000000000,"state":"active","ping":60},{"user_id":269,"name":"Carrol","steam_id":76561198316384960,"connected_time":2231000000000,"state":"active","ping":78},{"user_id":311,"name":"Nine Inch Ð˜ipples","steam_id":76561198149413947,"connected_time":212000000000,"state":"active","ping":61},{"user_id":253,"name":"Killroy NQP â¤","steam_id":76561198006983771,"connected_time":2598000000000,"state":"active","ping":110},{"user_id":300,"name":"Arcy","steam_id":76561198237030056,"connected_time":644000000000,"state":"active","ping":63},{"user_id":304,"name":"Jill","steam_id":76561198097398193,"connected_time":535000000000,"state":"active","ping":45},{"user_id":301,"name":"PROFILE NAME","steam_id":76561199438851854,"connected_time":621000000000,"state":"active","ping":88},{"user_id":272,"name":"banan team fortes","steam_id":76561199073621650,"connected_time":2144000000000,"state":"active","ping":60},{"user_id":303,"name":"moopmop","steam_id":76561198065224965,"connected_time":544000000000,"state":"active","ping":60},{"user_id":305,"name":"CaiGaming","steam_id":76561198313023508,"connected_time":516000000000,"state":"active","ping":54},{"user_id":306,"name":"Seanvich","steam_id":76561198065805500,"connected_time":511000000000,"state":"active","ping":100},{"user_id":294,"name":"crankshaft","steam_id":76561197992798282,"connected_time":1055000000000,"state":"active","ping":49},{"user_id":256,"name":"Cringys","steam_id":76561199029812838,"connected_time":2525000000000,"state":"active","ping":76},{"user_id":273,"name":"sergeant Adderall","steam_id":76561199010296481,"connected_time":2137000000000,"state":"active","ping":134},{"user_id":312,"name":"chocky","steam_id":76561198057491296,"connected_time":83000000000,"state":"active","ping":71},{"user_id":274,"name":"tr","steam_id":76561198046944222,"connected_time":2091000000000,"state":"active","ping":64},{"user_id":307,"name":"kwetzal","steam_id":76561198845749671,"connected_time":496000000000,"state":"active","ping":60},{"user_id":265,"name":"cold","steam_id":76561198353456379,"connected_time":2354000000000,"state":"active","ping":70},{"user_id":310,"name":"the jumpmister","steam_id":76561198173296047,"connected_time":353000000000,"state":"active","ping":52},{"user_id":313,"name":"Zanysnow","steam_id":76561198277849321,"connected_time":62000000000,"state":"active","ping":83},{"user_id":309,"name":"moe","steam_id":76561198929586245,"connected_time":437000000000,"state":"active","ping":54}]},{"server_id":19,"name":"Uncletopia | San Francisco | 3 | Stopwatch Beta","name_short":"sfo-3","host":"sfo-1.us.uncletopia.com","port":27035,"enabled":true,"region":"us-west","cc":"us","latitude":37.77397,"longitude":-122.4313,"reserved":0,"last_update":"0001-01-01T00:00:00Z","name_a2s":"Uncletopia | San Francisco | 3 | Stopwatch Beta","protocol":17,"map":"pl_borneo","folder":"tf","game":"Team Fortress","app_id":440,"player_count":0,"max_players":24,"Bots":0,"server_type":"Dedicated","server_os":"Linux","password":true,"vac":true,"version":"7961495","steam_id":85568392924742824,"keywords":["nocrits","nodmgspread","payload","uncletopia"],"game_id":440,"stv_port":27036,"stv_name":"Uncletopia | San Francisco | 3 | Stopwatch Beta | STV","players":null},{"server_id":20,"name":"Uncletopia | San Francisco | 4 | Community","name_short":"sfo-4","host":"sfo-1.us.uncletopia.com","port":27045,"enabled":true,"region":"us-west","cc":"us","latitude":37.77397,"longitude":-122.4313,"reserved":0,"last_update":"0001-01-01T00:00:00Z","name_a2s":"Uncletopia | San Francisco | 4 | Community","protocol":17,"map":"workshop/cp_mannbase_rc2a.ugc1900737467","folder":"tf","game":"Team Fortress","app_id":440,"player_count":24,"max_players":24,"Bots":0,"server_type":"Dedicated","server_os":"Linux","password":true,"vac":true,"version":"7961495","steam_id":85568392924742826,"keywords":["cp","nocrits","nodmgspread","uncletopia"],"game_id":440,"stv_port":27046,"stv_name":"Uncletopia | San Francisco | 4 | Community | STV","players":[{"user_id":387,"name":"BurR","steam_id":76561198055431367,"connected_time":1142000000000,"state":"active","ping":116},{"user_id":399,"name":"stellarscrubjay","steam_id":76561198043648175,"connected_time":219000000000,"state":"active","ping":82},{"user_id":402,"name":"WheelieChopper","steam_id":76561198070980426,"connected_time":148000000000,"state":"active","ping":133},{"user_id":390,"name":"Takyon","steam_id":76561198240014196,"connected_time":1112000000000,"state":"active","ping":46},{"user_id":271,"name":"Evenaris","steam_id":76561198087544319,"connected_time":10220000000000,"state":"active","ping":55},{"user_id":392,"name":"GLIMP","steam_id":76561198094429335,"connected_time":995000000000,"state":"active","ping":40},{"user_id":395,"name":"ButterNutz","steam_id":76561198122404516,"connected_time":566000000000,"state":"active","ping":93},{"user_id":393,"name":"C Sharp Minor","steam_id":76561199185191710,"connected_time":973000000000,"state":"active","ping":117},{"user_id":404,"name":"Maid 'n' China","steam_id":76561198423392976,"connected_time":54000000000,"state":"active","ping":51},{"user_id":376,"name":"G.bo","steam_id":76561198085176270,"connected_time":1836000000000,"state":"active","ping":56},{"user_id":397,"name":"Got It Figured Out","steam_id":76561198041329791,"connected_time":280000000000,"state":"active","ping":57},{"user_id":398,"name":"euphoricfilth","steam_id":76561198100160865,"connected_time":277000000000,"state":"active","ping":100},{"user_id":400,"name":"dAiLyGrInD","steam_id":76561198163531915,"connected_time":198000000000,"state":"active","ping":99},{"user_id":379,"name":"perc 10","steam_id":76561198116471653,"connected_time":1691000000000,"state":"active","ping":47},{"user_id":394,"name":"Nortel Network Telephone T7316","steam_id":76561198399261089,"connected_time":615000000000,"state":"active","ping":45},{"user_id":403,"name":"Shnakes","steam_id":76561198201649518,"connected_time":147000000000,"state":"active","ping":61},{"user_id":389,"name":"LtK","steam_id":76561197993180943,"connected_time":1123000000000,"state":"active","ping":75},{"user_id":383,"name":"Kasufert","steam_id":76561198068851740,"connected_time":1359000000000,"state":"active","ping":59},{"user_id":365,"name":"Optimore","steam_id":76561198047662990,"connected_time":3094000000000,"state":"active","ping":57},{"user_id":310,"name":"Cheezbeargur","steam_id":76561198164702899,"connected_time":7628000000000,"state":"active","ping":45},{"user_id":356,"name":"Trips","steam_id":76561198054581597,"connected_time":4015000000000,"state":"active","ping":47},{"user_id":396,"name":"lavender","steam_id":76561199069518286,"connected_time":565000000000,"state":"active","ping":52},{"user_id":358,"name":"Anthid","steam_id":76561198074493797,"connected_time":3574000000000,"state":"active","ping":64}]},{"server_id":141,"name":"Uncletopia | Sydney | 1 | All Maps","name_short":"syd-1","host":"syd-1.au.uncletopia.com","port":27015,"enabled":true,"region":"au","cc":"au","latitude":-33.865143,"longitude":151.2099,"reserved":0,"last_update":"0001-01-01T00:00:00Z","name_a2s":"Uncletopia | Sydney | 1 | All Maps","protocol":17,"map":"pl_upward","folder":"tf","game":"Team Fortress","app_id":440,"player_count":24,"max_players":24,"Bots":0,"server_type":"Dedicated","server_os":"Linux","password":true,"vac":true,"version":"7961495","steam_id":85568392924470001,"keywords":["nocrits","nodmgspread","payload","uncletopia"],"game_id":440,"stv_port":27016,"stv_name":"Uncletopia | Sydney | 1 | All Maps | STV","players":[{"user_id":11,"name":"EmpolÃ©","steam_id":76561198363939040,"connected_time":9909000000000,"state":"active","ping":72},{"user_id":113,"name":"Golfing with Joel","steam_id":76561199161637215,"connected_time":734000000000,"state":"active","ping":101},{"user_id":114,"name":"Pizza the Hut","steam_id":76561198406755720,"connected_time":615000000000,"state":"active","ping":60},{"user_id":106,"name":"Peteydog","steam_id":76561198376474981,"connected_time":992000000000,"state":"active","ping":31},{"user_id":97,"name":"Noble Chernobyl","steam_id":76561198011803825,"connected_time":1792000000000,"state":"active","ping":53},{"user_id":117,"name":"Glockenspe (She/Her)","steam_id":76561199184115241,"connected_time":346000000000,"state":"active","ping":54},{"user_id":99,"name":"Alex","steam_id":76561198020099643,"connected_time":1655000000000,"state":"active","ping":69},{"user_id":125,"name":"lavanderpumpernickle","steam_id":76561199093611800,"connected_time":111000000000,"state":"active","ping":62},{"user_id":73,"name":"TuaMater","steam_id":76561198021019008,"connected_time":3653000000000,"state":"active","ping":71},{"user_id":126,"name":"Denszeal","steam_id":76561198313718095,"connected_time":83000000000,"state":"active","ping":75},{"user_id":103,"name":"tauin","steam_id":76561198376995364,"connected_time":1288000000000,"state":"active","ping":101},{"user_id":105,"name":"Tortellini","steam_id":76561198219318141,"connected_time":1173000000000,"state":"active","ping":97},{"user_id":108,"name":"Turbo_dip","steam_id":76561198446508846,"connected_time":926000000000,"state":"active","ping":69},{"user_id":109,"name":"MrSpooder","steam_id":76561199029919742,"connected_time":889000000000,"state":"active","ping":46},{"user_id":118,"name":"2023 LandCruiser 300 VX","steam_id":76561198362051717,"connected_time":340000000000,"state":"active","ping":65},{"user_id":110,"name":"hive","steam_id":76561199099744527,"connected_time":877000000000,"state":"active","ping":46},{"user_id":56,"name":"viirv","steam_id":76561198190097862,"connected_time":4640000000000,"state":"active","ping":80},{"user_id":111,"name":"HYPER","steam_id":76561198302487295,"connected_time":822000000000,"state":"active","ping":44},{"user_id":112,"name":"big man","steam_id":76561198172606589,"connected_time":811000000000,"state":"active","ping":56},{"user_id":130,"name":"Oyabun","steam_id":76561198213013039,"connected_time":8000000000,"state":"spawning","ping":45},{"user_id":128,"name":"Guava?","steam_id":76561198841226950,"connected_time":56000000000,"state":"active","ping":74},{"user_id":95,"name":"DragonMaster7107","steam_id":76561198350135418,"connected_time":2040000000000,"state":"active","ping":45},{"user_id":78,"name":"Lucky Pineapple","steam_id":76561198880143328,"connected_time":3419000000000,"state":"active","ping":118},{"user_id":124,"name":"BruceWillis235","steam_id":76561198884324029,"connected_time":161000000000,"state":"active","ping":91}]},{"server_id":123,"name":"Uncletopia | Sydney | 2 | All Maps","name_short":"syd-2","host":"syd-1.au.uncletopia.com","port":27025,"enabled":true,"region":"au","cc":"au","latitude":-33.865143,"longitude":151.2099,"reserved":0,"last_update":"0001-01-01T00:00:00Z","name_a2s":"Uncletopia | Sydney | 2 | All Maps","protocol":17,"map":"koth_highpass","folder":"tf","game":"Team Fortress","app_id":440,"player_count":0,"max_players":24,"Bots":0,"server_type":"Dedicated","server_os":"Linux","password":true,"vac":true,"version":"7961495","steam_id":85568392924470002,"keywords":["cp","nocrits","nodmgspread","uncletopia"],"game_id":440,"stv_port":27026,"stv_name":"Uncletopia | Sydney | 2 | All Maps | STV","players":null},{"server_id":395,"name":"Uncletopia | Sydney | 3 | All Maps","name_short":"syd-3","host":"syd-1.au.uncletopia.com","port":27035,"enabled":true,"region":"au","cc":"au","latitude":-33.865143,"longitude":151.2099,"reserved":0,"last_update":"0001-01-01T00:00:00Z","name_a2s":"Uncletopia | Sydney | 3 | All Maps","protocol":17,"map":"cp_dustbowl","folder":"tf","game":"Team Fortress","app_id":440,"player_count":0,"max_players":24,"Bots":0,"server_type":"Dedicated","server_os":"Linux","password":true,"vac":true,"version":"7961495","steam_id":85568392925194467,"keywords":["cp","nocrits","nodmgspread","uncletopia"],"game_id":440,"stv_port":27036,"stv_name":"Uncletopia | Sydney | 3 | All Maps | STV","players":null},{"server_id":396,"name":"Uncletopia | Sydney | 4 | All Maps","name_short":"syd-4","host":"syd-1.au.uncletopia.com","port":27045,"enabled":true,"region":"au","cc":"au","latitude":-33.865143,"longitude":151.2099,"reserved":0,"last_update":"0001-01-01T00:00:00Z","name_a2s":"Uncletopia | Sydney | 4 | All Maps","protocol":17,"map":"cp_dustbowl","folder":"tf","game":"Team Fortress","app_id":440,"player_count":0,"max_players":24,"Bots":0,"server_type":"Dedicated","server_os":"Linux","password":true,"vac":true,"version":"7961495","steam_id":85568392925397958,"keywords":["cp","nocrits","nodmgspread","uncletopia"],"game_id":440,"stv_port":27046,"stv_name":"Uncletopia | Sydney | 4 | All Maps | STV","players":null},{"server_id":58,"name":"Uncletopia | Sydney | 5 | Stopwatch Beta","name_short":"syd-5","host":"syd-1.au.uncletopia.com","port":27055,"enabled":true,"region":"au","cc":"au","latitude":-33.865143,"longitude":151.2099,"reserved":0,"last_update":"0001-01-01T00:00:00Z","name_a2s":"Uncletopia | Sydney | 5 | Stopwatch Beta","protocol":17,"map":"cp_granary","folder":"tf","game":"Team Fortress","app_id":440,"player_count":0,"max_players":24,"Bots":0,"server_type":"Dedicated","server_os":"Linux","password":true,"vac":true,"version":"7961495","steam_id":85568392925397959,"keywords":["cp","nocrits","nodmgspread","uncletopia"],"game_id":440,"stv_port":27056,"stv_name":"Uncletopia | Sydney | 5 | Stopwatch Beta | STV","players":null},{"server_id":59,"name":"Uncletopia | Sydney | 6 | Community","name_short":"syd-6","host":"syd-1.au.uncletopia.com","port":27065,"enabled":true,"region":"au","cc":"au","latitude":-33.865143,"longitude":151.2099,"reserved":0,"last_update":"0001-01-01T00:00:00Z","name_a2s":"Uncletopia | Sydney | 6 | Community","protocol":17,"map":"koth_cascade","folder":"tf","game":"Team Fortress","app_id":440,"player_count":0,"max_players":24,"Bots":0,"server_type":"Dedicated","server_os":"Linux","password":true,"vac":true,"version":"7961495","steam_id":85568392925397960,"keywords":["cp","nocrits","nodmgspread","uncletopia"],"game_id":440,"stv_port":27066,"stv_name":"Uncletopia | Sydney | 6 | Community | STV","players":null},{"server_id":49,"name":"Uncletopia | Warsaw | 1 | All Maps","name_short":"waw-1","host":"waw-1.pl.uncletopia.com","port":27015,"enabled":true,"region":"eu","cc":"pl","latitude":52.2297,"longitude":21.017532,"reserved":0,"last_update":"0001-01-01T00:00:00Z","name_a2s":"Uncletopia | Warsaw | 1 | All Maps","protocol":17,"map":"pl_swiftwater_final1","folder":"tf","game":"Team Fortress","app_id":440,"player_count":0,"max_players":24,"Bots":0,"server_type":"Dedicated","server_os":"Linux","password":true,"vac":true,"version":"7961495","steam_id":85568392925397850,"keywords":["nocrits","nodmgspread","payload","uncletopia"],"game_id":440,"stv_port":27016,"stv_name":"Uncletopia | Warsaw | 1 | All Maps | STV","players":null},{"server_id":50,"name":"Uncletopia | Warsaw | 2 | All Maps","name_short":"waw-2","host":"waw-1.pl.uncletopia.com","port":27025,"enabled":true,"region":"eu","cc":"pl","latitude":52.2297,"longitude":21.017532,"reserved":0,"last_update":"0001-01-01T00:00:00Z","name_a2s":"Uncletopia | Warsaw | 2 | All Maps","protocol":17,"map":"cp_dustbowl","folder":"tf","game":"Team Fortress","app_id":440,"player_count":0,"max_players":24,"Bots":0,"server_type":"Dedicated","server_os":"Linux","password":true,"vac":true,"version":"7961495","steam_id":85568392925397851,"keywords":["cp","nocrits","nodmgspread","uncletopia"],"game_id":440,"stv_port":27026,"stv_name":"Uncletopia | Warsaw | 2 | All Maps | STV","players":null},{"server_id":51,"name":"Uncletopia | Warsaw | 3 | All Maps","name_short":"waw-3","host":"waw-1.pl.uncletopia.com","port":27035,"enabled":true,"region":"eu","cc":"pl","latitude":52.2297,"longitude":21.017532,"reserved":0,"last_update":"0001-01-01T00:00:00Z","name_a2s":"Uncletopia | Warsaw | 3 | All Maps","protocol":17,"map":"pl_upward","folder":"tf","game":"Team Fortress","app_id":440,"player_count":0,"max_players":24,"Bots":0,"server_type":"Dedicated","server_os":"Linux","password":true,"vac":true,"version":"7961495","steam_id":85568392925397852,"keywords":["nocrits","nodmgspread","payload","uncletopia"],"game_id":440,"stv_port":27036,"stv_name":"Uncletopia | Warsaw | 3 | All Maps | STV","players":null},{"server_id":52,"name":"Uncletopia | Warsaw | 4 | All Maps","name_short":"waw-4","host":"waw-1.pl.uncletopia.com","port":27045,"enabled":true,"region":"eu","cc":"pl","latitude":52.2297,"longitude":21.017532,"reserved":0,"last_update":"0001-01-01T00:00:00Z","name_a2s":"Uncletopia | Warsaw | 4 | All Maps","protocol":17,"map":"koth_viaduct","folder":"tf","game":"Team Fortress","app_id":440,"player_count":0,"max_players":24,"Bots":0,"server_type":"Dedicated","server_os":"Linux","password":true,"vac":true,"version":"7961495","steam_id":85568392925397853,"keywords":["cp","nocrits","nodmgspread","uncletopia"],"game_id":440,"stv_port":27046,"stv_name":"Uncletopia | Warsaw | 4 | All Maps | STV","players":null},{"server_id":53,"name":"Uncletopia | Warsaw | 5 | Stopwatch Beta","name_short":"waw-5","host":"waw-1.pl.uncletopia.com","port":27055,"enabled":true,"region":"eu","cc":"pl","latitude":52.2297,"longitude":21.017532,"reserved":0,"last_update":"0001-01-01T00:00:00Z","name_a2s":"Uncletopia | Warsaw | 5 | Stopwatch Beta","protocol":17,"map":"cp_snakewater_final1","folder":"tf","game":"Team Fortress","app_id":440,"player_count":0,"max_players":24,"Bots":0,"server_type":"Dedicated","server_os":"Linux","password":true,"vac":true,"version":"7961495","steam_id":85568392925397854,"keywords":["cp","nocrits","nodmgspread","uncletopia"],"game_id":440,"stv_port":27056,"stv_name":"Uncletopia | Warsaw | 5 | Stopwatch Beta | STV","players":null},{"server_id":54,"name":"Uncletopia | Warsaw | 6 | Community","name_short":"waw-6","host":"waw-1.pl.uncletopia.com","port":27065,"enabled":true,"region":"eu","cc":"pl","latitude":52.2297,"longitude":21.017532,"reserved":0,"last_update":"0001-01-01T00:00:00Z","name_a2s":"Uncletopia | Warsaw | 6 | Community","protocol":17,"map":"cp_mountainlab","folder":"tf","game":"Team Fortress","app_id":440,"player_count":0,"max_players":24,"Bots":0,"server_type":"Dedicated","server_os":"Linux","password":true,"vac":true,"version":"7961495","steam_id":85568392925397856,"keywords":["cp","nocrits","nodmgspread","uncletopia"],"game_id":440,"stv_port":27066,"stv_name":"Uncletopia | Warsaw | 6 | Community | STV","players":null}]}