{"status":true,"message":"","result":[{"server_id":9,"name":"Uncletopia | Atlanta | 1 | All Maps","name_short":"atl-1","host":"atl-1.us.uncletopia.com","port":27015,"enabled":true,"region":"us-east","cc":"us","latitude":33.753746,"longitude":-84.38633,"reserved":0,"last_update":"0001-01-01T00:00:00Z","name_a2s":"Uncletopia | Atlanta | 1 | All Maps","protocol":17,"map":"pl_pier","folder":"tf","game":"Team Fortress","app_id":440,"player_count":12,"max_players":24,"Bots":0,"server_type":"Dedicated","server_os":"Linux","password":true,"vac":true,"version":"7961495","steam_id":85568392924469982,"keywords":["nocrits","nodmgspread","payload","uncletopia"],"game_id":440,"stv_port":27016,"stv_name":"Uncletopia | Atlanta | 1 | All Maps | STV","players":null},{"server_id":104,"name":"Uncletopia | Atlanta | 2 | All Maps","name_short":"atl-2","host":"atl-1.us.uncletopia.com","port":27025,"enabled":true,"region":"us-east","cc":"us","latitude":33.753746,"longitude":-84.38633,"reserved":0,"last_update":"0001-01-01T00:00:00Z","name_a2s":"","protocol":0,"map":"","folder":"","game":"","app_id":0,"player_count":0,"max_players":0,"Bots":0,"server_type":"","server_os":"","password":false,"vac":false,"version":"","steam_id":0,"keywords":null,"game_id":0,"stv_port":0,"stv_name":"","players":null},{"server_id":400,"name":"Uncletopia | Atlanta | 3 | All Maps","name_short":"atl-3","host":"atl-1.us.uncletopia.com","port":27035,"enabled":true,"region":"us-east","cc":"us","latitude":33.753746,"longitude":-84.38633,"reserved":0,"last_update":"0001-01-01T00:00:00Z","name_a2s":"","protocol":0,"map":"","folder":"","game":"","app_id":0,"player_count":0,"max_players":0,"Bots":0,"server_type":"","server_os":"","password":false,"vac":false,"version":"","steam_id":0,"keywords":null,"game_id":0,"stv_port":0,"stv_name":"","players":null},{"server_id":401,"name":"Uncletopia | Atlanta | 4 | Community","name_short":"atl-4","host":"atl-1.us.uncletopia.com","port":27045,"enabled":true,"region":"us-east","cc":"us","latitude":33.753746,"longitude":-84.38633,"reserved":0,"last_update":"0001-01-01T00:00:00Z","name_a2s":"","protocol":0,"map":"","folder":"","game":"","app_id":0,"player_count":0,"max_players":0,"Bots":0,"server_type":"","server_os":"","password":false,"vac":false,"version":"","steam_id":0,"keywords":null,"game_id":0,"stv_port":0,"stv_name":"","players":null},{"server_id":2,"name":"Uncletopia | Chicago | 1 | All Maps","name_short":"chi-1","host":"chi-1.us.uncletopia.com","port":27015,"enabled":true,"region":"us-central","cc":"us","latitude":41.881832,"longitude":-87.62318,"reserved":0,"last_update":"0001-01-01T00:00:00Z","name_a2s":"Uncletopia | Chicago | 1 | All Maps","protocol":17,"map":"koth_viaduct","folder":"tf","game":"Team Fortress","app_id":440,"player_count":7,"max_players":24,"Bots":0,"server_type":"Dedicated","server_os":"Linux","password":true,"vac":true,"version":"7961495","steam_id":85568392924469984,"keywords":["cp","nocrits","nodmgspread","uncletopia"],"game_id":440,"stv_port":27016,"stv_name":"Uncletopia | Chicago | 1 | All Maps | STV","players":[{"user_id":733,"name":"menonamed","steam_id":76561198199564382,"connected_time":313000000000,"state":"active","ping":67},{"user_id":722,"name":"TriggyDiggy","steam_id":76561198364366159,"connected_time":2172000000000,"state":"active","ping":45},{"user_id":732,"name":"lich gaming","steam_id":76561198299094088,"connected_time":442000000000,"state":"active","ping":56},{"user_id":723,"name":"La.Z.yTurtle","steam_id":76561198095712651,"connected_time":2129000000000,"state":"active","ping":72},{"user_id":727,"name":"Donaldest","steam_id":76561198209696425,"connected_time":941000000000,"state":"active","ping":57},{"user_id":729,"name":"Codo Sapien","steam_id":76561198014206810,"connected_time":901000000000,"state":"active","ping":31},{"user_id":735,"name":"Dwaggy","steam_id":76561198027369555,"connected_time":164000000000,"state":"active","ping":66}]},{"server_id":106,"name":"Uncletopia | Chicago | 2 | All Maps","name_short":"chi-2","host":"chi-1.us.uncletopia.com","port":27025,"enabled":true,"region":"us-central","cc":"us","latitude":41.881832,"longitude":-87.62318,"reserved":0,"last_update":"0001-01-01T00:00:00Z","name_a2s":"Uncletopia | Chicago | 2 | All Maps","protocol":17,"map":"cp_sunshine","folder":"tf","game":"Team Fortress","app_id":440,"player_count":0,"max_players":24,"Bots":0,"server_type":"Dedicated","server_os":"Linux","password":true,"vac":true,"version":"7961495","steam_id":85568392924469985,"keywords":["cp","nocrits","nodmgspread","uncletopia"],"game_id":440,"stv_port":27026,"stv_name":"Uncletopia | Chicago | 2 | All Maps | STV","players":null},{"server_id":402,"name":"Uncletopia | Chicago | 3 | All Maps","name_short":"chi-3","host":"chi-1.us.uncletopia.com","port":27035,"enabled":true,"region":"us-central","cc":"us","latitude":41.881832,"longitude":-87.62318,"reserved":0,"last_update":"0001-01-01T00:00:00Z","name_a2s":"Uncletopia | Chicago | 3 | All Maps","protocol":17,"map":"koth_cascade","folder":"tf","game":"Team Fortress","app_id":440,"player_count":0,"max_players":24,"Bots":0,"server_type":"Dedicated","server_os":"Linux","password":true,"vac":true,"version":"7961495","steam_id":85568392924515191,"keywords":["cp","nocrits","nodmgspread","uncletopia"],"game_id":440,"stv_port":27036,"stv_name":"Uncletopia | Chicago | 3 | All Maps | STV","players":null},{"server_id":403,"name":"Uncletopia | Chicago | 4 | All Maps","name_short":"chi-4","host":"chi-1.us.uncletopia.com","port":27045,"enabled":true,"region":"us-central","cc":"us","latitude":41.881832,"longitude":-87.62318,"reserved":0,"last_update":"0001-01-01T00:00:00Z","name_a2s":"Uncletopia | Chicago | 4 | All Maps","protocol":17,"map":"koth_viaduct","folder":"tf","game":"Team Fortress","app_id":440,"player_count":0,"max_players":24,"Bots":0,"server_type":"Dedicated","server_os":"Linux","password":true,"vac":true,"version":"7961495","steam_id":85568392924515193,"keywords":["cp","nocrits","nodmgspread","uncletopia"],"game_id":440,"stv_port":27046,"stv_name":"Uncletopia | Chicago | 4 | All Maps | STV","players":null},{"server_id":36,"name":"Uncletopia | Chicago | 5 | All Maps","name_short":"chi-5","host":"chi-2.us.uncletopia.com","port":27015,"enabled":true,"region":"us-central","cc":"us","latitude":41.881832,"longitude":-87.62318,"reserved":0,"last_update":"0001-01-01T00:00:00Z","name_a2s":"Uncletopia | Chicago | 5 | All Maps","protocol":17,"map":"pl_frontier_final","folder":"tf","game":"Team Fortress","app_id":440,"player_count":22,"max_players":24,"Bots":0,"server_type":"Dedicated","server_os":"Linux","password":true,"vac":true,"version":"7961495","steam_id":85568392924866362,"keywords":["nocrits","nodmgspread","payload","uncletopia"],"game_id":440,"stv_port":27016,"stv_name":"Uncletopia | Chicago | 5 | All Maps | STV","players":[{"user_id":529,"name":"Magma","steam_id":76561198108261173,"connected_time":941000000000,"state":"active","ping":46},{"user_id":501,"name":"Super Ghostbusters (Full Album)","steam_id":76561198057415490,"connected_time":2556000000000,"state":"active","ping":49},{"user_id":502,"name":"buckydargon","steam_id":76561197991480502,"connected_time":2431000000000,"state":"active","ping":94},{"user_id":480,"name":"Red Metal","steam_id":76561198362722560,"connected_time":4454000000000,"state":"active","ping":81},{"user_id":506,"name":"TJGSASQUATCH","steam_id":76561198077806921,"connected_time":2328000000000,"state":"active","ping":101},{"user_id":527,"name":"Porky Minch","steam_id":76561198116168773,"connected_time":960000000000,"state":"active","ping":56},{"user_id":528,"name":"crayonnipple","steam_id":76561198070253331,"connected_time":956000000000,"state":"active","ping":74},{"user_id":508,"name":"poopshitter9000","steam_id":76561198074624639,"connected_time":2312000000000,"state":"active","ping":79},{"user_id":530,"name":"Lore","steam_id":76561198098407538,"connected_time":916000000000,"state":"active","ping":46},{"user_id":534,"name":"prototype money","steam_id":76561198116767286,"connected_time":799000000000,"state":"active","ping":48},{"user_id":531,"name":"spacecore","steam_id":76561198997729498,"connected_time":900000000000,"state":"active","ping":163},{"user_id":509,"name":"josh","steam_id":76561198077902438,"connected_time":2293000000000,"state":"active","ping":75},{"user_id":510,"name":"TheSnipersHat","steam_id":76561198057684066,"connected_time":2208000000000,"state":"active","ping":62},{"user_id":520,"name":"TIME TO GO DERP MODE","steam_id":76561198097588802,"connected_time":1535000000000,"state":"active","ping":45},{"user_id":511,"name":"cass","steam_id":76561198074502046,"connected_time":2205000000000,"state":"active","ping":97},{"user_id":512,"name":"atlas","steam_id":76561198398383076,"connected_time":2181000000000,"state":"active","ping":88},{"user_id":532,"name":"Cosmic sR","steam_id":76561198081738675,"connected_time":896000000000,"state":"active","ping":86},{"user_id":538,"name":"erf","steam_id":76561198078203677,"connected_time":317000000000,"state":"active","ping":70},{"user_id":539,"name":"The MidLaFoy","steam_id":76561198214794700,"connected_time":246000000000,"state":"active","ping":77},{"user_id":537,"name":"stall","steam_id":76561199152861652,"connected_time":402000000000,"state":"active","ping":60},{"user_id":541,"name":"MaurbaTTV","steam_id":76561198396244334,"connected_time":160000000000,"state":"active","ping":79}]},{"server_id":37,"name":"Uncletopia | Chicago | 6 | All Maps","name_short":"chi-6","host":"chi-2.us.uncletopia.com","port":27025,"enabled":true,"region":"us-central","cc":"us","latitude":41.881832,"longitude":-87.62318,"reserved":0,"last_update":"0001-01-01T00:00:00Z","name_a2s":"Uncletopia | Chicago | 6 | All Maps","protocol":17,"map":"cp_process_final","folder":"tf","game":"Team Fortress","app_id":440,"player_count":15,"max_players":24,"Bots":0,"server_type":"Dedicated","server_os":"Linux","password":true,"vac":true,"version":"7961495","steam_id":85568392924866363,"keywords":["cp","nocrits","nodmgspread","uncletopia"],"game_id":440,"stv_port":27026,"stv_name":"Uncletopia | Chicago | 6 | All Maps | STV","players":[{"user_id":415,"name":"*","steam_id":76561198173047169,"connected_time":1538000000000,"state":"active","ping":53},{"user_id":426,"name":"Mr Sir Logan","steam_id":76561198088803891,"connected_time":787000000000,"state":"active","ping":90},{"user_id":392,"name":"f","steam_id":76561198215559840,"connected_time":3262000000000,"state":"active","ping":58},{"user_id":433,"name":"Hidden Phantom","steam_id":76561198115531799,"connected_time":95000000000,"state":"active","ping":73},{"user_id":318,"name":"wakeupbdot","steam_id":76561198160786631,"connected_time":9423000000000,"state":"active","ping":60},{"user_id":434,"name":"Repeat","steam_id":76561198013249304,"connected_time":47000000000,"state":"spawning","ping":88},{"user_id":413,"name":"lcd soundsystem","steam_id":76561198207881077,"connected_time":1574000000000,"state":"active","ping":75},{"user_id":435,"name":"hashmap","steam_id":76561198043794014,"connected_time":5000000000,"state":"spawning","ping":45},{"user_id":424,"name":"reero","steam_id":76561198071785065,"connected_time":975000000000,"state":"active","ping":56},{"user_id":382,"name":"Spare(8)Ball","steam_id":76561197982432995,"connected_time":5031000000000,"state":"active","ping":104},{"user_id":394,"name":"rontu","steam_id":76561199072955534,"connected_time":3224000000000,"state":"active","ping":48},{"user_id":425,"name":"fishy butters ♠","steam_id":76561198147453405,"connected_time":815000000000,"state":"active","ping":76},{"user_id":422,"name":"River","steam_id":76561198137529294,"connected_time":1159000000000,"state":"active","ping":54},{"user_id":431,"name":"Fightin Cow","steam_id":76561198080941486,"connected_time":106000000000,"state":"active","ping":73},{"user_id":420,"name":"kiv","steam_id":76561198838223023,"connected_time":1353000000000,"state":"active","ping":46}]},{"server_id":38,"name":"Uncletopia | Chicago | 7 | Stopwatch Beta","name_short":"chi-7","host":"chi-2.us.uncletopia.com","port":27035,"enabled":true,"region":"us-central","cc":"us","latitude":41.881832,"longitude":-87.62318,"reserved":0,"last_update":"0001-01-01T00:00:00Z","name_a2s":"Uncletopia | Chicago | 7 | Stopwatch Beta","protocol":17,"map":"pl_badwater","folder":"tf","game":"Team Fortress","app_id":440,"player_count":0,"max_players":24,"Bots":0,"server_type":"Dedicated","server_os":"Linux","password":true,"vac":true,"version":"7961495","steam_id":85568392924866364,"keywords":["nocrits","nodmgspread","payload","uncletopia"],"game_id":440,"stv_port":27036,"stv_name":"Uncletopia | Chicago | 7 | Stopwatch Beta | STV","players":null},{"server_id":39,"name":"Uncletopia | Chicago | 8 | Community","name_short":"chi-8","host":"chi-2.us.uncletopia.com","port":27045,"enabled":true,"region":"us-central","cc":"us","latitude":41.881832,"longitude":-87.62318,"reserved":0,"last_update":"0001-01-01T00:00:00Z","name_a2s":"Uncletopia | Chicago | 8 | Community","protocol":17,"map":"workshop/cp_snowbase_b18.ugc2081770490","folder":"tf","game":"Team Fortress","app_id":440,"player_count":0,"max_players":24,"Bots":0,"server_type":"Dedicated","server_os":"Linux","password":true,"vac":true,"version":"7961495","steam_id":85568392924866365,"keywords":["cp","nocrits","nodmgspread","uncletopia"],"game_id":440,"stv_port":27046,"stv_name":"Uncletopia | Chicago | 8 | Community | STV","players":null},{"server_id":8,"name":"Uncletopia | Dallas | 1 | All Maps","name_short":"dal-1","host":"dal-1.us.uncletopia.com","port":27015,"enabled":true,"region":"us-central","cc":"us","latitude":32.779167,"longitude":-96.80889,"reserved":0,"last_update":"0001-01-01T00:00:00Z","name_a2s":"Uncletopia | Dallas | 1 | All Maps","protocol":17,"map":"ctf_2fort","folder":"tf","game":"Team Fortress","app_id":440,"player_count":20,"max_players":24,"Bots":0,"server_type":"Dedicated","server_os":"Linux","password":true,"vac":true,"version":"7961495","steam_id":85568392924469986,"keywords":["ctf","nocrits","nodmgspread","uncletopia"],"game_id":440,"stv_port":27016,"stv_name":"Uncletopia | Dallas | 1 | All Maps | STV","players":[{"user_id":516,"name":"denzell05","steam_id":76561198086987061,"connected_time":5034000000000,"state":"active","ping":86},{"user_id":580,"name":"Racer Rabbit","steam_id":76561197993456975,"connected_time":373000000000,"state":"active","ping":50},{"user_id":569,"name":"Galexian","steam_id":76561198030700733,"connected_time":842000000000,"state":"active","ping":88},{"user_id":554,"name":"IZISOO","steam_id":76561198970380577,"connected_time":2617000000000,"state":"active","ping":68},{"user_id":581,"name":"Ace_Steele23","steam_id":76561198086867678,"connected_time":171000000000,"state":"active","ping":73},{"user_id":564,"name":"Antonpirulero10","steam_id":76561198253036781,"connected_time":1031000000000,"state":"active","ping":103},{"user_id":566,"name":"storyboard","steam_id":76561199088496817,"connected_time":965000000000,"state":"active","ping":60},{"user_id":486,"name":"Charles","steam_id":76561199124935140,"connected_time":6846000000000,"state":"active","ping":61},{"user_id":493,"name":"cringeass nae-nae girl","steam_id":76561198108753857,"connected_time":6132000000000,"state":"active","ping":74},{"user_id":571,"name":"GabeCube","steam_id":76561198292738542,"connected_time":816000000000,"state":"active","ping":103},{"user_id":544,"name":"roast pig with apple in mouth","steam_id":76561198051353647,"connected_time":3214000000000,"state":"active","ping":83},{"user_id":548,"name":"Manchurian Bandit","steam_id":76561198072410042,"connected_time":2812000000000,"state":"active","ping":76},{"user_id":582,"name":"Latinx Goyslop","steam_id":76561198237204598,"connected_time":140000000000,"state":"active","ping":85},{"user_id":550,"name":"Ratchet55","steam_id":76561198208655521,"connected_time":2721000000000,"state":"active","ping":110},{"user_id":568,"name":"Harrow41","steam_id":76561198085748198,"connected_time":903000000000,"state":"active","ping":66},{"user_id":583,"name":"Jezzus","steam_id":76561199289676387,"connected_time":111000000000,"state":"active","ping":65},{"user_id":584,"name":"inzang","steam_id":76561198088318074,"connected_time":78000000000,"state":"active","ping":53},{"user_id":574,"name":"LordKiro711","steam_id":76561198121680121,"connected_time":725000000000,"state":"active","ping":98},{"user_id":575,"name":"Derpyderk","steam_id":76561198135034761,"connected_time":720000000000,"state":"active","ping":104},{"user_id":531,"name":"oak","steam_id":76561198092135570,"connected_time":4495000000000,"state":"active","ping":38}]},{"server_id":108,"name":"Uncletopia | Dallas | 2 | All Maps","name_short":"dal-2","host":"dal-1.us.uncletopia.com","port":27025,"enabled":true,"region":"us-central","cc":"us","latitude":32.779167,"longitude":-96.80889,"reserved":0,"last_update":"0001-01-01T00:00:00Z","name_a2s":"Uncletopia | Dallas | 2 | All Maps","protocol":17,"map":"pl_pier","folder":"tf","game":"Team Fortress","app_id":440,"player_count":24,"max_players":24,"Bots":0,"server_type":"Dedicated","server_os":"Linux","password":true,"vac":true,"version":"7961495","steam_id":85568392924469988,"keywords":["nocrits","nodmgspread","payload","uncletopia"],"game_id":440,"stv_port":27026,"stv_name":"Uncletopia | Dallas | 2 | All Maps | STV","players":[{"user_id":513,"name":"Barress","steam_id":76561198011728743,"connected_time":423000000000,"state":"active","ping":85},{"user_id":498,"name":"LordGandalf23","steam_id":76561198086928298,"connected_time":3021000000000,"state":"active","ping":103},{"user_id":507,"name":"GangstaPuddin","steam_id":76561198045414782,"connected_time":1091000000000,"state":"active","ping":77},{"user_id":483,"name":"C^a^L","steam_id":76561198241124222,"connected_time":3608000000000,"state":"active","ping":90},{"user_id":503,"name":"Dale","steam_id":76561198095794136,"connected_time":1185000000000,"state":"active","ping":94},{"user_id":499,"name":"minecraft","steam_id":76561198104345201,"connected_time":2959000000000,"state":"active","ping":69},{"user_id":516,"name":"ufobeef","steam_id":76561198856111762,"connected_time":240000000000,"state":"active","ping":135},{"user_id":515,"name":"m","steam_id":76561198017539604,"connected_time":307000000000,"state":"active","ping":65},{"user_id":484,"name":"SGT Disoriented","steam_id":76561198058177958,"connected_time":3602000000000,"state":"active","ping":60},{"user_id":508,"name":"Voodo133","steam_id":76561198042670351,"connected_time":1076000000000,"state":"active","ping":102},{"user_id":439,"name":"deb","steam_id":76561198414336279,"connected_time":7059000000000,"state":"active","ping":53},{"user_id":502,"name":"Si1entSn1pa","steam_id":76561198170095479,"connected_time":1191000000000,"state":"active","ping":86},{"user_id":504,"name":"phfez","steam_id":76561198046150386,"connected_time":1184000000000,"state":"active","ping":74},{"user_id":489,"name":"Zero","steam_id":76561198033384990,"connected_time":3433000000000,"state":"active","ping":79},{"user_id":454,"name":"Giselle","steam_id":76561198162593640,"connected_time":6543000000000,"state":"active","ping":116},{"user_id":509,"name":"GHODRATMANDE ZARKESHI","steam_id":76561198143826450,"connected_time":1070000000000,"state":"active","ping":65},{"user_id":511,"name":"Damiano","steam_id":76561198065585796,"connected_time":971000000000,"state":"active","ping":86},{"user_id":477,"name":"Ruby Gillman (He/Him)","steam_id":76561198366299848,"connected_time":4309000000000,"state":"active","ping":72},{"user_id":478,"name":"Railly","steam_id":76561198357355915,"connected_time":4259000000000,"state":"active","ping":82},{"user_id":476,"name":"the master of cats","steam_id":76561198819255576,"connected_time":4323000000000,"state":"active","ping":70},{"user_id":514,"name":"salmon","steam_id":76561198050061475,"connected_time":356000000000,"state":"active","ping":81},{"user_id":494,"name":"Galactamarx","steam_id":76561198028065755,"connected_time":3271000000000,"state":"active","ping":74},{"user_id":517,"name":"Allotrope","steam_id":76561197998450103,"connected_time":158000000000,"state":"active","ping":45},{"user_id":491,"name":"HundchenTanque","steam_id":76561198122692754,"connected_time":3419000000000,"state":"active","ping":81}]},{"server_id":404,"name":"Uncletopia | Dallas | 3 | All Maps","name_short":"dal-3","host":"dal-1.us.uncletopia.com","port":27035,"enabled":true,"region":"us-central","cc":"us","latitude":32.779167,"longitude":-96.80889,"reserved":0,"last_update":"0001-01-01T00:00:00Z","name_a2s":"Uncletopia | Dallas | 3 | All Maps","protocol":17,"map":"pl_snowycoast","folder":"tf","game":"Team Fortress","app_id":440,"player_count":21,"max_players":24,"Bots":0,"server_type":"Dedicated","server_os":"Linux","password":true,"vac":true,"version":"7961495","steam_id":85568392924515219,"keywords":["nocrits","nodmgspread","payload","uncletopia"],"game_id":440,"stv_port":27036,"stv_name":"Uncletopia | Dallas | 3 | All Maps | STV","players":[{"user_id":471,"name":"Snoopy","steam_id":76561198273735974,"connected_time":12888000000000,"state":"active","ping":80},{"user_id":601,"name":"Defragmented","steam_id":76561198854210081,"connected_time":1528000000000,"state":"active","ping":70},{"user_id":616,"name":"The_Stomach_Stone_Surgeon","steam_id":76561198044643725,"connected_time":471000000000,"state":"active","ping":61},{"user_id":617,"name":"primordialheath","steam_id":76561199386942638,"connected_time":62000000000,"state":"active","ping":87},{"user_id":584,"name":"Svepport","steam_id":76561198071373137,"connected_time":3003000000000,"state":"active","ping":57},{"user_id":565,"name":"little_neb","steam_id":76561198117396733,"connected_time":5066000000000,"state":"active","ping":57},{"user_id":585,"name":"Fantastic","steam_id":76561198079088978,"connected_time":2977000000000,"state":"active","ping":60},{"user_id":586,"name":"YeshieSirYesSir","steam_id":76561198080214214,"connected_time":2959000000000,"state":"active","ping":66},{"user_id":602,"name":"Professionally Braindead ツ","steam_id":76561198276714220,"connected_time":1354000000000,"state":"active","ping":38},{"user_id":603,"name":"HOG RIDER","steam_id":76561198298589502,"connected_time":1354000000000,"state":"active","ping":76},{"user_id":588,"name":"Squishy","steam_id":76561198066798426,"connected_time":2932000000000,"state":"active","ping":76},{"user_id":566,"name":"ropesnek","steam_id":76561198140591498,"connected_time":5050000000000,"state":"active","ping":49},{"user_id":589,"name":"PurplePanda","steam_id":76561198076484653,"connected_time":2905000000000,"state":"active","ping":42},{"user_id":600,"name":"raya","steam_id":76561198051504581,"connected_time":1663000000000,"state":"active","ping":45},{"user_id":618,"name":"warrior","steam_id":76561198074500319,"connected_time":43000000000,"state":"active","ping":95},{"user_id":609,"name":"Odd Life","steam_id":76561198244979998,"connected_time":868000000000,"state":"active","ping":75},{"user_id":594,"name":"BloopDeKloop","steam_id":76561198416703611,"connected_time":2533000000000,"state":"active","ping":76},{"user_id":611,"name":"Periergos","steam_id":76561198062030412,"connected_time":691000000000,"state":"active","ping":58},{"user_id":612,"name":"EnragedWaters","steam_id":76561198317135757,"connected_time":652000000000,"state":"active","ping":85},{"user_id":614,"name":"Spike","steam_id":76561198141356571,"connected_time":574000000000,"state":"active","ping":85},{"user_id":608,"name":"Ryan Lewis truther","steam_id":76561198050505826,"connected_time":1120000000000,"state":"active","ping":56}]},{"server_id":405,"name":"Uncletopia | Dallas | 4 | Community","name_short":"dal-4","host":"dal-1.us.uncletopia.com","port":27045,"enabled":true,"region":"us-central","cc":"us","latitude":32.779167,"longitude":-96.80889,"reserved":0,"last_update":"0001-01-01T00:00:00Z","name_a2s":"Uncletopia | Dallas | 4 | Community","protocol":17,"map":"workshop/pl_emerge_rc2.ugc888027758","folder":"tf","game":"Team Fortress","app_id":440,"player_count":0,"max_players":24,"Bots":0,"server_type":"Dedicated","server_os":"Linux","password":true,"vac":true,"version":"7961495","steam_id":85568392924515220,"keywords":["nocrits","nodmgspread","payload","uncletopia"],"game_id":440,"stv_port":27046,"stv_name":"Uncletopia | Dallas | 4 | Community | STV","players":null},{"server_id":5,"name":"Uncletopia | Frankfurt | 1 | All Maps","name_short":"frk-1","host":"frk-1.de.uncletopia.com","port":27015,"enabled":true,"region":"eu","cc":"de","latitude":50.110924,"longitude":8.682127,"reserved":0,"last_update":"0001-01-01T00:00:00Z","name_a2s":"Uncletopia | Frankfurt | 1 | All Maps","protocol":17,"map":"pl_badwater","folder":"tf","game":"Team Fortress","app_id":440,"player_count":1,"max_players":24,"Bots":0,"server_type":"Dedicated","server_os":"Linux","password":true,"vac":true,"version":"7961495","steam_id":85568392924469989,"keywords":["nocrits","nodmgspread","payload","uncletopia"],"game_id":440,"stv_port":27016,"stv_name":"Uncletopia | Frankfurt | 1 | All Maps | STV","players":[{"user_id":6,"name":"Slappisen","steam_id":76561199022132774,"connected_time":113000000000,"state":"active","ping":71}]},{"server_id":110,"name":"Uncletopia | Frankfurt | 2 | All Maps","name_short":"frk-2","host":"frk-1.de.uncletopia.com","port":27025,"enabled":true,"region":"eu","cc":"de","latitude":50.110924,"longitude":8.682127,"reserved":0,"last_update":"0001-01-01T00:00:00Z","name_a2s":"Uncletopia | Frankfurt | 2 | All Maps","protocol":17,"map":"koth_lakeside_final","folder":"tf","game":"Team Fortress","app_id":440,"player_count":0,"max_players":24,"Bots":0,"server_type":"Dedicated","server_os":"Linux","password":true,"vac":true,"version":"7961495","steam_id":85568392924469990,"keywords":["cp","nocrits","nodmgspread","uncletopia"],"game_id":440,"stv_port":27026,"stv_name":"Uncletopia | Frankfurt | 2 | All Maps | STV","players":null},{"server_id":308,"name":"Uncletopia | Frankfurt | 3 | All Maps","name_short":"frk-3","host":"frk-1.de.uncletopia.com","port":27035,"enabled":true,"region":"eu","cc":"de","latitude":50.110924,"longitude":8.682127,"reserved":0,"last_update":"0001-01-01T00:00:00Z","name_a2s":"Uncletopia | Frankfurt | 3 | All Maps","protocol":17,"map":"cp_sunshine","folder":"tf","game":"Team Fortress","app_id":440,"player_count":0,"max_players":24,"Bots":0,"server_type":"Dedicated","server_os":"Linux","password":true,"vac":true,"version":"7961495","steam_id":85568392924504274,"keywords":["cp","nocrits","nodmgspread","uncletopia"],"game_id":440,"stv_port":27036,"stv_name":"Uncletopia | Frankfurt | 3 | All Maps | STV","players":null},{"server_id":309,"name":"Uncletopia | Frankfurt | 4 | All Maps","name_short":"frk-4","host":"frk-1.de.uncletopia.com","port":27045,"enabled":true,"region":"eu","cc":"de","latitude":50.110924,"longitude":8.682127,"reserved":0,"last_update":"0001-01-01T00:00:00Z","name_a2s":"Uncletopia | Frankfurt | 4 | All Maps","protocol":17,"map":"cp_altitude","folder":"tf","game":"Team Fortress","app_id":440,"player_count":0,"max_players":24,"Bots":0,"server_type":"Dedicated","server_os":"Linux","password":true,"vac":true,"version":"7961495","steam_id":85568392924504275,"keywords":["cp","nocrits","nodmgspread","uncletopia"],"game_id":440,"stv_port":27046,"stv_name":"Uncletopia | Frankfurt | 4 | All Maps | STV","players":null},{"server_id":310,"name":"Uncletopia | Frankfurt | 5 | All Maps","name_short":"frk-5","host":"frk-1.de.uncletopia.com","port":27055,"enabled":true,"region":"eu","cc":"de","latitude":50.110924,"longitude":8.682127,"reserved":0,"last_update":"0001-01-01T00:00:00Z","name_a2s":"Uncletopia | Frankfurt | 5 | All Maps","protocol":17,"map":"cp_process_final","folder":"tf","game":"Team Fortress","app_id":440,"player_count":0,"max_players":24,"Bots":0,"server_type":"Dedicated","server_os":"Linux","password":true,"vac":true,"version":"7961495","steam_id":85568392924504277,"keywords":["cp","nocrits","nodmgspread","uncletopia"],"game_id":440,"stv_port":27056,"stv_name":"Uncletopia | Frankfurt | 5 | All Maps | STV","players":null},{"server_id":311,"name":"Uncletopia | Frankfurt | 6 | All Maps","name_short":"frk-6","host":"frk-1.de.uncletopia.com","port":27065,"enabled":true,"region":"eu","cc":"de","latitude":50.110924,"longitude":8.682127,"reserved":0,"last_update":"0001-01-01T00:00:00Z","name_a2s":"Uncletopia | Frankfurt | 6 | All Maps","protocol":17,"map":"pl_barnblitz","folder":"tf","game":"Team Fortress","app_id":440,"player_count":0,"max_players":24,"Bots":0,"server_type":"Dedicated","server_os":"Linux","password":true,"vac":true,"version":"7961495","steam_id":85568392924504278,"keywords":["nocrits","nodmgspread","payload","uncletopia"],"game_id":440,"stv_port":27066,"stv_name":"Uncletopia | Frankfurt | 6 | All Maps | STV","players":null},{"server_id":23,"name":"Uncletopia | Frankfurt | 7 | Stopwatch Beta","name_short":"frk-7","host":"frk-1.de.uncletopia.com","port":27075,"enabled":true,"region":"eu","cc":"de","latitude":50.110924,"longitude":8.682127,"reserved":0,"last_update":"0001-01-01T00:00:00Z","name_a2s":"Uncletopia | Frankfurt | 7 | Stopwatch Beta","protocol":17,"map":"koth_cascade","folder":"tf","game":"Team Fortress","app_id":440,"player_count":0,"max_players":24,"Bots":0,"server_type":"Dedicated","server_os":"Linux","password":true,"vac":true,"version":"7961495","steam_id":85568392924742827,"keywords":["cp","nocrits","nodmgspread","uncletopia"],"game_id":440,"stv_port":27076,"stv_name":"Uncletopia | Frankfurt | 7 | Stopwatch Beta | STV","players":null},{"server_id":24,"name":"Uncletopia | Frankfurt | 8 | Community","name_short":"frk-8","host":"frk-1.de.uncletopia.com","port":27085,"enabled":true,"region":"eu","cc":"de","latitude":50.110924,"longitude":8.682127,"reserved":0,"last_update":"0001-01-01T00:00:00Z","name_a2s":"Uncletopia | Frankfurt | 8 | Community","protocol":17,"map":"cp_dustbowl","folder":"tf","game":"Team Fortress","app_id":440,"player_count":0,"max_players":24,"Bots":0,"server_type":"Dedicated","server_os":"Linux","password":true,"vac":true,"version":"7961495","steam_id":85568392924742828,"keywords":["cp","nocrits","nodmgspread","uncletopia"],"game_id":440,"stv_port":27086,"stv_name":"Uncletopia | Frankfurt | 8 | Community | STV","players":null},{"server_id":202,"name":"Uncletopia | Hong Kong | 1 | All Maps","name_short":"hgk-1","host":"hgk-1.hk.uncletopia.com","port":27015,"enabled":true,"region":"asia","cc":"hk","latitude":22.302711,"longitude":114.177216,"reserved":0,"last_update":"0001-01-01T00:00:00Z","name_a2s":"Uncletopia | Hong Kong | 1 | All Maps","protocol":17,"map":"koth_viaduct","folder":"tf","game":"Team Fortress","app_id":440,"player_count":0,"max_players":24,"Bots":0,"server_type":"Dedicated","server_os":"Linux","password":true,"vac":true,"version":"7961495","steam_id":85568392924494504,"keywords":["cp","nocrits","nodmgspread","uncletopia"],"game_id":440,"stv_port":27016,"stv_name":"Uncletopia | Hong Kong | 1 | All Maps | STV","players":null},{"server_id":1,"name":"Uncletopia | Los Angeles | 1 | All Maps","name_short":"lax-1","host":"lax-1.us.uncletopia.com","port":27015,"enabled":true,"region":"us-west","cc":"us","latitude":33.94279,"longitude":-118.41004,"reserved":0,"last_update":"0001-01-01T00:00:00Z","name_a2s":"Uncletopia | Los Angeles | 1 | All Maps","protocol":17,"map":"koth_harvest_final","folder":"tf","game":"Team Fortress","app_id":440,"player_count":24,"max_players":24,"Bots":0,"server_type":"Dedicated","server_os":"Linux","password":true,"vac":true,"version":"7961495","steam_id":85568392924469991,"keywords":["cp","nocrits","nodmgspread","uncletopia"],"game_id":440,"stv_port":27016,"stv_name":"Uncletopia | Los Angeles | 1 | All Maps | STV","players":[{"user_id":466,"name":"LtK","steam_id":76561197993180943,"connected_time":5970000000000,"state":"active","ping":66},{"user_id":530,"name":"Mocha Josie","steam_id":76561198066452726,"connected_time":1035000000000,"state":"active","ping":54},{"user_id":539,"name":"sweaterfan","steam_id":76561199389567214,"connected_time":375000000000,"state":"active","ping":98},{"user_id":543,"name":"Jokezonyu","steam_id":76561198213167893,"connected_time":71000000000,"state":"active","ping":62},{"user_id":529,"name":"Switchclackback","steam_id":76561198014355417,"connected_time":1048000000000,"state":"active","ping":60},{"user_id":532,"name":"LX-24","steam_id":76561198016168993,"connected_time":734000000000,"state":"active","ping":83},{"user_id":541,"name":"Reem0h","steam_id":76561198169848690,"connected_time":312000000000,"state":"active","ping":109},{"user_id":533,"name":"Justinio","steam_id":76561199012167657,"connected_time":673000000000,"state":"active","ping":66},{"user_id":494,"name":"Whiskey","steam_id":76561198858154667,"connected_time":4096000000000,"state":"active","ping":46},{"user_id":523,"name":"mollusk_obliteration","steam_id":76561198085388962,"connected_time":1699000000000,"state":"active","ping":95},{"user_id":519,"name":"Lily Thorn","steam_id":76561198305488625,"connected_time":1749000000000,"state":"active","ping":83},{"user_id":495,"name":"BurningKev","steam_id":76561198057688837,"connected_time":4090000000000,"state":"active","ping":73},{"user_id":496,"name":"Antzen","steam_id":76561198041343470,"connected_time":4086000000000,"state":"active","ping":56},{"user_id":534,"name":"choo choo train","steam_id":76561198206922028,"connected_time":655000000000,"state":"active","ping":50},{"user_id":511,"name":"iSilentShooter","steam_id":76561198851343507,"connected_time":3103000000000,"state":"active","ping":86},{"user_id":512,"name":"yummyham2","steam_id":76561199006339325,"connected_time":3101000000000,"state":"active","ping":63},{"user_id":506,"name":"Cael Thavain","steam_id":76561198136789464,"connected_time":3363000000000,"state":"active","ping":62},{"user_id":500,"name":"Whisper!","steam_id":76561198119609795,"connected_time":3922000000000,"state":"active","ping":47},{"user_id":535,"name":"Dr. Eggman","steam_id":76561199013545285,"connected_time":637000000000,"state":"active","ping":71},{"user_id":516,"name":"DaBeatGoOff2?","steam_id":76561198106507400,"connected_time":2624000000000,"state":"active","ping":53},{"user_id":526,"name":"MR. BEEEEEEEEEEEEEAAAAAAAAAAST","steam_id":76561198205346760,"connected_time":1602000000000,"state":"active","ping":101},{"user_id":536,"name":"missy❤","steam_id":76561199096263556,"connected_time":626000000000,"state":"active","ping":116},{"user_id":527,"name":"Big Boy Beni","steam_id":76561197995469460,"connected_time":1492000000000,"state":"active","ping":44},{"user_id":542,"name":"Queen","steam_id":76561197997289005,"connected_time":305000000000,"state":"active","ping":70}]},{"server_id":112,"name":"Uncletopia | Los Angeles | 2 | All Maps","name_short":"lax-2","host":"lax-1.us.uncletopia.com","port":27025,"enabled":true,"region":"us-west","cc":"us","latitude":33.94279,"longitude":-118.41004,"reserved":0,"last_update":"0001-01-01T00:00:00Z","name_a2s":"Uncletopia | Los Angeles | 2 | All Maps","protocol":17,"map":"cp_dustbowl","folder":"tf","game":"Team Fortress","app_id":440,"player_count":24,"max_players":24,"Bots":0,"server_type":"Dedicated","server_os":"Linux","password":true,"vac":true,"version":"7961495","steam_id":85568392924469992,"keywords":["cp","nocrits","nodmgspread","uncletopia"],"game_id":440,"stv_port":27026,"stv_name":"Uncletopia | Los Angeles | 2 | All Maps | STV","players":[{"user_id":159,"name":"Lucky","steam_id":76561198828715832,"connected_time":932000000000,"state":"active","ping":53},{"user_id":132,"name":"Handsome Pete","steam_id":76561198003224229,"connected_time":2431000000000,"state":"active","ping":72},{"user_id":158,"name":"exx","steam_id":76561198090552145,"connected_time":963000000000,"state":"active","ping":49},{"user_id":170,"name":"4 life","steam_id":76561198175961598,"connected_time":391000000000,"state":"active","ping":60},{"user_id":138,"name":"HitsujiVT","steam_id":76561198053447948,"connected_time":2134000000000,"state":"active","ping":93},{"user_id":126,"name":"sissy fuckdoll $","steam_id":76561199064932372,"connected_time":2587000000000,"state":"active","ping":47},{"user_id":160,"name":"concreteeater22","steam_id":76561198250042710,"connected_time":904000000000,"state":"active","ping":96},{"user_id":161,"name":"AwkwardNoah","steam_id":76561198087782301,"connected_time":800000000000,"state":"active","ping":55},{"user_id":162,"name":"shakoiwa","steam_id":76561199059441773,"connected_time":772000000000,"state":"active","ping":52},{"user_id":163,"name":"Ralph Kramden (Slim Charles)","steam_id":76561197981687895,"connected_time":742000000000,"state":"active","ping":73},{"user_id":165,"name":"Lake Idiot","steam_id":76561198139053146,"connected_time":497000000000,"state":"active","ping":58},{"user_id":175,"name":"ZeeKThe3rd","steam_id":76561198190156546,"connected_time":91000000000,"state":"active","ping":52},{"user_id":142,"name":"Flexo","steam_id":76561198111618506,"connected_time":2039000000000,"state":"active","ping":114},{"user_id":133,"name":"uheye whuant moy ehmdeevee","steam_id":76561198028981154,"connected_time":2416000000000,"state":"active","ping":51},{"user_id":167,"name":"Chalks","steam_id":76561198045978275,"connected_time":453000000000,"state":"active","ping":57},{"user_id":144,"name":"Preston","steam_id":76561198335444084,"connected_time":1990000000000,"state":"active","ping":135},{"user_id":134,"name":"Sahalanthro","steam_id":76561199073298722,"connected_time":2343000000000,"state":"active","ping":45},{"user_id":105,"name":"Human Resources Manager","steam_id":76561198066386411,"connected_time":5386000000000,"state":"active","ping":65},{"user_id":145,"name":"Red","steam_id":76561198001939529,"connected_time":1978000000000,"state":"active","ping":118},{"user_id":168,"name":"Zombie Hugger","steam_id":76561197996486729,"connected_time":426000000000,"state":"active","ping":59},{"user_id":169,"name":"Jim","steam_id":76561198998398262,"connected_time":417000000000,"state":"active","ping":47},{"user_id":171,"name":"DungeonKeeper","steam_id":76561199475507686,"connected_time":391000000000,"state":"active","ping":103},{"user_id":176,"name":"Tacitus Kilgore","steam_id":76561198053915145,"connected_time":82000000000,"state":"active","ping":91},{"user_id":177,"name":"BuncusBeffer","steam_id":76561198285936616,"connected_time":68000000000,"state":"active","ping":83}]},{"server_id":324,"name":"Uncletopia | Los Angeles | 3 | All Maps","name_short":"lax-3","host":"lax-1.us.uncletopia.com","port":27035,"enabled":true,"region":"us-west","cc":"us","latitude":33.94279,"longitude":-118.41004,"reserved":0,"last_update":"0001-01-01T00:00:00Z","name_a2s":"Uncletopia | Los Angeles | 3 | All Maps","protocol":17,"map":"pl_upward","folder":"tf","game":"Team Fortress","app_id":440,"player_count":24,"max_players":24,"Bots":0,"server_type":"Dedicated","server_os":"Linux","password":true,"vac":true,"version":"7961495","steam_id":85568392924510198,"keywords":["nocrits","nodmgspread","payload","uncletopia"],"game_id":440,"stv_port":27036,"stv_name":"Uncletopia | Los Angeles | 3 | All Maps | STV","players":[{"user_id":78,"name":"fallingtree123","steam_id":76561198937414442,"connected_time":1790000000000,"state":"active","ping":78},{"user_id":79,"name":"Ozzyhalen","steam_id":76561198025207814,"connected_time":1781000000000,"state":"active","ping":94},{"user_id":89,"name":"I just did a \"Gaming\"","steam_id":76561198153836761,"connected_time":1256000000000,"state":"active","ping":60},{"user_id":82,"name":"KrylonHeretic","steam_id":76561198139811459,"connected_time":1688000000000,"state":"active","ping":60},{"user_id":80,"name":"ุ","steam_id":76561198404271005,"connected_time":1763000000000,"state":"active","ping":57},{"user_id":88,"name":"eminixx","steam_id":76561198962857708,"connected_time":1443000000000,"state":"active","ping":104},{"user_id":83,"name":"Joe Biden (Deceased)","steam_id":76561198170427507,"connected_time":1663000000000,"state":"active","ping":47},{"user_id":90,"name":"bootyzillaᴸᴮᴴ","steam_id":76561198322206140,"connected_time":1240000000000,"state":"active","ping":89},{"user_id":100,"name":"Bolbi","steam_id":76561198051811597,"connected_time":884000000000,"state":"active","ping":57},{"user_id":86,"name":"self sufficient kitten","steam_id":76561197960592612,"connected_time":1526000000000,"state":"active","ping":63},{"user_id":92,"name":"MERCHANT","steam_id":76561198210010549,"connected_time":1043000000000,"state":"active","ping":87},{"user_id":87,"name":"yes","steam_id":76561199371694361,"connected_time":1510000000000,"state":"active","ping":46},{"user_id":107,"name":"Faber","steam_id":76561198156982075,"connected_time":636000000000,"state":"active","ping":69},{"user_id":94,"name":"1000 Ping","steam_id":76561198098330939,"connected_time":1008000000000,"state":"active","ping":70},{"user_id":106,"name":"Bukkake Ranger","steam_id":76561198043314392,"connected_time":800000000000,"state":"active","ping":72},{"user_id":96,"name":"Aporophobia","steam_id":76561198068672882,"connected_time":983000000000,"state":"active","ping":63},{"user_id":109,"name":"Bx2az","steam_id":76561198832477468,"connected_time":169000000000,"state":"active","ping":66},{"user_id":98,"name":"meme","steam_id":76561199170771700,"connected_time":904000000000,"state":"active","ping":56},{"user_id":99,"name":"I need a better name","steam_id":76561198846479511,"connected_time":901000000000,"state":"active","ping":78},{"user_id":110,"name":"Adam Levine (Real)","steam_id":76561199199257149,"connected_time":124000000000,"state":"active","ping":148},{"user_id":102,"name":"BlancaLamb","steam_id":76561198025646073,"connected_time":863000000000,"state":"active","ping":91},{"user_id":103,"name":"californjoe","steam_id":76561197965047795,"connected_time":859000000000,"state":"active","ping":53},{"user_id":104,"name":"guy","steam_id":76561198196443262,"connected_time":856000000000,"state":"active","ping":46},{"user_id":105,"name":"dzcreeper","steam_id":76561198072250723,"connected_time":856000000000,"state":"active","ping":95}]},{"server_id":25,"name":"Uncletopia | Los Angeles | 4 | Stopwatch Beta","name_short":"lax-4","host":"lax-1.us.uncletopia.com","port":27045,"enabled":true,"region":"us-west","cc":"us","latitude":33.94279,"longitude":-118.41004,"reserved":0,"last_update":"0001-01-01T00:00:00Z","name_a2s":"Uncletopia | Los Angeles | 4 | Stopwatch Beta","protocol":17,"map":"workshop/pl_vigil_rc9.ugc1266210012","folder":"tf","game":"Team Fortress","app_id":440,"player_count":0,"max_players":24,"Bots":0,"server_type":"Dedicated","server_os":"Linux","password":true,"vac":true,"version":"7961495","steam_id":85568392924510199,"keywords":["nocrits","nodmgspread","payload","uncletopia"],"game_id":440,"stv_port":27046,"stv_name":"Uncletopia | Los Angeles | 4 | Stopwatch Beta | STV","players":null},{"server_id":11,"name":"Uncletopia | London | 1 | All Maps","name_short":"lon-1","host":"lon-1.uk.uncletopia.com","port":27015,"enabled":true,"region":"eu","cc":"gb","latitude":51.509865,"longitude":-0.118092,"reserved":0,"last_update":"0001-01-01T00:00:00Z","name_a2s":"Uncletopia | London | 1 | All Maps","protocol":17,"map":"pl_pier","folder":"tf","game":"Team Fortress","app_id":440,"player_count":19,"max_players":24,"Bots":0,"server_type":"Dedicated","server_os":"Linux","password":true,"vac":true,"version":"7961495","steam_id":85568392924367362,"keywords":["nocrits","nodmgspread","payload","uncletopia"],"game_id":440,"stv_port":27016,"stv_name":"Uncletopia | London | 1 | All Maps | STV","players":[{"user_id":90,"name":"Noam","steam_id":76561198057789807,"connected_time":1344000000000,"state":"active","ping":99},{"user_id":101,"name":"Coach","steam_id":76561198848301358,"connected_time":253000000000,"state":"active","ping":91},{"user_id":50,"name":"Reverend","steam_id":76561198059847638,"connected_time":3305000000000,"state":"active","ping":99},{"user_id":74,"name":"bird ideas","steam_id":76561199480942903,"connected_time":1957000000000,"state":"active","ping":72},{"user_id":100,"name":"Dread","steam_id":76561198075420704,"connected_time":409000000000,"state":"active","ping":80},{"user_id":102,"name":"Rex Z'Beq","steam_id":76561199300590000,"connected_time":179000000000,"state":"active","ping":85},{"user_id":91,"name":"Barry Bee Benson","steam_id":76561198115199225,"connected_time":1267000000000,"state":"active","ping":55},{"user_id":93,"name":"Jeppe","steam_id":76561198036055494,"connected_time":1151000000000,"state":"active","ping":57},{"user_id":12,"name":"Hamst123","steam_id":76561198957312452,"connected_time":5934000000000,"state":"active","ping":68},{"user_id":103,"name":"CGMaugh","steam_id":76561198259236990,"connected_time":71000000000,"state":"active","ping":55},{"user_id":96,"name":"shr","steam_id":76561198449852071,"connected_time":786000000000,"state":"active","ping":43},{"user_id":16,"name":"Economic crisis","steam_id":76561198063562843,"connected_time":5916000000000,"state":"active","ping":74},{"user_id":27,"name":"thog","steam_id":76561198219901556,"connected_time":5525000000000,"state":"active","ping":108},{"user_id":97,"name":"Kodak White","steam_id":76561198134663458,"connected_time":671000000000,"state":"active","ping":66},{"user_id":84,"name":"capitan jamacia","steam_id":76561198071440081,"connected_time":1693000000000,"state":"active","ping":90},{"user_id":98,"name":"Neimon","steam_id":76561198343485710,"connected_time":655000000000,"state":"active","ping":129},{"user_id":31,"name":"Lewylow","steam_id":76561198005425686,"connected_time":5271000000000,"state":"active","ping":53},{"user_id":47,"name":"Cosmetic brain","steam_id":76561198055936410,"connected_time":3668000000000,"state":"active","ping":88},{"user_id":73,"name":"Tomfool","steam_id":76561197993256481,"connected_time":2096000000000,"state":"active","ping":88}]},{"server_id":114,"name":"Uncletopia | London | 2 | All Maps","name_short":"lon-2","host":"lon-1.uk.uncletopia.com","port":27025,"enabled":true,"region":"eu","cc":"gb","latitude":51.509865,"longitude":-0.118092,"reserved":0,"last_update":"0001-01-01T00:00:00Z","name_a2s":"Uncletopia | London | 2 | All Maps","protocol":17,"map":"cp_snakewater_final1","folder":"tf","game":"Team Fortress","app_id":440,"player_count":0,"max_players":24,"Bots":0,"server_type":"Dedicated","server_os":"Linux","password":true,"vac":true,"version":"7961495","steam_id":85568392924470941,"keywords":["cp","nocrits","nodmgspread","uncletopia"],"game_id":440,"stv_port":27026,"stv_name":"Uncletopia | London | 2 | All Maps | STV","players":null},{"server_id":320,"name":"Uncletopia | London | 3 | All Maps","name_short":"lon-3","host":"lon-1.uk.uncletopia.com","port":27035,"enabled":true,"region":"eu","cc":"gb","latitude":51.509865,"longitude":-0.118092,"reserved":0,"last_update":"0001-01-01T00:00:00Z","name_a2s":"Uncletopia | London | 3 | All Maps","protocol":17,"map":"ctf_doublecross","folder":"tf","game":"Team Fortress","app_id":440,"player_count":0,"max_players":24,"Bots":0,"server_type":"Dedicated","server_os":"Linux","password":true,"vac":true,"version":"7961495","steam_id":85568392924510192,"keywords":["ctf","nocrits","nodmgspread","uncletopia"],"game_id":440,"stv_port":27036,"stv_name":"Uncletopia | London | 3 | All Maps | STV","players":null},{"server_id":321,"name":"Uncletopia | London | 4 | All Maps","name_short":"lon-4","host":"lon-1.uk.uncletopia.com","port":27045,"enabled":true,"region":"eu","cc":"gb","latitude":51.509865,"longitude":-0.118092,"reserved":0,"last_update":"0001-01-01T00:00:00Z","name_a2s":"Uncletopia | London | 4 | All Maps","protocol":17,"map":"koth_viaduct","folder":"tf","game":"Team Fortress","app_id":440,"player_count":0,"max_players":24,"Bots":0,"server_type":"Dedicated","server_os":"Linux","password":true,"vac":true,"version":"7961495","steam_id":85568392924510193,"keywords":["cp","nocrits","nodmgspread","uncletopia"],"game_id":440,"stv_port":27046,"stv_name":"Uncletopia | London | 4 | All Maps | STV","players":null},{"server_id":21,"name":"Uncletopia | London | 5 | All Maps","name_short":"lon-5","host":"lon-1.uk.uncletopia.com","port":27055,"enabled":true,"region":"eu","cc":"gb","latitude":51.509865,"longitude":-0.118092,"reserved":0,"last_update":"0001-01-01T00:00:00Z","name_a2s":"Uncletopia | London | 5 | All Maps","protocol":17,"map":"pl_barnblitz","folder":"tf","game":"Team Fortress","app_id":440,"player_count":0,"max_players":24,"Bots":0,"server_type":"Dedicated","server_os":"Linux","password":true,"vac":true,"version":"7961495","steam_id":85568392924742829,"keywords":["nocrits","nodmgspread","payload","uncletopia"],"game_id":440,"stv_port":27056,"stv_name":"Uncletopia | London | 5 | All Maps | STV","players":null},{"server_id":22,"name":"Uncletopia | London | 6 | All Maps","name_short":"lon-6","host":"lon-1.uk.uncletopia.com","port":27065,"enabled":true,"region":"eu","cc":"gb","latitude":51.509865,"longitude":-0.118092,"reserved":0,"last_update":"0001-01-01T00:00:00Z","name_a2s":"Uncletopia | London | 6 | All Maps","protocol":17,"map":"pl_borneo","folder":"tf","game":"Team Fortress","app_id":440,"player_count":0,"max_players":24,"Bots":0,"server_type":"Dedicated","server_os":"Linux","password":true,"vac":true,"version":"7961495","steam_id":85568392924742830,"keywords":["nocrits","nodmgspread","payload","uncletopia"],"game_id":440,"stv_port":27066,"stv_name":"Uncletopia | London | 6 | All Maps | STV","players":null},{"server_id":40,"name":"Uncletopia | London | 7 | No Payload","name_short":"lon-7","host":"lon-1.uk.uncletopia.com","port":27075,"enabled":true,"region":"eu","cc":"gb","latitude":51.509865,"longitude":-0.118092,"reserved":0,"last_update":"0001-01-01T00:00:00Z","name_a2s":"Uncletopia | London | 7 | No Payload","protocol":17,"map":"koth_brazil","folder":"tf","game":"Team Fortress","app_id":440,"player_count":0,"max_players":24,"Bots":0,"server_type":"Dedicated","server_os":"Linux","password":true,"vac":true,"version":"7961495","steam_id":85568392924964314,"keywords":["cp","nocrits","nodmgspread","uncletopia"],"game_id":440,"stv_port":27076,"stv_name":"Uncletopia | London | 7 | No Payload | STV","players":null},{"server_id":41,"name":"Uncletopia | London | 8 | Community","name_short":"lon-8","host":"lon-1.uk.uncletopia.com","port":27085,"enabled":true,"region":"eu","cc":"gb","latitude":51.509865,"longitude":-0.118092,"reserved":0,"last_update":"0001-01-01T00:00:00Z","name_a2s":"Uncletopia | London | 8 | Community","protocol":17,"map":"pl_borneo","folder":"tf","game":"Team Fortress","app_id":440,"player_count":0,"max_players":24,"Bots":0,"server_type":"Dedicated","server_os":"Linux","password":true,"vac":true,"version":"7961495","steam_id":85568392924964315,"keywords":["nocrits","nodmgspread","payload","uncletopia"],"game_id":440,"stv_port":27086,"stv_name":"Uncletopia | London | 8 | Community | STV","players":null},{"server_id":300,"name":"Uncletopia | Montréal | 1 | All Maps","name_short":"mtl-1","host":"mtl-1.ca.uncletopia.com","port":27015,"enabled":true,"region":"us-east","cc":"ca","latitude":45.50889,"longitude":-73.56167,"reserved":0,"last_update":"0001-01-01T00:00:00Z","name_a2s":"Uncletopia | Montréal | 1 | All Maps","protocol":17,"map":"pl_barnblitz","folder":"tf","game":"Team Fortress","app_id":440,"player_count":0,"max_players":24,"Bots":0,"server_type":"Dedicated","server_os":"Linux","password":true,"vac":true,"version":"7961495","steam_id":85568392924500087,"keywords":["nocrits","nodmgspread","payload","uncletopia"],"game_id":440,"stv_port":27016,"stv_name":"Uncletopia | Montréal | 1 | All Maps | STV","players":null},{"server_id":301,"name":"Uncletopia | Montréal | 2 | All Maps","name_short":"mtl-2","host":"mtl-1.ca.uncletopia.com","port":27025,"enabled":true,"region":"us-east","cc":"ca","latitude":45.50889,"longitude":-73.56167,"reserved":0,"last_update":"0001-01-01T00:00:00Z","name_a2s":"Uncletopia | Montréal | 2 | All Maps","protocol":17,"map":"pl_swiftwater_final1","folder":"tf","game":"Team Fortress","app_id":440,"player_count":0,"max_players":24,"Bots":0,"server_type":"Dedicated","server_os":"Linux","password":true,"vac":true,"version":"7961495","steam_id":85568392924500088,"keywords":["nocrits","nodmgspread","payload","uncletopia"],"game_id":440,"stv_port":27026,"stv_name":"Uncletopia | Montréal | 2 | All Maps | STV","players":null},{"server_id":302,"name":"Uncletopia | Montréal | 3 | All Maps","name_short":"mtl-3","host":"mtl-1.ca.uncletopia.com","port":27035,"enabled":true,"region":"us-east","cc":"ca","latitude":45.50889,"longitude":-73.56167,"reserved":0,"last_update":"0001-01-01T00:00:00Z","name_a2s":"Uncletopia | Montréal | 3 | All Maps","protocol":17,"map":"pl_pier","folder":"tf","game":"Team Fortress","app_id":440,"player_count":0,"max_players":24,"Bots":0,"server_type":"Dedicated","server_os":"Linux","password":true,"vac":true,"version":"7961495","steam_id":85568392924500089,"keywords":["nocrits","nodmgspread","payload","uncletopia"],"game_id":440,"stv_port":27036,"stv_name":"Uncletopia | Montréal | 3 | All Maps | STV","players":null},{"server_id":303,"name":"Uncletopia | Montréal | 4 | No Payload","name_short":"mtl-4","host":"mtl-1.ca.uncletopia.com","port":27045,"enabled":true,"region":"us-east","cc":"ca","latitude":45.50889,"longitude":-73.56167,"reserved":0,"last_update":"0001-01-01T00:00:00Z","name_a2s":"Uncletopia | Montréal | 4 | No Payload","protocol":17,"map":"koth_lakeside_final","folder":"tf","game":"Team Fortress","app_id":440,"player_count":0,"max_players":24,"Bots":0,"server_type":"Dedicated","server_os":"Linux","password":true,"vac":true,"version":"7961495","steam_id":85568392924500090,"keywords":["cp","nocrits","nodmgspread","uncletopia"],"game_id":440,"stv_port":27046,"stv_name":"Uncletopia | Montréal | 4 | No Payload | STV","players":null},{"server_id":13,"name":"Uncletopia | New York City | 1 | All Maps","name_short":"nyc-1","host":"nyc-1.us.uncletopia.com","port":27015,"enabled":true,"region":"us-east","cc":"us","latitude":40.73061,"longitude":-73.93524,"reserved":0,"last_update":"0001-01-01T00:00:00Z","name_a2s":"Uncletopia | New York City | 1 | All Maps","protocol":17,"map":"cp_snakewater_final1","folder":"tf","game":"Team Fortress","app_id":440,"player_count":0,"max_players":24,"Bots":0,"server_type":"Dedicated","server_os":"Linux","password":true,"vac":true,"version":"7961495","steam_id":85568392924469993,"keywords":["cp","nocrits","nodmgspread","uncletopia"],"game_id":440,"stv_port":27016,"stv_name":"Uncletopia | New York City | 1 | All Maps | STV","players":null},{"server_id":14,"name":"Uncletopia | New York City | 2 | All Maps","name_short":"nyc-2","host":"nyc-1.us.uncletopia.com","port":27025,"enabled":true,"region":"us-east","cc":"us","latitude":40.73061,"longitude":-73.93524,"reserved":0,"last_update":"0001-01-01T00:00:00Z","name_a2s":"Uncletopia | New York City | 2 | All Maps","protocol":17,"map":"pl_pier","folder":"tf","game":"Team Fortress","app_id":440,"player_count":0,"max_players":24,"Bots":0,"server_type":"Dedicated","server_os":"Linux","password":true,"vac":true,"version":"7961495","steam_id":85568392924469994,"keywords":["nocrits","nodmgspread","payload","uncletopia"],"game_id":440,"stv_port":27026,"stv_name":"Uncletopia | New York City | 2 | All Maps | STV","players":null},{"server_id":15,"name":"Uncletopia | New York City | 3 | Stopwatch Beta","name_short":"nyc-3","host":"nyc-1.us.uncletopia.com","port":27035,"enabled":true,"region":"us-east","cc":"us","latitude":40.73061,"longitude":-73.93524,"reserved":0,"last_update":"0001-01-01T00:00:00Z","name_a2s":"Uncletopia | New York City | 3 | Stopwatch Beta","protocol":17,"map":"workshop/pl_badwater_pro_v12.ugc2142942074","folder":"tf","game":"Team Fortress","app_id":440,"player_count":0,"max_players":24,"Bots":0,"server_type":"Dedicated","server_os":"Linux","password":true,"vac":true,"version":"7961495","steam_id":85568392924742820,"keywords":["nocrits","nodmgspread","payload","uncletopia"],"game_id":440,"stv_port":27036,"stv_name":"Uncletopia | New York City | 3 | Stopwatch Beta | STV","players":null},{"server_id":16,"name":"Uncletopia | New York City | 4 | Community","name_short":"nyc-4","host":"nyc-1.us.uncletopia.com","port":27045,"enabled":true,"region":"us-east","cc":"us","latitude":40.73061,"longitude":-73.93524,"reserved":0,"last_update":"0001-01-01T00:00:00Z","name_a2s":"Uncletopia | New York City | 4 | Community","protocol":17,"map":"workshop/cp_indulge.ugc528106646","folder":"tf","game":"Team Fortress","app_id":440,"player_count":0,"max_players":24,"Bots":0,"server_type":"Dedicated","server_os":"Linux","password":true,"vac":true,"version":"7961495","steam_id":85568392924742821,"keywords":["cp","nocrits","nodmgspread","uncletopia"],"game_id":440,"stv_port":27046,"stv_name":"Uncletopia | New York City | 4 | Community | STV","players":null},{"server_id":142,"name":"Uncletopia | São Paulo | 1 | All Maps","name_short":"sao-1","host":"sao-1.br.uncletopia.com","port":27015,"enabled":true,"region":"sa","cc":"br","latitude":-23.533773,"longitude":-46.62529,"reserved":0,"last_update":"0001-01-01T00:00:00Z","name_a2s":"Uncletopia | São Paulo | 1 | All Maps","protocol":17,"map":"koth_cascade","folder":"tf","game":"Team Fortress","app_id":440,"player_count":0,"max_players":24,"Bots":0,"server_type":"Dedicated","server_os":"Linux","password":true,"vac":true,"version":"7961495","steam_id":85568392924469996,"keywords":["cp","nocrits","nodmgspread","uncletopia"],"game_id":440,"stv_port":27016,"stv_name":"Uncletopia | São Paulo | 1 | All Maps | STV","players":null},{"server_id":143,"name":"Uncletopia | São Paulo | 2 | Community","name_short":"sao-2","host":"sao-2.br.uncletopia.com","port":27015,"enabled":true,"region":"sa","cc":"br","latitude":-23.533773,"longitude":-46.62529,"reserved":0,"last_update":"0001-01-01T00:00:00Z","name_a2s":"Uncletopia | São Paulo | 2 | Community","protocol":17,"map":"workshop/cp_indulge.ugc528106646","folder":"tf","game":"Team Fortress","app_id":440,"player_count":0,"max_players":24,"Bots":0,"server_type":"Dedicated","server_os":"Linux","password":true,"vac":true,"version":"7961495","steam_id":85568392924485349,"keywords":["cp","nocrits","nodmgspread","uncletopia"],"game_id":440,"stv_port":27016,"stv_name":"Uncletopia | São Paulo | 2 | Community | STV","players":null},{"server_id":7,"name":"Uncletopia | Seattle | 1 | All Maps","name_short":"sea-1","host":"sea-1.us.uncletopia.com","port":27015,"enabled":true,"region":"us-west","cc":"us","latitude":47.608013,"longitude":-122.33517,"reserved":0,"last_update":"0001-01-01T00:00:00Z","name_a2s":"Uncletopia | Seattle | 1 | All Maps","protocol":17,"map":"pl_borneo","folder":"tf","game":"Team Fortress","app_id":440,"player_count":24,"max_players":24,"Bots":0,"server_type":"Dedicated","server_os":"Linux","password":true,"vac":true,"version":"7961495","steam_id":85568392924469997,"keywords":["nocrits","nodmgspread","payload","uncletopia"],"game_id":440,"stv_port":27016,"stv_name":"Uncletopia | Seattle | 1 | All Maps | STV","players":[{"user_id":854,"name":"squash","steam_id":76561198150281353,"connected_time":1667000000000,"state":"active","ping":57},{"user_id":859,"name":"litroolay","steam_id":76561197995226856,"connected_time":1320000000000,"state":"active","ping":36},{"user_id":850,"name":"Arsonist Goose","steam_id":76561198147441830,"connected_time":2867000000000,"state":"active","ping":70},{"user_id":837,"name":"Das Anchor","steam_id":76561198060173151,"connected_time":3527000000000,"state":"active","ping":94},{"user_id":851,"name":"roryisonamobilehotspot","steam_id":76561198065825165,"connected_time":2858000000000,"state":"active","ping":104},{"user_id":855,"name":"JACK BRUNO","steam_id":76561198027957690,"connected_time":1501000000000,"state":"active","ping":73},{"user_id":818,"name":"westward (was/were)","steam_id":76561198805512350,"connected_time":5192000000000,"state":"active","ping":61},{"user_id":856,"name":"fungi","steam_id":76561198169755734,"connected_time":1358000000000,"state":"active","ping":72},{"user_id":863,"name":"lil boogie","steam_id":76561198064059721,"connected_time":454000000000,"state":"active","ping":44},{"user_id":852,"name":"Peppy","steam_id":76561198866629645,"connected_time":2293000000000,"state":"active","ping":60},{"user_id":864,"name":"crunchy obama","steam_id":76561198044485217,"connected_time":358000000000,"state":"active","ping":84},{"user_id":848,"name":"Goosey","steam_id":76561198139648585,"connected_time":2968000000000,"state":"active","ping":85},{"user_id":860,"name":"forest (minecraft npc)","steam_id":76561198157960257,"connected_time":1319000000000,"state":"active","ping":45},{"user_id":865,"name":"tobrehto","steam_id":76561198097544038,"connected_time":357000000000,"state":"active","ping":81},{"user_id":867,"name":"kenZino","steam_id":76561197967971192,"connected_time":170000000000,"state":"active","ping":46},{"user_id":842,"name":"pog cow","steam_id":76561198309823950,"connected_time":3442000000000,"state":"active","ping":34},{"user_id":821,"name":"HotHead","steam_id":76561198138468982,"connected_time":4995000000000,"state":"active","ping":53},{"user_id":849,"name":"NEBULA","steam_id":76561198086878595,"connected_time":2897000000000,"state":"active","ping":74},{"user_id":794,"name":"mike, agro drunk","steam_id":76561198225411004,"connected_time":7468000000000,"state":"active","ping":70},{"user_id":869,"name":"Paradox","steam_id":76561198450881715,"connected_time":0,"state":"spawning","ping":22},{"user_id":825,"name":"Villchip","steam_id":76561198198599982,"connected_time":4867000000000,"state":"active","ping":51},{"user_id":800,"name":"Ayayayayayahuasca","steam_id":76561199002906056,"connected_time":7371000000000,"state":"active","ping":52},{"user_id":820,"name":"Cheezbeargur","steam_id":76561198164702899,"connected_time":5109000000000,"state":"active","ping":71},{"user_id":832,"name":"oil","steam_id":76561198099980149,"connected_time":4333000000000,"state":"active","ping":76}]},{"server_id":119,"name":"Uncletopia | Seattle | 2 | All Maps","name_short":"sea-2","host":"sea-1.us.uncletopia.com","port":27025,"enabled":true,"region":"us-west","cc":"us","latitude":47.608013,"longitude":-122.33517,"reserved":0,"last_update":"0001-01-01T00:00:00Z","name_a2s":"Uncletopia | Seattle | 2 | All Maps","protocol":17,"map":"koth_highpass","folder":"tf","game":"Team Fortress","app_id":440,"player_count":15,"max_players":24,"Bots":0,"server_type":"Dedicated","server_os":"Linux","password":true,"vac":true,"version":"7961495","steam_id":85568392924469998,"keywords":["cp","nocrits","nodmgspread","uncletopia"],"game_id":440,"stv_port":27026,"stv_name":"Uncletopia | Seattle | 2 | All Maps | STV","players":[{"user_id":515,"name":"giveit5","steam_id":76561198030815437,"connected_time":430000000000,"state":"active","ping":79},{"user_id":502,"name":"DannyGamerXD","steam_id":76561198799224408,"connected_time":1614000000000,"state":"active","ping":114},{"user_id":509,"name":"NotThatGuyPal","steam_id":76561199127607812,"connected_time":769000000000,"state":"active","ping":79},{"user_id":510,"name":"Moris","steam_id":76561198280461456,"connected_time":741000000000,"state":"active","ping":69},{"user_id":485,"name":"summerlis","steam_id":76561198165324438,"connected_time":2241000000000,"state":"active","ping":63},{"user_id":507,"name":"Oaky Loafs","steam_id":76561198317179010,"connected_time":817000000000,"state":"active","ping":57},{"user_id":494,"name":"GameBreaker","steam_id":76561198836171572,"connected_time":1819000000000,"state":"active","ping":56},{"user_id":488,"name":"here2he1p","steam_id":76561199216977630,"connected_time":2124000000000,"state":"active","ping":74},{"user_id":491,"name":"The King of Piss World","steam_id":76561198082806956,"connected_time":1968000000000,"state":"active","ping":143},{"user_id":512,"name":"Shopkeeper","steam_id":76561198105888756,"connected_time":733000000000,"state":"active","ping":69},{"user_id":495,"name":"spurious george","steam_id":76561198043558709,"connected_time":1808000000000,"state":"active","ping":55},{"user_id":513,"name":"zeel107","steam_id":76561198063892990,"connected_time":674000000000,"state":"active","ping":52},{"user_id":459,"name":"10HourNaps","steam_id":76561199082304859,"connected_time":3830000000000,"state":"active","ping":56},{"user_id":486,"name":"Happy Chaos","steam_id":76561198194248527,"connected_time":2226000000000,"state":"active","ping":44},{"user_id":498,"name":"WaveSmash","steam_id":76561198208785485,"connected_time":1753000000000,"state":"active","ping":85}]},{"server_id":406,"name":"Uncletopia | Seattle | 3 | Stopwatch Beta","name_short":"sea-3","host":"sea-1.us.uncletopia.com","port":27035,"enabled":true,"region":"us-west","cc":"us","latitude":47.608013,"longitude":-122.33517,"reserved":0,"last_update":"0001-01-01T00:00:00Z","name_a2s":"Uncletopia | Seattle | 3 | Stopwatch Beta","protocol":17,"map":"workshop/koth_ramjam_rc1.ugc459778887","folder":"tf","game":"Team Fortress","app_id":440,"player_count":0,"max_players":24,"Bots":0,"server_type":"Dedicated","server_os":"Linux","password":true,"vac":true,"version":"7961495","steam_id":85568392924515217,"keywords":["cp","nocrits","nodmgspread","uncletopia"],"game_id":440,"stv_port":27036,"stv_name":"Uncletopia | Seattle | 3 | Stopwatch Beta | STV","players":null},{"server_id":17,"name":"Uncletopia | San Francisco | 1 | All Maps","name_short":"sfo-1","host":"sfo-1.us.uncletopia.com","port":27015,"enabled":true,"region":"us-west","cc":"us","latitude":37.77397,"longitude":-122.4313,"reserved":0,"last_update":"0001-01-01T00:00:00Z","name_a2s":"Uncletopia | San Francisco | 1 | All Maps","protocol":17,"map":"pl_badwater","folder":"tf","game":"Team Fortress","app_id":440,"player_count":24,"max_players":24,"Bots":0,"server_type":"Dedicated","server_os":"Linux","password":true,"vac":true,"version":"7961495","steam_id":85568392924469999,"keywords":["nocrits","nodmgspread","payload","uncletopia"],"game_id":440,"stv_port":27016,"stv_name":"Uncletopia | San Francisco | 1 | All Maps | STV","players":[{"user_id":297,"name":"Sleuth","steam_id":76561198418288939,"connected_time":3589000000000,"state":"active","ping":56},{"user_id":329,"name":"Loogus","steam_id":76561198811561721,"connected_time":987000000000,"state":"active","ping":66},{"user_id":306,"name":"Amogous Supreme","steam_id":76561198025476774,"connected_time":2306000000000,"state":"active","ping":55},{"user_id":308,"name":"Mk","steam_id":76561198139790822,"connected_time":2204000000000,"state":"active","ping":110},{"user_id":272,"name":"Ian da dog","steam_id":76561198159334435,"connected_time":5282000000000,"state":"active","ping":179},{"user_id":334,"name":"CaptainPikachu","steam_id":76561198075667401,"connected_time":656000000000,"state":"active","ping":78},{"user_id":320,"name":"Sir Grey The Ranger","steam_id":76561198096235582,"connected_time":1420000000000,"state":"active","ping":106},{"user_id":330,"name":"Artic_Ryuu","steam_id":76561198182194918,"connected_time":975000000000,"state":"active","ping":48},{"user_id":315,"name":"Ryshy02","steam_id":76561198055425447,"connected_time":2024000000000,"state":"active","ping":82},{"user_id":335,"name":"Keamy","steam_id":76561199471434875,"connected_time":395000000000,"state":"active","ping":60},{"user_id":310,"name":"ImmuneToPeas","steam_id":76561198342411594,"connected_time":2157000000000,"state":"active","ping":71},{"user_id":285,"name":"Buffalo Gold","steam_id":76561198119693806,"connected_time":4299000000000,"state":"active","ping":59},{"user_id":328,"name":"Flare Dance","steam_id":76561198260443137,"connected_time":1004000000000,"state":"active","ping":72},{"user_id":270,"name":"Paul Gaming","steam_id":76561198065538229,"connected_time":5376000000000,"state":"active","ping":59},{"user_id":336,"name":"Snork Porklet","steam_id":76561198022556859,"connected_time":354000000000,"state":"active","ping":105},{"user_id":278,"name":"Higuma","steam_id":76561198375229012,"connected_time":4789000000000,"state":"active","ping":56},{"user_id":332,"name":"vulcan nightclub pon farr night","steam_id":76561197974283797,"connected_time":931000000000,"state":"active","ping":106},{"user_id":300,"name":"TonyBoi43","steam_id":76561198299127756,"connected_time":3349000000000,"state":"active","ping":67},{"user_id":333,"name":"The Horselords and Animal Gods","steam_id":76561197975094050,"connected_time":910000000000,"state":"active","ping":66},{"user_id":324,"name":"PocketTieAMPLFY","steam_id":76561199080485881,"connected_time":1229000000000,"state":"active","ping":148},{"user_id":326,"name":"Five","steam_id":76561198026640473,"connected_time":1041000000000,"state":"active","ping":65},{"user_id":337,"name":"Crooked--Savant","steam_id":76561198070937094,"connected_time":318000000000,"state":"active","ping":44},{"user_id":296,"name":"Mr. Carfox","steam_id":76561198041664428,"connected_time":3645000000000,"state":"active","ping":45},{"user_id":317,"name":"Anthid","steam_id":76561198074493797,"connected_time":1776000000000,"state":"active","ping":62}]},{"server_id":18,"name":"Uncletopia | San Francisco | 2 | All Maps","name_short":"sfo-2","host":"sfo-1.us.uncletopia.com","port":27025,"enabled":true,"region":"us-west","cc":"us","latitude":37.77397,"longitude":-122.4313,"reserved":0,"last_update":"0001-01-01T00:00:00Z","name_a2s":"Uncletopia | San Francisco | 2 | All Maps","protocol":17,"map":"pl_badwater","folder":"tf","game":"Team Fortress","app_id":440,"player_count":11,"max_players":24,"Bots":0,"server_type":"Dedicated","server_os":"Linux","password":true,"vac":true,"version":"7961495","steam_id":85568392924470000,"keywords":["nocrits","nodmgspread","payload","uncletopia"],"game_id":440,"stv_port":27026,"stv_name":"Uncletopia | San Francisco | 2 | All Maps | STV","players":[{"user_id":327,"name":"SOGGY DOGGY","steam_id":76561199158847498,"connected_time":1583000000000,"state":"active","ping":57},{"user_id":328,"name":"Thequirka #ForBlu2th","steam_id":76561198968058652,"connected_time":1515000000000,"state":"active","ping":70},{"user_id":335,"name":"freyja","steam_id":76561198012480197,"connected_time":366000000000,"state":"active","ping":44},{"user_id":334,"name":"Phoenix","steam_id":76561199465534945,"connected_time":750000000000,"state":"active","ping":76},{"user_id":336,"name":"Willowl","steam_id":76561198074612980,"connected_time":366000000000,"state":"active","ping":133},{"user_id":338,"name":"Ahten Xevious","steam_id":76561198075469828,"connected_time":217000000000,"state":"active","ping":105},{"user_id":339,"name":"Chap","steam_id":76561198294226443,"connected_time":85000000000,"state":"active","ping":56},{"user_id":285,"name":"Lambchop","steam_id":76561198043900363,"connected_time":7329000000000,"state":"active","ping":59},{"user_id":305,"name":"Seshreb","steam_id":76561198846614634,"connected_time":5424000000000,"state":"active","ping":62},{"user_id":283,"name":"Mapachito Lindo","steam_id":76561198031359995,"connected_time":7410000000000,"state":"active","ping":67},{"user_id":303,"name":"Dragoninventor (He/Him)","steam_id":76561198956224948,"connected_time":5786000000000,"state":"active","ping":72}]},{"server_id":19,"name":"Uncletopia | San Francisco | 3 | Stopwatch Beta","name_short":"sfo-3","host":"sfo-1.us.uncletopia.com","port":27035,"enabled":true,"region":"us-west","cc":"us","latitude":37.77397,"longitude":-122.4313,"reserved":0,"last_update":"0001-01-01T00:00:00Z","name_a2s":"Uncletopia | San Francisco | 3 | Stopwatch Beta","protocol":17,"map":"workshop/pl_vigil_rc9.ugc1266210012","folder":"tf","game":"Team Fortress","app_id":440,"player_count":0,"max_players":24,"Bots":0,"server_type":"Dedicated","server_os":"Linux","password":true,"vac":true,"version":"7961495","steam_id":85568392924742824,"keywords":["nocrits","nodmgspread","payload","uncletopia"],"game_id":440,"stv_port":27036,"stv_name":"Uncletopia | San Francisco | 3 | Stopwatch Beta | STV","players":null},{"server_id":20,"name":"Uncletopia | San Francisco | 4 | Community","name_short":"sfo-4","host":"sfo-1.us.uncletopia.com","port":27045,"enabled":true,"region":"us-west","cc":"us","latitude":37.77397,"longitude":-122.4313,"reserved":0,"last_update":"0001-01-01T00:00:00Z","name_a2s":"Uncletopia | San Francisco | 4 | Community","protocol":17,"map":"workshop/pl_highwood_b13.ugc1769496557","folder":"tf","game":"Team Fortress","app_id":440,"player_count":0,"max_players":24,"Bots":0,"server_type":"Dedicated","server_os":"Linux","password":true,"vac":true,"version":"7961495","steam_id":85568392924742826,"keywords":["nocrits","nodmgspread","payload","uncletopia"],"game_id":440,"stv_port":27046,"stv_name":"Uncletopia | San Francisco | 4 | Community | STV","players":null},{"server_id":141,"name":"Uncletopia | Sydney | 1 | All Maps","name_short":"syd-1","host":"syd-1.au.uncletopia.com","port":27015,"enabled":true,"region":"au","cc":"au","latitude":-33.865143,"longitude":151.2099,"reserved":0,"last_update":"0001-01-01T00:00:00Z","name_a2s":"Uncletopia | Sydney | 1 | All Maps","protocol":17,"map":"pl_badwater","folder":"tf","game":"Team Fortress","app_id":440,"player_count":22,"max_players":24,"Bots":0,"server_type":"Dedicated","server_os":"Linux","password":true,"vac":true,"version":"7961495","steam_id":85568392924470001,"keywords":["nocrits","nodmgspread","payload","uncletopia"],"game_id":440,"stv_port":27016,"stv_name":"Uncletopia | Sydney | 1 | All Maps | STV","players":[{"user_id":60,"name":"Wigglytuff","steam_id":76561198011032527,"connected_time":51000000000,"state":"active","ping":58},{"user_id":44,"name":"loliconon","steam_id":76561198171302857,"connected_time":480000000000,"state":"active","ping":60},{"user_id":5,"name":"cakey","steam_id":76561198173746761,"connected_time":3010000000000,"state":"active","ping":52},{"user_id":51,"name":"miko1998","steam_id":76561198093006377,"connected_time":356000000000,"state":"active","ping":76},{"user_id":8,"name":"Drakeo","steam_id":76561198268859184,"connected_time":2899000000000,"state":"active","ping":85},{"user_id":20,"name":"using a laptop","steam_id":76561199445302425,"connected_time":1868000000000,"state":"active","ping":159},{"user_id":21,"name":"Gallamellow","steam_id":76561198069046033,"connected_time":1837000000000,"state":"active","ping":39},{"user_id":12,"name":"Doctor Estonia","steam_id":76561198057365089,"connected_time":2568000000000,"state":"active","ping":78},{"user_id":45,"name":"wom","steam_id":76561199375834537,"connected_time":467000000000,"state":"active","ping":135},{"user_id":56,"name":"Bobby Wilkinson","steam_id":76561198054985347,"connected_time":265000000000,"state":"active","ping":57},{"user_id":48,"name":"covenofbats","steam_id":76561198152117315,"connected_time":427000000000,"state":"active","ping":45},{"user_id":61,"name":"Cozza","steam_id":76561198090069548,"connected_time":5000000000,"state":"spawning","ping":55},{"user_id":52,"name":"DonkeyKing","steam_id":76561199380484053,"connected_time":341000000000,"state":"active","ping":69},{"user_id":55,"name":"Pizza the Hut","steam_id":76561198406755720,"connected_time":317000000000,"state":"active","ping":57},{"user_id":54,"name":"ree boy","steam_id":76561199024189820,"connected_time":328000000000,"state":"active","ping":74},{"user_id":34,"name":"jimmy_bogy","steam_id":76561199112672026,"connected_time":1014000000000,"state":"active","ping":67},{"user_id":36,"name":"carey.yang","steam_id":76561199042355967,"connected_time":911000000000,"state":"active","ping":55},{"user_id":37,"name":"Trotter","steam_id":76561198343965263,"connected_time":790000000000,"state":"active","ping":62},{"user_id":38,"name":"jone","steam_id":76561198285234796,"connected_time":726000000000,"state":"active","ping":84},{"user_id":41,"name":"trash","steam_id":76561198110764631,"connected_time":657000000000,"state":"active","ping":56},{"user_id":42,"name":"Chrisy","steam_id":76561198092382473,"connected_time":640000000000,"state":"active","ping":80},{"user_id":43,"name":"Sk8rrrr","steam_id":76561198334646675,"connected_time":632000000000,"state":"active","ping":41}]},{"server_id":123,"name":"Uncletopia | Sydney | 2 | All Maps","name_short":"syd-2","host":"syd-1.au.uncletopia.com","port":27025,"enabled":true,"region":"au","cc":"au","latitude":-33.865143,"longitude":151.2099,"reserved":0,"last_update":"0001-01-01T00:00:00Z","name_a2s":"Uncletopia | Sydney | 2 | All Maps","protocol":17,"map":"pl_snowycoast","folder":"tf","game":"Team Fortress","app_id":440,"player_count":0,"max_players":24,"Bots":0,"server_type":"Dedicated","server_os":"Linux","password":true,"vac":true,"version":"7961495","steam_id":85568392924470002,"keywords":["nocrits","nodmgspread","payload","uncletopia"],"game_id":440,"stv_port":27026,"stv_name":"Uncletopia | Sydney | 2 | All Maps | STV","players":null},{"server_id":395,"name":"Uncletopia | Sydney | 3 | All Maps","name_short":"syd-3","host":"syd-1.au.uncletopia.com","port":27035,"enabled":true,"region":"au","cc":"au","latitude":-33.865143,"longitude":151.2099,"reserved":0,"last_update":"0001-01-01T00:00:00Z","name_a2s":"Uncletopia | Sydney | 3 | All Maps","protocol":17,"map":"cp_dustbowl","folder":"tf","game":"Team Fortress","app_id":440,"player_count":0,"max_players":24,"Bots":0,"server_type":"Dedicated","server_os":"Linux","password":true,"vac":true,"version":"7961495","steam_id":85568392925194467,"keywords":["cp","nocrits","nodmgspread","uncletopia"],"game_id":440,"stv_port":27036,"stv_name":"Uncletopia | Sydney | 3 | All Maps | STV","players":null},{"server_id":396,"name":"Uncletopia | Sydney | 4 | All Maps","name_short":"syd-4","host":"syd-1.au.uncletopia.com","port":27045,"enabled":true,"region":"au","cc":"au","latitude":-33.865143,"longitude":151.2099,"reserved":0,"last_update":"0001-01-01T00:00:00Z","name_a2s":"Uncletopia | Sydney | 4 | All Maps","protocol":17,"map":"cp_dustbowl","folder":"tf","game":"Team Fortress","app_id":440,"player_count":0,"max_players":24,"Bots":0,"server_type":"Dedicated","server_os":"Linux","password":true,"vac":true,"version":"7961495","steam_id":85568392925397958,"keywords":["cp","nocrits","nodmgspread","uncletopia"],"game_id":440,"stv_port":27046,"stv_name":"Uncletopia | Sydney | 4 | All Maps | STV","players":null},{"server_id":58,"name":"Uncletopia | Sydney | 5 | Stopwatch Beta","name_short":"syd-5","host":"syd-1.au.uncletopia.com","port":27055,"enabled":true,"region":"au","cc":"au","latitude":-33.865143,"longitude":151.2099,"reserved":0,"last_update":"0001-01-01T00:00:00Z","name_a2s":"Uncletopia | Sydney | 5 | Stopwatch Beta","protocol":17,"map":"koth_viaduct","folder":"tf","game":"Team Fortress","app_id":440,"player_count":0,"max_players":24,"Bots":0,"server_type":"Dedicated","server_os":"Linux","password":true,"vac":true,"version":"7961495","steam_id":85568392925397959,"keywords":["cp","nocrits","nodmgspread","uncletopia"],"game_id":440,"stv_port":27056,"stv_name":"Uncletopia | Sydney | 5 | Stopwatch Beta | STV","players":null},{"server_id":59,"name":"Uncletopia | Sydney | 6 | Community","name_short":"syd-6","host":"syd-1.au.uncletopia.com","port":27065,"enabled":true,"region":"au","cc":"au","latitude":-33.865143,"longitude":151.2099,"reserved":0,"last_update":"0001-01-01T00:00:00Z","name_a2s":"Uncletopia | Sydney | 6 | Community","protocol":17,"map":"koth_cascade","folder":"tf","game":"Team Fortress","app_id":440,"player_count":0,"max_players":24,"Bots":0,"server_type":"Dedicated","server_os":"Linux","password":true,"vac":true,"version":"7961495","steam_id":85568392925397960,"keywords":["cp","nocrits","nodmgspread","uncletopia"],"game_id":440,"stv_port":27066,"stv_name":"Uncletopia | Sydney | 6 | Community | STV","players":null},{"server_id":49,"name":"Uncletopia | Warsaw | 1 | All Maps","name_short":"waw-1","host":"waw-1.pl.uncletopia.com","port":27015,"enabled":true,"region":"eu","cc":"pl","latitude":52.2297,"longitude":21.017532,"reserved":0,"last_update":"0001-01-01T00:00:00Z","name_a2s":"Uncletopia | Warsaw | 1 | All Maps","protocol":17,"map":"pl_swiftwater_final1","folder":"tf","game":"Team Fortress","app_id":440,"player_count":0,"max_players":24,"Bots":0,"server_type":"Dedicated","server_os":"Linux","password":true,"vac":true,"version":"7961495","steam_id":85568392925397850,"keywords":["nocrits","nodmgspread","payload","uncletopia"],"game_id":440,"stv_port":27016,"stv_name":"Uncletopia | Warsaw | 1 | All Maps | STV","players":null},{"server_id":50,"name":"Uncletopia | Warsaw | 2 | All Maps","name_short":"waw-2","host":"waw-1.pl.uncletopia.com","port":27025,"enabled":true,"region":"eu","cc":"pl","latitude":52.2297,"longitude":21.017532,"reserved":0,"last_update":"0001-01-01T00:00:00Z","name_a2s":"Uncletopia | Warsaw | 2 | All Maps","protocol":17,"map":"cp_dustbowl","folder":"tf","game":"Team Fortress","app_id":440,"player_count":0,"max_players":24,"Bots":0,"server_type":"Dedicated","server_os":"Linux","password":true,"vac":true,"version":"7961495","steam_id":85568392925397851,"keywords":["cp","nocrits","nodmgspread","uncletopia"],"game_id":440,"stv_port":27026,"stv_name":"Uncletopia | Warsaw | 2 | All Maps | STV","players":null},{"server_id":51,"name":"Uncletopia | Warsaw | 3 | All Maps","name_short":"waw-3","host":"waw-1.pl.uncletopia.com","port":27035,"enabled":true,"region":"eu","cc":"pl","latitude":52.2297,"longitude":21.017532,"reserved":0,"last_update":"0001-01-01T00:00:00Z","name_a2s":"Uncletopia | Warsaw | 3 | All Maps","protocol":17,"map":"pl_upward","folder":"tf","game":"Team Fortress","app_id":440,"player_count":0,"max_players":24,"Bots":0,"server_type":"Dedicated","server_os":"Linux","password":true,"vac":true,"version":"7961495","steam_id":85568392925397852,"keywords":["nocrits","nodmgspread","payload","uncletopia"],"game_id":440,"stv_port":27036,"stv_name":"Uncletopia | Warsaw | 3 | All Maps | STV","players":null},{"server_id":52,"name":"Uncletopia | Warsaw | 4 | All Maps","name_short":"waw-4","host":"waw-1.pl.uncletopia.com","port":27045,"enabled":true,"region":"eu","cc":"pl","latitude":52.2297,"longitude":21.017532,"reserved":0,"last_update":"0001-01-01T00:00:00Z","name_a2s":"Uncletopia | Warsaw | 4 | All Maps","protocol":17,"map":"koth_viaduct","folder":"tf","game":"Team Fortress","app_id":440,"player_count":0,"max_players":24,"Bots":0,"server_type":"Dedicated","server_os":"Linux","password":true,"vac":true,"version":"7961495","steam_id":85568392925397853,"keywords":["cp","nocrits","nodmgspread","uncletopia"],"game_id":440,"stv_port":27046,"stv_name":"Uncletopia | Warsaw | 4 | All Maps | STV","players":null},{"server_id":53,"name":"Uncletopia | Warsaw | 5 | Stopwatch Beta","name_short":"waw-5","host":"waw-1.pl.uncletopia.com","port":27055,"enabled":true,"region":"eu","cc":"pl","latitude":52.2297,"longitude":21.017532,"reserved":0,"last_update":"0001-01-01T00:00:00Z","name_a2s":"Uncletopia | Warsaw | 5 | Stopwatch Beta","protocol":17,"map":"cp_snakewater_final1","folder":"tf","game":"Team Fortress","app_id":440,"player_count":0,"max_players":24,"Bots":0,"server_type":"Dedicated","server_os":"Linux","password":true,"vac":true,"version":"7961495","steam_id":85568392925397854,"keywords":["cp","nocrits","nodmgspread","uncletopia"],"game_id":440,"stv_port":27056,"stv_name":"Uncletopia | Warsaw | 5 | Stopwatch Beta | STV","players":null},{"server_id":54,"name":"Uncletopia | Warsaw | 6 | Community","name_short":"waw-6","host":"waw-1.pl.uncletopia.com","port":27065,"enabled":true,"region":"eu","cc":"pl","latitude":52.2297,"longitude":21.017532,"reserved":0,"last_update":"0001-01-01T00:00:00Z","name_a2s":"Uncletopia | Warsaw | 6 | Community","protocol":17,"map":"workshop/cp_glacier_rc6.ugc2905735376","folder":"tf","game":"Team Fortress","app_id":440,"player_count":0,"max_players":24,"Bots":0,"server_type":"Dedicated","server_os":"Linux","password":true,"vac":true,"version":"7961495","steam_id":85568392925397856,"keywords":["cp","nocrits","nodmgspread","uncletopia"],"game_id":440,"stv_port":27066,"stv_name":"Uncletopia | Warsaw | 6 | Community | STV","players":null}]}