{"status":true,"message":"","result":[{"server_id":9,"name":"Uncletopia | Atlanta | 1 | All Maps","name_short":"atl-1","host":"atl-1.us.uncletopia.com","port":27015,"enabled":true,"region":"us-east","cc":"us","latitude":33.753746,"longitude":-84.38633,"reserved":0,"last_update":"0001-01-01T00:00:00Z","name_a2s":"Uncletopia | Atlanta | 1 | All Maps","protocol":17,"map":"koth_lakeside_final","folder":"tf","game":"Team Fortress","app_id":440,"player_count":0,"max_players":24,"Bots":0,"server_type":"Dedicated","server_os":"Linux","password":true,"vac":true,"version":"7757534","steam_id":85568392924469982,"keywords":["cp","nocrits","nodmgspread","uncletopia"],"game_id":440,"stv_port":27016,"stv_name":"Uncletopia | Atlanta | 1 | All Maps | STV","players":null},{"server_id":104,"name":"Uncletopia | Atlanta | 2 | All Maps","name_short":"atl-2","host":"atl-1.us.uncletopia.com","port":27025,"enabled":true,"region":"us-east","cc":"us","latitude":33.753746,"longitude":-84.38633,"reserved":0,"last_update":"0001-01-01T00:00:00Z","name_a2s":"Uncletopia | Atlanta | 2 | All Maps","protocol":17,"map":"cp_snakewater_final1","folder":"tf","game":"Team Fortress","app_id":440,"player_count":0,"max_players":24,"Bots":0,"server_type":"Dedicated","server_os":"Linux","password":true,"vac":true,"version":"7757534","steam_id":85568392924469983,"keywords":["cp","nocrits","nodmgspread","uncletopia"],"game_id":440,"stv_port":27026,"stv_name":"Uncletopia | Atlanta | 2 | All Maps | STV","players":null},{"server_id":400,"name":"Uncletopia | Atlanta | 3 | Community","name_short":"atl-3","host":"atl-1.us.uncletopia.com","port":27035,"enabled":true,"region":"us-east","cc":"us","latitude":33.753746,"longitude":-84.38633,"reserved":0,"last_update":"0001-01-01T00:00:00Z","name_a2s":"Uncletopia | Atlanta | 3 | Community","protocol":17,"map":"workshop/pl_fifthcurve_rc1.ugc648227046","folder":"tf","game":"Team Fortress","app_id":440,"player_count":0,"max_players":24,"Bots":0,"server_type":"Dedicated","server_os":"Linux","password":true,"vac":true,"version":"7757534","steam_id":85568392924515187,"keywords":["nocrits","nodmgspread","payload","uncletopia"],"game_id":440,"stv_port":27036,"stv_name":"Uncletopia | Atlanta | 3 | Community | STV","players":null},{"server_id":401,"name":"Uncletopia | Atlanta | 4 | No Payload","name_short":"atl-4","host":"atl-1.us.uncletopia.com","port":27045,"enabled":true,"region":"us-east","cc":"us","latitude":33.753746,"longitude":-84.38633,"reserved":0,"last_update":"0001-01-01T00:00:00Z","name_a2s":"","protocol":0,"map":"","folder":"","game":"","app_id":0,"player_count":0,"max_players":0,"Bots":0,"server_type":"","server_os":"","password":false,"vac":false,"version":"","steam_id":0,"keywords":null,"game_id":0,"stv_port":0,"stv_name":"","players":null},{"server_id":2,"name":"Uncletopia | Chicago | 1 | All Maps","name_short":"chi-1","host":"chi-1.us.uncletopia.com","port":27015,"enabled":true,"region":"us-central","cc":"us","latitude":41.881832,"longitude":-87.62318,"reserved":0,"last_update":"0001-01-01T00:00:00Z","name_a2s":"Uncletopia | Chicago | 1 | All Maps","protocol":17,"map":"cp_snakewater_final1","folder":"tf","game":"Team Fortress","app_id":440,"player_count":7,"max_players":24,"Bots":0,"server_type":"Dedicated","server_os":"Linux","password":true,"vac":true,"version":"7757534","steam_id":85568392924469984,"keywords":["cp","nocrits","nodmgspread","uncletopia"],"game_id":440,"stv_port":27016,"stv_name":"Uncletopia | Chicago | 1 | All Maps | STV","players":[{"user_id":797,"name":"Dopple","steam_id":76561198027520183,"connected_time":3303000000000,"state":"active","ping":55},{"user_id":798,"name":"Kevin Edwards","steam_id":76561197998808319,"connected_time":3235000000000,"state":"active","ping":55},{"user_id":802,"name":"fruitymario","steam_id":76561198047190430,"connected_time":566000000000,"state":"active","ping":77},{"user_id":803,"name":"ZBaldTop","steam_id":76561199396318132,"connected_time":549000000000,"state":"active","ping":44},{"user_id":804,"name":"Gachalover","steam_id":76561199231552074,"connected_time":496000000000,"state":"active","ping":69},{"user_id":805,"name":"Drewey","steam_id":76561199258609863,"connected_time":465000000000,"state":"active","ping":53},{"user_id":806,"name":"Invisible Teammate","steam_id":76561197986477544,"connected_time":409000000000,"state":"active","ping":74}]},{"server_id":106,"name":"Uncletopia | Chicago | 2 | All Maps","name_short":"chi-2","host":"chi-1.us.uncletopia.com","port":27025,"enabled":true,"region":"us-central","cc":"us","latitude":41.881832,"longitude":-87.62318,"reserved":0,"last_update":"0001-01-01T00:00:00Z","name_a2s":"Uncletopia | Chicago | 2 | All Maps","protocol":17,"map":"pl_swiftwater_final1","folder":"tf","game":"Team Fortress","app_id":440,"player_count":24,"max_players":24,"Bots":0,"server_type":"Dedicated","server_os":"Linux","password":true,"vac":true,"version":"7757534","steam_id":85568392924469985,"keywords":["nocrits","nodmgspread","payload","uncletopia"],"game_id":440,"stv_port":27026,"stv_name":"Uncletopia | Chicago | 2 | All Maps | STV","players":[{"user_id":549,"name":"tbuoft","steam_id":76561198426655364,"connected_time":1558000000000,"state":"active","ping":92},{"user_id":514,"name":"JelloMotion","steam_id":76561198045892038,"connected_time":5493000000000,"state":"active","ping":59},{"user_id":569,"name":"Toasti","steam_id":76561198064658477,"connected_time":526000000000,"state":"active","ping":75},{"user_id":510,"name":"BeyBladeMoses","steam_id":76561198044377553,"connected_time":5929000000000,"state":"active","ping":76},{"user_id":550,"name":"Three Isopods in a Trenchcoat","steam_id":76561198249265250,"connected_time":1523000000000,"state":"active","ping":89},{"user_id":567,"name":"sweaterfan","steam_id":76561199389567214,"connected_time":609000000000,"state":"active","ping":61},{"user_id":571,"name":"Japanese_Spaghetti","steam_id":76561198081019897,"connected_time":482000000000,"state":"active","ping":115},{"user_id":553,"name":"ribbonborn","steam_id":76561198001195423,"connected_time":1407000000000,"state":"active","ping":93},{"user_id":554,"name":"Lavender","steam_id":76561198142770666,"connected_time":1365000000000,"state":"active","ping":54},{"user_id":542,"name":"Sloth-Man","steam_id":76561197991917573,"connected_time":2783000000000,"state":"active","ping":86},{"user_id":555,"name":"Merci?","steam_id":76561198096823118,"connected_time":1350000000000,"state":"active","ping":76},{"user_id":543,"name":"Ben","steam_id":76561198144209930,"connected_time":2745000000000,"state":"active","ping":61},{"user_id":563,"name":"dragonhawk","steam_id":76561199481295178,"connected_time":1027000000000,"state":"active","ping":69},{"user_id":557,"name":"Element 38","steam_id":76561198112056276,"connected_time":1200000000000,"state":"active","ping":111},{"user_id":558,"name":"pfrladj","steam_id":76561198156656608,"connected_time":1199000000000,"state":"active","ping":115},{"user_id":572,"name":"Moonadoo","steam_id":76561198133377546,"connected_time":465000000000,"state":"active","ping":68},{"user_id":568,"name":"SwiftVines","steam_id":76561198083682421,"connected_time":579000000000,"state":"active","ping":89},{"user_id":561,"name":"Nate","steam_id":76561198209312592,"connected_time":1062000000000,"state":"active","ping":108},{"user_id":511,"name":"Dankblad3","steam_id":76561198040642239,"connected_time":5927000000000,"state":"active","ping":83},{"user_id":573,"name":"BIG HOG","steam_id":76561198079923652,"connected_time":436000000000,"state":"active","ping":76},{"user_id":527,"name":"Pre Pissed Pants","steam_id":76561198042143837,"connected_time":4764000000000,"state":"active","ping":115},{"user_id":566,"name":"milo","steam_id":76561199061380038,"connected_time":971000000000,"state":"active","ping":70},{"user_id":544,"name":"bill","steam_id":76561199142779872,"connected_time":2631000000000,"state":"active","ping":69},{"user_id":574,"name":"stinky fresh","steam_id":76561198004022947,"connected_time":429000000000,"state":"active","ping":115}]},{"server_id":402,"name":"Uncletopia | Chicago | 3 | All Maps","name_short":"chi-3","host":"chi-1.us.uncletopia.com","port":27035,"enabled":true,"region":"us-central","cc":"us","latitude":41.881832,"longitude":-87.62318,"reserved":0,"last_update":"0001-01-01T00:00:00Z","name_a2s":"Uncletopia | Chicago | 3 | All Maps","protocol":17,"map":"koth_cascade","folder":"tf","game":"Team Fortress","app_id":440,"player_count":0,"max_players":24,"Bots":0,"server_type":"Dedicated","server_os":"Linux","password":true,"vac":true,"version":"7757534","steam_id":85568392924515191,"keywords":["cp","nocrits","nodmgspread","uncletopia"],"game_id":440,"stv_port":27036,"stv_name":"Uncletopia | Chicago | 3 | All Maps | STV","players":null},{"server_id":403,"name":"Uncletopia | Chicago | 4 | All Maps","name_short":"chi-4","host":"chi-1.us.uncletopia.com","port":27045,"enabled":true,"region":"us-central","cc":"us","latitude":41.881832,"longitude":-87.62318,"reserved":0,"last_update":"0001-01-01T00:00:00Z","name_a2s":"Uncletopia | Chicago | 4 | All Maps","protocol":17,"map":"pl_upward","folder":"tf","game":"Team Fortress","app_id":440,"player_count":0,"max_players":24,"Bots":0,"server_type":"Dedicated","server_os":"Linux","password":true,"vac":true,"version":"7757534","steam_id":85568392924515193,"keywords":["nocrits","nodmgspread","payload","uncletopia"],"game_id":440,"stv_port":27046,"stv_name":"Uncletopia | Chicago | 4 | All Maps | STV","players":null},{"server_id":36,"name":"Uncletopia | Chicago | 5 | All Maps","name_short":"chi-5","host":"chi-2.us.uncletopia.com","port":27015,"enabled":true,"region":"us-central","cc":"us","latitude":41.881832,"longitude":-87.62318,"reserved":0,"last_update":"0001-01-01T00:00:00Z","name_a2s":"Uncletopia | Chicago | 5 | All Maps","protocol":17,"map":"cp_mountainlab","folder":"tf","game":"Team Fortress","app_id":440,"player_count":0,"max_players":24,"Bots":0,"server_type":"Dedicated","server_os":"Linux","password":true,"vac":true,"version":"7757534","steam_id":85568392924866362,"keywords":["cp","nocrits","nodmgspread","uncletopia"],"game_id":440,"stv_port":27016,"stv_name":"Uncletopia | Chicago | 5 | All Maps | STV","players":null},{"server_id":37,"name":"Uncletopia | Chicago | 6 | All Maps","name_short":"chi-6","host":"chi-2.us.uncletopia.com","port":27025,"enabled":true,"region":"us-central","cc":"us","latitude":41.881832,"longitude":-87.62318,"reserved":0,"last_update":"0001-01-01T00:00:00Z","name_a2s":"Uncletopia | Chicago | 6 | All Maps","protocol":17,"map":"pl_swiftwater_final1","folder":"tf","game":"Team Fortress","app_id":440,"player_count":0,"max_players":24,"Bots":0,"server_type":"Dedicated","server_os":"Linux","password":true,"vac":true,"version":"7757534","steam_id":85568392924866363,"keywords":["nocrits","nodmgspread","payload","uncletopia"],"game_id":440,"stv_port":27026,"stv_name":"Uncletopia | Chicago | 6 | All Maps | STV","players":null},{"server_id":38,"name":"Uncletopia | Chicago | 7 | Stopwatch Beta","name_short":"chi-7","host":"chi-2.us.uncletopia.com","port":27035,"enabled":true,"region":"us-central","cc":"us","latitude":41.881832,"longitude":-87.62318,"reserved":0,"last_update":"0001-01-01T00:00:00Z","name_a2s":"Uncletopia | Chicago | 7 | Stopwatch Beta","protocol":17,"map":"pl_barnblitz","folder":"tf","game":"Team Fortress","app_id":440,"player_count":0,"max_players":24,"Bots":0,"server_type":"Dedicated","server_os":"Linux","password":true,"vac":true,"version":"7757534","steam_id":85568392924866364,"keywords":["nocrits","nodmgspread","payload","uncletopia"],"game_id":440,"stv_port":27036,"stv_name":"Uncletopia | Chicago | 7 | Stopwatch Beta | STV","players":null},{"server_id":39,"name":"Uncletopia | Chicago | 8 | Community","name_short":"chi-8","host":"chi-2.us.uncletopia.com","port":27045,"enabled":true,"region":"us-central","cc":"us","latitude":41.881832,"longitude":-87.62318,"reserved":0,"last_update":"0001-01-01T00:00:00Z","name_a2s":"Uncletopia | Chicago | 8 | Community","protocol":17,"map":"workshop/koth_ramjam_rc1.ugc459778887","folder":"tf","game":"Team Fortress","app_id":440,"player_count":0,"max_players":24,"Bots":0,"server_type":"Dedicated","server_os":"Linux","password":true,"vac":true,"version":"7757534","steam_id":85568392924866365,"keywords":["cp","nocrits","nodmgspread","uncletopia"],"game_id":440,"stv_port":27046,"stv_name":"Uncletopia | Chicago | 8 | Community | STV","players":null},{"server_id":8,"name":"Uncletopia | Dallas | 1 | All Maps","name_short":"dal-1","host":"dal-1.us.uncletopia.com","port":27015,"enabled":true,"region":"us-central","cc":"us","latitude":32.779167,"longitude":-96.80889,"reserved":0,"last_update":"0001-01-01T00:00:00Z","name_a2s":"Uncletopia | Dallas | 1 | All Maps","protocol":17,"map":"cp_junction_final","folder":"tf","game":"Team Fortress","app_id":440,"player_count":12,"max_players":24,"Bots":0,"server_type":"Dedicated","server_os":"Linux","password":true,"vac":true,"version":"7757534","steam_id":85568392924469986,"keywords":["cp","nocrits","nodmgspread","uncletopia"],"game_id":440,"stv_port":27016,"stv_name":"Uncletopia | Dallas | 1 | All Maps | STV","players":[{"user_id":1163,"name":"Lemmers235","steam_id":76561199192668922,"connected_time":271000000000,"state":"active","ping":83},{"user_id":1160,"name":"Admiral Angry","steam_id":76561198058199206,"connected_time":770000000000,"state":"active","ping":81},{"user_id":1164,"name":"GuyGoom","steam_id":76561198254522178,"connected_time":121000000000,"state":"active","ping":63},{"user_id":1110,"name":"StarManMatt","steam_id":76561198125513574,"connected_time":4659000000000,"state":"active","ping":85},{"user_id":1139,"name":"Evil Demoman","steam_id":76561198345752835,"connected_time":1821000000000,"state":"active","ping":68},{"user_id":1159,"name":"CEO of non-economic inflation","steam_id":76561198258126130,"connected_time":854000000000,"state":"active","ping":74},{"user_id":1111,"name":"roast pig with apple in mouth","steam_id":76561198051353647,"connected_time":4632000000000,"state":"active","ping":76},{"user_id":1123,"name":"Fake21","steam_id":76561198282065071,"connected_time":4108000000000,"state":"active","ping":51},{"user_id":1141,"name":"screwball","steam_id":76561198166713255,"connected_time":1782000000000,"state":"active","ping":78},{"user_id":1157,"name":"The back of lennys head","steam_id":76561198141394280,"connected_time":966000000000,"state":"active","ping":59},{"user_id":1127,"name":"Gm_Trash","steam_id":76561199445091548,"connected_time":3605000000000,"state":"active","ping":70},{"user_id":1156,"name":"nilnop","steam_id":76561198171500054,"connected_time":1023000000000,"state":"active","ping":109}]},{"server_id":108,"name":"Uncletopia | Dallas | 2 | All Maps","name_short":"dal-2","host":"dal-1.us.uncletopia.com","port":27025,"enabled":true,"region":"us-central","cc":"us","latitude":32.779167,"longitude":-96.80889,"reserved":0,"last_update":"0001-01-01T00:00:00Z","name_a2s":"Uncletopia | Dallas | 2 | All Maps","protocol":17,"map":"pl_borneo","folder":"tf","game":"Team Fortress","app_id":440,"player_count":24,"max_players":24,"Bots":0,"server_type":"Dedicated","server_os":"Linux","password":true,"vac":true,"version":"7757534","steam_id":85568392924469988,"keywords":["nocrits","nodmgspread","payload","uncletopia"],"game_id":440,"stv_port":27026,"stv_name":"Uncletopia | Dallas | 2 | All Maps | STV","players":[{"user_id":658,"name":"Scorch","steam_id":76561198014861902,"connected_time":429000000000,"state":"active","ping":53},{"user_id":614,"name":"sheep in da slipgate","steam_id":76561198076781979,"connected_time":3529000000000,"state":"active","ping":66},{"user_id":646,"name":"brock","steam_id":76561199015537819,"connected_time":1709000000000,"state":"active","ping":59},{"user_id":606,"name":"tav","steam_id":76561198124270862,"connected_time":4287000000000,"state":"active","ping":72},{"user_id":607,"name":"Crom","steam_id":76561198132031007,"connected_time":4268000000000,"state":"active","ping":111},{"user_id":626,"name":"O Dog","steam_id":76561198133498912,"connected_time":2609000000000,"state":"active","ping":77},{"user_id":652,"name":"Poppet","steam_id":76561198012301951,"connected_time":769000000000,"state":"active","ping":95},{"user_id":610,"name":"SatyricalSol","steam_id":76561198104484030,"connected_time":4138000000000,"state":"active","ping":89},{"user_id":635,"name":"lingulata","steam_id":76561198076208960,"connected_time":2222000000000,"state":"active","ping":81},{"user_id":615,"name":"Gluteus Nebulous","steam_id":76561198024855037,"connected_time":3520000000000,"state":"active","ping":83},{"user_id":656,"name":"❤[Candy]❤","steam_id":76561198817361963,"connected_time":708000000000,"state":"active","ping":105},{"user_id":644,"name":"Cosmic sR","steam_id":76561198081738675,"connected_time":1943000000000,"state":"active","ping":82},{"user_id":570,"name":"BrightOrangeMango","steam_id":76561198023144607,"connected_time":7175000000000,"state":"active","ping":74},{"user_id":653,"name":"captainspatklz","steam_id":76561198432167270,"connected_time":747000000000,"state":"active","ping":73},{"user_id":651,"name":"Nimdok","steam_id":76561198052213644,"connected_time":776000000000,"state":"active","ping":99},{"user_id":637,"name":"kat","steam_id":76561198121070295,"connected_time":2219000000000,"state":"active","ping":104},{"user_id":638,"name":"Rebecca","steam_id":76561199071867217,"connected_time":2206000000000,"state":"active","ping":77},{"user_id":648,"name":"Mainframe","steam_id":76561198097154599,"connected_time":1099000000000,"state":"active","ping":56},{"user_id":573,"name":"ttv/whiteboyst0ner1997","steam_id":76561198064558316,"connected_time":7076000000000,"state":"active","ping":63},{"user_id":578,"name":"plink","steam_id":76561198057829889,"connected_time":6490000000000,"state":"active","ping":77},{"user_id":657,"name":"God","steam_id":76561198131089513,"connected_time":567000000000,"state":"active","ping":75},{"user_id":640,"name":"ButterPoptart","steam_id":76561198132999590,"connected_time":2151000000000,"state":"active","ping":95},{"user_id":655,"name":"blackjack money 4502","steam_id":76561198136535844,"connected_time":714000000000,"state":"active","ping":91},{"user_id":643,"name":"Saikou!!!","steam_id":76561198044045406,"connected_time":2074000000000,"state":"active","ping":76}]},{"server_id":5,"name":"Uncletopia | Frankfurt | 1 | All Maps","name_short":"frk-1","host":"frk-1.de.uncletopia.com","port":27015,"enabled":true,"region":"eu","cc":"de","latitude":50.110924,"longitude":8.682127,"reserved":0,"last_update":"0001-01-01T00:00:00Z","name_a2s":"Uncletopia | Frankfurt | 1 | All Maps","protocol":17,"map":"pl_snowycoast","folder":"tf","game":"Team Fortress","app_id":440,"player_count":0,"max_players":24,"Bots":0,"server_type":"Dedicated","server_os":"Linux","password":true,"vac":true,"version":"7757534","steam_id":85568392924469989,"keywords":["nocrits","nodmgspread","payload","uncletopia"],"game_id":440,"stv_port":27016,"stv_name":"Uncletopia | Frankfurt | 1 | All Maps | STV","players":null},{"server_id":110,"name":"Uncletopia | Frankfurt | 2 | All Maps","name_short":"frk-2","host":"frk-1.de.uncletopia.com","port":27025,"enabled":true,"region":"eu","cc":"de","latitude":50.110924,"longitude":8.682127,"reserved":0,"last_update":"0001-01-01T00:00:00Z","name_a2s":"Uncletopia | Frankfurt | 2 | All Maps","protocol":17,"map":"cp_snakewater_final1","folder":"tf","game":"Team Fortress","app_id":440,"player_count":0,"max_players":24,"Bots":0,"server_type":"Dedicated","server_os":"Linux","password":true,"vac":true,"version":"7757534","steam_id":85568392924469990,"keywords":["cp","nocrits","nodmgspread","uncletopia"],"game_id":440,"stv_port":27026,"stv_name":"Uncletopia | Frankfurt | 2 | All Maps | STV","players":null},{"server_id":308,"name":"Uncletopia | Frankfurt | 3 | All Maps","name_short":"frk-3","host":"frk-1.de.uncletopia.com","port":27035,"enabled":true,"region":"eu","cc":"de","latitude":50.110924,"longitude":8.682127,"reserved":0,"last_update":"0001-01-01T00:00:00Z","name_a2s":"Uncletopia | Frankfurt | 3 | All Maps","protocol":17,"map":"pl_swiftwater_final1","folder":"tf","game":"Team Fortress","app_id":440,"player_count":0,"max_players":24,"Bots":0,"server_type":"Dedicated","server_os":"Linux","password":true,"vac":true,"version":"7757534","steam_id":85568392924504274,"keywords":["nocrits","nodmgspread","payload","uncletopia"],"game_id":440,"stv_port":27036,"stv_name":"Uncletopia | Frankfurt | 3 | All Maps | STV","players":null},{"server_id":309,"name":"Uncletopia | Frankfurt | 4 | All Maps","name_short":"frk-4","host":"frk-1.de.uncletopia.com","port":27045,"enabled":true,"region":"eu","cc":"de","latitude":50.110924,"longitude":8.682127,"reserved":0,"last_update":"0001-01-01T00:00:00Z","name_a2s":"Uncletopia | Frankfurt | 4 | All Maps","protocol":17,"map":"koth_viaduct","folder":"tf","game":"Team Fortress","app_id":440,"player_count":0,"max_players":24,"Bots":0,"server_type":"Dedicated","server_os":"Linux","password":true,"vac":true,"version":"7757534","steam_id":85568392924504275,"keywords":["cp","nocrits","nodmgspread","uncletopia"],"game_id":440,"stv_port":27046,"stv_name":"Uncletopia | Frankfurt | 4 | All Maps | STV","players":null},{"server_id":310,"name":"Uncletopia | Frankfurt | 5 | All Maps","name_short":"frk-5","host":"frk-1.de.uncletopia.com","port":27055,"enabled":true,"region":"eu","cc":"de","latitude":50.110924,"longitude":8.682127,"reserved":0,"last_update":"0001-01-01T00:00:00Z","name_a2s":"Uncletopia | Frankfurt | 5 | All Maps","protocol":17,"map":"koth_lakeside_final","folder":"tf","game":"Team Fortress","app_id":440,"player_count":0,"max_players":24,"Bots":0,"server_type":"Dedicated","server_os":"Linux","password":true,"vac":true,"version":"7757534","steam_id":85568392924504277,"keywords":["cp","nocrits","nodmgspread","uncletopia"],"game_id":440,"stv_port":27056,"stv_name":"Uncletopia | Frankfurt | 5 | All Maps | STV","players":null},{"server_id":311,"name":"Uncletopia | Frankfurt | 6 | All Maps","name_short":"frk-6","host":"frk-1.de.uncletopia.com","port":27065,"enabled":true,"region":"eu","cc":"de","latitude":50.110924,"longitude":8.682127,"reserved":0,"last_update":"0001-01-01T00:00:00Z","name_a2s":"Uncletopia | Frankfurt | 6 | All Maps","protocol":17,"map":"pl_frontier_final","folder":"tf","game":"Team Fortress","app_id":440,"player_count":0,"max_players":24,"Bots":0,"server_type":"Dedicated","server_os":"Linux","password":true,"vac":true,"version":"7757534","steam_id":85568392924504278,"keywords":["nocrits","nodmgspread","payload","uncletopia"],"game_id":440,"stv_port":27066,"stv_name":"Uncletopia | Frankfurt | 6 | All Maps | STV","players":null},{"server_id":23,"name":"Uncletopia | Frankfurt | 7 | Stopwatch Beta","name_short":"frk-7","host":"frk-1.de.uncletopia.com","port":27075,"enabled":true,"region":"eu","cc":"de","latitude":50.110924,"longitude":8.682127,"reserved":0,"last_update":"0001-01-01T00:00:00Z","name_a2s":"Uncletopia | Frankfurt | 7 | Stopwatch Beta","protocol":17,"map":"cp_sunshine","folder":"tf","game":"Team Fortress","app_id":440,"player_count":0,"max_players":24,"Bots":0,"server_type":"Dedicated","server_os":"Linux","password":true,"vac":true,"version":"7757534","steam_id":85568392924742827,"keywords":["cp","nocrits","nodmgspread","uncletopia"],"game_id":440,"stv_port":27076,"stv_name":"Uncletopia | Frankfurt | 7 | Stopwatch Beta | STV","players":null},{"server_id":24,"name":"Uncletopia | Frankfurt | 8 | Community","name_short":"frk-8","host":"frk-1.de.uncletopia.com","port":27085,"enabled":true,"region":"eu","cc":"de","latitude":50.110924,"longitude":8.682127,"reserved":0,"last_update":"0001-01-01T00:00:00Z","name_a2s":"Uncletopia | Frankfurt | 8 | Community","protocol":17,"map":"koth_lakeside_final","folder":"tf","game":"Team Fortress","app_id":440,"player_count":0,"max_players":24,"Bots":0,"server_type":"Dedicated","server_os":"Linux","password":true,"vac":true,"version":"7757534","steam_id":85568392924742828,"keywords":["cp","nocrits","nodmgspread","uncletopia"],"game_id":440,"stv_port":27086,"stv_name":"Uncletopia | Frankfurt | 8 | Community | STV","players":null},{"server_id":202,"name":"Uncletopia | Hong Kong | 1 | All Maps","name_short":"hgk-1","host":"hgk-1.hk.uncletopia.com","port":27015,"enabled":true,"region":"asia","cc":"hk","latitude":22.302711,"longitude":114.177216,"reserved":0,"last_update":"0001-01-01T00:00:00Z","name_a2s":"Uncletopia | Hong Kong | 1 | All Maps","protocol":17,"map":"pl_thundermountain","folder":"tf","game":"Team Fortress","app_id":440,"player_count":24,"max_players":24,"Bots":0,"server_type":"Dedicated","server_os":"Linux","password":true,"vac":true,"version":"7757534","steam_id":85568392924494504,"keywords":["nocrits","nodmgspread","payload","uncletopia"],"game_id":440,"stv_port":27016,"stv_name":"Uncletopia | Hong Kong | 1 | All Maps | STV","players":[{"user_id":91,"name":"rat","steam_id":76561198840261854,"connected_time":808000000000,"state":"active","ping":98},{"user_id":70,"name":"Ashe","steam_id":76561199127979769,"connected_time":3320000000000,"state":"active","ping":83},{"user_id":58,"name":"no vc no c","steam_id":76561197989503095,"connected_time":4655000000000,"state":"active","ping":88},{"user_id":67,"name":"帕","steam_id":76561198439343999,"connected_time":3849000000000,"state":"active","ping":141},{"user_id":31,"name":"silverhouse7","steam_id":76561198349634906,"connected_time":6970000000000,"state":"active","ping":93},{"user_id":40,"name":"Vortex Medico","steam_id":76561198833527091,"connected_time":5442000000000,"state":"active","ping":97},{"user_id":88,"name":"GreggieBoi","steam_id":76561199085200364,"connected_time":1759000000000,"state":"active","ping":94},{"user_id":25,"name":"プロゲーマー","steam_id":76561199017344476,"connected_time":8036000000000,"state":"active","ping":78},{"user_id":68,"name":"Water Buffalo","steam_id":76561198200672038,"connected_time":3575000000000,"state":"active","ping":92},{"user_id":45,"name":"Rob L. Callistis","steam_id":76561199000135798,"connected_time":5002000000000,"state":"active","ping":111},{"user_id":59,"name":"urotsuki with da doobie","steam_id":76561198074339034,"connected_time":4546000000000,"state":"active","ping":78},{"user_id":81,"name":"meme","steam_id":76561198872566128,"connected_time":2142000000000,"state":"active","ping":87},{"user_id":69,"name":"Sedna","steam_id":76561198120797504,"connected_time":3418000000000,"state":"active","ping":88},{"user_id":93,"name":"ASDF1234","steam_id":76561198057026351,"connected_time":551000000000,"state":"active","ping":86},{"user_id":71,"name":"RRR","steam_id":76561198796036009,"connected_time":3311000000000,"state":"active","ping":135},{"user_id":95,"name":"Puddin","steam_id":76561198140052918,"connected_time":82000000000,"state":"active","ping":94},{"user_id":85,"name":"Slonk","steam_id":76561198845070475,"connected_time":1951000000000,"state":"active","ping":108},{"user_id":54,"name":"Wizzkill","steam_id":76561199131526926,"connected_time":4770000000000,"state":"active","ping":88},{"user_id":86,"name":"Giyu","steam_id":76561198299150410,"connected_time":1902000000000,"state":"active","ping":111},{"user_id":77,"name":"Requiem","steam_id":76561197993400606,"connected_time":2837000000000,"state":"active","ping":114},{"user_id":92,"name":"Lu","steam_id":76561198320532821,"connected_time":806000000000,"state":"active","ping":73},{"user_id":74,"name":"Nonexistent","steam_id":76561198980563251,"connected_time":3110000000000,"state":"active","ping":88},{"user_id":76,"name":"Kozupy","steam_id":76561198404352831,"connected_time":3004000000000,"state":"active","ping":70},{"user_id":78,"name":"JDSFE","steam_id":76561198975490851,"connected_time":2833000000000,"state":"active","ping":116}]},{"server_id":1,"name":"Uncletopia | Los Angeles | 1 | All Maps","name_short":"lax-1","host":"lax-1.us.uncletopia.com","port":27015,"enabled":true,"region":"us-west","cc":"us","latitude":33.94279,"longitude":-118.41004,"reserved":0,"last_update":"0001-01-01T00:00:00Z","name_a2s":"Uncletopia | Los Angeles | 1 | All Maps","protocol":17,"map":"pl_goldrush","folder":"tf","game":"Team Fortress","app_id":440,"player_count":18,"max_players":24,"Bots":0,"server_type":"Dedicated","server_os":"Linux","password":true,"vac":true,"version":"7757534","steam_id":85568392924469991,"keywords":["nocrits","nodmgspread","payload","uncletopia"],"game_id":440,"stv_port":27016,"stv_name":"Uncletopia | Los Angeles | 1 | All Maps | STV","players":[{"user_id":684,"name":"owl","steam_id":76561198105374054,"connected_time":269000000000,"state":"active","ping":67},{"user_id":668,"name":"themadlad67","steam_id":76561199309554436,"connected_time":2119000000000,"state":"active","ping":78},{"user_id":689,"name":"Taco+Taco=Burrito","steam_id":76561198063128663,"connected_time":157000000000,"state":"active","ping":44},{"user_id":677,"name":"Kazmirl [Youtube]","steam_id":76561198116008410,"connected_time":1153000000000,"state":"active","ping":100},{"user_id":685,"name":"nescoceo","steam_id":76561198040801160,"connected_time":247000000000,"state":"active","ping":45},{"user_id":690,"name":"bocaJ","steam_id":76561198374535092,"connected_time":52000000000,"state":"active","ping":30},{"user_id":687,"name":"Zeubiess","steam_id":76561198074392917,"connected_time":192000000000,"state":"active","ping":70},{"user_id":691,"name":"Racc","steam_id":76561199438923416,"connected_time":28000000000,"state":"active","ping":202},{"user_id":666,"name":"FI LO","steam_id":76561198976530881,"connected_time":2385000000000,"state":"active","ping":42},{"user_id":586,"name":"connie kins","steam_id":76561198074701151,"connected_time":6737000000000,"state":"active","ping":46},{"user_id":670,"name":"DoctorSpy","steam_id":76561198137014095,"connected_time":1624000000000,"state":"active","ping":56},{"user_id":683,"name":"Technology Man","steam_id":76561198196136573,"connected_time":641000000000,"state":"active","ping":72},{"user_id":680,"name":"Dairy Queen","steam_id":76561198285298576,"connected_time":771000000000,"state":"active","ping":115},{"user_id":637,"name":"Jolly","steam_id":76561198116357972,"connected_time":3743000000000,"state":"active","ping":45},{"user_id":609,"name":"tyg","steam_id":76561198056246867,"connected_time":5591000000000,"state":"active","ping":119},{"user_id":596,"name":"weird opponent","steam_id":76561199199843311,"connected_time":6383000000000,"state":"active","ping":55},{"user_id":630,"name":"new ZAland","steam_id":76561198433114405,"connected_time":4240000000000,"state":"active","ping":61},{"user_id":681,"name":"HellaCopter","steam_id":76561198062313698,"connected_time":770000000000,"state":"active","ping":75}]},{"server_id":112,"name":"Uncletopia | Los Angeles | 2 | All Maps","name_short":"lax-2","host":"lax-1.us.uncletopia.com","port":27025,"enabled":true,"region":"us-west","cc":"us","latitude":33.94279,"longitude":-118.41004,"reserved":0,"last_update":"0001-01-01T00:00:00Z","name_a2s":"Uncletopia | Los Angeles | 2 | All Maps","protocol":17,"map":"koth_viaduct","folder":"tf","game":"Team Fortress","app_id":440,"player_count":1,"max_players":24,"Bots":0,"server_type":"Dedicated","server_os":"Linux","password":true,"vac":true,"version":"7757534","steam_id":85568392924469992,"keywords":["cp","nocrits","nodmgspread","uncletopia"],"game_id":440,"stv_port":27026,"stv_name":"Uncletopia | Los Angeles | 2 | All Maps | STV","players":[{"user_id":305,"name":"koko","steam_id":76561198953867666,"connected_time":158000000000,"state":"active","ping":187}]},{"server_id":324,"name":"Uncletopia | Los Angeles | 3 | All Maps","name_short":"lax-3","host":"lax-1.us.uncletopia.com","port":27035,"enabled":true,"region":"us-west","cc":"us","latitude":33.94279,"longitude":-118.41004,"reserved":0,"last_update":"0001-01-01T00:00:00Z","name_a2s":"Uncletopia | Los Angeles | 3 | All Maps","protocol":17,"map":"pl_snowycoast","folder":"tf","game":"Team Fortress","app_id":440,"player_count":0,"max_players":24,"Bots":0,"server_type":"Dedicated","server_os":"Linux","password":true,"vac":true,"version":"7757534","steam_id":85568392924510198,"keywords":["nocrits","nodmgspread","payload","uncletopia"],"game_id":440,"stv_port":27036,"stv_name":"Uncletopia | Los Angeles | 3 | All Maps | STV","players":null},{"server_id":25,"name":"Uncletopia | Los Angeles | 4 | Stopwatch Beta","name_short":"lax-4","host":"lax-1.us.uncletopia.com","port":27045,"enabled":true,"region":"us-west","cc":"us","latitude":33.94279,"longitude":-118.41004,"reserved":0,"last_update":"0001-01-01T00:00:00Z","name_a2s":"Uncletopia | Los Angeles | 4 | Stopwatch Beta","protocol":17,"map":"pl_swiftwater_final1","folder":"tf","game":"Team Fortress","app_id":440,"player_count":0,"max_players":24,"Bots":0,"server_type":"Dedicated","server_os":"Linux","password":true,"vac":true,"version":"7757534","steam_id":85568392924510199,"keywords":["nocrits","nodmgspread","payload","uncletopia"],"game_id":440,"stv_port":27046,"stv_name":"Uncletopia | Los Angeles | 4 | Stopwatch Beta | STV","players":null},{"server_id":11,"name":"Uncletopia | London | 1 | All Maps","name_short":"lon-1","host":"lon-1.uk.uncletopia.com","port":27015,"enabled":true,"region":"eu","cc":"gb","latitude":51.509865,"longitude":-0.118092,"reserved":0,"last_update":"0001-01-01T00:00:00Z","name_a2s":"Uncletopia | London | 1 | All Maps","protocol":17,"map":"koth_nucleus","folder":"tf","game":"Team Fortress","app_id":440,"player_count":24,"max_players":24,"Bots":0,"server_type":"Dedicated","server_os":"Linux","password":true,"vac":true,"version":"7757534","steam_id":85568392924367362,"keywords":["cp","nocrits","nodmgspread","uncletopia"],"game_id":440,"stv_port":27016,"stv_name":"Uncletopia | London | 1 | All Maps | STV","players":[{"user_id":140,"name":"Maxi4icken","steam_id":76561198913638846,"connected_time":1090000000000,"state":"active","ping":77},{"user_id":138,"name":"nop 21","steam_id":76561198331641220,"connected_time":1163000000000,"state":"active","ping":54},{"user_id":105,"name":"ugly","steam_id":76561199050412617,"connected_time":4822000000000,"state":"active","ping":110},{"user_id":131,"name":"Утилизатор","steam_id":76561198001490104,"connected_time":1846000000000,"state":"active","ping":83},{"user_id":128,"name":"Marchioly","steam_id":76561198335079215,"connected_time":2101000000000,"state":"active","ping":108},{"user_id":139,"name":"Punchy","steam_id":76561197961020896,"connected_time":1161000000000,"state":"active","ping":61},{"user_id":90,"name":"fried","steam_id":76561198307522022,"connected_time":5671000000000,"state":"active","ping":47},{"user_id":150,"name":"Woman (Real)","steam_id":76561199151823932,"connected_time":495000000000,"state":"active","ping":85},{"user_id":136,"name":"Broplet.","steam_id":76561198818762423,"connected_time":1302000000000,"state":"active","ping":100},{"user_id":92,"name":"Romu3","steam_id":76561198055484251,"connected_time":5589000000000,"state":"active","ping":127},{"user_id":153,"name":"ムGeRmAn |×UA×ム","steam_id":76561199044754898,"connected_time":134000000000,"state":"active","ping":76},{"user_id":141,"name":"big naked bruh","steam_id":76561199179040672,"connected_time":1085000000000,"state":"active","ping":55},{"user_id":152,"name":"weed fairy","steam_id":76561197998843096,"connected_time":270000000000,"state":"active","ping":84},{"user_id":110,"name":"FlameyWisp","steam_id":76561198304303030,"connected_time":4321000000000,"state":"active","ping":46},{"user_id":154,"name":"Umbro","steam_id":76561198087930438,"connected_time":35000000000,"state":"active","ping":85},{"user_id":148,"name":"ijustsmokeandcry","steam_id":76561198044189114,"connected_time":689000000000,"state":"active","ping":66},{"user_id":46,"name":"Rin-Nakaret","steam_id":76561197971051188,"connected_time":8979000000000,"state":"active","ping":59},{"user_id":117,"name":"Uncle Terry","steam_id":76561198396415736,"connected_time":3099000000000,"state":"active","ping":50},{"user_id":124,"name":"wicked","steam_id":76561198164376035,"connected_time":2444000000000,"state":"active","ping":80},{"user_id":143,"name":"NEDI WINNER","steam_id":76561198875472890,"connected_time":994000000000,"state":"active","ping":73},{"user_id":147,"name":"BELADIT","steam_id":76561198011911501,"connected_time":741000000000,"state":"active","ping":75},{"user_id":149,"name":"[P-roc] Cmm Bert","steam_id":76561198016658674,"connected_time":568000000000,"state":"active","ping":67},{"user_id":151,"name":"Sylvanas","steam_id":76561198154904165,"connected_time":365000000000,"state":"active","ping":119},{"user_id":145,"name":"Deacon Dracul","steam_id":76561198046880663,"connected_time":947000000000,"state":"active","ping":90}]},{"server_id":114,"name":"Uncletopia | London | 2 | All Maps","name_short":"lon-2","host":"lon-1.uk.uncletopia.com","port":27025,"enabled":true,"region":"eu","cc":"gb","latitude":51.509865,"longitude":-0.118092,"reserved":0,"last_update":"0001-01-01T00:00:00Z","name_a2s":"Uncletopia | London | 2 | All Maps","protocol":17,"map":"cp_metalworks","folder":"tf","game":"Team Fortress","app_id":440,"player_count":0,"max_players":24,"Bots":0,"server_type":"Dedicated","server_os":"Linux","password":true,"vac":true,"version":"7757534","steam_id":85568392924470941,"keywords":["cp","nocrits","nodmgspread","uncletopia"],"game_id":440,"stv_port":27026,"stv_name":"Uncletopia | London | 2 | All Maps | STV","players":null},{"server_id":320,"name":"Uncletopia | London | 3 | All Maps","name_short":"lon-3","host":"lon-1.uk.uncletopia.com","port":27035,"enabled":true,"region":"eu","cc":"gb","latitude":51.509865,"longitude":-0.118092,"reserved":0,"last_update":"0001-01-01T00:00:00Z","name_a2s":"Uncletopia | London | 3 | All Maps","protocol":17,"map":"cp_dustbowl","folder":"tf","game":"Team Fortress","app_id":440,"player_count":0,"max_players":24,"Bots":0,"server_type":"Dedicated","server_os":"Linux","password":true,"vac":true,"version":"7757534","steam_id":85568392924510192,"keywords":["cp","nocrits","nodmgspread","uncletopia"],"game_id":440,"stv_port":27036,"stv_name":"Uncletopia | London | 3 | All Maps | STV","players":null},{"server_id":321,"name":"Uncletopia | London | 4 | All Maps","name_short":"lon-4","host":"lon-1.uk.uncletopia.com","port":27045,"enabled":true,"region":"eu","cc":"gb","latitude":51.509865,"longitude":-0.118092,"reserved":0,"last_update":"0001-01-01T00:00:00Z","name_a2s":"Uncletopia | London | 4 | All Maps","protocol":17,"map":"cp_dustbowl","folder":"tf","game":"Team Fortress","app_id":440,"player_count":0,"max_players":24,"Bots":0,"server_type":"Dedicated","server_os":"Linux","password":true,"vac":true,"version":"7757534","steam_id":85568392924510193,"keywords":["cp","nocrits","nodmgspread","uncletopia"],"game_id":440,"stv_port":27046,"stv_name":"Uncletopia | London | 4 | All Maps | STV","players":null},{"server_id":21,"name":"Uncletopia | London | 5 | All Maps","name_short":"lon-5","host":"lon-1.uk.uncletopia.com","port":27055,"enabled":true,"region":"eu","cc":"gb","latitude":51.509865,"longitude":-0.118092,"reserved":0,"last_update":"0001-01-01T00:00:00Z","name_a2s":"Uncletopia | London | 5 | All Maps","protocol":17,"map":"cp_altitude","folder":"tf","game":"Team Fortress","app_id":440,"player_count":0,"max_players":24,"Bots":0,"server_type":"Dedicated","server_os":"Linux","password":true,"vac":true,"version":"7757534","steam_id":85568392924742829,"keywords":["cp","nocrits","nodmgspread","uncletopia"],"game_id":440,"stv_port":27056,"stv_name":"Uncletopia | London | 5 | All Maps | STV","players":null},{"server_id":22,"name":"Uncletopia | London | 6 | All Maps","name_short":"lon-6","host":"lon-1.uk.uncletopia.com","port":27065,"enabled":true,"region":"eu","cc":"gb","latitude":51.509865,"longitude":-0.118092,"reserved":0,"last_update":"0001-01-01T00:00:00Z","name_a2s":"Uncletopia | London | 6 | All Maps","protocol":17,"map":"cp_mountainlab","folder":"tf","game":"Team Fortress","app_id":440,"player_count":0,"max_players":24,"Bots":0,"server_type":"Dedicated","server_os":"Linux","password":true,"vac":true,"version":"7757534","steam_id":85568392924742830,"keywords":["cp","nocrits","nodmgspread","uncletopia"],"game_id":440,"stv_port":27066,"stv_name":"Uncletopia | London | 6 | All Maps | STV","players":null},{"server_id":40,"name":"Uncletopia | London | 7 | No Payload","name_short":"lon-7","host":"lon-1.uk.uncletopia.com","port":27075,"enabled":true,"region":"eu","cc":"gb","latitude":51.509865,"longitude":-0.118092,"reserved":0,"last_update":"0001-01-01T00:00:00Z","name_a2s":"Uncletopia | London | 7 | No Payload","protocol":17,"map":"pl_badwater","folder":"tf","game":"Team Fortress","app_id":440,"player_count":0,"max_players":24,"Bots":0,"server_type":"Dedicated","server_os":"Linux","password":true,"vac":true,"version":"7757534","steam_id":85568392924964314,"keywords":["nocrits","nodmgspread","payload","uncletopia"],"game_id":440,"stv_port":27076,"stv_name":"Uncletopia | London | 7 | No Payload | STV","players":null},{"server_id":41,"name":"Uncletopia | London | 8 | Community","name_short":"lon-8","host":"lon-1.uk.uncletopia.com","port":27085,"enabled":true,"region":"eu","cc":"gb","latitude":51.509865,"longitude":-0.118092,"reserved":0,"last_update":"0001-01-01T00:00:00Z","name_a2s":"Uncletopia | London | 8 | Community","protocol":17,"map":"pl_barnblitz","folder":"tf","game":"Team Fortress","app_id":440,"player_count":0,"max_players":24,"Bots":0,"server_type":"Dedicated","server_os":"Linux","password":true,"vac":true,"version":"7757534","steam_id":85568392924964315,"keywords":["nocrits","nodmgspread","payload","uncletopia"],"game_id":440,"stv_port":27086,"stv_name":"Uncletopia | London | 8 | Community | STV","players":null},{"server_id":300,"name":"Uncletopia | Montréal | 1 | All Maps","name_short":"mtl-1","host":"mtl-1.ca.uncletopia.com","port":27015,"enabled":true,"region":"us-east","cc":"ca","latitude":45.50889,"longitude":-73.56167,"reserved":0,"last_update":"0001-01-01T00:00:00Z","name_a2s":"Uncletopia | Montréal | 1 | All Maps","protocol":17,"map":"cp_mountainlab","folder":"tf","game":"Team Fortress","app_id":440,"player_count":0,"max_players":24,"Bots":0,"server_type":"Dedicated","server_os":"Linux","password":true,"vac":true,"version":"7757534","steam_id":85568392924500087,"keywords":["cp","nocrits","nodmgspread","uncletopia"],"game_id":440,"stv_port":27016,"stv_name":"Uncletopia | Montréal | 1 | All Maps | STV","players":null},{"server_id":301,"name":"Uncletopia | Montréal | 2 | All Maps","name_short":"mtl-2","host":"mtl-1.ca.uncletopia.com","port":27025,"enabled":true,"region":"us-east","cc":"ca","latitude":45.50889,"longitude":-73.56167,"reserved":0,"last_update":"0001-01-01T00:00:00Z","name_a2s":"Uncletopia | Montréal | 2 | All Maps","protocol":17,"map":"cp_process_final","folder":"tf","game":"Team Fortress","app_id":440,"player_count":0,"max_players":24,"Bots":0,"server_type":"Dedicated","server_os":"Linux","password":true,"vac":true,"version":"7757534","steam_id":85568392924500088,"keywords":["cp","nocrits","nodmgspread","uncletopia"],"game_id":440,"stv_port":27026,"stv_name":"Uncletopia | Montréal | 2 | All Maps | STV","players":null},{"server_id":302,"name":"Uncletopia | Montréal | 3 | All Maps","name_short":"mtl-3","host":"mtl-1.ca.uncletopia.com","port":27035,"enabled":true,"region":"us-east","cc":"ca","latitude":45.50889,"longitude":-73.56167,"reserved":0,"last_update":"0001-01-01T00:00:00Z","name_a2s":"Uncletopia | Montréal | 3 | All Maps","protocol":17,"map":"koth_viaduct","folder":"tf","game":"Team Fortress","app_id":440,"player_count":0,"max_players":24,"Bots":0,"server_type":"Dedicated","server_os":"Linux","password":true,"vac":true,"version":"7757534","steam_id":85568392924500089,"keywords":["cp","nocrits","nodmgspread","uncletopia"],"game_id":440,"stv_port":27036,"stv_name":"Uncletopia | Montréal | 3 | All Maps | STV","players":null},{"server_id":303,"name":"Uncletopia | Montréal | 4 | No Payload","name_short":"mtl-4","host":"mtl-1.ca.uncletopia.com","port":27045,"enabled":true,"region":"us-east","cc":"ca","latitude":45.50889,"longitude":-73.56167,"reserved":0,"last_update":"0001-01-01T00:00:00Z","name_a2s":"Uncletopia | Montréal | 4 | No Payload","protocol":17,"map":"plr_pipeline","folder":"tf","game":"Team Fortress","app_id":440,"player_count":0,"max_players":24,"Bots":0,"server_type":"Dedicated","server_os":"Linux","password":true,"vac":true,"version":"7757534","steam_id":85568392924500090,"keywords":["nocrits","nodmgspread","payload","uncletopia"],"game_id":440,"stv_port":27046,"stv_name":"Uncletopia | Montréal | 4 | No Payload | STV","players":null},{"server_id":13,"name":"Uncletopia | New York City | 1 | All Maps","name_short":"nyc-1","host":"nyc-1.us.uncletopia.com","port":27015,"enabled":true,"region":"us-east","cc":"us","latitude":40.73061,"longitude":-73.93524,"reserved":0,"last_update":"0001-01-01T00:00:00Z","name_a2s":"Uncletopia | New York City | 1 | All Maps","protocol":17,"map":"pl_upward","folder":"tf","game":"Team Fortress","app_id":440,"player_count":0,"max_players":24,"Bots":0,"server_type":"Dedicated","server_os":"Linux","password":true,"vac":true,"version":"7757534","steam_id":85568392924469993,"keywords":["nocrits","nodmgspread","payload","uncletopia"],"game_id":440,"stv_port":27016,"stv_name":"Uncletopia | New York City | 1 | All Maps | STV","players":null},{"server_id":14,"name":"Uncletopia | New York City | 2 | All Maps","name_short":"nyc-2","host":"nyc-1.us.uncletopia.com","port":27025,"enabled":true,"region":"us-east","cc":"us","latitude":40.73061,"longitude":-73.93524,"reserved":0,"last_update":"0001-01-01T00:00:00Z","name_a2s":"Uncletopia | New York City | 2 | All Maps","protocol":17,"map":"pl_borneo","folder":"tf","game":"Team Fortress","app_id":440,"player_count":24,"max_players":24,"Bots":0,"server_type":"Dedicated","server_os":"Linux","password":true,"vac":true,"version":"7757534","steam_id":85568392924469994,"keywords":["nocrits","nodmgspread","payload","uncletopia"],"game_id":440,"stv_port":27026,"stv_name":"Uncletopia | New York City | 2 | All Maps | STV","players":[{"user_id":552,"name":"Newt","steam_id":76561199119569440,"connected_time":3538000000000,"state":"active","ping":87},{"user_id":576,"name":"Lamedonyx","steam_id":76561198064232177,"connected_time":2060000000000,"state":"active","ping":124},{"user_id":588,"name":"AzuriousAlex","steam_id":76561198158026405,"connected_time":514000000000,"state":"active","ping":98},{"user_id":583,"name":"SAD MOSCOVIA","steam_id":76561198101081520,"connected_time":1218000000000,"state":"active","ping":149},{"user_id":577,"name":"2003 chevy malibu","steam_id":76561199075669125,"connected_time":2059000000000,"state":"active","ping":47},{"user_id":589,"name":"Anomalocaris Gay Ming","steam_id":76561198257921898,"connected_time":305000000000,"state":"active","ping":128},{"user_id":550,"name":"violet.gb","steam_id":76561198248461754,"connected_time":3653000000000,"state":"active","ping":112},{"user_id":553,"name":"Living Trigger","steam_id":76561198858078512,"connected_time":3485000000000,"state":"active","ping":94},{"user_id":579,"name":"soltuno","steam_id":76561198074430565,"connected_time":1901000000000,"state":"active","ping":125},{"user_id":590,"name":"'93","steam_id":76561198069979962,"connected_time":279000000000,"state":"active","ping":151},{"user_id":591,"name":"coaster14","steam_id":76561198043862237,"connected_time":277000000000,"state":"active","ping":75},{"user_id":592,"name":"Eden Hazard","steam_id":76561198089241053,"connected_time":207000000000,"state":"active","ping":40},{"user_id":559,"name":"babe its 4am time for tf2","steam_id":76561198008332777,"connected_time":3127000000000,"state":"active","ping":56},{"user_id":581,"name":"ATL1 cheers2x","steam_id":76561198366299848,"connected_time":1599000000000,"state":"active","ping":61},{"user_id":574,"name":"Rock and Stone","steam_id":76561198057374871,"connected_time":2246000000000,"state":"active","ping":74},{"user_id":533,"name":"Sera","steam_id":76561197994547338,"connected_time":5150000000000,"state":"active","ping":48},{"user_id":534,"name":"-astra.gb","steam_id":76561198100477765,"connected_time":5126000000000,"state":"active","ping":67},{"user_id":587,"name":"Ereous (Erin)","steam_id":76561198431446386,"connected_time":534000000000,"state":"active","ping":83},{"user_id":593,"name":"Mr.Phil","steam_id":76561198042801033,"connected_time":203000000000,"state":"active","ping":55},{"user_id":594,"name":"Jacob","steam_id":76561198144613386,"connected_time":169000000000,"state":"active","ping":77},{"user_id":562,"name":"Ace Attorney","steam_id":76561198133011705,"connected_time":2844000000000,"state":"active","ping":45},{"user_id":595,"name":"Herr Müller","steam_id":76561198064876829,"connected_time":166000000000,"state":"active","ping":99},{"user_id":564,"name":"VixianUwU","steam_id":76561198948815060,"connected_time":2781000000000,"state":"active","ping":90},{"user_id":565,"name":"Raizen","steam_id":76561199092445367,"connected_time":2737000000000,"state":"active","ping":59}]},{"server_id":15,"name":"Uncletopia | New York City | 3 | Stopwatch Beta","name_short":"nyc-3","host":"nyc-1.us.uncletopia.com","port":27035,"enabled":true,"region":"us-east","cc":"us","latitude":40.73061,"longitude":-73.93524,"reserved":0,"last_update":"0001-01-01T00:00:00Z","name_a2s":"Uncletopia | New York City | 3 | Stopwatch Beta","protocol":17,"map":"cp_granary","folder":"tf","game":"Team Fortress","app_id":440,"player_count":0,"max_players":24,"Bots":0,"server_type":"Dedicated","server_os":"Linux","password":true,"vac":true,"version":"7757534","steam_id":85568392924742820,"keywords":["cp","nocrits","nodmgspread","uncletopia"],"game_id":440,"stv_port":27036,"stv_name":"Uncletopia | New York City | 3 | Stopwatch Beta | STV","players":null},{"server_id":16,"name":"Uncletopia | New York City | 4 | Community","name_short":"nyc-4","host":"nyc-1.us.uncletopia.com","port":27045,"enabled":true,"region":"us-east","cc":"us","latitude":40.73061,"longitude":-73.93524,"reserved":0,"last_update":"0001-01-01T00:00:00Z","name_a2s":"Uncletopia | New York City | 4 | Community","protocol":17,"map":"workshop/koth_product_final.ugc454272353","folder":"tf","game":"Team Fortress","app_id":440,"player_count":0,"max_players":24,"Bots":0,"server_type":"Dedicated","server_os":"Linux","password":true,"vac":true,"version":"7757534","steam_id":85568392924742821,"keywords":["cp","nocrits","nodmgspread","uncletopia"],"game_id":440,"stv_port":27046,"stv_name":"Uncletopia | New York City | 4 | Community | STV","players":null},{"server_id":142,"name":"Uncletopia | São Paulo | 1 | All Maps","name_short":"sao-1","host":"sao-1.br.uncletopia.com","port":27015,"enabled":true,"region":"sa","cc":"br","latitude":-23.533773,"longitude":-46.62529,"reserved":0,"last_update":"0001-01-01T00:00:00Z","name_a2s":"Uncletopia | São Paulo | 1 | All Maps","protocol":17,"map":"koth_lakeside_final","folder":"tf","game":"Team Fortress","app_id":440,"player_count":0,"max_players":24,"Bots":0,"server_type":"Dedicated","server_os":"Linux","password":true,"vac":true,"version":"7757534","steam_id":85568392924469996,"keywords":["cp","nocrits","nodmgspread","uncletopia"],"game_id":440,"stv_port":27016,"stv_name":"Uncletopia | São Paulo | 1 | All Maps | STV","players":null},{"server_id":143,"name":"Uncletopia | São Paulo | 2 | All Maps","name_short":"sao-2","host":"sao-2.br.uncletopia.com","port":27015,"enabled":true,"region":"sa","cc":"br","latitude":-23.533773,"longitude":-46.62529,"reserved":0,"last_update":"0001-01-01T00:00:00Z","name_a2s":"Uncletopia | São Paulo | 2 | All Maps","protocol":17,"map":"pl_borneo","folder":"tf","game":"Team Fortress","app_id":440,"player_count":0,"max_players":24,"Bots":0,"server_type":"Dedicated","server_os":"Linux","password":true,"vac":true,"version":"7757534","steam_id":85568392924485349,"keywords":["nocrits","nodmgspread","payload","uncletopia"],"game_id":440,"stv_port":27016,"stv_name":"Uncletopia | São Paulo | 2 | All Maps | STV","players":null},{"server_id":7,"name":"Uncletopia | Seattle | 1 | All Maps","name_short":"sea-1","host":"sea-1.us.uncletopia.com","port":27015,"enabled":true,"region":"us-west","cc":"us","latitude":47.608013,"longitude":-122.33517,"reserved":0,"last_update":"0001-01-01T00:00:00Z","name_a2s":"Uncletopia | Seattle | 1 | All Maps","protocol":17,"map":"cp_mountainlab","folder":"tf","game":"Team Fortress","app_id":440,"player_count":24,"max_players":24,"Bots":0,"server_type":"Dedicated","server_os":"Linux","password":true,"vac":true,"version":"7757534","steam_id":85568392924469997,"keywords":["cp","nocrits","nodmgspread","uncletopia"],"game_id":440,"stv_port":27016,"stv_name":"Uncletopia | Seattle | 1 | All Maps | STV","players":[{"user_id":602,"name":"NEЯO","steam_id":76561197965450216,"connected_time":5427000000000,"state":"active","ping":59},{"user_id":644,"name":"toilet mafia","steam_id":76561198844273999,"connected_time":1412000000000,"state":"active","ping":42},{"user_id":653,"name":"★★thastephen★★","steam_id":76561198080289775,"connected_time":176000000000,"state":"active","ping":70},{"user_id":660,"name":"Kamin","steam_id":76561198255299559,"connected_time":26000000000,"state":"active","ping":148},{"user_id":654,"name":"hidden tiger, crouching pootis","steam_id":76561198986534519,"connected_time":137000000000,"state":"active","ping":59},{"user_id":575,"name":"toes","steam_id":76561198221151676,"connected_time":7941000000000,"state":"active","ping":56},{"user_id":645,"name":"Ena","steam_id":76561198066986108,"connected_time":1393000000000,"state":"active","ping":43},{"user_id":641,"name":"colespudzo","steam_id":76561198051127147,"connected_time":1932000000000,"state":"active","ping":75},{"user_id":594,"name":"Flesh Eating Turtle","steam_id":76561198116742139,"connected_time":5778000000000,"state":"active","ping":47},{"user_id":657,"name":"antitrust","steam_id":76561198099225458,"connected_time":80000000000,"state":"active","ping":91},{"user_id":588,"name":"XxTR4NSPH0BE_D3ST0YERxX","steam_id":76561198035695976,"connected_time":6667000000000,"state":"active","ping":44},{"user_id":576,"name":"Choccy Milk","steam_id":76561198085333480,"connected_time":7605000000000,"state":"active","ping":57},{"user_id":649,"name":"FidelGuevara","steam_id":76561198368296171,"connected_time":691000000000,"state":"active","ping":105},{"user_id":639,"name":"Bishuhp","steam_id":76561198015062850,"connected_time":2145000000000,"state":"active","ping":82},{"user_id":642,"name":"goblino","steam_id":76561198068260422,"connected_time":1615000000000,"state":"active","ping":91},{"user_id":650,"name":"eek","steam_id":76561198332896682,"connected_time":223000000000,"state":"active","ping":43},{"user_id":646,"name":"twin","steam_id":76561198055626638,"connected_time":1373000000000,"state":"active","ping":145},{"user_id":656,"name":"bloooo","steam_id":76561198103515747,"connected_time":105000000000,"state":"active","ping":59},{"user_id":658,"name":"Dreamy Sweat from 2hu","steam_id":76561198094602446,"connected_time":65000000000,"state":"active","ping":53},{"user_id":659,"name":"D0VE","steam_id":76561198151618566,"connected_time":60000000000,"state":"active","ping":57},{"user_id":661,"name":"chowdah908","steam_id":76561198075858535,"connected_time":8000000000,"state":"connecting","ping":0},{"user_id":651,"name":"Callahan","steam_id":76561197976928457,"connected_time":220000000000,"state":"active","ping":85},{"user_id":618,"name":"Alpdhuez [✚]","steam_id":76561198013808837,"connected_time":3635000000000,"state":"active","ping":57},{"user_id":640,"name":"🎄AndreaJingling🎄","steam_id":76561198198658783,"connected_time":2130000000000,"state":"active","ping":68}]},{"server_id":119,"name":"Uncletopia | Seattle | 2 | All Maps","name_short":"sea-2","host":"sea-1.us.uncletopia.com","port":27025,"enabled":true,"region":"us-west","cc":"us","latitude":47.608013,"longitude":-122.33517,"reserved":0,"last_update":"0001-01-01T00:00:00Z","name_a2s":"Uncletopia | Seattle | 2 | All Maps","protocol":17,"map":"koth_harvest_final","folder":"tf","game":"Team Fortress","app_id":440,"player_count":6,"max_players":24,"Bots":0,"server_type":"Dedicated","server_os":"Linux","password":true,"vac":true,"version":"7757534","steam_id":85568392924469998,"keywords":["cp","nocrits","nodmgspread","uncletopia"],"game_id":440,"stv_port":27026,"stv_name":"Uncletopia | Seattle | 2 | All Maps | STV","players":[{"user_id":573,"name":"Nightlyy.","steam_id":76561198272069779,"connected_time":1160000000000,"state":"active","ping":60},{"user_id":574,"name":"Kbrr","steam_id":76561199029309409,"connected_time":1036000000000,"state":"active","ping":71},{"user_id":547,"name":"smeasly","steam_id":76561198028718812,"connected_time":3440000000000,"state":"active","ping":36},{"user_id":556,"name":"Clagger","steam_id":76561198066701092,"connected_time":2291000000000,"state":"active","ping":44},{"user_id":582,"name":"DMAFGreatoverlordSchikonmaster","steam_id":76561198123510618,"connected_time":620000000000,"state":"active","ping":76},{"user_id":577,"name":"jmb","steam_id":76561198353456379,"connected_time":912000000000,"state":"active","ping":64}]},{"server_id":406,"name":"Uncletopia | Seattle | 3 | Stopwatch Beta","name_short":"sea-3","host":"sea-1.us.uncletopia.com","port":27035,"enabled":true,"region":"us-west","cc":"us","latitude":47.608013,"longitude":-122.33517,"reserved":0,"last_update":"0001-01-01T00:00:00Z","name_a2s":"Uncletopia | Seattle | 3 | Stopwatch Beta","protocol":17,"map":"workshop/pl_vigil_rc9.ugc1266210012","folder":"tf","game":"Team Fortress","app_id":440,"player_count":0,"max_players":24,"Bots":0,"server_type":"Dedicated","server_os":"Linux","password":true,"vac":true,"version":"7757534","steam_id":85568392924515217,"keywords":["nocrits","nodmgspread","payload","uncletopia"],"game_id":440,"stv_port":27036,"stv_name":"Uncletopia | Seattle | 3 | Stopwatch Beta | STV","players":null},{"server_id":17,"name":"Uncletopia | San Francisco | 1 | All Maps","name_short":"sfo-1","host":"sfo-1.us.uncletopia.com","port":27015,"enabled":true,"region":"us-west","cc":"us","latitude":37.77397,"longitude":-122.4313,"reserved":0,"last_update":"0001-01-01T00:00:00Z","name_a2s":"Uncletopia | San Francisco | 1 | All Maps","protocol":17,"map":"pl_snowycoast","folder":"tf","game":"Team Fortress","app_id":440,"player_count":4,"max_players":24,"Bots":0,"server_type":"Dedicated","server_os":"Linux","password":true,"vac":true,"version":"7757534","steam_id":85568392924469999,"keywords":["nocrits","nodmgspread","payload","uncletopia"],"game_id":440,"stv_port":27016,"stv_name":"Uncletopia | San Francisco | 1 | All Maps | STV","players":[{"user_id":1003,"name":"LightningBlitz47","steam_id":76561198310971283,"connected_time":1049000000000,"state":"active","ping":82},{"user_id":954,"name":"Mak","steam_id":76561198089197922,"connected_time":5221000000000,"state":"active","ping":74},{"user_id":1000,"name":"Wacks","steam_id":76561198079476100,"connected_time":2020000000000,"state":"active","ping":44},{"user_id":1004,"name":"[Zero] Lag","steam_id":76561198983494186,"connected_time":827000000000,"state":"active","ping":115}]},{"server_id":18,"name":"Uncletopia | San Francisco | 2 | All Maps","name_short":"sfo-2","host":"sfo-1.us.uncletopia.com","port":27025,"enabled":true,"region":"us-west","cc":"us","latitude":37.77397,"longitude":-122.4313,"reserved":0,"last_update":"0001-01-01T00:00:00Z","name_a2s":"Uncletopia | San Francisco | 2 | All Maps","protocol":17,"map":"cp_dustbowl","folder":"tf","game":"Team Fortress","app_id":440,"player_count":0,"max_players":24,"Bots":0,"server_type":"Dedicated","server_os":"Linux","password":true,"vac":true,"version":"7757534","steam_id":85568392924470000,"keywords":["cp","nocrits","nodmgspread","uncletopia"],"game_id":440,"stv_port":27026,"stv_name":"Uncletopia | San Francisco | 2 | All Maps | STV","players":null},{"server_id":19,"name":"Uncletopia | San Francisco | 3 | Stopwatch Beta","name_short":"sfo-3","host":"sfo-1.us.uncletopia.com","port":27035,"enabled":true,"region":"us-west","cc":"us","latitude":37.77397,"longitude":-122.4313,"reserved":0,"last_update":"0001-01-01T00:00:00Z","name_a2s":"Uncletopia | San Francisco | 3 | Stopwatch Beta","protocol":17,"map":"workshop/koth_clearcut_b15.ugc2107050255","folder":"tf","game":"Team Fortress","app_id":440,"player_count":0,"max_players":24,"Bots":0,"server_type":"Dedicated","server_os":"Linux","password":true,"vac":true,"version":"7757534","steam_id":85568392924742824,"keywords":["cp","nocrits","nodmgspread","uncletopia"],"game_id":440,"stv_port":27036,"stv_name":"Uncletopia | San Francisco | 3 | Stopwatch Beta | STV","players":null},{"server_id":20,"name":"Uncletopia | San Francisco | 4 | Community","name_short":"sfo-4","host":"sfo-1.us.uncletopia.com","port":27045,"enabled":true,"region":"us-west","cc":"us","latitude":37.77397,"longitude":-122.4313,"reserved":0,"last_update":"0001-01-01T00:00:00Z","name_a2s":"Uncletopia | San Francisco | 4 | Community","protocol":17,"map":"workshop/pl_cactuscanyon_redux_final2.ugc2579644293","folder":"tf","game":"Team Fortress","app_id":440,"player_count":0,"max_players":24,"Bots":0,"server_type":"Dedicated","server_os":"Linux","password":true,"vac":true,"version":"7757534","steam_id":85568392924742826,"keywords":["nocrits","nodmgspread","payload","uncletopia"],"game_id":440,"stv_port":27046,"stv_name":"Uncletopia | San Francisco | 4 | Community | STV","players":null},{"server_id":141,"name":"Uncletopia | Sydney | 1 | All Maps","name_short":"syd-1","host":"syd-1.au.uncletopia.com","port":27015,"enabled":true,"region":"au","cc":"au","latitude":-33.865143,"longitude":151.2099,"reserved":0,"last_update":"0001-01-01T00:00:00Z","name_a2s":"Uncletopia | Sydney | 1 | All Maps","protocol":17,"map":"pl_borneo","folder":"tf","game":"Team Fortress","app_id":440,"player_count":20,"max_players":24,"Bots":0,"server_type":"Dedicated","server_os":"Linux","password":true,"vac":true,"version":"7757534","steam_id":85568392924470001,"keywords":["nocrits","nodmgspread","payload","uncletopia"],"game_id":440,"stv_port":27016,"stv_name":"Uncletopia | Sydney | 1 | All Maps | STV","players":[{"user_id":73,"name":"CacoDemon","steam_id":76561199122784612,"connected_time":94000000000,"state":"active","ping":356},{"user_id":69,"name":"soupy","steam_id":76561198073734936,"connected_time":245000000000,"state":"active","ping":86},{"user_id":74,"name":"jor","steam_id":76561198027585180,"connected_time":92000000000,"state":"active","ping":52},{"user_id":28,"name":"Bing Soy","steam_id":76561198057093383,"connected_time":3153000000000,"state":"active","ping":53},{"user_id":29,"name":"Fledges","steam_id":76561198017381539,"connected_time":3063000000000,"state":"active","ping":58},{"user_id":60,"name":"saudi ambassador messi","steam_id":76561198031293430,"connected_time":571000000000,"state":"active","ping":89},{"user_id":61,"name":"Zoey","steam_id":76561198126153554,"connected_time":542000000000,"state":"active","ping":88},{"user_id":35,"name":"MININinja1308","steam_id":76561199040303660,"connected_time":2261000000000,"state":"active","ping":56},{"user_id":62,"name":"Soldier main(Really)","steam_id":76561198153397177,"connected_time":524000000000,"state":"active","ping":56},{"user_id":36,"name":"york","steam_id":76561197996817216,"connected_time":2175000000000,"state":"active","ping":45},{"user_id":63,"name":"Combine hl2 real","steam_id":76561199060614128,"connected_time":478000000000,"state":"active","ping":86},{"user_id":75,"name":"2007 Mini Cooper S 1.6L Turbo","steam_id":76561198081556976,"connected_time":54000000000,"state":"spawning","ping":106},{"user_id":45,"name":"[FTW] RonnieD'","steam_id":76561197993957267,"connected_time":1892000000000,"state":"active","ping":52},{"user_id":56,"name":"The Master-Baiter","steam_id":76561199218159316,"connected_time":857000000000,"state":"active","ping":52},{"user_id":64,"name":"Nicholas","steam_id":76561198828864199,"connected_time":445000000000,"state":"active","ping":57},{"user_id":65,"name":"Server Maintenance","steam_id":76561199396024219,"connected_time":349000000000,"state":"active","ping":51},{"user_id":66,"name":"Tentacle","steam_id":76561197994320010,"connected_time":337000000000,"state":"active","ping":53},{"user_id":71,"name":"Loaf","steam_id":76561198295941652,"connected_time":176000000000,"state":"active","ping":58},{"user_id":68,"name":"Local Trash Expert","steam_id":76561198145598622,"connected_time":292000000000,"state":"active","ping":79},{"user_id":76,"name":"Ryan Lockwood","steam_id":76561198138918195,"connected_time":21000000000,"state":"spawning","ping":59}]},{"server_id":123,"name":"Uncletopia | Sydney | 2 | All Maps","name_short":"syd-2","host":"syd-1.au.uncletopia.com","port":27025,"enabled":true,"region":"au","cc":"au","latitude":-33.865143,"longitude":151.2099,"reserved":0,"last_update":"0001-01-01T00:00:00Z","name_a2s":"Uncletopia | Sydney | 2 | All Maps","protocol":17,"map":"koth_viaduct","folder":"tf","game":"Team Fortress","app_id":440,"player_count":23,"max_players":24,"Bots":0,"server_type":"Dedicated","server_os":"Linux","password":true,"vac":true,"version":"7757534","steam_id":85568392924470002,"keywords":["cp","nocrits","nodmgspread","uncletopia"],"game_id":440,"stv_port":27026,"stv_name":"Uncletopia | Sydney | 2 | All Maps | STV","players":[{"user_id":306,"name":"yooj","steam_id":76561197999718328,"connected_time":651000000000,"state":"active","ping":73},{"user_id":209,"name":"Bonker","steam_id":76561198845159846,"connected_time":5503000000000,"state":"active","ping":55},{"user_id":301,"name":"huey","steam_id":76561199069777966,"connected_time":881000000000,"state":"active","ping":59},{"user_id":201,"name":"weezer","steam_id":76561199439508788,"connected_time":6268000000000,"state":"active","ping":65},{"user_id":287,"name":"Crimson Aurora","steam_id":76561198157492747,"connected_time":1434000000000,"state":"active","ping":97},{"user_id":275,"name":"Scrumpeh","steam_id":76561198058085957,"connected_time":2056000000000,"state":"active","ping":55},{"user_id":229,"name":"cas ganister","steam_id":76561198879023728,"connected_time":4305000000000,"state":"active","ping":50},{"user_id":290,"name":"FreeBeers","steam_id":76561198095448607,"connected_time":1369000000000,"state":"active","ping":69},{"user_id":316,"name":"Skree'kaw / Eryn","steam_id":76561199415758131,"connected_time":48000000000,"state":"active","ping":66},{"user_id":225,"name":"little raw meat boy","steam_id":76561199248254676,"connected_time":4492000000000,"state":"active","ping":52},{"user_id":310,"name":"helton1 #RemoveCrossbow","steam_id":76561198841855657,"connected_time":575000000000,"state":"active","ping":58},{"user_id":298,"name":"Geenobe","steam_id":76561198112874802,"connected_time":1181000000000,"state":"active","ping":59},{"user_id":312,"name":"Rat Pope","steam_id":76561199059450243,"connected_time":518000000000,"state":"active","ping":52},{"user_id":302,"name":"sig kuntt","steam_id":76561198126638443,"connected_time":878000000000,"state":"active","ping":110},{"user_id":314,"name":"Steppytoes","steam_id":76561199013168507,"connected_time":333000000000,"state":"active","ping":57},{"user_id":295,"name":"Alley_YAMBO","steam_id":76561198055651850,"connected_time":1279000000000,"state":"active","ping":181},{"user_id":311,"name":"Candy_Cane19","steam_id":76561198978478925,"connected_time":530000000000,"state":"active","ping":63},{"user_id":313,"name":"das conk creet baybee","steam_id":76561198256416570,"connected_time":472000000000,"state":"active","ping":62},{"user_id":280,"name":"twitch.tv/DrTreggles","steam_id":76561198042806226,"connected_time":1907000000000,"state":"active","ping":96},{"user_id":265,"name":"Bigrichard","steam_id":76561198032092945,"connected_time":2783000000000,"state":"active","ping":77},{"user_id":296,"name":"Ryu Akiyama","steam_id":76561198382291076,"connected_time":1266000000000,"state":"active","ping":134},{"user_id":309,"name":"Johnny Fairplay","steam_id":76561198121757287,"connected_time":624000000000,"state":"active","ping":48},{"user_id":284,"name":"DeathEagle シ","steam_id":76561197997644542,"connected_time":1723000000000,"state":"active","ping":58}]},{"server_id":395,"name":"Uncletopia | Sydney | 3 | All Maps","name_short":"syd-3","host":"syd-1.au.uncletopia.com","port":27035,"enabled":true,"region":"au","cc":"au","latitude":-33.865143,"longitude":151.2099,"reserved":0,"last_update":"0001-01-01T00:00:00Z","name_a2s":"Uncletopia | Sydney | 3 | All Maps","protocol":17,"map":"koth_highpass","folder":"tf","game":"Team Fortress","app_id":440,"player_count":0,"max_players":24,"Bots":0,"server_type":"Dedicated","server_os":"Linux","password":true,"vac":true,"version":"7757534","steam_id":85568392925194467,"keywords":["cp","nocrits","nodmgspread","uncletopia"],"game_id":440,"stv_port":27036,"stv_name":"Uncletopia | Sydney | 3 | All Maps | STV","players":null},{"server_id":396,"name":"Uncletopia | Sydney | 4 | All Maps","name_short":"syd-4","host":"syd-1.au.uncletopia.com","port":27045,"enabled":true,"region":"au","cc":"au","latitude":-33.865143,"longitude":151.2099,"reserved":0,"last_update":"0001-01-01T00:00:00Z","name_a2s":"Uncletopia | Sydney | 4 | All Maps","protocol":17,"map":"koth_highpass","folder":"tf","game":"Team Fortress","app_id":440,"player_count":2,"max_players":24,"Bots":0,"server_type":"Dedicated","server_os":"Linux","password":true,"vac":true,"version":"7757534","steam_id":85568392925397958,"keywords":["cp","nocrits","nodmgspread","uncletopia"],"game_id":440,"stv_port":27046,"stv_name":"Uncletopia | Sydney | 4 | All Maps | STV","players":[{"user_id":14,"name":"batman fortnite","steam_id":76561198853087243,"connected_time":567000000000,"state":"active","ping":95},{"user_id":15,"name":"JokeExplainer1","steam_id":76561199245545146,"connected_time":465000000000,"state":"active","ping":62}]},{"server_id":58,"name":"Uncletopia | Sydney | 5 | Stopwatch Beta","name_short":"syd-5","host":"syd-1.au.uncletopia.com","port":27055,"enabled":true,"region":"au","cc":"au","latitude":-33.865143,"longitude":151.2099,"reserved":0,"last_update":"0001-01-01T00:00:00Z","name_a2s":"Uncletopia | Sydney | 5 | Stopwatch Beta","protocol":17,"map":"koth_cascade","folder":"tf","game":"Team Fortress","app_id":440,"player_count":0,"max_players":24,"Bots":0,"server_type":"Dedicated","server_os":"Linux","password":true,"vac":true,"version":"7757534","steam_id":85568392925397959,"keywords":["cp","nocrits","nodmgspread","uncletopia"],"game_id":440,"stv_port":27056,"stv_name":"Uncletopia | Sydney | 5 | Stopwatch Beta | STV","players":null},{"server_id":59,"name":"Uncletopia | Sydney | 6 | Community","name_short":"syd-6","host":"syd-1.au.uncletopia.com","port":27065,"enabled":true,"region":"au","cc":"au","latitude":-33.865143,"longitude":151.2099,"reserved":0,"last_update":"0001-01-01T00:00:00Z","name_a2s":"Uncletopia | Sydney | 6 | Community","protocol":17,"map":"cp_snakewater_final1","folder":"tf","game":"Team Fortress","app_id":440,"player_count":0,"max_players":24,"Bots":0,"server_type":"Dedicated","server_os":"Linux","password":true,"vac":true,"version":"7757534","steam_id":85568392925397960,"keywords":["cp","nocrits","nodmgspread","uncletopia"],"game_id":440,"stv_port":27066,"stv_name":"Uncletopia | Sydney | 6 | Community | STV","players":null},{"server_id":49,"name":"Uncletopia | Warsaw | 1 | All Maps","name_short":"waw-1","host":"waw-1.pl.uncletopia.com","port":27015,"enabled":true,"region":"eu","cc":"pl","latitude":52.2297,"longitude":21.017532,"reserved":0,"last_update":"0001-01-01T00:00:00Z","name_a2s":"","protocol":0,"map":"","folder":"","game":"","app_id":0,"player_count":0,"max_players":0,"Bots":0,"server_type":"","server_os":"","password":false,"vac":false,"version":"","steam_id":0,"keywords":null,"game_id":0,"stv_port":0,"stv_name":"","players":null},{"server_id":50,"name":"Uncletopia | Warsaw | 2 | All Maps","name_short":"waw-2","host":"waw-1.pl.uncletopia.com","port":27025,"enabled":true,"region":"eu","cc":"pl","latitude":52.2297,"longitude":21.017532,"reserved":0,"last_update":"0001-01-01T00:00:00Z","name_a2s":"Uncletopia | Warsaw | 2 | All Maps","protocol":17,"map":"koth_viaduct","folder":"tf","game":"Team Fortress","app_id":440,"player_count":0,"max_players":24,"Bots":0,"server_type":"Dedicated","server_os":"Linux","password":true,"vac":true,"version":"7757534","steam_id":85568392925397851,"keywords":["cp","nocrits","nodmgspread","uncletopia"],"game_id":440,"stv_port":27026,"stv_name":"Uncletopia | Warsaw | 2 | All Maps | STV","players":null},{"server_id":51,"name":"Uncletopia | Warsaw | 3 | All Maps","name_short":"waw-3","host":"waw-1.pl.uncletopia.com","port":27035,"enabled":true,"region":"eu","cc":"pl","latitude":52.2297,"longitude":21.017532,"reserved":0,"last_update":"0001-01-01T00:00:00Z","name_a2s":"Uncletopia | Warsaw | 3 | All Maps","protocol":17,"map":"pl_badwater","folder":"tf","game":"Team Fortress","app_id":440,"player_count":0,"max_players":24,"Bots":0,"server_type":"Dedicated","server_os":"Linux","password":true,"vac":true,"version":"7757534","steam_id":85568392925397852,"keywords":["nocrits","nodmgspread","payload","uncletopia"],"game_id":440,"stv_port":27036,"stv_name":"Uncletopia | Warsaw | 3 | All Maps | STV","players":null},{"server_id":52,"name":"Uncletopia | Warsaw | 4 | All Maps","name_short":"waw-4","host":"waw-1.pl.uncletopia.com","port":27045,"enabled":true,"region":"eu","cc":"pl","latitude":52.2297,"longitude":21.017532,"reserved":0,"last_update":"0001-01-01T00:00:00Z","name_a2s":"Uncletopia | Warsaw | 4 | All Maps","protocol":17,"map":"koth_lakeside_final","folder":"tf","game":"Team Fortress","app_id":440,"player_count":0,"max_players":24,"Bots":0,"server_type":"Dedicated","server_os":"Linux","password":true,"vac":true,"version":"7757534","steam_id":85568392925397853,"keywords":["cp","nocrits","nodmgspread","uncletopia"],"game_id":440,"stv_port":27046,"stv_name":"Uncletopia | Warsaw | 4 | All Maps | STV","players":null},{"server_id":53,"name":"Uncletopia | Warsaw | 5 | Stopwatch Beta","name_short":"waw-5","host":"waw-1.pl.uncletopia.com","port":27055,"enabled":true,"region":"eu","cc":"pl","latitude":52.2297,"longitude":21.017532,"reserved":0,"last_update":"0001-01-01T00:00:00Z","name_a2s":"Uncletopia | Warsaw | 5 | Stopwatch Beta","protocol":17,"map":"pl_borneo","folder":"tf","game":"Team Fortress","app_id":440,"player_count":0,"max_players":24,"Bots":0,"server_type":"Dedicated","server_os":"Linux","password":true,"vac":true,"version":"7757534","steam_id":85568392925397854,"keywords":["nocrits","nodmgspread","payload","uncletopia"],"game_id":440,"stv_port":27056,"stv_name":"Uncletopia | Warsaw | 5 | Stopwatch Beta | STV","players":null},{"server_id":54,"name":"Uncletopia | Warsaw | 6 | Community","name_short":"waw-6","host":"waw-1.pl.uncletopia.com","port":27065,"enabled":true,"region":"eu","cc":"pl","latitude":52.2297,"longitude":21.017532,"reserved":0,"last_update":"0001-01-01T00:00:00Z","name_a2s":"Uncletopia | Warsaw | 6 | Community","protocol":17,"map":"koth_lakeside_final","folder":"tf","game":"Team Fortress","app_id":440,"player_count":0,"max_players":24,"Bots":0,"server_type":"Dedicated","server_os":"Linux","password":true,"vac":true,"version":"7757534","steam_id":85568392925397856,"keywords":["cp","nocrits","nodmgspread","uncletopia"],"game_id":440,"stv_port":27066,"stv_name":"Uncletopia | Warsaw | 6 | Community | STV","players":null}]}