{"status":true,"message":"","result":[{"server_id":9,"name":"Uncletopia | Atlanta | 1 | All Maps","name_short":"atl-1","host":"atl-1.us.uncletopia.com","port":27015,"enabled":true,"region":"us-east","cc":"us","latitude":33.753746,"longitude":-84.38633,"reserved":0,"last_update":"0001-01-01T00:00:00Z","name_a2s":"Uncletopia | Atlanta | 1 | All Maps","protocol":17,"map":"pl_upward","folder":"tf","game":"Team Fortress","app_id":440,"player_count":24,"max_players":24,"Bots":0,"server_type":"Dedicated","server_os":"Linux","password":true,"vac":true,"version":"7961495","steam_id":85568392924469982,"keywords":["nocrits","nodmgspread","payload","uncletopia"],"game_id":440,"stv_port":27016,"stv_name":"Uncletopia | Atlanta | 1 | All Maps | STV","players":null},{"server_id":104,"name":"Uncletopia | Atlanta | 2 | All Maps","name_short":"atl-2","host":"atl-1.us.uncletopia.com","port":27025,"enabled":true,"region":"us-east","cc":"us","latitude":33.753746,"longitude":-84.38633,"reserved":0,"last_update":"0001-01-01T00:00:00Z","name_a2s":"Uncletopia | Atlanta | 2 | All Maps","protocol":17,"map":"cp_dustbowl","folder":"tf","game":"Team Fortress","app_id":440,"player_count":24,"max_players":24,"Bots":0,"server_type":"Dedicated","server_os":"Linux","password":true,"vac":true,"version":"7961495","steam_id":85568392924469983,"keywords":["cp","nocrits","nodmgspread","uncletopia"],"game_id":440,"stv_port":27026,"stv_name":"Uncletopia | Atlanta | 2 | All Maps | STV","players":null},{"server_id":400,"name":"Uncletopia | Atlanta | 3 | Stopwatch","name_short":"atl-3","host":"atl-1.us.uncletopia.com","port":27035,"enabled":true,"region":"us-east","cc":"us","latitude":33.753746,"longitude":-84.38633,"reserved":0,"last_update":"0001-01-01T00:00:00Z","name_a2s":"Uncletopia | Atlanta | 3 | Stopwatch","protocol":17,"map":"pl_badwater","folder":"tf","game":"Team Fortress","app_id":440,"player_count":0,"max_players":24,"Bots":0,"server_type":"Dedicated","server_os":"Linux","password":true,"vac":true,"version":"7961495","steam_id":85568392924515187,"keywords":["nocrits","nodmgspread","payload","uncletopia"],"game_id":440,"stv_port":27036,"stv_name":"Uncletopia | Atlanta | 3 | Stopwatch | STV","players":null},{"server_id":401,"name":"Uncletopia | Atlanta | 4 | Community","name_short":"atl-4","host":"atl-1.us.uncletopia.com","port":27045,"enabled":true,"region":"us-east","cc":"us","latitude":33.753746,"longitude":-84.38633,"reserved":0,"last_update":"0001-01-01T00:00:00Z","name_a2s":"Uncletopia | Atlanta | 4 | Community","protocol":17,"map":"koth_bagel_rc6","folder":"tf","game":"Team Fortress","app_id":440,"player_count":22,"max_players":24,"Bots":0,"server_type":"Dedicated","server_os":"Linux","password":true,"vac":true,"version":"7961495","steam_id":85568392924515188,"keywords":["cp","nocrits","nodmgspread","uncletopia"],"game_id":440,"stv_port":27046,"stv_name":"Uncletopia | Atlanta | 4 | Community | STV","players":null},{"server_id":2,"name":"Uncletopia | Chicago | 1 | All Maps","name_short":"chi-1","host":"chi-1.us.uncletopia.com","port":27015,"enabled":true,"region":"us-central","cc":"us","latitude":41.881832,"longitude":-87.62318,"reserved":0,"last_update":"0001-01-01T00:00:00Z","name_a2s":"Uncletopia | Chicago | 1 | All Maps","protocol":17,"map":"pl_frontier_final","folder":"tf","game":"Team Fortress","app_id":440,"player_count":24,"max_players":24,"Bots":0,"server_type":"Dedicated","server_os":"Linux","password":true,"vac":true,"version":"7961495","steam_id":85568392924469984,"keywords":["nocrits","nodmgspread","payload","uncletopia"],"game_id":440,"stv_port":27016,"stv_name":"Uncletopia | Chicago | 1 | All Maps | STV","players":[{"user_id":911,"name":"Lucky","steam_id":76561198418262145,"connected_time":1365000000000,"state":"active","ping":134},{"user_id":922,"name":"Octomal800","steam_id":76561199453595616,"connected_time":490000000000,"state":"active","ping":79},{"user_id":933,"name":"Thundermonkey (SMOKE)","steam_id":76561198017631728,"connected_time":154000000000,"state":"active","ping":51},{"user_id":902,"name":"deimos","steam_id":76561198148357768,"connected_time":1764000000000,"state":"active","ping":61},{"user_id":921,"name":"寧々","steam_id":76561198831996918,"connected_time":499000000000,"state":"active","ping":49},{"user_id":889,"name":"fried rice","steam_id":76561198928939100,"connected_time":3135000000000,"state":"active","ping":80},{"user_id":877,"name":"chubbs","steam_id":76561198039267516,"connected_time":4424000000000,"state":"active","ping":71},{"user_id":904,"name":"All Cats Are Beautiful","steam_id":76561199106689292,"connected_time":1630000000000,"state":"active","ping":62},{"user_id":913,"name":"Icarus","steam_id":76561198180484659,"connected_time":1014000000000,"state":"active","ping":74},{"user_id":928,"name":".#1 farter SE USA","steam_id":76561198057076267,"connected_time":331000000000,"state":"active","ping":95},{"user_id":914,"name":"DinkleBerg","steam_id":76561198891626233,"connected_time":1012000000000,"state":"active","ping":60},{"user_id":923,"name":"PitocoHery","steam_id":76561198814499824,"connected_time":489000000000,"state":"active","ping":192},{"user_id":899,"name":"medic enthusiast","steam_id":76561198323031964,"connected_time":2023000000000,"state":"active","ping":77},{"user_id":912,"name":"Poseidon","steam_id":76561198093983903,"connected_time":1359000000000,"state":"active","ping":111},{"user_id":905,"name":"twix","steam_id":76561198040912048,"connected_time":1559000000000,"state":"active","ping":44},{"user_id":919,"name":"Praise_to_the_Flashlight!","steam_id":76561199001728789,"connected_time":533000000000,"state":"active","ping":61},{"user_id":900,"name":"Shwal","steam_id":76561198138840448,"connected_time":1929000000000,"state":"active","ping":78},{"user_id":931,"name":"TheOneZoot","steam_id":76561198121944243,"connected_time":198000000000,"state":"active","ping":64},{"user_id":932,"name":"Snom","steam_id":76561198333827920,"connected_time":175000000000,"state":"active","ping":132},{"user_id":934,"name":"litroolay","steam_id":76561197995226856,"connected_time":87000000000,"state":"active","ping":89},{"user_id":935,"name":"LordPepper","steam_id":76561198152517985,"connected_time":76000000000,"state":"active","ping":65},{"user_id":880,"name":"Toxic Ron","steam_id":76561198089302972,"connected_time":4332000000000,"state":"active","ping":61},{"user_id":936,"name":"loscemo","steam_id":76561197994884609,"connected_time":73000000000,"state":"active","ping":68},{"user_id":918,"name":"can of Heinz Beans","steam_id":76561198806423231,"connected_time":797000000000,"state":"active","ping":103}]},{"server_id":106,"name":"Uncletopia | Chicago | 2 | All Maps","name_short":"chi-2","host":"chi-1.us.uncletopia.com","port":27025,"enabled":true,"region":"us-central","cc":"us","latitude":41.881832,"longitude":-87.62318,"reserved":0,"last_update":"0001-01-01T00:00:00Z","name_a2s":"Uncletopia | Chicago | 2 | All Maps","protocol":17,"map":"pl_swiftwater_final1","folder":"tf","game":"Team Fortress","app_id":440,"player_count":24,"max_players":24,"Bots":0,"server_type":"Dedicated","server_os":"Linux","password":true,"vac":true,"version":"7961495","steam_id":85568392924469985,"keywords":["nocrits","nodmgspread","payload","uncletopia"],"game_id":440,"stv_port":27026,"stv_name":"Uncletopia | Chicago | 2 | All Maps | STV","players":[{"user_id":394,"name":"the222attacker","steam_id":76561198969690191,"connected_time":2159000000000,"state":"active","ping":63},{"user_id":393,"name":"Goldblock","steam_id":76561198405515937,"connected_time":2172000000000,"state":"active","ping":104},{"user_id":371,"name":"Mr. Tickle","steam_id":76561198126684647,"connected_time":3615000000000,"state":"active","ping":72},{"user_id":416,"name":"BumpofNight","steam_id":76561198011581312,"connected_time":648000000000,"state":"active","ping":85},{"user_id":383,"name":"Fraglin","steam_id":76561198124964000,"connected_time":2742000000000,"state":"active","ping":71},{"user_id":392,"name":"pinkey","steam_id":76561198054832449,"connected_time":2179000000000,"state":"active","ping":68},{"user_id":359,"name":"Pipnirsian","steam_id":76561198380976416,"connected_time":4535000000000,"state":"active","ping":78},{"user_id":384,"name":"Sniper is to good","steam_id":76561199388826335,"connected_time":2599000000000,"state":"active","ping":78},{"user_id":377,"name":"koko","steam_id":76561198881665250,"connected_time":3072000000000,"state":"active","ping":89},{"user_id":413,"name":"RectalExam","steam_id":76561197970502312,"connected_time":864000000000,"state":"active","ping":95},{"user_id":391,"name":"The local hobo","steam_id":76561198289650060,"connected_time":2193000000000,"state":"active","ping":80},{"user_id":410,"name":"Ninetees","steam_id":76561198119483989,"connected_time":1374000000000,"state":"active","ping":80},{"user_id":417,"name":"bog","steam_id":76561198070975491,"connected_time":251000000000,"state":"active","ping":73},{"user_id":406,"name":"Obama F. Kennedy","steam_id":76561198282499318,"connected_time":1470000000000,"state":"active","ping":71},{"user_id":411,"name":"tau307","steam_id":76561199040290279,"connected_time":919000000000,"state":"active","ping":60},{"user_id":401,"name":"frim le yousse","steam_id":76561198107765260,"connected_time":1834000000000,"state":"active","ping":83},{"user_id":361,"name":"Spectre","steam_id":76561198037535169,"connected_time":4524000000000,"state":"active","ping":90},{"user_id":414,"name":"(TPT) Ghost","steam_id":76561198123262873,"connected_time":854000000000,"state":"active","ping":116},{"user_id":412,"name":"stoppit","steam_id":76561198353292787,"connected_time":917000000000,"state":"active","ping":76},{"user_id":374,"name":"ceres fauna free use","steam_id":76561198097330521,"connected_time":3198000000000,"state":"active","ping":154},{"user_id":418,"name":"SwaggerEggs","steam_id":76561199057357191,"connected_time":28000000000,"state":"active","ping":138},{"user_id":368,"name":"Grop Noise","steam_id":76561198145445403,"connected_time":4072000000000,"state":"active","ping":55},{"user_id":369,"name":"Chris Thorndyke","steam_id":76561198092542702,"connected_time":4059000000000,"state":"active","ping":61},{"user_id":390,"name":"๖ۣۜMagic","steam_id":76561199272962550,"connected_time":2337000000000,"state":"active","ping":58}]},{"server_id":402,"name":"Uncletopia | Chicago | 3 | All Maps","name_short":"chi-3","host":"chi-1.us.uncletopia.com","port":27035,"enabled":true,"region":"us-central","cc":"us","latitude":41.881832,"longitude":-87.62318,"reserved":0,"last_update":"0001-01-01T00:00:00Z","name_a2s":"Uncletopia | Chicago | 3 | All Maps","protocol":17,"map":"pl_pier","folder":"tf","game":"Team Fortress","app_id":440,"player_count":24,"max_players":24,"Bots":0,"server_type":"Dedicated","server_os":"Linux","password":true,"vac":true,"version":"7961495","steam_id":85568392924515191,"keywords":["nocrits","nodmgspread","payload","uncletopia"],"game_id":440,"stv_port":27036,"stv_name":"Uncletopia | Chicago | 3 | All Maps | STV","players":[{"user_id":353,"name":"Kim Wexler","steam_id":76561198964107245,"connected_time":885000000000,"state":"active","ping":98},{"user_id":358,"name":"Harpua","steam_id":76561197988020228,"connected_time":299000000000,"state":"active","ping":63},{"user_id":349,"name":"Letters","steam_id":76561198035508148,"connected_time":1111000000000,"state":"active","ping":81},{"user_id":354,"name":"SpockASD","steam_id":76561198307516731,"connected_time":745000000000,"state":"active","ping":83},{"user_id":357,"name":"NukaTheRabbit {Fur}","steam_id":76561198058692928,"connected_time":303000000000,"state":"active","ping":54},{"user_id":340,"name":"khaino","steam_id":76561198195764728,"connected_time":1417000000000,"state":"active","ping":74},{"user_id":274,"name":"Pumpkin Man","steam_id":76561198066269812,"connected_time":6238000000000,"state":"active","ping":98},{"user_id":343,"name":"cakgamin","steam_id":76561199088909749,"connected_time":1392000000000,"state":"active","ping":60},{"user_id":365,"name":"reverse","steam_id":76561198186840242,"connected_time":227000000000,"state":"active","ping":76},{"user_id":366,"name":"Random","steam_id":76561198318879454,"connected_time":214000000000,"state":"active","ping":60},{"user_id":346,"name":"adrymarker","steam_id":76561198316948699,"connected_time":1247000000000,"state":"active","ping":68},{"user_id":361,"name":"AJTarcza","steam_id":76561198070800190,"connected_time":289000000000,"state":"active","ping":89},{"user_id":359,"name":"Murrdogg","steam_id":76561198210491188,"connected_time":296000000000,"state":"active","ping":67},{"user_id":362,"name":"Dokkibai","steam_id":76561198355935693,"connected_time":285000000000,"state":"active","ping":47},{"user_id":364,"name":"j4miecl4rk","steam_id":76561198404312721,"connected_time":255000000000,"state":"active","ping":57},{"user_id":295,"name":"Notorious Criminal Prawo Jazdy","steam_id":76561198339011254,"connected_time":5524000000000,"state":"active","ping":81},{"user_id":344,"name":"pnut","steam_id":76561198043862737,"connected_time":1329000000000,"state":"active","ping":60},{"user_id":360,"name":"Flowers","steam_id":76561198031669899,"connected_time":296000000000,"state":"active","ping":89},{"user_id":350,"name":"sooty","steam_id":76561198830243167,"connected_time":1038000000000,"state":"active","ping":67},{"user_id":284,"name":"Popgous [♣]","steam_id":76561198011099121,"connected_time":6053000000000,"state":"active","ping":48},{"user_id":287,"name":"Gogus Gangus","steam_id":76561197979199112,"connected_time":6017000000000,"state":"active","ping":79},{"user_id":352,"name":"Saul Goodman","steam_id":76561198157305426,"connected_time":914000000000,"state":"active","ping":60},{"user_id":298,"name":"seedy iris","steam_id":76561198164420174,"connected_time":5429000000000,"state":"active","ping":37},{"user_id":363,"name":"Shoeshocker","steam_id":76561198174302467,"connected_time":284000000000,"state":"active","ping":133}]},{"server_id":403,"name":"Uncletopia | Chicago | 4 | All Maps","name_short":"chi-4","host":"chi-1.us.uncletopia.com","port":27045,"enabled":true,"region":"us-central","cc":"us","latitude":41.881832,"longitude":-87.62318,"reserved":0,"last_update":"0001-01-01T00:00:00Z","name_a2s":"Uncletopia | Chicago | 4 | All Maps","protocol":17,"map":"pl_upward","folder":"tf","game":"Team Fortress","app_id":440,"player_count":24,"max_players":24,"Bots":0,"server_type":"Dedicated","server_os":"Linux","password":true,"vac":true,"version":"7961495","steam_id":85568392924515193,"keywords":["nocrits","nodmgspread","payload","uncletopia"],"game_id":440,"stv_port":27046,"stv_name":"Uncletopia | Chicago | 4 | All Maps | STV","players":[{"user_id":150,"name":"Trapilicious","steam_id":76561198061430457,"connected_time":1725000000000,"state":"active","ping":75},{"user_id":168,"name":"DaFlynHyn","steam_id":76561197998492675,"connected_time":739000000000,"state":"active","ping":159},{"user_id":120,"name":"CupFruit","steam_id":76561198983993193,"connected_time":3586000000000,"state":"active","ping":75},{"user_id":171,"name":"OBI JON KENOBI","steam_id":76561198012035417,"connected_time":651000000000,"state":"active","ping":72},{"user_id":157,"name":"BA$ED GOD SPONGEBOB","steam_id":76561198045599872,"connected_time":1115000000000,"state":"active","ping":86},{"user_id":125,"name":"Furious George","steam_id":76561198405111646,"connected_time":3258000000000,"state":"active","ping":100},{"user_id":159,"name":"Quark","steam_id":76561198328155605,"connected_time":1005000000000,"state":"active","ping":56},{"user_id":169,"name":"ameritech","steam_id":76561198064769089,"connected_time":736000000000,"state":"active","ping":59},{"user_id":161,"name":"Moss","steam_id":76561199122200727,"connected_time":866000000000,"state":"active","ping":72},{"user_id":174,"name":"Young-OG","steam_id":76561198058800479,"connected_time":404000000000,"state":"active","ping":75},{"user_id":173,"name":"Shady Businessman","steam_id":76561198143855968,"connected_time":448000000000,"state":"active","ping":96},{"user_id":175,"name":"butthole tickler","steam_id":76561199088339727,"connected_time":164000000000,"state":"active","ping":105},{"user_id":140,"name":"potato gaming","steam_id":76561197978839360,"connected_time":2148000000000,"state":"active","ping":66},{"user_id":131,"name":"SteeredAxe","steam_id":76561198081309492,"connected_time":2685000000000,"state":"active","ping":61},{"user_id":134,"name":"chunk","steam_id":76561198134775401,"connected_time":2222000000000,"state":"active","ping":74},{"user_id":124,"name":"big steve","steam_id":76561199037050183,"connected_time":3271000000000,"state":"active","ping":135},{"user_id":170,"name":"Necronoxide","steam_id":76561197997856321,"connected_time":729000000000,"state":"active","ping":98},{"user_id":149,"name":"Ta5K","steam_id":76561198939558155,"connected_time":1750000000000,"state":"active","ping":46},{"user_id":163,"name":"EvilMrPotoo ｡◕‿◕｡","steam_id":76561198012566870,"connected_time":772000000000,"state":"active","ping":62},{"user_id":155,"name":"Warpy","steam_id":76561198055852599,"connected_time":1248000000000,"state":"active","ping":88},{"user_id":164,"name":"ok, ok","steam_id":76561199389262041,"connected_time":772000000000,"state":"active","ping":68},{"user_id":166,"name":"Quiet Kid Wit A Rlly Large BP","steam_id":76561198106147222,"connected_time":763000000000,"state":"active","ping":82},{"user_id":167,"name":"Kiwikrackle","steam_id":76561198328620890,"connected_time":761000000000,"state":"active","ping":90},{"user_id":156,"name":"the gerogerigegege","steam_id":76561198057116531,"connected_time":1247000000000,"state":"active","ping":55}]},{"server_id":36,"name":"Uncletopia | Chicago | 5 | All Maps","name_short":"chi-5","host":"chi-2.us.uncletopia.com","port":27015,"enabled":true,"region":"us-central","cc":"us","latitude":41.881832,"longitude":-87.62318,"reserved":0,"last_update":"0001-01-01T00:00:00Z","name_a2s":"Uncletopia | Chicago | 5 | All Maps","protocol":17,"map":"pl_snowycoast","folder":"tf","game":"Team Fortress","app_id":440,"player_count":24,"max_players":24,"Bots":0,"server_type":"Dedicated","server_os":"Linux","password":true,"vac":true,"version":"7961495","steam_id":85568392924866362,"keywords":["nocrits","nodmgspread","payload","uncletopia"],"game_id":440,"stv_port":27016,"stv_name":"Uncletopia | Chicago | 5 | All Maps | STV","players":[{"user_id":167,"name":"Smelly","steam_id":76561198380507370,"connected_time":2710000000000,"state":"active","ping":67},{"user_id":151,"name":"Some_Arse","steam_id":76561198039095394,"connected_time":4066000000000,"state":"active","ping":64},{"user_id":80,"name":"M249 | Spectre","steam_id":76561198118334485,"connected_time":8647000000000,"state":"active","ping":73},{"user_id":198,"name":"murakami soulja","steam_id":76561198017539604,"connected_time":351000000000,"state":"active","ping":65},{"user_id":190,"name":"Cobalt","steam_id":76561198257532409,"connected_time":536000000000,"state":"active","ping":91},{"user_id":199,"name":"Slab","steam_id":76561198067896379,"connected_time":220000000000,"state":"active","ping":74},{"user_id":134,"name":"Little Man","steam_id":76561198106840052,"connected_time":5063000000000,"state":"active","ping":44},{"user_id":192,"name":"Stapler","steam_id":76561198099295077,"connected_time":507000000000,"state":"active","ping":98},{"user_id":144,"name":"Amari","steam_id":76561198272446730,"connected_time":4140000000000,"state":"active","ping":59},{"user_id":191,"name":"RandomRainbow","steam_id":76561199107573588,"connected_time":523000000000,"state":"active","ping":53},{"user_id":193,"name":"El Portel","steam_id":76561198076108055,"connected_time":480000000000,"state":"active","ping":78},{"user_id":168,"name":"Bebop","steam_id":76561198010246894,"connected_time":2695000000000,"state":"active","ping":61},{"user_id":104,"name":"Diamond","steam_id":76561198081423032,"connected_time":7540000000000,"state":"active","ping":75},{"user_id":194,"name":"0","steam_id":76561198420736408,"connected_time":445000000000,"state":"active","ping":87},{"user_id":180,"name":"A Shiny Meat Bicycle","steam_id":76561198358757709,"connected_time":1299000000000,"state":"active","ping":105},{"user_id":140,"name":"agless","steam_id":76561198045248344,"connected_time":4777000000000,"state":"active","ping":63},{"user_id":184,"name":"Master Of Whales","steam_id":76561198349104889,"connected_time":1206000000000,"state":"active","ping":104},{"user_id":150,"name":"Looper","steam_id":76561198410378769,"connected_time":4098000000000,"state":"active","ping":62},{"user_id":137,"name":"Pippermint","steam_id":76561198292091925,"connected_time":4905000000000,"state":"active","ping":73},{"user_id":196,"name":"tabascomilk","steam_id":76561198355094896,"connected_time":416000000000,"state":"active","ping":70},{"user_id":197,"name":"Killing_Spree575","steam_id":76561198881834550,"connected_time":413000000000,"state":"active","ping":79},{"user_id":188,"name":"Belloq","steam_id":76561198060279052,"connected_time":620000000000,"state":"active","ping":48},{"user_id":187,"name":"Carbuncle","steam_id":76561198983852058,"connected_time":793000000000,"state":"active","ping":86},{"user_id":183,"name":"totally not a pile of beans","steam_id":76561198119851931,"connected_time":1239000000000,"state":"active","ping":82}]},{"server_id":37,"name":"Uncletopia | Chicago | 6 | All Maps","name_short":"chi-6","host":"chi-2.us.uncletopia.com","port":27025,"enabled":true,"region":"us-central","cc":"us","latitude":41.881832,"longitude":-87.62318,"reserved":0,"last_update":"0001-01-01T00:00:00Z","name_a2s":"Uncletopia | Chicago | 6 | All Maps","protocol":17,"map":"pl_snowycoast","folder":"tf","game":"Team Fortress","app_id":440,"player_count":24,"max_players":24,"Bots":0,"server_type":"Dedicated","server_os":"Linux","password":true,"vac":true,"version":"7961495","steam_id":85568392924866363,"keywords":["nocrits","nodmgspread","payload","uncletopia"],"game_id":440,"stv_port":27026,"stv_name":"Uncletopia | Chicago | 6 | All Maps | STV","players":[{"user_id":223,"name":"Wulf","steam_id":76561198006072568,"connected_time":3789000000000,"state":"active","ping":104},{"user_id":239,"name":"Bobbn","steam_id":76561198876124683,"connected_time":2447000000000,"state":"active","ping":68},{"user_id":253,"name":"Joevahkin Bidenborne II","steam_id":76561199122076270,"connected_time":1395000000000,"state":"active","ping":63},{"user_id":204,"name":"redarcher42","steam_id":76561199027887687,"connected_time":4281000000000,"state":"active","ping":83},{"user_id":244,"name":"MantisToboggan","steam_id":76561197969447887,"connected_time":2015000000000,"state":"active","ping":134},{"user_id":260,"name":"David Boy","steam_id":76561198402957369,"connected_time":619000000000,"state":"active","ping":76},{"user_id":251,"name":"Dieu-Sama","steam_id":76561198002075862,"connected_time":1629000000000,"state":"active","ping":90},{"user_id":247,"name":"Pvt. Parts","steam_id":76561198191936407,"connected_time":1812000000000,"state":"active","ping":50},{"user_id":177,"name":"Reaper Queen","steam_id":76561199123283958,"connected_time":5295000000000,"state":"active","ping":109},{"user_id":268,"name":"k3nny11","steam_id":76561198182533757,"connected_time":26000000000,"state":"spawning","ping":85},{"user_id":259,"name":"[NAME-REDACTED]","steam_id":76561198035682975,"connected_time":690000000000,"state":"active","ping":62},{"user_id":258,"name":"Butters495","steam_id":76561197998689042,"connected_time":814000000000,"state":"active","ping":81},{"user_id":262,"name":"Prsm","steam_id":76561198053344995,"connected_time":586000000000,"state":"active","ping":54},{"user_id":211,"name":"I wanna play well","steam_id":76561198069735882,"connected_time":4215000000000,"state":"active","ping":72},{"user_id":269,"name":"Patriot Pills","steam_id":76561198381647349,"connected_time":19000000000,"state":"active","ping":158},{"user_id":267,"name":"adult tim","steam_id":76561198075510786,"connected_time":126000000000,"state":"active","ping":72},{"user_id":255,"name":"b-dot","steam_id":76561198160786631,"connected_time":1325000000000,"state":"active","ping":64},{"user_id":263,"name":"Mint Jelly","steam_id":76561197991286751,"connected_time":578000000000,"state":"active","ping":54},{"user_id":250,"name":"I'm Only 4 Inches","steam_id":76561198055542546,"connected_time":1688000000000,"state":"active","ping":60},{"user_id":246,"name":"JJames","steam_id":76561198055687973,"connected_time":1819000000000,"state":"active","ping":87},{"user_id":186,"name":"The Wave","steam_id":76561198268225109,"connected_time":5116000000000,"state":"active","ping":89},{"user_id":254,"name":"xelph","steam_id":76561198443008847,"connected_time":1330000000000,"state":"active","ping":85},{"user_id":256,"name":"poopnugget142","steam_id":76561198915816552,"connected_time":1319000000000,"state":"active","ping":99},{"user_id":216,"name":"Ranch","steam_id":76561198035557013,"connected_time":4179000000000,"state":"active","ping":50}]},{"server_id":38,"name":"Uncletopia | Chicago | 7 | Stopwatch","name_short":"chi-7","host":"chi-2.us.uncletopia.com","port":27035,"enabled":true,"region":"us-central","cc":"us","latitude":41.881832,"longitude":-87.62318,"reserved":0,"last_update":"0001-01-01T00:00:00Z","name_a2s":"Uncletopia | Chicago | 7 | Stopwatch","protocol":17,"map":"workshop/cp_reckoner_rc6.ugc674719999","folder":"tf","game":"Team Fortress","app_id":440,"player_count":0,"max_players":24,"Bots":0,"server_type":"Dedicated","server_os":"Linux","password":true,"vac":true,"version":"7961495","steam_id":85568392924866364,"keywords":["cp","nocrits","nodmgspread","uncletopia"],"game_id":440,"stv_port":27036,"stv_name":"Uncletopia | Chicago | 7 | Stopwatch | STV","players":null},{"server_id":39,"name":"Uncletopia | Chicago | 8 | Community","name_short":"chi-8","host":"chi-2.us.uncletopia.com","port":27045,"enabled":true,"region":"us-central","cc":"us","latitude":41.881832,"longitude":-87.62318,"reserved":0,"last_update":"0001-01-01T00:00:00Z","name_a2s":"Uncletopia | Chicago | 8 | Community","protocol":17,"map":"workshop/pl_shoreleave_rc2.ugc1238849347","folder":"tf","game":"Team Fortress","app_id":440,"player_count":24,"max_players":24,"Bots":0,"server_type":"Dedicated","server_os":"Linux","password":true,"vac":true,"version":"7961495","steam_id":85568392924866365,"keywords":["nocrits","nodmgspread","payload","uncletopia"],"game_id":440,"stv_port":27046,"stv_name":"Uncletopia | Chicago | 8 | Community | STV","players":[{"user_id":81,"name":"luca","steam_id":76561198069235730,"connected_time":4164000000000,"state":"active","ping":52},{"user_id":113,"name":"Gailus (She/Her)","steam_id":76561198319509387,"connected_time":178000000000,"state":"active","ping":68},{"user_id":109,"name":"oblivionxcess","steam_id":76561198055328607,"connected_time":544000000000,"state":"active","ping":94},{"user_id":107,"name":"darcie O'queef","steam_id":76561198271941547,"connected_time":651000000000,"state":"active","ping":60},{"user_id":82,"name":"cycoone","steam_id":76561198059745285,"connected_time":4132000000000,"state":"active","ping":61},{"user_id":94,"name":"Windows XP Startup Sound","steam_id":76561198034178841,"connected_time":2936000000000,"state":"active","ping":72},{"user_id":105,"name":"york","steam_id":76561198028120301,"connected_time":751000000000,"state":"active","ping":77},{"user_id":99,"name":"euphoricfilth","steam_id":76561198100160865,"connected_time":2100000000000,"state":"active","ping":64},{"user_id":92,"name":"TheAnswer","steam_id":76561198039471743,"connected_time":3773000000000,"state":"active","ping":73},{"user_id":47,"name":"yamme","steam_id":76561198117849124,"connected_time":6266000000000,"state":"active","ping":104},{"user_id":84,"name":"Hamsy","steam_id":76561198072744029,"connected_time":4065000000000,"state":"active","ping":160},{"user_id":95,"name":"Rodrick Knee","steam_id":76561198283021062,"connected_time":2925000000000,"state":"active","ping":86},{"user_id":108,"name":"emily","steam_id":76561198051872256,"connected_time":584000000000,"state":"active","ping":61},{"user_id":110,"name":"Cedric","steam_id":76561198072090580,"connected_time":510000000000,"state":"active","ping":88},{"user_id":89,"name":"Hadvar","steam_id":76561198081681234,"connected_time":3871000000000,"state":"active","ping":60},{"user_id":101,"name":"frostyketchup","steam_id":76561198086336918,"connected_time":1547000000000,"state":"active","ping":100},{"user_id":103,"name":"chuck","steam_id":76561198102300433,"connected_time":760000000000,"state":"active","ping":83},{"user_id":111,"name":"Toxicmonkeydude","steam_id":76561198045071056,"connected_time":410000000000,"state":"active","ping":168},{"user_id":86,"name":"Marce","steam_id":76561198073245553,"connected_time":4059000000000,"state":"active","ping":84},{"user_id":104,"name":"Paperclip","steam_id":76561198057076337,"connected_time":756000000000,"state":"active","ping":109},{"user_id":87,"name":"420weed obliviated than a hoe","steam_id":76561198129653872,"connected_time":4047000000000,"state":"active","ping":94},{"user_id":112,"name":"Corbe","steam_id":76561198353893927,"connected_time":382000000000,"state":"active","ping":44},{"user_id":100,"name":"Laventhey","steam_id":76561198977523626,"connected_time":1990000000000,"state":"active","ping":70}]},{"server_id":8,"name":"Uncletopia | Dallas | 1 | All Maps","name_short":"dal-1","host":"dal-1.us.uncletopia.com","port":27015,"enabled":true,"region":"us-central","cc":"us","latitude":32.779167,"longitude":-96.80889,"reserved":0,"last_update":"0001-01-01T00:00:00Z","name_a2s":"Uncletopia | Dallas | 1 | All Maps","protocol":17,"map":"pl_borneo","folder":"tf","game":"Team Fortress","app_id":440,"player_count":24,"max_players":24,"Bots":0,"server_type":"Dedicated","server_os":"Linux","password":true,"vac":true,"version":"7961495","steam_id":85568392924469986,"keywords":["nocrits","nodmgspread","payload","uncletopia"],"game_id":440,"stv_port":27016,"stv_name":"Uncletopia | Dallas | 1 | All Maps | STV","players":[{"user_id":218,"name":"Zymiren","steam_id":76561198054985471,"connected_time":8132000000000,"state":"active","ping":99},{"user_id":350,"name":"Jung","steam_id":76561198844037864,"connected_time":224000000000,"state":"active","ping":75},{"user_id":293,"name":"Translucent૮₍ • ᴥ •","steam_id":76561199212057076,"connected_time":3153000000000,"state":"active","ping":77},{"user_id":125,"name":"Soap","steam_id":76561197994893383,"connected_time":15117000000000,"state":"active","ping":70},{"user_id":356,"name":"boo_thefeared","steam_id":76561198127967685,"connected_time":27000000000,"state":"active","ping":156},{"user_id":355,"name":"Jimmy McGill","steam_id":76561198135137213,"connected_time":151000000000,"state":"active","ping":46},{"user_id":349,"name":"schmuck","steam_id":76561198143789773,"connected_time":235000000000,"state":"active","ping":49},{"user_id":284,"name":"Azazellotl","steam_id":76561198824814392,"connected_time":3512000000000,"state":"active","ping":97},{"user_id":347,"name":"I LOVE WEED","steam_id":76561198107219183,"connected_time":391000000000,"state":"active","ping":97},{"user_id":237,"name":"Kenku","steam_id":76561199086762926,"connected_time":6923000000000,"state":"active","ping":72},{"user_id":306,"name":"Captain_Eldeezee","steam_id":76561198301560834,"connected_time":2192000000000,"state":"active","ping":38},{"user_id":309,"name":"Boingo","steam_id":76561199086931535,"connected_time":1880000000000,"state":"active","ping":57},{"user_id":357,"name":"What day is it?","steam_id":76561199056736682,"connected_time":3000000000,"state":"spawning","ping":68},{"user_id":158,"name":"dog","steam_id":76561198263873491,"connected_time":12989000000000,"state":"active","ping":60},{"user_id":217,"name":"Bobby Ray","steam_id":76561198044131188,"connected_time":8235000000000,"state":"active","ping":75},{"user_id":255,"name":"Javaris Jamar Javarison-Lamar","steam_id":76561197974907012,"connected_time":6115000000000,"state":"active","ping":74},{"user_id":332,"name":"Green Mario","steam_id":76561198922644496,"connected_time":725000000000,"state":"active","ping":97},{"user_id":291,"name":"thepokeyen","steam_id":76561198236847572,"connected_time":3277000000000,"state":"active","ping":91},{"user_id":311,"name":"Dr. Poopenmeyer","steam_id":76561198060070002,"connected_time":1618000000000,"state":"active","ping":63},{"user_id":336,"name":"Lemony Lilly (She/Her)","steam_id":76561198042479066,"connected_time":678000000000,"state":"active","ping":82},{"user_id":353,"name":"bendaco","steam_id":76561197970975999,"connected_time":172000000000,"state":"active","ping":112},{"user_id":298,"name":"barker bill","steam_id":76561198018451994,"connected_time":2466000000000,"state":"active","ping":63},{"user_id":352,"name":"sebjzy ♥","steam_id":76561198009959034,"connected_time":185000000000,"state":"active","ping":63},{"user_id":340,"name":"Mossy","steam_id":76561198156401277,"connected_time":595000000000,"state":"active","ping":76}]},{"server_id":108,"name":"Uncletopia | Dallas | 2 | All Maps","name_short":"dal-2","host":"dal-1.us.uncletopia.com","port":27025,"enabled":true,"region":"us-central","cc":"us","latitude":32.779167,"longitude":-96.80889,"reserved":0,"last_update":"0001-01-01T00:00:00Z","name_a2s":"Uncletopia | Dallas | 2 | All Maps","protocol":17,"map":"pl_swiftwater_final1","folder":"tf","game":"Team Fortress","app_id":440,"player_count":24,"max_players":24,"Bots":0,"server_type":"Dedicated","server_os":"Linux","password":true,"vac":true,"version":"7961495","steam_id":85568392924469988,"keywords":["nocrits","nodmgspread","payload","uncletopia"],"game_id":440,"stv_port":27026,"stv_name":"Uncletopia | Dallas | 2 | All Maps | STV","players":[{"user_id":226,"name":"MrManlet","steam_id":76561198148597989,"connected_time":1061000000000,"state":"active","ping":121},{"user_id":225,"name":"2.5 Oz of Paprika","steam_id":76561198174647666,"connected_time":1162000000000,"state":"active","ping":104},{"user_id":231,"name":"brayayin","steam_id":76561199257286346,"connected_time":874000000000,"state":"active","ping":151},{"user_id":170,"name":"tomiz","steam_id":76561198827013832,"connected_time":5940000000000,"state":"active","ping":83},{"user_id":227,"name":"MrEdman4","steam_id":76561198062233923,"connected_time":1012000000000,"state":"active","ping":84},{"user_id":239,"name":"Phosu","steam_id":76561198180162801,"connected_time":712000000000,"state":"active","ping":70},{"user_id":232,"name":"ihave80hp","steam_id":76561199251621911,"connected_time":873000000000,"state":"active","ping":68},{"user_id":210,"name":"epix","steam_id":76561198354108114,"connected_time":3161000000000,"state":"active","ping":100},{"user_id":216,"name":"jimmyfnaf172198yay","steam_id":76561198311446636,"connected_time":1493000000000,"state":"active","ping":77},{"user_id":207,"name":"s p a c e k a t","steam_id":76561198066852209,"connected_time":3203000000000,"state":"active","ping":60},{"user_id":243,"name":"Mediocre Gaming","steam_id":76561199230467980,"connected_time":340000000000,"state":"active","ping":86},{"user_id":235,"name":"Harufloofer","steam_id":76561199084506827,"connected_time":862000000000,"state":"active","ping":47},{"user_id":208,"name":"damiankiller1243","steam_id":76561198868885090,"connected_time":3186000000000,"state":"active","ping":64},{"user_id":215,"name":"chiswola","steam_id":76561198046920142,"connected_time":1840000000000,"state":"active","ping":97},{"user_id":206,"name":"Katoji","steam_id":76561199024614743,"connected_time":3508000000000,"state":"active","ping":62},{"user_id":202,"name":"Daft Bonk","steam_id":76561198072862763,"connected_time":3634000000000,"state":"active","ping":54},{"user_id":211,"name":"VicLoL","steam_id":76561198045580784,"connected_time":3129000000000,"state":"active","ping":83},{"user_id":236,"name":"she be jon-ing on my arbuckle","steam_id":76561198986534519,"connected_time":852000000000,"state":"active","ping":90},{"user_id":229,"name":"Seskova","steam_id":76561198090207032,"connected_time":886000000000,"state":"active","ping":122},{"user_id":240,"name":"celery","steam_id":76561199004451589,"connected_time":578000000000,"state":"active","ping":53},{"user_id":242,"name":"Kirbothebrony","steam_id":76561198971911330,"connected_time":437000000000,"state":"active","ping":72},{"user_id":213,"name":"bigboimarven","steam_id":76561198844778810,"connected_time":2549000000000,"state":"active","ping":68},{"user_id":244,"name":"Major Woody","steam_id":76561198835541533,"connected_time":237000000000,"state":"active","ping":64},{"user_id":219,"name":"Rabs","steam_id":76561198255575749,"connected_time":1405000000000,"state":"active","ping":62}]},{"server_id":404,"name":"Uncletopia | Dallas | 3 | All Maps","name_short":"dal-3","host":"dal-1.us.uncletopia.com","port":27035,"enabled":true,"region":"us-central","cc":"us","latitude":32.779167,"longitude":-96.80889,"reserved":0,"last_update":"0001-01-01T00:00:00Z","name_a2s":"Uncletopia | Dallas | 3 | All Maps","protocol":17,"map":"pl_swiftwater_final1","folder":"tf","game":"Team Fortress","app_id":440,"player_count":25,"max_players":24,"Bots":0,"server_type":"Dedicated","server_os":"Linux","password":true,"vac":true,"version":"7961495","steam_id":85568392924515219,"keywords":["nocrits","nodmgspread","payload","uncletopia"],"game_id":440,"stv_port":27036,"stv_name":"Uncletopia | Dallas | 3 | All Maps | STV","players":[{"user_id":490,"name":"Gelliterate","steam_id":76561198107233070,"connected_time":4903000000000,"state":"active","ping":50},{"user_id":484,"name":"CoffeeZombee","steam_id":76561198172708053,"connected_time":5304000000000,"state":"active","ping":101},{"user_id":548,"name":"FatCuddlyBear","steam_id":76561198133613253,"connected_time":1113000000000,"state":"active","ping":93},{"user_id":522,"name":"leaving lunar orbit","steam_id":76561199085974120,"connected_time":2674000000000,"state":"active","ping":88},{"user_id":556,"name":"Bee","steam_id":76561199489934354,"connected_time":428000000000,"state":"active","ping":94},{"user_id":557,"name":"Jonno","steam_id":76561199164174545,"connected_time":331000000000,"state":"active","ping":116},{"user_id":494,"name":"Stillkill","steam_id":76561198065069057,"connected_time":4834000000000,"state":"active","ping":40},{"user_id":552,"name":"pipepeepi","steam_id":76561198845905873,"connected_time":857000000000,"state":"active","ping":76},{"user_id":543,"name":"???","steam_id":76561198200155343,"connected_time":1511000000000,"state":"active","ping":58},{"user_id":514,"name":"dailydiamond","steam_id":76561199123582502,"connected_time":3456000000000,"state":"active","ping":93},{"user_id":555,"name":"♦♣Quadric♥♠","steam_id":76561198061003853,"connected_time":619000000000,"state":"active","ping":95},{"user_id":563,"name":"Keegs","steam_id":76561198346917831,"connected_time":68000000000,"state":"active","ping":78},{"user_id":551,"name":"b4rry","steam_id":76561198365887154,"connected_time":1073000000000,"state":"active","ping":93},{"user_id":558,"name":"StillNotGinger","steam_id":76561198063419189,"connected_time":294000000000,"state":"active","ping":60},{"user_id":465,"name":"opossum","steam_id":76561198148905570,"connected_time":6761000000000,"state":"active","ping":74},{"user_id":526,"name":"Nica's Dream","steam_id":76561198028617381,"connected_time":2402000000000,"state":"active","ping":84},{"user_id":559,"name":"40000 bees in a trench coat","steam_id":76561198240919690,"connected_time":267000000000,"state":"active","ping":69},{"user_id":527,"name":"CumPieQueen(800x1.21=968)","steam_id":76561198062284145,"connected_time":2395000000000,"state":"active","ping":89},{"user_id":560,"name":"GRONT","steam_id":76561198040464533,"connected_time":254000000000,"state":"active","ping":79},{"user_id":561,"name":"Engineer","steam_id":76561199138738952,"connected_time":247000000000,"state":"active","ping":75},{"user_id":562,"name":"Peketo","steam_id":76561199104376294,"connected_time":189000000000,"state":"active","ping":86},{"user_id":533,"name":"BULLSHIT MATADOR","steam_id":76561198044488913,"connected_time":2281000000000,"state":"active","ping":67},{"user_id":531,"name":"Vladimir Puddin","steam_id":76561198139674520,"connected_time":2334000000000,"state":"active","ping":84},{"user_id":564,"name":"schnedwob","steam_id":76561197999146588,"connected_time":36000000000,"state":"active","ping":57},{"user_id":565,"name":"Foxyz","steam_id":76561198040642992,"connected_time":23000000000,"state":"spawning","ping":165}]},{"server_id":405,"name":"Uncletopia | Dallas | 4 | Community","name_short":"dal-4","host":"dal-1.us.uncletopia.com","port":27045,"enabled":true,"region":"us-central","cc":"us","latitude":32.779167,"longitude":-96.80889,"reserved":0,"last_update":"0001-01-01T00:00:00Z","name_a2s":"Uncletopia | Dallas | 4 | Community","protocol":17,"map":"workshop/pl_corrode_rc2.ugc546577989","folder":"tf","game":"Team Fortress","app_id":440,"player_count":0,"max_players":24,"Bots":0,"server_type":"Dedicated","server_os":"Linux","password":true,"vac":true,"version":"7961495","steam_id":85568392924515220,"keywords":["nocrits","nodmgspread","payload","uncletopia"],"game_id":440,"stv_port":27046,"stv_name":"Uncletopia | Dallas | 4 | Community | STV","players":null},{"server_id":5,"name":"Uncletopia | Frankfurt | 1 | All Maps","name_short":"frk-1","host":"frk-1.de.uncletopia.com","port":27015,"enabled":true,"region":"eu","cc":"de","latitude":50.110924,"longitude":8.682127,"reserved":0,"last_update":"0001-01-01T00:00:00Z","name_a2s":"Uncletopia | Frankfurt | 1 | All Maps","protocol":17,"map":"cp_mountainlab","folder":"tf","game":"Team Fortress","app_id":440,"player_count":0,"max_players":24,"Bots":0,"server_type":"Dedicated","server_os":"Linux","password":true,"vac":true,"version":"7961495","steam_id":85568392924469989,"keywords":["cp","nocrits","nodmgspread","uncletopia"],"game_id":440,"stv_port":27016,"stv_name":"Uncletopia | Frankfurt | 1 | All Maps | STV","players":null},{"server_id":110,"name":"Uncletopia | Frankfurt | 2 | All Maps","name_short":"frk-2","host":"frk-1.de.uncletopia.com","port":27025,"enabled":true,"region":"eu","cc":"de","latitude":50.110924,"longitude":8.682127,"reserved":0,"last_update":"0001-01-01T00:00:00Z","name_a2s":"Uncletopia | Frankfurt | 2 | All Maps","protocol":17,"map":"koth_viaduct","folder":"tf","game":"Team Fortress","app_id":440,"player_count":0,"max_players":24,"Bots":0,"server_type":"Dedicated","server_os":"Linux","password":true,"vac":true,"version":"7961495","steam_id":85568392924469990,"keywords":["cp","nocrits","nodmgspread","uncletopia"],"game_id":440,"stv_port":27026,"stv_name":"Uncletopia | Frankfurt | 2 | All Maps | STV","players":null},{"server_id":308,"name":"Uncletopia | Frankfurt | 3 | All Maps","name_short":"frk-3","host":"frk-1.de.uncletopia.com","port":27035,"enabled":true,"region":"eu","cc":"de","latitude":50.110924,"longitude":8.682127,"reserved":0,"last_update":"0001-01-01T00:00:00Z","name_a2s":"Uncletopia | Frankfurt | 3 | All Maps","protocol":17,"map":"koth_cascade","folder":"tf","game":"Team Fortress","app_id":440,"player_count":0,"max_players":24,"Bots":0,"server_type":"Dedicated","server_os":"Linux","password":true,"vac":true,"version":"7961495","steam_id":85568392924504274,"keywords":["cp","nocrits","nodmgspread","uncletopia"],"game_id":440,"stv_port":27036,"stv_name":"Uncletopia | Frankfurt | 3 | All Maps | STV","players":null},{"server_id":309,"name":"Uncletopia | Frankfurt | 4 | All Maps","name_short":"frk-4","host":"frk-1.de.uncletopia.com","port":27045,"enabled":true,"region":"eu","cc":"de","latitude":50.110924,"longitude":8.682127,"reserved":0,"last_update":"0001-01-01T00:00:00Z","name_a2s":"Uncletopia | Frankfurt | 4 | All Maps","protocol":17,"map":"koth_lakeside_final","folder":"tf","game":"Team Fortress","app_id":440,"player_count":0,"max_players":24,"Bots":0,"server_type":"Dedicated","server_os":"Linux","password":true,"vac":true,"version":"7961495","steam_id":85568392924504275,"keywords":["cp","nocrits","nodmgspread","uncletopia"],"game_id":440,"stv_port":27046,"stv_name":"Uncletopia | Frankfurt | 4 | All Maps | STV","players":null},{"server_id":310,"name":"Uncletopia | Frankfurt | 5 | All Maps","name_short":"frk-5","host":"frk-1.de.uncletopia.com","port":27055,"enabled":true,"region":"eu","cc":"de","latitude":50.110924,"longitude":8.682127,"reserved":0,"last_update":"0001-01-01T00:00:00Z","name_a2s":"Uncletopia | Frankfurt | 5 | All Maps","protocol":17,"map":"koth_viaduct","folder":"tf","game":"Team Fortress","app_id":440,"player_count":0,"max_players":24,"Bots":0,"server_type":"Dedicated","server_os":"Linux","password":true,"vac":true,"version":"7961495","steam_id":85568392924504277,"keywords":["cp","nocrits","nodmgspread","uncletopia"],"game_id":440,"stv_port":27056,"stv_name":"Uncletopia | Frankfurt | 5 | All Maps | STV","players":null},{"server_id":311,"name":"Uncletopia | Frankfurt | 6 | All Maps","name_short":"frk-6","host":"frk-1.de.uncletopia.com","port":27065,"enabled":true,"region":"eu","cc":"de","latitude":50.110924,"longitude":8.682127,"reserved":0,"last_update":"0001-01-01T00:00:00Z","name_a2s":"Uncletopia | Frankfurt | 6 | All Maps","protocol":17,"map":"cp_sunshine","folder":"tf","game":"Team Fortress","app_id":440,"player_count":0,"max_players":24,"Bots":0,"server_type":"Dedicated","server_os":"Linux","password":true,"vac":true,"version":"7961495","steam_id":85568392924504278,"keywords":["cp","nocrits","nodmgspread","uncletopia"],"game_id":440,"stv_port":27066,"stv_name":"Uncletopia | Frankfurt | 6 | All Maps | STV","players":null},{"server_id":23,"name":"Uncletopia | Frankfurt | 7 | Stopwatch","name_short":"frk-7","host":"frk-1.de.uncletopia.com","port":27075,"enabled":true,"region":"eu","cc":"de","latitude":50.110924,"longitude":8.682127,"reserved":0,"last_update":"0001-01-01T00:00:00Z","name_a2s":"Uncletopia | Frankfurt | 7 | Stopwatch","protocol":17,"map":"workshop/pl_vigil_rc10.ugc1266210012","folder":"tf","game":"Team Fortress","app_id":440,"player_count":0,"max_players":24,"Bots":0,"server_type":"Dedicated","server_os":"Linux","password":true,"vac":true,"version":"7961495","steam_id":85568392924742827,"keywords":["nocrits","nodmgspread","payload","uncletopia"],"game_id":440,"stv_port":27076,"stv_name":"Uncletopia | Frankfurt | 7 | Stopwatch | STV","players":null},{"server_id":24,"name":"Uncletopia | Frankfurt | 8 | Community","name_short":"frk-8","host":"frk-1.de.uncletopia.com","port":27085,"enabled":true,"region":"eu","cc":"de","latitude":50.110924,"longitude":8.682127,"reserved":0,"last_update":"0001-01-01T00:00:00Z","name_a2s":"Uncletopia | Frankfurt | 8 | Community","protocol":17,"map":"workshop/cp_villa_b19.ugc2113052569","folder":"tf","game":"Team Fortress","app_id":440,"player_count":0,"max_players":24,"Bots":0,"server_type":"Dedicated","server_os":"Linux","password":true,"vac":true,"version":"7961495","steam_id":85568392924742828,"keywords":["cp","nocrits","nodmgspread","uncletopia"],"game_id":440,"stv_port":27086,"stv_name":"Uncletopia | Frankfurt | 8 | Community | STV","players":null},{"server_id":202,"name":"Uncletopia | Hong Kong | 1 | All Maps","name_short":"hgk-1","host":"hgk-1.hk.uncletopia.com","port":27015,"enabled":true,"region":"asia","cc":"hk","latitude":22.302711,"longitude":114.177216,"reserved":0,"last_update":"0001-01-01T00:00:00Z","name_a2s":"Uncletopia | Hong Kong | 1 | All Maps","protocol":17,"map":"koth_suijin","folder":"tf","game":"Team Fortress","app_id":440,"player_count":9,"max_players":24,"Bots":0,"server_type":"Dedicated","server_os":"Linux","password":true,"vac":true,"version":"7961495","steam_id":85568392924494504,"keywords":["cp","nocrits","nodmgspread","uncletopia"],"game_id":440,"stv_port":27016,"stv_name":"Uncletopia | Hong Kong | 1 | All Maps | STV","players":[{"user_id":31,"name":"buttermilk","steam_id":76561199241946138,"connected_time":455000000000,"state":"active","ping":80},{"user_id":15,"name":"gun spy in helltaker art style","steam_id":76561199232527135,"connected_time":3154000000000,"state":"active","ping":117},{"user_id":12,"name":"DeesDeeds| trade.tf","steam_id":76561199244400513,"connected_time":3752000000000,"state":"active","ping":49},{"user_id":23,"name":"CCPodz","steam_id":76561199143506502,"connected_time":2057000000000,"state":"active","ping":254},{"user_id":21,"name":"ProfessorMC6477","steam_id":76561198361191112,"connected_time":2494000000000,"state":"active","ping":60},{"user_id":27,"name":"sniper monke","steam_id":76561199388444096,"connected_time":982000000000,"state":"active","ping":67},{"user_id":29,"name":"Username","steam_id":76561198285831999,"connected_time":725000000000,"state":"active","ping":142},{"user_id":32,"name":"saturne","steam_id":76561198960584024,"connected_time":421000000000,"state":"active","ping":62},{"user_id":35,"name":"Jeb Buckwheat","steam_id":76561198060532769,"connected_time":197000000000,"state":"active","ping":253}]},{"server_id":1,"name":"Uncletopia | Los Angeles | 1 | All Maps","name_short":"lax-1","host":"lax-1.us.uncletopia.com","port":27015,"enabled":true,"region":"us-west","cc":"us","latitude":33.94279,"longitude":-118.41004,"reserved":0,"last_update":"0001-01-01T00:00:00Z","name_a2s":"Uncletopia | Los Angeles | 1 | All Maps","protocol":17,"map":"pl_pier","folder":"tf","game":"Team Fortress","app_id":440,"player_count":24,"max_players":24,"Bots":0,"server_type":"Dedicated","server_os":"Linux","password":true,"vac":true,"version":"7961495","steam_id":85568392924469991,"keywords":["nocrits","nodmgspread","payload","uncletopia"],"game_id":440,"stv_port":27016,"stv_name":"Uncletopia | Los Angeles | 1 | All Maps | STV","players":[{"user_id":257,"name":"Drapph","steam_id":76561199384213314,"connected_time":262000000000,"state":"active","ping":124},{"user_id":250,"name":"nella","steam_id":76561198079349621,"connected_time":883000000000,"state":"active","ping":53},{"user_id":135,"name":"JeckAtteck","steam_id":76561198066992238,"connected_time":8956000000000,"state":"active","ping":94},{"user_id":222,"name":"HAT-WEARING™ Maggot Gamer Cat","steam_id":76561197973992705,"connected_time":2922000000000,"state":"active","ping":67},{"user_id":252,"name":"a chicken","steam_id":76561198313121580,"connected_time":511000000000,"state":"active","ping":48},{"user_id":214,"name":"Fancy_Bob","steam_id":76561198169701373,"connected_time":4238000000000,"state":"active","ping":96},{"user_id":246,"name":"M_Zuy","steam_id":76561199005898955,"connected_time":932000000000,"state":"active","ping":59},{"user_id":258,"name":"DORK","steam_id":76561198037384555,"connected_time":106000000000,"state":"active","ping":60},{"user_id":253,"name":"Jereboi303","steam_id":76561199093404869,"connected_time":506000000000,"state":"active","ping":71},{"user_id":240,"name":"JuliaDragon","steam_id":76561198175727790,"connected_time":1457000000000,"state":"active","ping":45},{"user_id":239,"name":"Sera ❤","steam_id":76561199115364536,"connected_time":1527000000000,"state":"active","ping":121},{"user_id":226,"name":"rat","steam_id":76561198102116420,"connected_time":2790000000000,"state":"active","ping":53},{"user_id":244,"name":"❤ Ashley ❤","steam_id":76561198056428303,"connected_time":1050000000000,"state":"active","ping":50},{"user_id":243,"name":"Meekz","steam_id":76561198012562373,"connected_time":1085000000000,"state":"active","ping":63},{"user_id":70,"name":"Cebula33","steam_id":76561197984964095,"connected_time":13113000000000,"state":"active","ping":60},{"user_id":145,"name":"Drive-By-Fish-Guy","steam_id":76561198105513652,"connected_time":8364000000000,"state":"active","ping":70},{"user_id":236,"name":"jake.watson1","steam_id":76561198101522470,"connected_time":1638000000000,"state":"active","ping":92},{"user_id":233,"name":"TheSecretNewbie","steam_id":76561198194671218,"connected_time":1753000000000,"state":"active","ping":87},{"user_id":210,"name":"Munchlax","steam_id":76561199071002439,"connected_time":4418000000000,"state":"active","ping":88},{"user_id":248,"name":"RadioRave","steam_id":76561198240837534,"connected_time":895000000000,"state":"active","ping":49},{"user_id":249,"name":"self sufficient kitten","steam_id":76561197960592612,"connected_time":892000000000,"state":"active","ping":76},{"user_id":175,"name":"sloth","steam_id":76561198318126190,"connected_time":6632000000000,"state":"active","ping":151},{"user_id":256,"name":"Dongus","steam_id":76561197979056451,"connected_time":394000000000,"state":"active","ping":76},{"user_id":218,"name":"spherewithahat","steam_id":76561199122192660,"connected_time":3059000000000,"state":"active","ping":122}]},{"server_id":112,"name":"Uncletopia | Los Angeles | 2 | All Maps","name_short":"lax-2","host":"lax-1.us.uncletopia.com","port":27025,"enabled":true,"region":"us-west","cc":"us","latitude":33.94279,"longitude":-118.41004,"reserved":0,"last_update":"0001-01-01T00:00:00Z","name_a2s":"Uncletopia | Los Angeles | 2 | All Maps","protocol":17,"map":"koth_lakeside_final","folder":"tf","game":"Team Fortress","app_id":440,"player_count":1,"max_players":24,"Bots":0,"server_type":"Dedicated","server_os":"Linux","password":true,"vac":true,"version":"7961495","steam_id":85568392924469992,"keywords":["cp","nocrits","nodmgspread","uncletopia"],"game_id":440,"stv_port":27026,"stv_name":"Uncletopia | Los Angeles | 2 | All Maps | STV","players":[{"user_id":14,"name":"the man","steam_id":76561198389268114,"connected_time":42000000000,"state":"active","ping":68}]},{"server_id":324,"name":"Uncletopia | Los Angeles | 3 | All Maps","name_short":"lax-3","host":"lax-1.us.uncletopia.com","port":27035,"enabled":true,"region":"us-west","cc":"us","latitude":33.94279,"longitude":-118.41004,"reserved":0,"last_update":"0001-01-01T00:00:00Z","name_a2s":"Uncletopia | Los Angeles | 3 | All Maps","protocol":17,"map":"pl_swiftwater_final1","folder":"tf","game":"Team Fortress","app_id":440,"player_count":17,"max_players":24,"Bots":0,"server_type":"Dedicated","server_os":"Linux","password":true,"vac":true,"version":"7961495","steam_id":85568392924510198,"keywords":["nocrits","nodmgspread","payload","uncletopia"],"game_id":440,"stv_port":27036,"stv_name":"Uncletopia | Los Angeles | 3 | All Maps | STV","players":[{"user_id":14,"name":"Kisune","steam_id":76561199368978007,"connected_time":2463000000000,"state":"active","ping":97},{"user_id":16,"name":"danny screamo","steam_id":76561198064312388,"connected_time":1401000000000,"state":"active","ping":68},{"user_id":21,"name":"Zebulaun","steam_id":76561197965160251,"connected_time":785000000000,"state":"active","ping":109},{"user_id":13,"name":"kdhbuilder","steam_id":76561199058095193,"connected_time":2636000000000,"state":"active","ping":115},{"user_id":22,"name":"Abbreviated","steam_id":76561198088423054,"connected_time":744000000000,"state":"active","ping":95},{"user_id":20,"name":"exx","steam_id":76561198090552145,"connected_time":835000000000,"state":"active","ping":44},{"user_id":23,"name":"Birdman743","steam_id":76561198799636748,"connected_time":659000000000,"state":"active","ping":85},{"user_id":24,"name":"Flores","steam_id":76561198106938500,"connected_time":519000000000,"state":"active","ping":47},{"user_id":25,"name":"Ygitor","steam_id":76561198328114476,"connected_time":495000000000,"state":"active","ping":63},{"user_id":26,"name":"robloxscream","steam_id":76561199048027781,"connected_time":174000000000,"state":"active","ping":61},{"user_id":27,"name":"Defeat","steam_id":76561198065203818,"connected_time":129000000000,"state":"active","ping":66},{"user_id":28,"name":"LilDonut","steam_id":76561197979774735,"connected_time":127000000000,"state":"active","ping":75},{"user_id":29,"name":"Sax","steam_id":76561198055425123,"connected_time":116000000000,"state":"active","ping":97},{"user_id":30,"name":"r0biN","steam_id":76561198097861434,"connected_time":112000000000,"state":"active","ping":53},{"user_id":31,"name":"Saphie (no monitor)","steam_id":76561198045740818,"connected_time":103000000000,"state":"active","ping":69},{"user_id":32,"name":"Jam Jams","steam_id":76561198128811267,"connected_time":93000000000,"state":"active","ping":95},{"user_id":33,"name":"Melon","steam_id":76561199202306398,"connected_time":55000000000,"state":"active","ping":59}]},{"server_id":25,"name":"Uncletopia | Los Angeles | 4 | Stopwatch","name_short":"lax-4","host":"lax-1.us.uncletopia.com","port":27045,"enabled":true,"region":"us-west","cc":"us","latitude":33.94279,"longitude":-118.41004,"reserved":0,"last_update":"0001-01-01T00:00:00Z","name_a2s":"Uncletopia | Los Angeles | 4 | Stopwatch","protocol":17,"map":"cp_granary","folder":"tf","game":"Team Fortress","app_id":440,"player_count":0,"max_players":24,"Bots":0,"server_type":"Dedicated","server_os":"Linux","password":true,"vac":true,"version":"7961495","steam_id":85568392924510199,"keywords":["cp","nocrits","nodmgspread","uncletopia"],"game_id":440,"stv_port":27046,"stv_name":"Uncletopia | Los Angeles | 4 | Stopwatch | STV","players":null},{"server_id":11,"name":"Uncletopia | London | 1 | All Maps","name_short":"lon-1","host":"lon-1.uk.uncletopia.com","port":27015,"enabled":true,"region":"eu","cc":"gb","latitude":51.509865,"longitude":-0.118092,"reserved":0,"last_update":"0001-01-01T00:00:00Z","name_a2s":"Uncletopia | London | 1 | All Maps","protocol":17,"map":"pl_thundermountain","folder":"tf","game":"Team Fortress","app_id":440,"player_count":24,"max_players":24,"Bots":0,"server_type":"Dedicated","server_os":"Linux","password":true,"vac":true,"version":"7961495","steam_id":85568392924367362,"keywords":["nocrits","nodmgspread","payload","uncletopia"],"game_id":440,"stv_port":27016,"stv_name":"Uncletopia | London | 1 | All Maps | STV","players":[{"user_id":564,"name":"Rakiru","steam_id":76561198334097259,"connected_time":481000000000,"state":"active","ping":88},{"user_id":549,"name":"Qdarks","steam_id":76561198013391340,"connected_time":1485000000000,"state":"active","ping":143},{"user_id":565,"name":"DeanAdamFry","steam_id":76561198054153160,"connected_time":252000000000,"state":"active","ping":49},{"user_id":520,"name":"Biscuit","steam_id":76561198034318885,"connected_time":4125000000000,"state":"active","ping":40},{"user_id":544,"name":"Sammy The Human","steam_id":76561198044066322,"connected_time":2356000000000,"state":"active","ping":59},{"user_id":537,"name":"trans werewolf","steam_id":76561198107235989,"connected_time":2712000000000,"state":"active","ping":69},{"user_id":543,"name":"level 2 slime","steam_id":76561198060270322,"connected_time":2407000000000,"state":"active","ping":87},{"user_id":524,"name":"xXx Rexxie Rose xXx","steam_id":76561198087993931,"connected_time":3734000000000,"state":"active","ping":44},{"user_id":550,"name":"mr clean","steam_id":76561198024743746,"connected_time":1396000000000,"state":"active","ping":75},{"user_id":568,"name":"Señor Boner","steam_id":76561199235987148,"connected_time":61000000000,"state":"active","ping":86},{"user_id":529,"name":"Mr.Pwesident","steam_id":76561198058114703,"connected_time":3175000000000,"state":"active","ping":173},{"user_id":556,"name":"Kafururu","steam_id":76561198031864565,"connected_time":894000000000,"state":"active","ping":158},{"user_id":562,"name":"ashley","steam_id":76561198448551449,"connected_time":680000000000,"state":"active","ping":38},{"user_id":552,"name":"Sean","steam_id":76561198965378802,"connected_time":1062000000000,"state":"active","ping":45},{"user_id":563,"name":"NEZ","steam_id":76561198320935413,"connected_time":572000000000,"state":"active","ping":106},{"user_id":555,"name":"WokToYou","steam_id":76561198049693624,"connected_time":914000000000,"state":"active","ping":136},{"user_id":559,"name":"Peat","steam_id":76561197992168067,"connected_time":805000000000,"state":"active","ping":67},{"user_id":534,"name":"Chicken Fillet","steam_id":76561198062267267,"connected_time":2834000000000,"state":"active","ping":108},{"user_id":535,"name":"Meow","steam_id":76561198062433153,"connected_time":2823000000000,"state":"active","ping":120},{"user_id":566,"name":"Thrackzog","steam_id":76561198183203745,"connected_time":239000000000,"state":"active","ping":136},{"user_id":538,"name":"Cunt Force Trauma","steam_id":76561198086121413,"connected_time":2692000000000,"state":"active","ping":128},{"user_id":465,"name":"GoblinGaming","steam_id":76561198360395476,"connected_time":9885000000000,"state":"active","ping":50},{"user_id":567,"name":"Menthol Cop","steam_id":76561198179817985,"connected_time":227000000000,"state":"active","ping":143},{"user_id":547,"name":"xulera","steam_id":76561198080736030,"connected_time":2285000000000,"state":"active","ping":62}]},{"server_id":114,"name":"Uncletopia | London | 2 | All Maps","name_short":"lon-2","host":"lon-1.uk.uncletopia.com","port":27025,"enabled":true,"region":"eu","cc":"gb","latitude":51.509865,"longitude":-0.118092,"reserved":0,"last_update":"0001-01-01T00:00:00Z","name_a2s":"Uncletopia | London | 2 | All Maps","protocol":17,"map":"koth_highpass","folder":"tf","game":"Team Fortress","app_id":440,"player_count":0,"max_players":24,"Bots":0,"server_type":"Dedicated","server_os":"Linux","password":true,"vac":true,"version":"7961495","steam_id":85568392924470941,"keywords":["cp","nocrits","nodmgspread","uncletopia"],"game_id":440,"stv_port":27026,"stv_name":"Uncletopia | London | 2 | All Maps | STV","players":null},{"server_id":320,"name":"Uncletopia | London | 3 | All Maps","name_short":"lon-3","host":"lon-1.uk.uncletopia.com","port":27035,"enabled":true,"region":"eu","cc":"gb","latitude":51.509865,"longitude":-0.118092,"reserved":0,"last_update":"0001-01-01T00:00:00Z","name_a2s":"Uncletopia | London | 3 | All Maps","protocol":17,"map":"pl_barnblitz","folder":"tf","game":"Team Fortress","app_id":440,"player_count":0,"max_players":24,"Bots":0,"server_type":"Dedicated","server_os":"Linux","password":true,"vac":true,"version":"7961495","steam_id":85568392924510192,"keywords":["nocrits","nodmgspread","payload","uncletopia"],"game_id":440,"stv_port":27036,"stv_name":"Uncletopia | London | 3 | All Maps | STV","players":null},{"server_id":321,"name":"Uncletopia | London | 4 | All Maps","name_short":"lon-4","host":"lon-1.uk.uncletopia.com","port":27045,"enabled":true,"region":"eu","cc":"gb","latitude":51.509865,"longitude":-0.118092,"reserved":0,"last_update":"0001-01-01T00:00:00Z","name_a2s":"Uncletopia | London | 4 | All Maps","protocol":17,"map":"cp_altitude","folder":"tf","game":"Team Fortress","app_id":440,"player_count":0,"max_players":24,"Bots":0,"server_type":"Dedicated","server_os":"Linux","password":true,"vac":true,"version":"7961495","steam_id":85568392924510193,"keywords":["cp","nocrits","nodmgspread","uncletopia"],"game_id":440,"stv_port":27046,"stv_name":"Uncletopia | London | 4 | All Maps | STV","players":null},{"server_id":21,"name":"Uncletopia | London | 5 | All Maps","name_short":"lon-5","host":"lon-1.uk.uncletopia.com","port":27055,"enabled":true,"region":"eu","cc":"gb","latitude":51.509865,"longitude":-0.118092,"reserved":0,"last_update":"0001-01-01T00:00:00Z","name_a2s":"Uncletopia | London | 5 | All Maps","protocol":17,"map":"koth_lakeside_final","folder":"tf","game":"Team Fortress","app_id":440,"player_count":0,"max_players":24,"Bots":0,"server_type":"Dedicated","server_os":"Linux","password":true,"vac":true,"version":"7961495","steam_id":85568392924742829,"keywords":["cp","nocrits","nodmgspread","uncletopia"],"game_id":440,"stv_port":27056,"stv_name":"Uncletopia | London | 5 | All Maps | STV","players":null},{"server_id":22,"name":"Uncletopia | London | 6 | All Maps","name_short":"lon-6","host":"lon-1.uk.uncletopia.com","port":27065,"enabled":true,"region":"eu","cc":"gb","latitude":51.509865,"longitude":-0.118092,"reserved":0,"last_update":"0001-01-01T00:00:00Z","name_a2s":"Uncletopia | London | 6 | All Maps","protocol":17,"map":"koth_viaduct","folder":"tf","game":"Team Fortress","app_id":440,"player_count":0,"max_players":24,"Bots":0,"server_type":"Dedicated","server_os":"Linux","password":true,"vac":true,"version":"7961495","steam_id":85568392924742830,"keywords":["cp","nocrits","nodmgspread","uncletopia"],"game_id":440,"stv_port":27066,"stv_name":"Uncletopia | London | 6 | All Maps | STV","players":null},{"server_id":40,"name":"Uncletopia | London | 7 | Stopwatch","name_short":"lon-7","host":"lon-1.uk.uncletopia.com","port":27075,"enabled":true,"region":"eu","cc":"gb","latitude":51.509865,"longitude":-0.118092,"reserved":0,"last_update":"0001-01-01T00:00:00Z","name_a2s":"Uncletopia | London | 7 | Stopwatch","protocol":17,"map":"pl_swiftwater_final1","folder":"tf","game":"Team Fortress","app_id":440,"player_count":0,"max_players":24,"Bots":0,"server_type":"Dedicated","server_os":"Linux","password":true,"vac":true,"version":"7961495","steam_id":85568392924964314,"keywords":["nocrits","nodmgspread","payload","uncletopia"],"game_id":440,"stv_port":27076,"stv_name":"Uncletopia | London | 7 | Stopwatch | STV","players":null},{"server_id":41,"name":"Uncletopia | London | 8 | Community","name_short":"lon-8","host":"lon-1.uk.uncletopia.com","port":27085,"enabled":true,"region":"eu","cc":"gb","latitude":51.509865,"longitude":-0.118092,"reserved":0,"last_update":"0001-01-01T00:00:00Z","name_a2s":"Uncletopia | London | 8 | Community","protocol":17,"map":"workshop/cp_glacier_rc6.ugc2905735376","folder":"tf","game":"Team Fortress","app_id":440,"player_count":0,"max_players":24,"Bots":0,"server_type":"Dedicated","server_os":"Linux","password":true,"vac":true,"version":"7961495","steam_id":85568392924964315,"keywords":["cp","nocrits","nodmgspread","uncletopia"],"game_id":440,"stv_port":27086,"stv_name":"Uncletopia | London | 8 | Community | STV","players":null},{"server_id":300,"name":"Uncletopia | Montréal | 1 | One Thousand Uncles","name_short":"mtl-1","host":"mtl-1.ca.uncletopia.com","port":27015,"enabled":true,"region":"us-east","cc":"ca","latitude":45.50889,"longitude":-73.56167,"reserved":0,"last_update":"0001-01-01T00:00:00Z","name_a2s":"","protocol":0,"map":"","folder":"","game":"","app_id":0,"player_count":5,"max_players":0,"Bots":0,"server_type":"","server_os":"","password":false,"vac":false,"version":"","steam_id":0,"keywords":null,"game_id":0,"stv_port":0,"stv_name":"","players":[{"user_id":291,"name":"Springtrap","steam_id":76561199380039204,"connected_time":906000000000,"state":"active","ping":90},{"user_id":292,"name":"dudeer733","steam_id":76561198030319392,"connected_time":576000000000,"state":"active","ping":61},{"user_id":294,"name":"manbearswineflu","steam_id":76561198083945137,"connected_time":331000000000,"state":"active","ping":64},{"user_id":270,"name":"coolfalcon168","steam_id":76561198948665710,"connected_time":3641000000000,"state":"active","ping":79},{"user_id":275,"name":"PiRA","steam_id":76561197962440292,"connected_time":3006000000000,"state":"active","ping":33}]},{"server_id":301,"name":"Uncletopia | Montréal | 2 | One Thousand Uncles","name_short":"mtl-2","host":"mtl-1.ca.uncletopia.com","port":27025,"enabled":true,"region":"us-east","cc":"ca","latitude":45.50889,"longitude":-73.56167,"reserved":0,"last_update":"0001-01-01T00:00:00Z","name_a2s":"","protocol":0,"map":"","folder":"","game":"","app_id":0,"player_count":6,"max_players":0,"Bots":0,"server_type":"","server_os":"","password":false,"vac":false,"version":"","steam_id":0,"keywords":null,"game_id":0,"stv_port":0,"stv_name":"","players":[{"user_id":4,"name":"Ellis McGruber","steam_id":76561198060739536,"connected_time":174000000000,"state":"active","ping":51},{"user_id":21,"name":"VisibleForce","steam_id":76561198104178938,"connected_time":164000000000,"state":"active","ping":49},{"user_id":22,"name":"guppy","steam_id":76561198041380190,"connected_time":163000000000,"state":"active","ping":88},{"user_id":23,"name":"Invis","steam_id":76561198054546884,"connected_time":162000000000,"state":"active","ping":58},{"user_id":24,"name":"the unfortunate wanderer","steam_id":76561199121944786,"connected_time":113000000000,"state":"active","ping":143},{"user_id":41,"name":"I just joined","steam_id":76561198057999536,"connected_time":33000000000,"state":"active","ping":114}]},{"server_id":302,"name":"Uncletopia | Montréal | 3 | One Thousand Uncles","name_short":"mtl-3","host":"mtl-1.ca.uncletopia.com","port":27035,"enabled":true,"region":"us-east","cc":"ca","latitude":45.50889,"longitude":-73.56167,"reserved":0,"last_update":"0001-01-01T00:00:00Z","name_a2s":"","protocol":0,"map":"","folder":"","game":"","app_id":0,"player_count":10,"max_players":0,"Bots":0,"server_type":"","server_os":"","password":false,"vac":false,"version":"","steam_id":0,"keywords":null,"game_id":0,"stv_port":0,"stv_name":"","players":[{"user_id":194,"name":"Krunkle","steam_id":76561198144260455,"connected_time":604000000000,"state":"active","ping":69},{"user_id":196,"name":"squoing","steam_id":76561199259430159,"connected_time":102000000000,"state":"active","ping":106},{"user_id":182,"name":"Error 4 Oh Four","steam_id":76561198121637567,"connected_time":2214000000000,"state":"active","ping":80},{"user_id":187,"name":"je4nned4rc","steam_id":76561199489797367,"connected_time":1663000000000,"state":"active","ping":29},{"user_id":183,"name":"ryqset","steam_id":76561198349299874,"connected_time":2193000000000,"state":"active","ping":100},{"user_id":195,"name":"Hosster Fancyson","steam_id":76561198855187907,"connected_time":557000000000,"state":"active","ping":60},{"user_id":184,"name":"genset90","steam_id":76561199025671520,"connected_time":2187000000000,"state":"active","ping":98},{"user_id":155,"name":"Cool Dakota - Lesbian Supreme","steam_id":76561198094892479,"connected_time":3798000000000,"state":"active","ping":61},{"user_id":190,"name":"mcjuice","steam_id":76561198087730829,"connected_time":1229000000000,"state":"active","ping":83},{"user_id":180,"name":"Gaming123","steam_id":76561198801780168,"connected_time":2786000000000,"state":"active","ping":55}]},{"server_id":13,"name":"Uncletopia | New York City | 1 | All Maps","name_short":"nyc-1","host":"nyc-1.us.uncletopia.com","port":27015,"enabled":true,"region":"us-east","cc":"us","latitude":40.73061,"longitude":-73.93524,"reserved":0,"last_update":"0001-01-01T00:00:00Z","name_a2s":"Uncletopia | New York City | 1 | All Maps","protocol":17,"map":"pl_badwater","folder":"tf","game":"Team Fortress","app_id":440,"player_count":24,"max_players":24,"Bots":0,"server_type":"Dedicated","server_os":"Linux","password":true,"vac":true,"version":"7961495","steam_id":85568392924469993,"keywords":["nocrits","nodmgspread","payload","uncletopia"],"game_id":440,"stv_port":27016,"stv_name":"Uncletopia | New York City | 1 | All Maps | STV","players":[{"user_id":447,"name":"Glennithy","steam_id":76561198339332079,"connected_time":4452000000000,"state":"active","ping":86},{"user_id":477,"name":"space man","steam_id":76561198066333670,"connected_time":2320000000000,"state":"active","ping":71},{"user_id":487,"name":"K\u0026S Beverages","steam_id":76561198058378081,"connected_time":304000000000,"state":"active","ping":61},{"user_id":432,"name":"Juan Pablo Gonzalez 2023","steam_id":76561199197961413,"connected_time":5988000000000,"state":"active","ping":44},{"user_id":486,"name":"Shuu","steam_id":76561199199180558,"connected_time":318000000000,"state":"active","ping":41},{"user_id":482,"name":"Chewbacca","steam_id":76561198041927925,"connected_time":637000000000,"state":"active","ping":57},{"user_id":472,"name":"FattSucc","steam_id":76561198009500503,"connected_time":2667000000000,"state":"active","ping":96},{"user_id":459,"name":"hearttron","steam_id":76561198994842331,"connected_time":3617000000000,"state":"active","ping":128},{"user_id":485,"name":"Obelix","steam_id":76561198274715109,"connected_time":366000000000,"state":"active","ping":45},{"user_id":461,"name":"MemoxJota (F2P)","steam_id":76561198862661338,"connected_time":3542000000000,"state":"active","ping":127},{"user_id":481,"name":"Queso2469","steam_id":76561197993024580,"connected_time":702000000000,"state":"active","ping":53},{"user_id":488,"name":"Sergeant Joker #savetf2","steam_id":76561198854616604,"connected_time":299000000000,"state":"active","ping":60},{"user_id":489,"name":"Blackstar","steam_id":76561198169039095,"connected_time":269000000000,"state":"active","ping":80},{"user_id":492,"name":"Trey The Awesome","steam_id":76561198370718264,"connected_time":245000000000,"state":"active","ping":77},{"user_id":483,"name":"Hideo Kojima","steam_id":76561198082582335,"connected_time":382000000000,"state":"active","ping":56},{"user_id":474,"name":"juanjoesc","steam_id":76561198186368430,"connected_time":2654000000000,"state":"active","ping":128},{"user_id":410,"name":"A Puppy","steam_id":76561198828184456,"connected_time":7472000000000,"state":"active","ping":46},{"user_id":435,"name":"Bee_Pirate","steam_id":76561199000599111,"connected_time":5604000000000,"state":"active","ping":62},{"user_id":440,"name":"Demolition Man Enjoyer","steam_id":76561199167176376,"connected_time":5218000000000,"state":"active","ping":90},{"user_id":479,"name":"High School Nudical","steam_id":76561198172120615,"connected_time":1609000000000,"state":"active","ping":49},{"user_id":491,"name":"Vem","steam_id":76561198117273112,"connected_time":260000000000,"state":"active","ping":83},{"user_id":464,"name":"Bad Medic Buddy","steam_id":76561198093222632,"connected_time":3477000000000,"state":"active","ping":84},{"user_id":496,"name":"captain red","steam_id":76561198191587983,"connected_time":130000000000,"state":"active","ping":94}]},{"server_id":14,"name":"Uncletopia | New York City | 2 | All Maps","name_short":"nyc-2","host":"nyc-1.us.uncletopia.com","port":27025,"enabled":true,"region":"us-east","cc":"us","latitude":40.73061,"longitude":-73.93524,"reserved":0,"last_update":"0001-01-01T00:00:00Z","name_a2s":"Uncletopia | New York City | 2 | All Maps","protocol":17,"map":"ctf_turbine","folder":"tf","game":"Team Fortress","app_id":440,"player_count":24,"max_players":24,"Bots":0,"server_type":"Dedicated","server_os":"Linux","password":true,"vac":true,"version":"7961495","steam_id":85568392924469994,"keywords":["ctf","nocrits","nodmgspread","uncletopia"],"game_id":440,"stv_port":27026,"stv_name":"Uncletopia | New York City | 2 | All Maps | STV","players":[{"user_id":633,"name":"Chord","steam_id":76561198110874021,"connected_time":1695000000000,"state":"active","ping":76},{"user_id":652,"name":"Psionara","steam_id":76561198211684263,"connected_time":1068000000000,"state":"active","ping":84},{"user_id":664,"name":"streamline-gaming","steam_id":76561199069164242,"connected_time":475000000000,"state":"active","ping":91},{"user_id":604,"name":"˗ˏˋNima´ˎ˗","steam_id":76561198102045762,"connected_time":4536000000000,"state":"active","ping":60},{"user_id":668,"name":"Coop","steam_id":76561198042839356,"connected_time":362000000000,"state":"active","ping":68},{"user_id":671,"name":"YummerBummer","steam_id":76561198094773987,"connected_time":176000000000,"state":"active","ping":52},{"user_id":631,"name":"Stupid Rat","steam_id":76561198149202596,"connected_time":2512000000000,"state":"active","ping":81},{"user_id":627,"name":"ExtraSoap","steam_id":76561198008712409,"connected_time":2950000000000,"state":"active","ping":59},{"user_id":672,"name":"JACOB","steam_id":76561198211874895,"connected_time":175000000000,"state":"active","ping":127},{"user_id":665,"name":"boe jiden","steam_id":76561198041048289,"connected_time":475000000000,"state":"active","ping":45},{"user_id":639,"name":"rat (cheese)","steam_id":76561198041277031,"connected_time":1601000000000,"state":"active","ping":74},{"user_id":609,"name":"Timothy Grunclebottoms","steam_id":76561198871450477,"connected_time":4452000000000,"state":"active","ping":63},{"user_id":598,"name":"hopdon","steam_id":76561198051616613,"connected_time":5564000000000,"state":"active","ping":101},{"user_id":651,"name":"dcqwerty","steam_id":76561198964101426,"connected_time":1106000000000,"state":"active","ping":37},{"user_id":644,"name":"AgentEpsilon","steam_id":76561198043705715,"connected_time":1507000000000,"state":"active","ping":72},{"user_id":670,"name":"JGatsby","steam_id":76561198023307584,"connected_time":179000000000,"state":"active","ping":73},{"user_id":673,"name":"oppenheimer style","steam_id":76561198026664629,"connected_time":41000000000,"state":"active","ping":46},{"user_id":646,"name":"Ken","steam_id":76561198233988068,"connected_time":1487000000000,"state":"active","ping":84},{"user_id":647,"name":"Sableye","steam_id":76561198061247147,"connected_time":1474000000000,"state":"active","ping":73},{"user_id":629,"name":"xLeoparrd","steam_id":76561198940657194,"connected_time":2882000000000,"state":"active","ping":78},{"user_id":669,"name":"msay","steam_id":76561198170888029,"connected_time":343000000000,"state":"active","ping":72},{"user_id":649,"name":"Elena Manetta","steam_id":76561197998344054,"connected_time":1467000000000,"state":"active","ping":30},{"user_id":614,"name":"flamingcookies","steam_id":76561198280864779,"connected_time":4368000000000,"state":"active","ping":98},{"user_id":667,"name":"JerkHisJimmy","steam_id":76561198226749652,"connected_time":385000000000,"state":"active","ping":76}]},{"server_id":15,"name":"Uncletopia | New York City | 3 | Stopwatch","name_short":"nyc-3","host":"nyc-1.us.uncletopia.com","port":27035,"enabled":true,"region":"us-east","cc":"us","latitude":40.73061,"longitude":-73.93524,"reserved":0,"last_update":"0001-01-01T00:00:00Z","name_a2s":"Uncletopia | New York City | 3 | Stopwatch","protocol":17,"map":"pl_borneo","folder":"tf","game":"Team Fortress","app_id":440,"player_count":2,"max_players":24,"Bots":0,"server_type":"Dedicated","server_os":"Linux","password":true,"vac":true,"version":"7961495","steam_id":85568392924742820,"keywords":["nocrits","nodmgspread","payload","uncletopia"],"game_id":440,"stv_port":27036,"stv_name":"Uncletopia | New York City | 3 | Stopwatch | STV","players":[{"user_id":19,"name":"SpaceSanctum","steam_id":76561198805242305,"connected_time":2036000000000,"state":"active","ping":43},{"user_id":20,"name":"googa","steam_id":76561198133130452,"connected_time":1992000000000,"state":"active","ping":34}]},{"server_id":16,"name":"Uncletopia | New York City | 4 | Community","name_short":"nyc-4","host":"nyc-1.us.uncletopia.com","port":27045,"enabled":true,"region":"us-east","cc":"us","latitude":40.73061,"longitude":-73.93524,"reserved":0,"last_update":"0001-01-01T00:00:00Z","name_a2s":"Uncletopia | New York City | 4 | Community","protocol":17,"map":"workshop/cp_caldera_rc2.ugc2834196889","folder":"tf","game":"Team Fortress","app_id":440,"player_count":0,"max_players":24,"Bots":0,"server_type":"Dedicated","server_os":"Linux","password":true,"vac":true,"version":"7961495","steam_id":85568392924742821,"keywords":["cp","nocrits","nodmgspread","uncletopia"],"game_id":440,"stv_port":27046,"stv_name":"Uncletopia | New York City | 4 | Community | STV","players":null},{"server_id":142,"name":"Uncletopia | São Paulo | 1 | All Maps","name_short":"sao-1","host":"sao-1.br.uncletopia.com","port":27015,"enabled":true,"region":"sa","cc":"br","latitude":-23.533773,"longitude":-46.62529,"reserved":0,"last_update":"0001-01-01T00:00:00Z","name_a2s":"Uncletopia | São Paulo | 1 | All Maps","protocol":17,"map":"koth_harvest_final","folder":"tf","game":"Team Fortress","app_id":440,"player_count":0,"max_players":24,"Bots":0,"server_type":"Dedicated","server_os":"Linux","password":true,"vac":true,"version":"7961495","steam_id":85568392924469996,"keywords":["cp","nocrits","nodmgspread","uncletopia"],"game_id":440,"stv_port":27016,"stv_name":"Uncletopia | São Paulo | 1 | All Maps | STV","players":null},{"server_id":143,"name":"Uncletopia | São Paulo | 2 | Community","name_short":"sao-2","host":"sao-2.br.uncletopia.com","port":27015,"enabled":true,"region":"sa","cc":"br","latitude":-23.533773,"longitude":-46.62529,"reserved":0,"last_update":"0001-01-01T00:00:00Z","name_a2s":"Uncletopia | São Paulo | 2 | Community","protocol":17,"map":"workshop/koth_synthetic_rc6a.ugc1549817316","folder":"tf","game":"Team Fortress","app_id":440,"player_count":17,"max_players":24,"Bots":0,"server_type":"Dedicated","server_os":"Linux","password":true,"vac":true,"version":"7961495","steam_id":85568392924485349,"keywords":["cp","nocrits","nodmgspread","uncletopia"],"game_id":440,"stv_port":27016,"stv_name":"Uncletopia | São Paulo | 2 | Community | STV","players":[{"user_id":140,"name":"pablogamer.120","steam_id":76561199001995992,"connected_time":1236000000000,"state":"active","ping":83},{"user_id":123,"name":"shiva","steam_id":76561198276113571,"connected_time":2823000000000,"state":"active","ping":34},{"user_id":144,"name":"Copmmer","steam_id":76561199080964271,"connected_time":1013000000000,"state":"active","ping":50},{"user_id":127,"name":"Ice Whallow Come","steam_id":76561198063668057,"connected_time":2346000000000,"state":"active","ping":50},{"user_id":77,"name":"NIkolla","steam_id":76561198100452359,"connected_time":5452000000000,"state":"active","ping":112},{"user_id":147,"name":"migay","steam_id":76561199150151109,"connected_time":838000000000,"state":"active","ping":67},{"user_id":149,"name":"LULA PCO ➀➂ ♥ ex-medicina","steam_id":76561198245335750,"connected_time":791000000000,"state":"active","ping":113},{"user_id":100,"name":"Gigi","steam_id":76561198348971878,"connected_time":3402000000000,"state":"active","ping":57},{"user_id":131,"name":"vacaloca25","steam_id":76561198082683352,"connected_time":2254000000000,"state":"active","ping":60},{"user_id":105,"name":"rupt","steam_id":76561198056688070,"connected_time":3222000000000,"state":"active","ping":84},{"user_id":98,"name":"dY","steam_id":76561198891777705,"connected_time":3486000000000,"state":"active","ping":92},{"user_id":151,"name":"TUTUI30","steam_id":76561198403285854,"connected_time":756000000000,"state":"active","ping":45},{"user_id":125,"name":"mechanical bride","steam_id":76561198161382276,"connected_time":2471000000000,"state":"active","ping":60},{"user_id":119,"name":"drenn","steam_id":76561198272594616,"connected_time":2890000000000,"state":"active","ping":47},{"user_id":155,"name":"vrauzio vraunelas","steam_id":76561198201148409,"connected_time":546000000000,"state":"active","ping":46},{"user_id":109,"name":"Padawan","steam_id":76561198117096233,"connected_time":3188000000000,"state":"active","ping":35},{"user_id":134,"name":"Diozey","steam_id":76561198453620863,"connected_time":1856000000000,"state":"active","ping":34}]},{"server_id":7,"name":"Uncletopia | Seattle | 1 | All Maps","name_short":"sea-1","host":"sea-1.us.uncletopia.com","port":27015,"enabled":true,"region":"us-west","cc":"us","latitude":47.608013,"longitude":-122.33517,"reserved":0,"last_update":"0001-01-01T00:00:00Z","name_a2s":"Uncletopia | Seattle | 1 | All Maps","protocol":17,"map":"cp_steel","folder":"tf","game":"Team Fortress","app_id":440,"player_count":24,"max_players":24,"Bots":0,"server_type":"Dedicated","server_os":"Linux","password":true,"vac":true,"version":"7961495","steam_id":85568392924469997,"keywords":["cp","nocrits","nodmgspread","uncletopia"],"game_id":440,"stv_port":27016,"stv_name":"Uncletopia | Seattle | 1 | All Maps | STV","players":[{"user_id":274,"name":"ilun","steam_id":76561198042913843,"connected_time":2752000000000,"state":"active","ping":61},{"user_id":304,"name":"One Confused Proton","steam_id":76561199372053610,"connected_time":886000000000,"state":"active","ping":125},{"user_id":290,"name":"Luca","steam_id":76561198125087140,"connected_time":1573000000000,"state":"active","ping":46},{"user_id":266,"name":"\u003c3","steam_id":76561198196829267,"connected_time":3857000000000,"state":"active","ping":77},{"user_id":287,"name":"scallop pigeon","steam_id":76561199488457138,"connected_time":1871000000000,"state":"active","ping":57},{"user_id":309,"name":"Rijjka","steam_id":76561198008532763,"connected_time":498000000000,"state":"active","ping":68},{"user_id":277,"name":"RainboomCrash","steam_id":76561198065612273,"connected_time":2415000000000,"state":"active","ping":50},{"user_id":239,"name":"squart guy","steam_id":76561199411560141,"connected_time":5967000000000,"state":"active","ping":45},{"user_id":246,"name":"2 Point Tom","steam_id":76561198087617008,"connected_time":5471000000000,"state":"active","ping":47},{"user_id":306,"name":"Bendidy","steam_id":76561198041964300,"connected_time":742000000000,"state":"active","ping":59},{"user_id":307,"name":"A UsedNom","steam_id":76561198402832756,"connected_time":722000000000,"state":"active","ping":56},{"user_id":298,"name":"ikuyo","steam_id":76561198996950205,"connected_time":1109000000000,"state":"active","ping":68},{"user_id":300,"name":"Mint Widget","steam_id":76561198036875245,"connected_time":978000000000,"state":"active","ping":59},{"user_id":313,"name":"Strikerbolt","steam_id":76561199095622897,"connected_time":30000000000,"state":"active","ping":79},{"user_id":286,"name":"burger bill","steam_id":76561198116829392,"connected_time":2062000000000,"state":"active","ping":57},{"user_id":308,"name":"Mr. Pirate","steam_id":76561199247095754,"connected_time":566000000000,"state":"active","ping":90},{"user_id":296,"name":"that was pretty cringe bro ngl","steam_id":76561198385887698,"connected_time":1135000000000,"state":"active","ping":176},{"user_id":301,"name":":)","steam_id":76561198210322871,"connected_time":971000000000,"state":"active","ping":86},{"user_id":200,"name":"Level 99 Mudcrab","steam_id":76561198077452771,"connected_time":8309000000000,"state":"active","ping":90},{"user_id":312,"name":"Username","steam_id":76561199033122306,"connected_time":165000000000,"state":"active","ping":148},{"user_id":302,"name":"Anri","steam_id":76561198058702106,"connected_time":965000000000,"state":"active","ping":75},{"user_id":311,"name":"daddog","steam_id":76561198286968297,"connected_time":417000000000,"state":"active","ping":48},{"user_id":253,"name":"Karg","steam_id":76561198091387866,"connected_time":4973000000000,"state":"active","ping":69},{"user_id":305,"name":"| IRS | 1deadblawer","steam_id":76561198044216214,"connected_time":776000000000,"state":"active","ping":111}]},{"server_id":119,"name":"Uncletopia | Seattle | 2 | All Maps","name_short":"sea-2","host":"sea-1.us.uncletopia.com","port":27025,"enabled":true,"region":"us-west","cc":"us","latitude":47.608013,"longitude":-122.33517,"reserved":0,"last_update":"0001-01-01T00:00:00Z","name_a2s":"Uncletopia | Seattle | 2 | All Maps","protocol":17,"map":"cp_altitude","folder":"tf","game":"Team Fortress","app_id":440,"player_count":24,"max_players":24,"Bots":0,"server_type":"Dedicated","server_os":"Linux","password":true,"vac":true,"version":"7961495","steam_id":85568392924469998,"keywords":["cp","nocrits","nodmgspread","uncletopia"],"game_id":440,"stv_port":27026,"stv_name":"Uncletopia | Seattle | 2 | All Maps | STV","players":[{"user_id":629,"name":"Forty","steam_id":76561198257410181,"connected_time":1541000000000,"state":"active","ping":45},{"user_id":609,"name":"NotBob","steam_id":76561199135833086,"connected_time":3421000000000,"state":"active","ping":122},{"user_id":648,"name":"Wyvern","steam_id":76561198392331213,"connected_time":612000000000,"state":"active","ping":86},{"user_id":613,"name":"Gen-E","steam_id":76561199497800989,"connected_time":2541000000000,"state":"active","ping":118},{"user_id":614,"name":"GF.nøbu","steam_id":76561198100614981,"connected_time":2536000000000,"state":"active","ping":54},{"user_id":593,"name":"Paradon","steam_id":76561198242214772,"connected_time":4549000000000,"state":"active","ping":74},{"user_id":623,"name":"Kazoo","steam_id":76561199229748300,"connected_time":2153000000000,"state":"active","ping":69},{"user_id":645,"name":"helicopter","steam_id":76561198042957779,"connected_time":676000000000,"state":"active","ping":49},{"user_id":628,"name":"oil","steam_id":76561198099980149,"connected_time":1568000000000,"state":"active","ping":80},{"user_id":627,"name":"blest!","steam_id":76561198966232220,"connected_time":1582000000000,"state":"active","ping":65},{"user_id":591,"name":"Marzbee115","steam_id":76561198095821025,"connected_time":4692000000000,"state":"active","ping":75},{"user_id":650,"name":"raaabr","steam_id":76561198050339024,"connected_time":353000000000,"state":"active","ping":35},{"user_id":646,"name":"K2f","steam_id":76561198049600563,"connected_time":673000000000,"state":"active","ping":71},{"user_id":653,"name":"dave","steam_id":76561198135961731,"connected_time":207000000000,"state":"active","ping":85},{"user_id":643,"name":"fungi bowie.gg","steam_id":76561198169755734,"connected_time":767000000000,"state":"active","ping":67},{"user_id":651,"name":"FedSmoker","steam_id":76561198255854081,"connected_time":316000000000,"state":"active","ping":52},{"user_id":656,"name":"CashGordon","steam_id":76561197975594096,"connected_time":28000000000,"state":"active","ping":41},{"user_id":654,"name":"It's Christmas... right?","steam_id":76561198438715697,"connected_time":159000000000,"state":"active","ping":84},{"user_id":647,"name":"Bocchi the Rock Johnson","steam_id":76561198216017952,"connected_time":657000000000,"state":"active","ping":153},{"user_id":639,"name":"smokin that shit again","steam_id":76561198095480838,"connected_time":1141000000000,"state":"active","ping":46},{"user_id":655,"name":"Mainyx","steam_id":76561198811844438,"connected_time":120000000000,"state":"active","ping":58},{"user_id":612,"name":"chunkysquare","steam_id":76561199076468383,"connected_time":2661000000000,"state":"active","ping":59},{"user_id":635,"name":"Drone #0432 (they/it)","steam_id":76561198027321950,"connected_time":1407000000000,"state":"active","ping":29},{"user_id":638,"name":"jorts (zoot)","steam_id":76561199041179985,"connected_time":1289000000000,"state":"active","ping":57}]},{"server_id":406,"name":"Uncletopia | Seattle | 3 | Stopwatch","name_short":"sea-3","host":"sea-1.us.uncletopia.com","port":27035,"enabled":true,"region":"us-west","cc":"us","latitude":47.608013,"longitude":-122.33517,"reserved":0,"last_update":"0001-01-01T00:00:00Z","name_a2s":"Uncletopia | Seattle | 3 | Stopwatch","protocol":17,"map":"workshop/koth_product_final.ugc454272353","folder":"tf","game":"Team Fortress","app_id":440,"player_count":0,"max_players":24,"Bots":0,"server_type":"Dedicated","server_os":"Linux","password":true,"vac":true,"version":"7961495","steam_id":85568392924515217,"keywords":["cp","nocrits","nodmgspread","uncletopia"],"game_id":440,"stv_port":27036,"stv_name":"Uncletopia | Seattle | 3 | Stopwatch | STV","players":null},{"server_id":17,"name":"Uncletopia | San Francisco | 1 | All Maps","name_short":"sfo-1","host":"sfo-1.us.uncletopia.com","port":27015,"enabled":true,"region":"us-west","cc":"us","latitude":37.77397,"longitude":-122.4313,"reserved":0,"last_update":"0001-01-01T00:00:00Z","name_a2s":"Uncletopia | San Francisco | 1 | All Maps","protocol":17,"map":"koth_lakeside_final","folder":"tf","game":"Team Fortress","app_id":440,"player_count":5,"max_players":24,"Bots":0,"server_type":"Dedicated","server_os":"Linux","password":true,"vac":true,"version":"7961495","steam_id":85568392924469999,"keywords":["cp","nocrits","nodmgspread","uncletopia"],"game_id":440,"stv_port":27016,"stv_name":"Uncletopia | San Francisco | 1 | All Maps | STV","players":[{"user_id":13,"name":"PizzaMuncher89","steam_id":76561199121856753,"connected_time":2236000000000,"state":"active","ping":73},{"user_id":14,"name":"Yackaboi","steam_id":76561199444911765,"connected_time":2232000000000,"state":"active","ping":87},{"user_id":18,"name":"hatsune miku","steam_id":76561199445009981,"connected_time":1797000000000,"state":"active","ping":61},{"user_id":23,"name":"Crimson Chin","steam_id":76561198104315166,"connected_time":714000000000,"state":"active","ping":48},{"user_id":25,"name":"OneLess","steam_id":76561198150870338,"connected_time":684000000000,"state":"active","ping":94}]},{"server_id":18,"name":"Uncletopia | San Francisco | 2 | All Maps","name_short":"sfo-2","host":"sfo-1.us.uncletopia.com","port":27025,"enabled":true,"region":"us-west","cc":"us","latitude":37.77397,"longitude":-122.4313,"reserved":0,"last_update":"0001-01-01T00:00:00Z","name_a2s":"Uncletopia | San Francisco | 2 | All Maps","protocol":17,"map":"cp_dustbowl","folder":"tf","game":"Team Fortress","app_id":440,"player_count":24,"max_players":24,"Bots":0,"server_type":"Dedicated","server_os":"Linux","password":true,"vac":true,"version":"7961495","steam_id":85568392924470000,"keywords":["cp","nocrits","nodmgspread","uncletopia"],"game_id":440,"stv_port":27026,"stv_name":"Uncletopia | San Francisco | 2 | All Maps | STV","players":[{"user_id":94,"name":"Satori Komeiji","steam_id":76561198158211423,"connected_time":656000000000,"state":"active","ping":60},{"user_id":68,"name":"Cul Kid","steam_id":76561198152164584,"connected_time":2502000000000,"state":"active","ping":60},{"user_id":70,"name":"depeche","steam_id":76561199497603020,"connected_time":2485000000000,"state":"active","ping":45},{"user_id":98,"name":"silverspark","steam_id":76561198277421732,"connected_time":279000000000,"state":"active","ping":74},{"user_id":91,"name":"Main Opp","steam_id":76561198124910662,"connected_time":736000000000,"state":"active","ping":63},{"user_id":64,"name":"Tony Tony Chopper","steam_id":76561198329478764,"connected_time":2972000000000,"state":"active","ping":67},{"user_id":95,"name":"Dreamzapp","steam_id":76561199084936632,"connected_time":656000000000,"state":"active","ping":70},{"user_id":61,"name":"fear me","steam_id":76561198159334435,"connected_time":3742000000000,"state":"active","ping":164},{"user_id":72,"name":"LEE","steam_id":76561199127408846,"connected_time":2431000000000,"state":"active","ping":67},{"user_id":80,"name":"xochiquetzal","steam_id":76561199064278937,"connected_time":1857000000000,"state":"active","ping":113},{"user_id":42,"name":"jocsanbruh","steam_id":76561198227338548,"connected_time":4881000000000,"state":"active","ping":70},{"user_id":90,"name":"dinkleCoin Majority Shareholder","steam_id":76561198245656566,"connected_time":742000000000,"state":"active","ping":52},{"user_id":44,"name":"Chaptain","steam_id":76561198452725739,"connected_time":4829000000000,"state":"active","ping":69},{"user_id":89,"name":"Whatsapp Spy","steam_id":76561198085410969,"connected_time":775000000000,"state":"active","ping":130},{"user_id":47,"name":"Shaso1008","steam_id":76561198111957006,"connected_time":4618000000000,"state":"active","ping":87},{"user_id":65,"name":"Ajax Orion","steam_id":76561198799277613,"connected_time":2972000000000,"state":"active","ping":75},{"user_id":92,"name":"Blue Banana","steam_id":76561198100077411,"connected_time":729000000000,"state":"active","ping":47},{"user_id":99,"name":"jBracko","steam_id":76561198019261602,"connected_time":245000000000,"state":"active","ping":45},{"user_id":101,"name":"Terry Bogard's beefin 12 inch","steam_id":76561198371133385,"connected_time":30000000000,"state":"spawning","ping":145},{"user_id":73,"name":"dirty30","steam_id":76561198021226566,"connected_time":2420000000000,"state":"active","ping":76},{"user_id":102,"name":"TheFlamingProtogen","steam_id":76561199179657911,"connected_time":7000000000,"state":"spawning","ping":104},{"user_id":67,"name":"Pneumo.","steam_id":76561197987911883,"connected_time":2516000000000,"state":"active","ping":126},{"user_id":97,"name":"Caspian","steam_id":76561199041466962,"connected_time":597000000000,"state":"active","ping":49}]},{"server_id":19,"name":"Uncletopia | San Francisco | 3 | Stopwatch","name_short":"sfo-3","host":"sfo-1.us.uncletopia.com","port":27035,"enabled":true,"region":"us-west","cc":"us","latitude":37.77397,"longitude":-122.4313,"reserved":0,"last_update":"0001-01-01T00:00:00Z","name_a2s":"Uncletopia | San Francisco | 3 | Stopwatch","protocol":17,"map":"workshop/pl_vigil_rc10.ugc1266210012","folder":"tf","game":"Team Fortress","app_id":440,"player_count":0,"max_players":24,"Bots":0,"server_type":"Dedicated","server_os":"Linux","password":true,"vac":true,"version":"7961495","steam_id":85568392924742824,"keywords":["nocrits","nodmgspread","payload","uncletopia"],"game_id":440,"stv_port":27036,"stv_name":"Uncletopia | San Francisco | 3 | Stopwatch | STV","players":null},{"server_id":20,"name":"Uncletopia | San Francisco | 4 | Community","name_short":"sfo-4","host":"sfo-1.us.uncletopia.com","port":27045,"enabled":true,"region":"us-west","cc":"us","latitude":37.77397,"longitude":-122.4313,"reserved":0,"last_update":"0001-01-01T00:00:00Z","name_a2s":"Uncletopia | San Francisco | 4 | Community","protocol":17,"map":"pl_pier","folder":"tf","game":"Team Fortress","app_id":440,"player_count":0,"max_players":24,"Bots":0,"server_type":"Dedicated","server_os":"Linux","password":true,"vac":true,"version":"7961495","steam_id":85568392924742826,"keywords":["nocrits","nodmgspread","payload","uncletopia"],"game_id":440,"stv_port":27046,"stv_name":"Uncletopia | San Francisco | 4 | Community | STV","players":null},{"server_id":141,"name":"Uncletopia | Sydney | 1 | All Maps","name_short":"syd-1","host":"syd-1.au.uncletopia.com","port":27015,"enabled":true,"region":"au","cc":"au","latitude":-33.865143,"longitude":151.2099,"reserved":0,"last_update":"0001-01-01T00:00:00Z","name_a2s":"Uncletopia | Sydney | 1 | All Maps","protocol":17,"map":"koth_viaduct","folder":"tf","game":"Team Fortress","app_id":440,"player_count":0,"max_players":24,"Bots":0,"server_type":"Dedicated","server_os":"Linux","password":true,"vac":true,"version":"7961495","steam_id":85568392924470001,"keywords":["cp","nocrits","nodmgspread","uncletopia"],"game_id":440,"stv_port":27016,"stv_name":"Uncletopia | Sydney | 1 | All Maps | STV","players":null},{"server_id":123,"name":"Uncletopia | Sydney | 2 | All Maps","name_short":"syd-2","host":"syd-1.au.uncletopia.com","port":27025,"enabled":true,"region":"au","cc":"au","latitude":-33.865143,"longitude":151.2099,"reserved":0,"last_update":"0001-01-01T00:00:00Z","name_a2s":"Uncletopia | Sydney | 2 | All Maps","protocol":17,"map":"koth_lakeside_final","folder":"tf","game":"Team Fortress","app_id":440,"player_count":0,"max_players":24,"Bots":0,"server_type":"Dedicated","server_os":"Linux","password":true,"vac":true,"version":"7961495","steam_id":85568392924470002,"keywords":["cp","nocrits","nodmgspread","uncletopia"],"game_id":440,"stv_port":27026,"stv_name":"Uncletopia | Sydney | 2 | All Maps | STV","players":null},{"server_id":395,"name":"Uncletopia | Sydney | 3 | All Maps","name_short":"syd-3","host":"syd-1.au.uncletopia.com","port":27035,"enabled":true,"region":"au","cc":"au","latitude":-33.865143,"longitude":151.2099,"reserved":0,"last_update":"0001-01-01T00:00:00Z","name_a2s":"Uncletopia | Sydney | 3 | All Maps","protocol":17,"map":"pl_frontier_final","folder":"tf","game":"Team Fortress","app_id":440,"player_count":0,"max_players":24,"Bots":0,"server_type":"Dedicated","server_os":"Linux","password":true,"vac":true,"version":"7961495","steam_id":85568392925194467,"keywords":["nocrits","nodmgspread","payload","uncletopia"],"game_id":440,"stv_port":27036,"stv_name":"Uncletopia | Sydney | 3 | All Maps | STV","players":null},{"server_id":396,"name":"Uncletopia | Sydney | 4 | All Maps","name_short":"syd-4","host":"syd-1.au.uncletopia.com","port":27045,"enabled":true,"region":"au","cc":"au","latitude":-33.865143,"longitude":151.2099,"reserved":0,"last_update":"0001-01-01T00:00:00Z","name_a2s":"Uncletopia | Sydney | 4 | All Maps","protocol":17,"map":"cp_process_final","folder":"tf","game":"Team Fortress","app_id":440,"player_count":0,"max_players":24,"Bots":0,"server_type":"Dedicated","server_os":"Linux","password":true,"vac":true,"version":"7961495","steam_id":85568392925397958,"keywords":["cp","nocrits","nodmgspread","uncletopia"],"game_id":440,"stv_port":27046,"stv_name":"Uncletopia | Sydney | 4 | All Maps | STV","players":null},{"server_id":58,"name":"Uncletopia | Sydney | 5 | Stopwatch","name_short":"syd-5","host":"syd-1.au.uncletopia.com","port":27055,"enabled":true,"region":"au","cc":"au","latitude":-33.865143,"longitude":151.2099,"reserved":0,"last_update":"0001-01-01T00:00:00Z","name_a2s":"Uncletopia | Sydney | 5 | Stopwatch","protocol":17,"map":"pl_frontier_final","folder":"tf","game":"Team Fortress","app_id":440,"player_count":0,"max_players":24,"Bots":0,"server_type":"Dedicated","server_os":"Linux","password":true,"vac":true,"version":"7961495","steam_id":85568392925397959,"keywords":["nocrits","nodmgspread","payload","uncletopia"],"game_id":440,"stv_port":27056,"stv_name":"Uncletopia | Sydney | 5 | Stopwatch | STV","players":null},{"server_id":59,"name":"Uncletopia | Sydney | 6 | Community","name_short":"syd-6","host":"syd-1.au.uncletopia.com","port":27065,"enabled":true,"region":"au","cc":"au","latitude":-33.865143,"longitude":151.2099,"reserved":0,"last_update":"0001-01-01T00:00:00Z","name_a2s":"Uncletopia | Sydney | 6 | Community","protocol":17,"map":"cp_sunshine","folder":"tf","game":"Team Fortress","app_id":440,"player_count":0,"max_players":24,"Bots":0,"server_type":"Dedicated","server_os":"Linux","password":true,"vac":true,"version":"7961495","steam_id":85568392925397960,"keywords":["cp","nocrits","nodmgspread","uncletopia"],"game_id":440,"stv_port":27066,"stv_name":"Uncletopia | Sydney | 6 | Community | STV","players":null},{"server_id":49,"name":"Uncletopia | Warsaw | 1 | One Thousand Uncles","name_short":"waw-1","host":"waw-1.pl.uncletopia.com","port":27015,"enabled":true,"region":"eu","cc":"pl","latitude":52.2297,"longitude":21.017532,"reserved":0,"last_update":"0001-01-01T00:00:00Z","name_a2s":"Uncletopia | Warsaw | 1 | One Thousand Uncles","protocol":17,"map":"pl_pier","folder":"tf","game":"Team Fortress","app_id":440,"player_count":0,"max_players":32,"Bots":0,"server_type":"Dedicated","server_os":"Linux","password":true,"vac":true,"version":"7961495","steam_id":85568392925397850,"keywords":["alltalk","danepve","increased_maxplayers","nocrits","norespawntime","payload","uncletopia"],"game_id":440,"stv_port":0,"stv_name":"","players":null},{"server_id":50,"name":"Uncletopia | Warsaw | 2 | One Thousand Uncles","name_short":"waw-2","host":"waw-1.pl.uncletopia.com","port":27025,"enabled":true,"region":"eu","cc":"pl","latitude":52.2297,"longitude":21.017532,"reserved":0,"last_update":"0001-01-01T00:00:00Z","name_a2s":"Uncletopia | Warsaw | 2 | One Thousand Uncles","protocol":17,"map":"pl_upward","folder":"tf","game":"Team Fortress","app_id":440,"player_count":0,"max_players":32,"Bots":0,"server_type":"Dedicated","server_os":"Linux","password":true,"vac":true,"version":"7961495","steam_id":85568392925397851,"keywords":["alltalk","danepve","increased_maxplayers","nocrits","norespawntime","payload","uncletopia"],"game_id":440,"stv_port":0,"stv_name":"","players":null},{"server_id":51,"name":"Uncletopia | Warsaw | 3 | All Maps","name_short":"waw-3","host":"waw-1.pl.uncletopia.com","port":27035,"enabled":true,"region":"eu","cc":"pl","latitude":52.2297,"longitude":21.017532,"reserved":0,"last_update":"0001-01-01T00:00:00Z","name_a2s":"Uncletopia | Warsaw | 3 | All Maps","protocol":17,"map":"plr_pipeline","folder":"tf","game":"Team Fortress","app_id":440,"player_count":0,"max_players":24,"Bots":0,"server_type":"Dedicated","server_os":"Linux","password":true,"vac":true,"version":"7961495","steam_id":85568392925397852,"keywords":["nocrits","nodmgspread","payload","uncletopia"],"game_id":440,"stv_port":27036,"stv_name":"Uncletopia | Warsaw | 3 | All Maps | STV","players":null},{"server_id":52,"name":"Uncletopia | Warsaw | 4 | All Maps","name_short":"waw-4","host":"waw-1.pl.uncletopia.com","port":27045,"enabled":true,"region":"eu","cc":"pl","latitude":52.2297,"longitude":21.017532,"reserved":0,"last_update":"0001-01-01T00:00:00Z","name_a2s":"Uncletopia | Warsaw | 4 | All Maps","protocol":17,"map":"koth_cascade","folder":"tf","game":"Team Fortress","app_id":440,"player_count":0,"max_players":24,"Bots":0,"server_type":"Dedicated","server_os":"Linux","password":true,"vac":true,"version":"7961495","steam_id":85568392925397853,"keywords":["cp","nocrits","nodmgspread","uncletopia"],"game_id":440,"stv_port":27046,"stv_name":"Uncletopia | Warsaw | 4 | All Maps | STV","players":null},{"server_id":53,"name":"Uncletopia | Warsaw | 5 | Stopwatch","name_short":"waw-5","host":"waw-1.pl.uncletopia.com","port":27055,"enabled":true,"region":"eu","cc":"pl","latitude":52.2297,"longitude":21.017532,"reserved":0,"last_update":"0001-01-01T00:00:00Z","name_a2s":"Uncletopia | Warsaw | 5 | Stopwatch","protocol":17,"map":"workshop/koth_ashville_final.ugc2130459942","folder":"tf","game":"Team Fortress","app_id":440,"player_count":0,"max_players":24,"Bots":0,"server_type":"Dedicated","server_os":"Linux","password":true,"vac":true,"version":"7961495","steam_id":85568392925397854,"keywords":["cp","nocrits","nodmgspread","uncletopia"],"game_id":440,"stv_port":27056,"stv_name":"Uncletopia | Warsaw | 5 | Stopwatch | STV","players":null},{"server_id":54,"name":"Uncletopia | Warsaw | 6 | Community","name_short":"waw-6","host":"waw-1.pl.uncletopia.com","port":27065,"enabled":true,"region":"eu","cc":"pl","latitude":52.2297,"longitude":21.017532,"reserved":0,"last_update":"0001-01-01T00:00:00Z","name_a2s":"Uncletopia | Warsaw | 6 | Community","protocol":17,"map":"workshop/cp_propaganda_b18.ugc1603743849","folder":"tf","game":"Team Fortress","app_id":440,"player_count":0,"max_players":24,"Bots":0,"server_type":"Dedicated","server_os":"Linux","password":true,"vac":true,"version":"7961495","steam_id":85568392925397856,"keywords":["cp","nocrits","nodmgspread","uncletopia"],"game_id":440,"stv_port":27066,"stv_name":"Uncletopia | Warsaw | 6 | Community | STV","players":null}]}