{"status":true,"message":"","result":[{"server_id":9,"name":"Uncletopia | Atlanta | 1 | All Maps","name_short":"atl-1","host":"atl-1.us.uncletopia.com","port":27015,"enabled":true,"region":"us-east","cc":"us","latitude":33.753746,"longitude":-84.38633,"reserved":0,"last_update":"0001-01-01T00:00:00Z","name_a2s":"Uncletopia | Atlanta | 1 | All Maps","protocol":17,"map":"koth_cascade","folder":"tf","game":"Team Fortress","app_id":440,"player_count":0,"max_players":24,"Bots":0,"server_type":"Dedicated","server_os":"Linux","password":true,"vac":true,"version":"7695204","steam_id":85568392924469982,"keywords":["cp","nocrits","nodmgspread","uncletopia"],"game_id":440,"stv_port":0,"stv_name":"","players":null},{"server_id":400,"name":"Uncletopia | Atlanta | 3 | All Maps","name_short":"atl-3","host":"atl-1.us.uncletopia.com","port":27035,"enabled":true,"region":"us-east","cc":"us","latitude":33.753746,"longitude":-84.38633,"reserved":0,"last_update":"0001-01-01T00:00:00Z","name_a2s":"Uncletopia | Atlanta | 3 | All Maps","protocol":17,"map":"pl_frontier_final","folder":"tf","game":"Team Fortress","app_id":440,"player_count":0,"max_players":24,"Bots":0,"server_type":"Dedicated","server_os":"Linux","password":true,"vac":true,"version":"7695204","steam_id":85568392924515187,"keywords":["nocrits","nodmgspread","payload","uncletopia"],"game_id":440,"stv_port":0,"stv_name":"","players":null},{"server_id":401,"name":"Uncletopia | Atlanta | 4 | No Payload","name_short":"atl-4","host":"atl-1.us.uncletopia.com","port":27045,"enabled":true,"region":"us-east","cc":"us","latitude":33.753746,"longitude":-84.38633,"reserved":0,"last_update":"0001-01-01T00:00:00Z","name_a2s":"Uncletopia | Atlanta | 4 | No Payload","protocol":17,"map":"cp_snakewater_final1","folder":"tf","game":"Team Fortress","app_id":440,"player_count":0,"max_players":24,"Bots":0,"server_type":"Dedicated","server_os":"Linux","password":true,"vac":true,"version":"7695204","steam_id":85568392924515188,"keywords":["cp","nocrits","nodmgspread","uncletopia"],"game_id":440,"stv_port":0,"stv_name":"","players":null},{"server_id":2,"name":"Uncletopia | Chicago | 1 | All Maps","name_short":"chi-1","host":"chi-1.us.uncletopia.com","port":27015,"enabled":true,"region":"us-central","cc":"us","latitude":41.881832,"longitude":-87.62318,"reserved":0,"last_update":"0001-01-01T00:00:00Z","name_a2s":"Uncletopia | Chicago | 1 | All Maps","protocol":17,"map":"pl_swiftwater_final1","folder":"tf","game":"Team Fortress","app_id":440,"player_count":24,"max_players":24,"Bots":0,"server_type":"Dedicated","server_os":"Linux","password":true,"vac":true,"version":"7695204","steam_id":85568392924469984,"keywords":["nocrits","nodmgspread","payload","uncletopia"],"game_id":440,"stv_port":27016,"stv_name":"Uncletopia | Chicago | 1 | All Maps | STV","players":[{"user_id":999,"name":"Troglodyte","steam_id":76561198093926643,"connected_time":7029000000000,"state":"active","ping":66},{"user_id":1062,"name":"OBESE? NAH, A BEAST","steam_id":76561198144766439,"connected_time":1535000000000,"state":"active","ping":44},{"user_id":1075,"name":"Aggressive Pedestrian","steam_id":76561199229771413,"connected_time":940000000000,"state":"active","ping":79},{"user_id":1041,"name":"kevingates25@gmail.com","steam_id":76561198059575962,"connected_time":3597000000000,"state":"active","ping":64},{"user_id":1026,"name":"Harry Anus","steam_id":76561198169261069,"connected_time":4011000000000,"state":"active","ping":85},{"user_id":1027,"name":"rlty","steam_id":76561198009395055,"connected_time":3970000000000,"state":"active","ping":61},{"user_id":1054,"name":"twitch.tv/rurrrr","steam_id":76561198039758987,"connected_time":2761000000000,"state":"active","ping":109},{"user_id":989,"name":"emctwo","steam_id":76561198095082517,"connected_time":7876000000000,"state":"active","ping":60},{"user_id":1067,"name":"Pog","steam_id":76561198072115209,"connected_time":1457000000000,"state":"active","ping":65},{"user_id":1061,"name":"badboy6996 #4Pelt #4TRUMP","steam_id":76561197969386201,"connected_time":1789000000000,"state":"active","ping":50},{"user_id":1068,"name":"Ayayahuasca","steam_id":76561199002906056,"connected_time":1423000000000,"state":"active","ping":91},{"user_id":1051,"name":"Salt_Inventor","steam_id":76561198090433209,"connected_time":2839000000000,"state":"active","ping":101},{"user_id":1047,"name":"грустный","steam_id":76561198274550638,"connected_time":3255000000000,"state":"active","ping":60},{"user_id":1069,"name":"Beef Wellington","steam_id":76561197995635241,"connected_time":1367000000000,"state":"active","ping":66},{"user_id":1070,"name":"puppy","steam_id":76561197964635660,"connected_time":1254000000000,"state":"active","ping":89},{"user_id":1065,"name":"Antwan","steam_id":76561198246200638,"connected_time":1518000000000,"state":"active","ping":70},{"user_id":1039,"name":"Hudbus","steam_id":76561198193921543,"connected_time":3684000000000,"state":"active","ping":81},{"user_id":1071,"name":"Elena Manetta","steam_id":76561197998344054,"connected_time":1251000000000,"state":"active","ping":58},{"user_id":1066,"name":"dumbass","steam_id":76561198410957728,"connected_time":1518000000000,"state":"active","ping":46},{"user_id":1072,"name":"Goofball","steam_id":76561198074189084,"connected_time":1248000000000,"state":"active","ping":60},{"user_id":1060,"name":"GayBowser125","steam_id":76561198163430099,"connected_time":2415000000000,"state":"active","ping":145},{"user_id":1073,"name":"Maul","steam_id":76561198071844928,"connected_time":1247000000000,"state":"active","ping":67},{"user_id":1058,"name":"KingToaster","steam_id":76561198007903802,"connected_time":2560000000000,"state":"active","ping":76},{"user_id":1076,"name":"_","steam_id":76561198149536267,"connected_time":452000000000,"state":"active","ping":74}]},{"server_id":106,"name":"Uncletopia | Chicago | 2 | All Maps","name_short":"chi-2","host":"chi-1.us.uncletopia.com","port":27025,"enabled":true,"region":"us-central","cc":"us","latitude":41.881832,"longitude":-87.62318,"reserved":0,"last_update":"0001-01-01T00:00:00Z","name_a2s":"Uncletopia | Chicago | 2 | All Maps","protocol":17,"map":"cp_sunshine","folder":"tf","game":"Team Fortress","app_id":440,"player_count":0,"max_players":24,"Bots":0,"server_type":"Dedicated","server_os":"Linux","password":true,"vac":true,"version":"7695204","steam_id":85568392924469985,"keywords":["cp","nocrits","nodmgspread","uncletopia"],"game_id":440,"stv_port":27026,"stv_name":"Uncletopia | Chicago | 2 | All Maps | STV","players":null},{"server_id":402,"name":"Uncletopia | Chicago | 3 | All Maps","name_short":"chi-3","host":"chi-1.us.uncletopia.com","port":27035,"enabled":true,"region":"us-central","cc":"us","latitude":41.881832,"longitude":-87.62318,"reserved":0,"last_update":"0001-01-01T00:00:00Z","name_a2s":"Uncletopia | Chicago | 3 | All Maps","protocol":17,"map":"cp_mountainlab","folder":"tf","game":"Team Fortress","app_id":440,"player_count":0,"max_players":24,"Bots":0,"server_type":"Dedicated","server_os":"Linux","password":true,"vac":true,"version":"7695204","steam_id":85568392924515191,"keywords":["cp","nocrits","nodmgspread","uncletopia"],"game_id":440,"stv_port":27036,"stv_name":"Uncletopia | Chicago | 3 | All Maps | STV","players":null},{"server_id":403,"name":"Uncletopia | Chicago | 4 | All Maps","name_short":"chi-4","host":"chi-1.us.uncletopia.com","port":27045,"enabled":true,"region":"us-central","cc":"us","latitude":41.881832,"longitude":-87.62318,"reserved":0,"last_update":"0001-01-01T00:00:00Z","name_a2s":"Uncletopia | Chicago | 4 | All Maps","protocol":17,"map":"koth_lakeside_final","folder":"tf","game":"Team Fortress","app_id":440,"player_count":1,"max_players":24,"Bots":0,"server_type":"Dedicated","server_os":"Linux","password":true,"vac":true,"version":"7695204","steam_id":85568392924515193,"keywords":["cp","nocrits","nodmgspread","uncletopia"],"game_id":440,"stv_port":27046,"stv_name":"Uncletopia | Chicago | 4 | All Maps | STV","players":[{"user_id":831,"name":"Kritzburgh","steam_id":76561198149466938,"connected_time":181000000000,"state":"active","ping":61}]},{"server_id":36,"name":"Uncletopia | Chicago | 5 | All Maps","name_short":"chi-5","host":"chi-2.us.uncletopia.com","port":27015,"enabled":true,"region":"us-central","cc":"us","latitude":41.881832,"longitude":-87.62318,"reserved":0,"last_update":"0001-01-01T00:00:00Z","name_a2s":"Uncletopia | Chicago | 5 | All Maps","protocol":17,"map":"cp_snakewater_final1","folder":"tf","game":"Team Fortress","app_id":440,"player_count":0,"max_players":24,"Bots":0,"server_type":"Dedicated","server_os":"Linux","password":true,"vac":true,"version":"7695204","steam_id":85568392924866362,"keywords":["cp","nocrits","nodmgspread","uncletopia"],"game_id":440,"stv_port":27016,"stv_name":"Uncletopia | Chicago | 5 | All Maps | STV","players":null},{"server_id":37,"name":"Uncletopia | Chicago | 6 | All Maps","name_short":"chi-6","host":"chi-2.us.uncletopia.com","port":27025,"enabled":true,"region":"us-central","cc":"us","latitude":41.881832,"longitude":-87.62318,"reserved":0,"last_update":"0001-01-01T00:00:00Z","name_a2s":"Uncletopia | Chicago | 6 | All Maps","protocol":17,"map":"koth_highpass","folder":"tf","game":"Team Fortress","app_id":440,"player_count":0,"max_players":24,"Bots":0,"server_type":"Dedicated","server_os":"Linux","password":true,"vac":true,"version":"7695204","steam_id":85568392924866363,"keywords":["cp","nocrits","nodmgspread","uncletopia"],"game_id":440,"stv_port":27026,"stv_name":"Uncletopia | Chicago | 6 | All Maps | STV","players":null},{"server_id":38,"name":"Uncletopia | Chicago | 7 | No Payload","name_short":"chi-7","host":"chi-2.us.uncletopia.com","port":27035,"enabled":true,"region":"us-central","cc":"us","latitude":41.881832,"longitude":-87.62318,"reserved":0,"last_update":"0001-01-01T00:00:00Z","name_a2s":"Uncletopia | Chicago | 7 | No Payload","protocol":17,"map":"koth_harvest_final","folder":"tf","game":"Team Fortress","app_id":440,"player_count":0,"max_players":24,"Bots":0,"server_type":"Dedicated","server_os":"Linux","password":true,"vac":true,"version":"7695204","steam_id":85568392924866364,"keywords":["cp","nocrits","nodmgspread","uncletopia"],"game_id":440,"stv_port":27036,"stv_name":"Uncletopia | Chicago | 7 | No Payload | STV","players":null},{"server_id":39,"name":"Uncletopia | Chicago | 8 | Community","name_short":"chi-8","host":"chi-2.us.uncletopia.com","port":27045,"enabled":true,"region":"us-central","cc":"us","latitude":41.881832,"longitude":-87.62318,"reserved":0,"last_update":"0001-01-01T00:00:00Z","name_a2s":"Uncletopia | Chicago | 8 | Community","protocol":17,"map":"workshop/cp_sulfur_rc2.ugc619869471","folder":"tf","game":"Team Fortress","app_id":440,"player_count":0,"max_players":24,"Bots":0,"server_type":"Dedicated","server_os":"Linux","password":true,"vac":true,"version":"7695204","steam_id":85568392924866365,"keywords":["cp","nocrits","nodmgspread","uncletopia"],"game_id":440,"stv_port":27046,"stv_name":"Uncletopia | Chicago | 8 | Community | STV","players":null},{"server_id":8,"name":"Uncletopia | Dallas | 1 | All Maps","name_short":"dal-1","host":"dal-1.us.uncletopia.com","port":27015,"enabled":true,"region":"us-central","cc":"us","latitude":32.779167,"longitude":-96.80889,"reserved":0,"last_update":"0001-01-01T00:00:00Z","name_a2s":"Uncletopia | Dallas | 1 | All Maps","protocol":17,"map":"pl_upward","folder":"tf","game":"Team Fortress","app_id":440,"player_count":0,"max_players":24,"Bots":0,"server_type":"Dedicated","server_os":"Linux","password":true,"vac":true,"version":"7695204","steam_id":85568392924469986,"keywords":["nocrits","nodmgspread","payload","uncletopia"],"game_id":440,"stv_port":27016,"stv_name":"Uncletopia | Dallas | 1 | All Maps | STV","players":null},{"server_id":108,"name":"Uncletopia | Dallas | 2 | All Maps","name_short":"dal-2","host":"dal-1.us.uncletopia.com","port":27025,"enabled":true,"region":"us-central","cc":"us","latitude":32.779167,"longitude":-96.80889,"reserved":0,"last_update":"0001-01-01T00:00:00Z","name_a2s":"Uncletopia | Dallas | 2 | All Maps","protocol":17,"map":"koth_lakeside_final","folder":"tf","game":"Team Fortress","app_id":440,"player_count":0,"max_players":24,"Bots":0,"server_type":"Dedicated","server_os":"Linux","password":true,"vac":true,"version":"7695204","steam_id":85568392924469988,"keywords":["cp","nocrits","nodmgspread","uncletopia"],"game_id":440,"stv_port":27026,"stv_name":"Uncletopia | Dallas | 2 | All Maps | STV","players":null},{"server_id":5,"name":"Uncletopia | Frankfurt | 1 | All Maps","name_short":"frk-1","host":"frk-1.de.uncletopia.com","port":27015,"enabled":true,"region":"eu","cc":"de","latitude":50.110924,"longitude":8.682127,"reserved":0,"last_update":"0001-01-01T00:00:00Z","name_a2s":"Uncletopia | Frankfurt | 1 | All Maps","protocol":17,"map":"pl_frontier_final","folder":"tf","game":"Team Fortress","app_id":440,"player_count":22,"max_players":24,"Bots":0,"server_type":"Dedicated","server_os":"Linux","password":true,"vac":true,"version":"7695204","steam_id":85568392924469989,"keywords":["nocrits","nodmgspread","payload","uncletopia"],"game_id":440,"stv_port":27016,"stv_name":"Uncletopia | Frankfurt | 1 | All Maps | STV","players":[{"user_id":191,"name":"UNRL","steam_id":76561198167986695,"connected_time":88000000000,"state":"active","ping":45},{"user_id":179,"name":"Hooggers","steam_id":76561198120447741,"connected_time":717000000000,"state":"active","ping":104},{"user_id":185,"name":"J4n1X","steam_id":76561198816352147,"connected_time":251000000000,"state":"active","ping":55},{"user_id":182,"name":"weSt","steam_id":76561198000913325,"connected_time":409000000000,"state":"active","ping":57},{"user_id":192,"name":"FratelliDiGioco","steam_id":76561198330180629,"connected_time":14000000000,"state":"spawning","ping":62},{"user_id":186,"name":"S0L0","steam_id":76561198259106717,"connected_time":246000000000,"state":"active","ping":78},{"user_id":176,"name":"Carrot","steam_id":76561198119340863,"connected_time":934000000000,"state":"active","ping":56},{"user_id":133,"name":"dankerghost","steam_id":76561198838761959,"connected_time":3297000000000,"state":"active","ping":115},{"user_id":188,"name":"lvl. 50 honkler","steam_id":76561198061688660,"connected_time":199000000000,"state":"active","ping":105},{"user_id":189,"name":"DoraTheExplora","steam_id":76561198059319529,"connected_time":181000000000,"state":"active","ping":75},{"user_id":159,"name":"alien","steam_id":76561197968892194,"connected_time":1923000000000,"state":"active","ping":60},{"user_id":167,"name":"CouT1nho","steam_id":76561198203926376,"connected_time":1215000000000,"state":"active","ping":45},{"user_id":160,"name":"Vitamin Weee","steam_id":76561199183937747,"connected_time":1728000000000,"state":"active","ping":75},{"user_id":190,"name":"Scyrup","steam_id":76561198841748356,"connected_time":170000000000,"state":"active","ping":84},{"user_id":156,"name":"pepper","steam_id":76561198059782462,"connected_time":2359000000000,"state":"active","ping":46},{"user_id":171,"name":"Marukuso","steam_id":76561198154229845,"connected_time":1143000000000,"state":"active","ping":56},{"user_id":157,"name":"TYBG","steam_id":76561198158047815,"connected_time":2101000000000,"state":"active","ping":146},{"user_id":130,"name":"jaime8D","steam_id":76561197980590671,"connected_time":3319000000000,"state":"active","ping":89},{"user_id":172,"name":"Wrabchev* Just_Smile","steam_id":76561198040645344,"connected_time":1131000000000,"state":"active","ping":75},{"user_id":173,"name":"Sham!","steam_id":76561198050434275,"connected_time":1125000000000,"state":"active","ping":44},{"user_id":162,"name":"SugipuLaur","steam_id":76561199138556623,"connected_time":1474000000000,"state":"active","ping":60},{"user_id":180,"name":"Autistic Anon","steam_id":76561198439454376,"connected_time":717000000000,"state":"active","ping":79}]},{"server_id":110,"name":"Uncletopia | Frankfurt | 2 | All Maps","name_short":"frk-2","host":"frk-1.de.uncletopia.com","port":27025,"enabled":true,"region":"eu","cc":"de","latitude":50.110924,"longitude":8.682127,"reserved":0,"last_update":"0001-01-01T00:00:00Z","name_a2s":"Uncletopia | Frankfurt | 2 | All Maps","protocol":17,"map":"cp_altitude","folder":"tf","game":"Team Fortress","app_id":440,"player_count":0,"max_players":24,"Bots":0,"server_type":"Dedicated","server_os":"Linux","password":true,"vac":true,"version":"7695204","steam_id":85568392924469990,"keywords":["cp","nocrits","nodmgspread","uncletopia"],"game_id":440,"stv_port":0,"stv_name":"","players":null},{"server_id":308,"name":"Uncletopia | Frankfurt | 3 | All Maps","name_short":"frk-3","host":"frk-1.de.uncletopia.com","port":27035,"enabled":true,"region":"eu","cc":"de","latitude":50.110924,"longitude":8.682127,"reserved":0,"last_update":"0001-01-01T00:00:00Z","name_a2s":"Uncletopia | Frankfurt | 3 | All Maps","protocol":17,"map":"pl_upward","folder":"tf","game":"Team Fortress","app_id":440,"player_count":24,"max_players":24,"Bots":0,"server_type":"Dedicated","server_os":"Linux","password":true,"vac":true,"version":"7695204","steam_id":85568392924504274,"keywords":["nocrits","nodmgspread","payload","uncletopia"],"game_id":440,"stv_port":27036,"stv_name":"Uncletopia | Frankfurt | 3 | All Maps | STV","players":[{"user_id":48,"name":"cof","steam_id":76561199128417805,"connected_time":801000000000,"state":"active","ping":65},{"user_id":45,"name":"End_Captain","steam_id":76561198984965056,"connected_time":1259000000000,"state":"active","ping":68},{"user_id":53,"name":"Greywings756","steam_id":76561198187640402,"connected_time":419000000000,"state":"active","ping":71},{"user_id":51,"name":"Ixsus\u003c3","steam_id":76561198094756869,"connected_time":462000000000,"state":"active","ping":60},{"user_id":55,"name":"Stoneley","steam_id":76561199182443625,"connected_time":410000000000,"state":"active","ping":55},{"user_id":50,"name":"NPC (Goblin)","steam_id":76561198970762992,"connected_time":536000000000,"state":"active","ping":65},{"user_id":54,"name":"Fbafroguy","steam_id":76561199113010473,"connected_time":412000000000,"state":"active","ping":59},{"user_id":46,"name":"Engi-Nearing","steam_id":76561199221172552,"connected_time":1121000000000,"state":"active","ping":68},{"user_id":43,"name":"Mokie","steam_id":76561199360783914,"connected_time":1459000000000,"state":"active","ping":125},{"user_id":32,"name":"Grenelef","steam_id":76561198047617144,"connected_time":1944000000000,"state":"active","ping":72},{"user_id":19,"name":"ViktorYoshi","steam_id":76561199157555246,"connected_time":2561000000000,"state":"active","ping":62},{"user_id":21,"name":"Nick","steam_id":76561198036109469,"connected_time":2407000000000,"state":"active","ping":81},{"user_id":23,"name":"cosmetical","steam_id":76561198444036574,"connected_time":2302000000000,"state":"active","ping":61},{"user_id":25,"name":"silicon based life form","steam_id":76561199127121346,"connected_time":2247000000000,"state":"active","ping":315},{"user_id":27,"name":"JackDegle","steam_id":76561198427027677,"connected_time":2138000000000,"state":"active","ping":76},{"user_id":28,"name":"cum","steam_id":76561199394052715,"connected_time":2121000000000,"state":"active","ping":67},{"user_id":29,"name":"h e r t e l e k i","steam_id":76561198974861983,"connected_time":2092000000000,"state":"active","ping":82},{"user_id":52,"name":"technologicalMayhem","steam_id":76561198077216014,"connected_time":455000000000,"state":"active","ping":46},{"user_id":31,"name":"Butte","steam_id":76561198306672908,"connected_time":2025000000000,"state":"active","ping":111},{"user_id":33,"name":"Sputnik1","steam_id":76561199059003709,"connected_time":1863000000000,"state":"active","ping":127},{"user_id":56,"name":"Нечуй-Левицький","steam_id":76561198870926865,"connected_time":394000000000,"state":"active","ping":52},{"user_id":35,"name":"Frekil99","steam_id":76561198355754801,"connected_time":1809000000000,"state":"active","ping":114},{"user_id":57,"name":"Professional Gibus Spy (F2P)","steam_id":76561199082683456,"connected_time":203000000000,"state":"active","ping":111},{"user_id":37,"name":"The One","steam_id":76561198827193499,"connected_time":1780000000000,"state":"active","ping":65}]},{"server_id":309,"name":"Uncletopia | Frankfurt | 4 | All Maps","name_short":"frk-4","host":"frk-1.de.uncletopia.com","port":27045,"enabled":true,"region":"eu","cc":"de","latitude":50.110924,"longitude":8.682127,"reserved":0,"last_update":"0001-01-01T00:00:00Z","name_a2s":"Uncletopia | Frankfurt | 4 | All Maps","protocol":17,"map":"koth_highpass","folder":"tf","game":"Team Fortress","app_id":440,"player_count":0,"max_players":24,"Bots":0,"server_type":"Dedicated","server_os":"Linux","password":true,"vac":true,"version":"7695204","steam_id":85568392924504275,"keywords":["cp","nocrits","nodmgspread","uncletopia"],"game_id":440,"stv_port":0,"stv_name":"","players":null},{"server_id":310,"name":"Uncletopia | Frankfurt | 5 | All Maps","name_short":"frk-5","host":"frk-1.de.uncletopia.com","port":27055,"enabled":true,"region":"eu","cc":"de","latitude":50.110924,"longitude":8.682127,"reserved":0,"last_update":"0001-01-01T00:00:00Z","name_a2s":"Uncletopia | Frankfurt | 5 | All Maps","protocol":17,"map":"pl_pier","folder":"tf","game":"Team Fortress","app_id":440,"player_count":0,"max_players":24,"Bots":0,"server_type":"Dedicated","server_os":"Linux","password":true,"vac":true,"version":"7695204","steam_id":85568392924504277,"keywords":["nocrits","nodmgspread","payload","uncletopia"],"game_id":440,"stv_port":0,"stv_name":"","players":null},{"server_id":311,"name":"Uncletopia | Frankfurt | 6 | All Maps","name_short":"frk-6","host":"frk-1.de.uncletopia.com","port":27065,"enabled":true,"region":"eu","cc":"de","latitude":50.110924,"longitude":8.682127,"reserved":0,"last_update":"0001-01-01T00:00:00Z","name_a2s":"Uncletopia | Frankfurt | 6 | All Maps","protocol":17,"map":"pl_snowycoast","folder":"tf","game":"Team Fortress","app_id":440,"player_count":24,"max_players":24,"Bots":0,"server_type":"Dedicated","server_os":"Linux","password":true,"vac":true,"version":"7695204","steam_id":85568392924504278,"keywords":["nocrits","nodmgspread","payload","uncletopia"],"game_id":440,"stv_port":27066,"stv_name":"Uncletopia | Frankfurt | 6 | All Maps | STV","players":[{"user_id":80,"name":"Largo","steam_id":76561198844368927,"connected_time":2452000000000,"state":"active","ping":63},{"user_id":101,"name":"terrine de poisson","steam_id":76561198182874945,"connected_time":521000000000,"state":"active","ping":54},{"user_id":4,"name":"Empyrean","steam_id":76561198138552502,"connected_time":8490000000000,"state":"active","ping":73},{"user_id":81,"name":"Cillian","steam_id":76561199046965320,"connected_time":1964000000000,"state":"active","ping":74},{"user_id":72,"name":"actually polish","steam_id":76561198267579078,"connected_time":4043000000000,"state":"active","ping":71},{"user_id":100,"name":"petr.kadera","steam_id":76561198310852145,"connected_time":541000000000,"state":"active","ping":65},{"user_id":76,"name":"XfarisGamerX","steam_id":76561198367579380,"connected_time":3471000000000,"state":"active","ping":123},{"user_id":97,"name":"nynon","steam_id":76561197998432126,"connected_time":558000000000,"state":"active","ping":85},{"user_id":92,"name":"Clamor_","steam_id":76561198104368295,"connected_time":797000000000,"state":"active","ping":75},{"user_id":98,"name":"Kokas","steam_id":76561197996786353,"connected_time":556000000000,"state":"active","ping":67},{"user_id":78,"name":"1","steam_id":76561199259135692,"connected_time":2810000000000,"state":"active","ping":92},{"user_id":84,"name":"PLUTO","steam_id":76561198312436128,"connected_time":1872000000000,"state":"active","ping":126},{"user_id":102,"name":"Jonkheervanflep","steam_id":76561198006853101,"connected_time":505000000000,"state":"active","ping":82},{"user_id":94,"name":"War Ren","steam_id":76561198301524251,"connected_time":665000000000,"state":"active","ping":69},{"user_id":99,"name":"mishka.*","steam_id":76561198040003628,"connected_time":555000000000,"state":"active","ping":72},{"user_id":55,"name":"Nostradamus","steam_id":76561198349792686,"connected_time":5484000000000,"state":"active","ping":55},{"user_id":86,"name":"tortellini in brodo","steam_id":76561198066071855,"connected_time":1812000000000,"state":"active","ping":68},{"user_id":95,"name":"GMsU | Rebikas","steam_id":76561198077053764,"connected_time":661000000000,"state":"active","ping":46},{"user_id":103,"name":"Oli4","steam_id":76561198118873850,"connected_time":482000000000,"state":"active","ping":58},{"user_id":106,"name":"Jerry the clam","steam_id":76561198202990635,"connected_time":336000000000,"state":"active","ping":64},{"user_id":88,"name":"Anti_Dragon","steam_id":76561198969060607,"connected_time":1364000000000,"state":"active","ping":98},{"user_id":35,"name":"Stepoface","steam_id":76561198091569863,"connected_time":7284000000000,"state":"active","ping":60},{"user_id":77,"name":"muza♥","steam_id":76561198220183377,"connected_time":3303000000000,"state":"active","ping":95},{"user_id":96,"name":"bananen pizza","steam_id":76561199212990079,"connected_time":661000000000,"state":"active","ping":74}]},{"server_id":23,"name":"Uncletopia | Frankfurt | 7 | No Payload","name_short":"frk-7","host":"frk-1.de.uncletopia.com","port":27075,"enabled":true,"region":"eu","cc":"de","latitude":50.110924,"longitude":8.682127,"reserved":0,"last_update":"0001-01-01T00:00:00Z","name_a2s":"Uncletopia | Frankfurt | 7 | No Payload","protocol":17,"map":"cp_sunshine","folder":"tf","game":"Team Fortress","app_id":440,"player_count":24,"max_players":24,"Bots":0,"server_type":"Dedicated","server_os":"Linux","password":true,"vac":true,"version":"7695204","steam_id":85568392924742827,"keywords":["cp","nocrits","nodmgspread","uncletopia"],"game_id":440,"stv_port":27076,"stv_name":"Uncletopia | Frankfurt | 7 | No Payload | STV","players":[{"user_id":119,"name":"Jevri","steam_id":76561198116312374,"connected_time":79000000000,"state":"active","ping":64},{"user_id":84,"name":"K.V. #RemoveRandomCrits","steam_id":76561197994832993,"connected_time":1845000000000,"state":"active","ping":74},{"user_id":113,"name":"Cali","steam_id":76561198065115129,"connected_time":498000000000,"state":"active","ping":181},{"user_id":97,"name":"ribs","steam_id":76561198354735240,"connected_time":1081000000000,"state":"active","ping":61},{"user_id":76,"name":"brokenphilip","steam_id":76561198080960604,"connected_time":2244000000000,"state":"active","ping":74},{"user_id":95,"name":"Lyell","steam_id":76561198350329389,"connected_time":1110000000000,"state":"active","ping":83},{"user_id":120,"name":"Szeretemtej","steam_id":76561198112145288,"connected_time":57000000000,"state":"active","ping":68},{"user_id":112,"name":"Hoks","steam_id":76561198126442242,"connected_time":653000000000,"state":"active","ping":122},{"user_id":98,"name":"Mogwai","steam_id":76561198078832314,"connected_time":1076000000000,"state":"active","ping":86},{"user_id":107,"name":"Beb","steam_id":76561198106119248,"connected_time":848000000000,"state":"active","ping":67},{"user_id":90,"name":"Airon","steam_id":76561197970481950,"connected_time":1530000000000,"state":"active","ping":72},{"user_id":100,"name":"[pwn4f]king_of_defeat","steam_id":76561198079724722,"connected_time":996000000000,"state":"active","ping":105},{"user_id":116,"name":"society","steam_id":76561198214848887,"connected_time":183000000000,"state":"active","ping":69},{"user_id":65,"name":"Kali","steam_id":76561198796327257,"connected_time":3228000000000,"state":"active","ping":54},{"user_id":79,"name":"M2rtRa","steam_id":76561198111036466,"connected_time":2009000000000,"state":"active","ping":63},{"user_id":114,"name":"traplord bobby","steam_id":76561198259218647,"connected_time":444000000000,"state":"active","ping":50},{"user_id":102,"name":"Shrimpeee","steam_id":76561199012689768,"connected_time":959000000000,"state":"active","ping":76},{"user_id":117,"name":"glögi connoisseur","steam_id":76561198188647690,"connected_time":134000000000,"state":"active","ping":74},{"user_id":104,"name":"zooom132","steam_id":76561198314426404,"connected_time":927000000000,"state":"active","ping":139},{"user_id":111,"name":"average ultiduo medic","steam_id":76561198103285012,"connected_time":714000000000,"state":"active","ping":48},{"user_id":54,"name":"Him","steam_id":76561198086400484,"connected_time":4121000000000,"state":"active","ping":81},{"user_id":108,"name":"sergiazo","steam_id":76561199081954697,"connected_time":791000000000,"state":"active","ping":72},{"user_id":118,"name":"The Man From U.N.C.L.E","steam_id":76561199024168373,"connected_time":130000000000,"state":"active","ping":78},{"user_id":110,"name":"EngieAndArma","steam_id":76561199012020120,"connected_time":761000000000,"state":"active","ping":61}]},{"server_id":24,"name":"Uncletopia | Frankfurt | 8 | Community","name_short":"frk-8","host":"frk-1.de.uncletopia.com","port":27085,"enabled":true,"region":"eu","cc":"de","latitude":50.110924,"longitude":8.682127,"reserved":0,"last_update":"0001-01-01T00:00:00Z","name_a2s":"Uncletopia | Frankfurt | 8 | Community","protocol":17,"map":"koth_lakeside_final","folder":"tf","game":"Team Fortress","app_id":440,"player_count":0,"max_players":24,"Bots":0,"server_type":"Dedicated","server_os":"Linux","password":true,"vac":true,"version":"7695204","steam_id":85568392924742828,"keywords":["cp","nocrits","nodmgspread","uncletopia"],"game_id":440,"stv_port":0,"stv_name":"","players":null},{"server_id":202,"name":"Uncletopia | Hong Kong | 1 | All Maps","name_short":"hgk-1","host":"hgk-1.hk.uncletopia.com","port":27015,"enabled":true,"region":"asia","cc":"hk","latitude":22.302711,"longitude":114.177216,"reserved":0,"last_update":"0001-01-01T00:00:00Z","name_a2s":"Uncletopia | Hong Kong | 1 | All Maps","protocol":17,"map":"cp_gorge","folder":"tf","game":"Team Fortress","app_id":440,"player_count":24,"max_players":24,"Bots":0,"server_type":"Dedicated","server_os":"Linux","password":true,"vac":true,"version":"7695204","steam_id":85568392924494504,"keywords":["cp","nocrits","nodmgspread","uncletopia"],"game_id":440,"stv_port":27016,"stv_name":"Uncletopia | Hong Kong | 1 | All Maps | STV","players":[{"user_id":642,"name":"D O N E","steam_id":76561198988918828,"connected_time":335000000000,"state":"active","ping":95},{"user_id":639,"name":"greeny","steam_id":76561198024666371,"connected_time":1106000000000,"state":"active","ping":91},{"user_id":635,"name":"spaece","steam_id":76561198153448549,"connected_time":2318000000000,"state":"active","ping":82},{"user_id":643,"name":"subaru 2009","steam_id":76561197994194946,"connected_time":327000000000,"state":"active","ping":99},{"user_id":644,"name":"duck1e","steam_id":76561198422098581,"connected_time":326000000000,"state":"active","ping":80},{"user_id":648,"name":"Milk❤","steam_id":76561198163911560,"connected_time":315000000000,"state":"active","ping":125},{"user_id":612,"name":"Sketchy","steam_id":76561198383530268,"connected_time":5245000000000,"state":"active","ping":77},{"user_id":630,"name":"yw","steam_id":76561199382726488,"connected_time":2835000000000,"state":"active","ping":37},{"user_id":624,"name":"Aug","steam_id":76561199212711900,"connected_time":4249000000000,"state":"active","ping":118},{"user_id":653,"name":"Orajéed","steam_id":76561199389156980,"connected_time":280000000000,"state":"active","ping":77},{"user_id":619,"name":"piyoko no english","steam_id":76561198088403016,"connected_time":4641000000000,"state":"active","ping":180},{"user_id":532,"name":"PocoLoco","steam_id":76561198834044246,"connected_time":10382000000000,"state":"active","ping":102},{"user_id":650,"name":"zlan","steam_id":76561199107596818,"connected_time":301000000000,"state":"active","ping":165},{"user_id":645,"name":"Maria","steam_id":76561198237613398,"connected_time":326000000000,"state":"active","ping":155},{"user_id":625,"name":"Du57Y","steam_id":76561198120973476,"connected_time":3664000000000,"state":"active","ping":77},{"user_id":615,"name":"spinach hero","steam_id":76561198042539541,"connected_time":5077000000000,"state":"active","ping":78},{"user_id":633,"name":"Cheesey","steam_id":76561198975684137,"connected_time":2445000000000,"state":"active","ping":75},{"user_id":651,"name":"r/leroy","steam_id":76561199137927625,"connected_time":294000000000,"state":"active","ping":155},{"user_id":657,"name":"Ham Man","steam_id":76561198174102269,"connected_time":65000000000,"state":"active","ping":80},{"user_id":655,"name":"Kobeni","steam_id":76561198203073201,"connected_time":95000000000,"state":"active","ping":60},{"user_id":641,"name":"screaming sniper","steam_id":76561199085568674,"connected_time":532000000000,"state":"active","ping":58},{"user_id":636,"name":"MiddleWeast","steam_id":76561198200826154,"connected_time":2292000000000,"state":"active","ping":46},{"user_id":640,"name":"e","steam_id":76561199068229379,"connected_time":791000000000,"state":"active","ping":57},{"user_id":647,"name":"ObscuroLucem","steam_id":76561198875037943,"connected_time":325000000000,"state":"active","ping":88}]},{"server_id":1,"name":"Uncletopia | Los Angeles | 1 | All Maps","name_short":"lax-1","host":"lax-1.us.uncletopia.com","port":27015,"enabled":true,"region":"us-west","cc":"us","latitude":33.94279,"longitude":-118.41004,"reserved":0,"last_update":"0001-01-01T00:00:00Z","name_a2s":"Uncletopia | Los Angeles | 1 | All Maps","protocol":17,"map":"pl_frontier_final","folder":"tf","game":"Team Fortress","app_id":440,"player_count":0,"max_players":24,"Bots":0,"server_type":"Dedicated","server_os":"Linux","password":true,"vac":true,"version":"7695204","steam_id":85568392924469991,"keywords":["nocrits","nodmgspread","payload","uncletopia"],"game_id":440,"stv_port":27016,"stv_name":"Uncletopia | Los Angeles | 1 | All Maps | STV","players":null},{"server_id":112,"name":"Uncletopia | Los Angeles | 2 | All Maps","name_short":"lax-2","host":"lax-1.us.uncletopia.com","port":27025,"enabled":true,"region":"us-west","cc":"us","latitude":33.94279,"longitude":-118.41004,"reserved":0,"last_update":"0001-01-01T00:00:00Z","name_a2s":"Uncletopia | Los Angeles | 2 | All Maps","protocol":17,"map":"koth_highpass","folder":"tf","game":"Team Fortress","app_id":440,"player_count":0,"max_players":24,"Bots":0,"server_type":"Dedicated","server_os":"Linux","password":true,"vac":true,"version":"7695204","steam_id":85568392924469992,"keywords":["cp","nocrits","nodmgspread","uncletopia"],"game_id":440,"stv_port":27026,"stv_name":"Uncletopia | Los Angeles | 2 | All Maps | STV","players":null},{"server_id":324,"name":"Uncletopia | Los Angeles | 3 | All Maps","name_short":"lax-3","host":"lax-1.us.uncletopia.com","port":27035,"enabled":true,"region":"us-west","cc":"us","latitude":33.94279,"longitude":-118.41004,"reserved":0,"last_update":"0001-01-01T00:00:00Z","name_a2s":"Uncletopia | Los Angeles | 3 | All Maps","protocol":17,"map":"pl_snowycoast","folder":"tf","game":"Team Fortress","app_id":440,"player_count":0,"max_players":24,"Bots":0,"server_type":"Dedicated","server_os":"Linux","password":true,"vac":true,"version":"7695204","steam_id":85568392924510198,"keywords":["nocrits","nodmgspread","payload","uncletopia"],"game_id":440,"stv_port":27036,"stv_name":"Uncletopia | Los Angeles | 3 | All Maps | STV","players":null},{"server_id":25,"name":"Uncletopia | Los Angeles | 4 | No Payload","name_short":"lax-4","host":"lax-1.us.uncletopia.com","port":27045,"enabled":true,"region":"us-west","cc":"us","latitude":33.94279,"longitude":-118.41004,"reserved":0,"last_update":"0001-01-01T00:00:00Z","name_a2s":"Uncletopia | Los Angeles | 4 | No Payload","protocol":17,"map":"cp_standin_final","folder":"tf","game":"Team Fortress","app_id":440,"player_count":0,"max_players":24,"Bots":0,"server_type":"Dedicated","server_os":"Linux","password":true,"vac":true,"version":"7695204","steam_id":85568392924510199,"keywords":["cp","nocrits","nodmgspread","uncletopia"],"game_id":440,"stv_port":27046,"stv_name":"Uncletopia | Los Angeles | 4 | No Payload | STV","players":null},{"server_id":11,"name":"Uncletopia | London | 1 | All Maps","name_short":"lon-1","host":"lon-1.uk.uncletopia.com","port":27015,"enabled":true,"region":"eu","cc":"gb","latitude":51.509865,"longitude":-0.118092,"reserved":0,"last_update":"0001-01-01T00:00:00Z","name_a2s":"Uncletopia | London | 1 | All Maps","protocol":17,"map":"pl_frontier_final","folder":"tf","game":"Team Fortress","app_id":440,"player_count":1,"max_players":24,"Bots":0,"server_type":"Dedicated","server_os":"Linux","password":true,"vac":true,"version":"7695204","steam_id":85568392924367362,"keywords":["nocrits","nodmgspread","payload","uncletopia"],"game_id":440,"stv_port":27016,"stv_name":"Uncletopia | London | 1 | All Maps | STV","players":[{"user_id":8,"name":"bobot","steam_id":76561199047329331,"connected_time":654000000000,"state":"active","ping":59}]},{"server_id":114,"name":"Uncletopia | London | 2 | All Maps","name_short":"lon-2","host":"lon-1.uk.uncletopia.com","port":27025,"enabled":true,"region":"eu","cc":"gb","latitude":51.509865,"longitude":-0.118092,"reserved":0,"last_update":"0001-01-01T00:00:00Z","name_a2s":"Uncletopia | London | 2 | All Maps","protocol":17,"map":"cp_sunshine","folder":"tf","game":"Team Fortress","app_id":440,"player_count":0,"max_players":24,"Bots":0,"server_type":"Dedicated","server_os":"Linux","password":true,"vac":true,"version":"7695204","steam_id":85568392924470941,"keywords":["cp","nocrits","nodmgspread","uncletopia"],"game_id":440,"stv_port":0,"stv_name":"","players":null},{"server_id":320,"name":"Uncletopia | London | 3 | All Maps","name_short":"lon-3","host":"lon-1.uk.uncletopia.com","port":27035,"enabled":true,"region":"eu","cc":"gb","latitude":51.509865,"longitude":-0.118092,"reserved":0,"last_update":"0001-01-01T00:00:00Z","name_a2s":"Uncletopia | London | 3 | All Maps","protocol":17,"map":"pl_snowycoast","folder":"tf","game":"Team Fortress","app_id":440,"player_count":24,"max_players":24,"Bots":0,"server_type":"Dedicated","server_os":"Linux","password":true,"vac":true,"version":"7695204","steam_id":85568392924510192,"keywords":["nocrits","nodmgspread","payload","uncletopia"],"game_id":440,"stv_port":27036,"stv_name":"Uncletopia | London | 3 | All Maps | STV","players":[{"user_id":268,"name":"Mayor Wank from Wanker Town","steam_id":76561197998253588,"connected_time":139000000000,"state":"active","ping":51},{"user_id":267,"name":"a bee","steam_id":76561198051828515,"connected_time":173000000000,"state":"active","ping":30},{"user_id":257,"name":"Phiphler","steam_id":76561197994055715,"connected_time":1461000000000,"state":"active","ping":66},{"user_id":253,"name":"♥Aqua Worshipper♥","steam_id":76561198074216855,"connected_time":1706000000000,"state":"active","ping":48},{"user_id":158,"name":"Rin-Nakaret","steam_id":76561197971051188,"connected_time":7437000000000,"state":"active","ping":60},{"user_id":244,"name":"gorrian","steam_id":76561198278199225,"connected_time":1984000000000,"state":"active","ping":69},{"user_id":258,"name":"HOT HENTAI BITCHES IN YOUR AREA","steam_id":76561198332957495,"connected_time":1417000000000,"state":"active","ping":97},{"user_id":270,"name":"aGreedGryphon","steam_id":76561198245175308,"connected_time":39000000000,"state":"active","ping":89},{"user_id":238,"name":"45 mg","steam_id":76561198864329072,"connected_time":2584000000000,"state":"active","ping":103},{"user_id":255,"name":"Qwertuss","steam_id":76561198026305366,"connected_time":1586000000000,"state":"active","ping":51},{"user_id":247,"name":"downtown boy","steam_id":76561197983094802,"connected_time":1871000000000,"state":"active","ping":90},{"user_id":269,"name":"shaunrq","steam_id":76561199136585297,"connected_time":111000000000,"state":"active","ping":63},{"user_id":266,"name":"vfrc","steam_id":76561198430631575,"connected_time":179000000000,"state":"active","ping":82},{"user_id":271,"name":"presidentialAIDS","steam_id":76561199257284077,"connected_time":32000000000,"state":"spawning","ping":126},{"user_id":203,"name":"LOBZIK","steam_id":76561198114830120,"connected_time":4523000000000,"state":"active","ping":78},{"user_id":248,"name":"cslevi","steam_id":76561198142858923,"connected_time":1826000000000,"state":"active","ping":77},{"user_id":234,"name":"Phace","steam_id":76561198124941499,"connected_time":2727000000000,"state":"active","ping":46},{"user_id":235,"name":"ciliorkun18","steam_id":76561198228942500,"connected_time":2725000000000,"state":"active","ping":94},{"user_id":240,"name":"Saken","steam_id":76561198049075295,"connected_time":2362000000000,"state":"active","ping":61},{"user_id":260,"name":"Sas","steam_id":76561197984929387,"connected_time":1290000000000,"state":"active","ping":63},{"user_id":243,"name":"player","steam_id":76561198054474684,"connected_time":2287000000000,"state":"active","ping":84},{"user_id":261,"name":"Blazmobins","steam_id":76561198082899401,"connected_time":1288000000000,"state":"active","ping":45},{"user_id":262,"name":"Anarch","steam_id":76561198342216547,"connected_time":817000000000,"state":"active","ping":107},{"user_id":265,"name":"squib","steam_id":76561198049170360,"connected_time":233000000000,"state":"active","ping":40}]},{"server_id":321,"name":"Uncletopia | London | 4 | All Maps","name_short":"lon-4","host":"lon-1.uk.uncletopia.com","port":27045,"enabled":true,"region":"eu","cc":"gb","latitude":51.509865,"longitude":-0.118092,"reserved":0,"last_update":"0001-01-01T00:00:00Z","name_a2s":"Uncletopia | London | 4 | All Maps","protocol":17,"map":"koth_viaduct","folder":"tf","game":"Team Fortress","app_id":440,"player_count":0,"max_players":24,"Bots":0,"server_type":"Dedicated","server_os":"Linux","password":true,"vac":true,"version":"7695204","steam_id":85568392924510193,"keywords":["cp","nocrits","nodmgspread","uncletopia"],"game_id":440,"stv_port":0,"stv_name":"","players":null},{"server_id":21,"name":"Uncletopia | London | 5 | All Maps","name_short":"lon-5","host":"lon-1.uk.uncletopia.com","port":27055,"enabled":true,"region":"eu","cc":"gb","latitude":51.509865,"longitude":-0.118092,"reserved":0,"last_update":"0001-01-01T00:00:00Z","name_a2s":"Uncletopia | London | 5 | All Maps","protocol":17,"map":"koth_cascade","folder":"tf","game":"Team Fortress","app_id":440,"player_count":0,"max_players":24,"Bots":0,"server_type":"Dedicated","server_os":"Linux","password":true,"vac":true,"version":"7695204","steam_id":85568392924742829,"keywords":["cp","nocrits","nodmgspread","uncletopia"],"game_id":440,"stv_port":0,"stv_name":"","players":null},{"server_id":22,"name":"Uncletopia | London | 6 | All Maps","name_short":"lon-6","host":"lon-1.uk.uncletopia.com","port":27065,"enabled":true,"region":"eu","cc":"gb","latitude":51.509865,"longitude":-0.118092,"reserved":0,"last_update":"0001-01-01T00:00:00Z","name_a2s":"Uncletopia | London | 6 | All Maps","protocol":17,"map":"pl_pier","folder":"tf","game":"Team Fortress","app_id":440,"player_count":0,"max_players":24,"Bots":0,"server_type":"Dedicated","server_os":"Linux","password":true,"vac":true,"version":"7695204","steam_id":85568392924742830,"keywords":["nocrits","nodmgspread","payload","uncletopia"],"game_id":440,"stv_port":0,"stv_name":"","players":null},{"server_id":40,"name":"Uncletopia | London | 7 | No Payload","name_short":"lon-7","host":"lon-1.uk.uncletopia.com","port":27075,"enabled":true,"region":"eu","cc":"gb","latitude":51.509865,"longitude":-0.118092,"reserved":0,"last_update":"0001-01-01T00:00:00Z","name_a2s":"Uncletopia | London | 7 | No Payload","protocol":17,"map":"cp_snakewater_final1","folder":"tf","game":"Team Fortress","app_id":440,"player_count":0,"max_players":24,"Bots":0,"server_type":"Dedicated","server_os":"Linux","password":true,"vac":true,"version":"7695204","steam_id":85568392924964314,"keywords":["cp","nocrits","nodmgspread","uncletopia"],"game_id":440,"stv_port":0,"stv_name":"","players":null},{"server_id":41,"name":"Uncletopia | London | 8 | Community","name_short":"lon-8","host":"lon-1.uk.uncletopia.com","port":27085,"enabled":true,"region":"eu","cc":"gb","latitude":51.509865,"longitude":-0.118092,"reserved":0,"last_update":"0001-01-01T00:00:00Z","name_a2s":"Uncletopia | London | 8 | Community","protocol":17,"map":"cp_dustbowl","folder":"tf","game":"Team Fortress","app_id":440,"player_count":0,"max_players":24,"Bots":0,"server_type":"Dedicated","server_os":"Linux","password":true,"vac":true,"version":"7695204","steam_id":85568392924964315,"keywords":["cp","nocrits","nodmgspread","uncletopia"],"game_id":440,"stv_port":0,"stv_name":"","players":null},{"server_id":300,"name":"Uncletopia | Montréal | 1 | All Maps","name_short":"mtl-1","host":"mtl-1.ca.uncletopia.com","port":27015,"enabled":true,"region":"us-east","cc":"ca","latitude":45.50889,"longitude":-73.56167,"reserved":0,"last_update":"0001-01-01T00:00:00Z","name_a2s":"Uncletopia | Montréal | 1 | All Maps","protocol":17,"map":"cp_dustbowl","folder":"tf","game":"Team Fortress","app_id":440,"player_count":0,"max_players":24,"Bots":0,"server_type":"Dedicated","server_os":"Linux","password":true,"vac":true,"version":"7695204","steam_id":85568392924500087,"keywords":["cp","nocrits","nodmgspread","uncletopia"],"game_id":440,"stv_port":0,"stv_name":"","players":null},{"server_id":301,"name":"Uncletopia | Montréal | 2 | All Maps","name_short":"mtl-2","host":"mtl-1.ca.uncletopia.com","port":27025,"enabled":true,"region":"us-east","cc":"ca","latitude":45.50889,"longitude":-73.56167,"reserved":0,"last_update":"0001-01-01T00:00:00Z","name_a2s":"Uncletopia | Montréal | 2 | All Maps","protocol":17,"map":"pl_snowycoast","folder":"tf","game":"Team Fortress","app_id":440,"player_count":0,"max_players":24,"Bots":0,"server_type":"Dedicated","server_os":"Linux","password":true,"vac":true,"version":"7695204","steam_id":85568392924500088,"keywords":["nocrits","nodmgspread","payload","uncletopia"],"game_id":440,"stv_port":0,"stv_name":"","players":null},{"server_id":302,"name":"Uncletopia | Montréal | 3 | All Maps","name_short":"mtl-3","host":"mtl-1.ca.uncletopia.com","port":27035,"enabled":true,"region":"us-east","cc":"ca","latitude":45.50889,"longitude":-73.56167,"reserved":0,"last_update":"0001-01-01T00:00:00Z","name_a2s":"Uncletopia | Montréal | 3 | All Maps","protocol":17,"map":"koth_viaduct","folder":"tf","game":"Team Fortress","app_id":440,"player_count":0,"max_players":24,"Bots":0,"server_type":"Dedicated","server_os":"Linux","password":true,"vac":true,"version":"7695204","steam_id":85568392924500089,"keywords":["cp","nocrits","nodmgspread","uncletopia"],"game_id":440,"stv_port":0,"stv_name":"","players":null},{"server_id":303,"name":"Uncletopia | Montréal | 4 | No Payload","name_short":"mtl-4","host":"mtl-1.ca.uncletopia.com","port":27045,"enabled":true,"region":"us-east","cc":"ca","latitude":45.50889,"longitude":-73.56167,"reserved":0,"last_update":"0001-01-01T00:00:00Z","name_a2s":"Uncletopia | Montréal | 4 | No Payload","protocol":17,"map":"cp_dustbowl","folder":"tf","game":"Team Fortress","app_id":440,"player_count":0,"max_players":24,"Bots":0,"server_type":"Dedicated","server_os":"Linux","password":true,"vac":true,"version":"7695204","steam_id":85568392924500090,"keywords":["cp","nocrits","nodmgspread","uncletopia"],"game_id":440,"stv_port":0,"stv_name":"","players":null},{"server_id":13,"name":"Uncletopia | New York City | 1 | All Maps","name_short":"nyc-1","host":"nyc-1.us.uncletopia.com","port":27015,"enabled":true,"region":"us-east","cc":"us","latitude":40.73061,"longitude":-73.93524,"reserved":0,"last_update":"0001-01-01T00:00:00Z","name_a2s":"Uncletopia | New York City | 1 | All Maps","protocol":17,"map":"cp_snakewater_final1","folder":"tf","game":"Team Fortress","app_id":440,"player_count":0,"max_players":24,"Bots":0,"server_type":"Dedicated","server_os":"Linux","password":true,"vac":true,"version":"7695204","steam_id":85568392924469993,"keywords":["cp","nocrits","nodmgspread","uncletopia"],"game_id":440,"stv_port":0,"stv_name":"","players":null},{"server_id":14,"name":"Uncletopia | New York City | 2 | All Maps","name_short":"nyc-2","host":"nyc-1.us.uncletopia.com","port":27025,"enabled":true,"region":"us-east","cc":"us","latitude":40.73061,"longitude":-73.93524,"reserved":0,"last_update":"0001-01-01T00:00:00Z","name_a2s":"Uncletopia | New York City | 2 | All Maps","protocol":17,"map":"pl_borneo","folder":"tf","game":"Team Fortress","app_id":440,"player_count":0,"max_players":24,"Bots":0,"server_type":"Dedicated","server_os":"Linux","password":true,"vac":true,"version":"7695204","steam_id":85568392924469994,"keywords":["nocrits","nodmgspread","payload","uncletopia"],"game_id":440,"stv_port":0,"stv_name":"","players":null},{"server_id":15,"name":"Uncletopia | New York City | 3 | All Maps","name_short":"nyc-3","host":"nyc-1.us.uncletopia.com","port":27035,"enabled":true,"region":"us-east","cc":"us","latitude":40.73061,"longitude":-73.93524,"reserved":0,"last_update":"0001-01-01T00:00:00Z","name_a2s":"Uncletopia | New York City | 3 | All Maps","protocol":17,"map":"pl_snowycoast","folder":"tf","game":"Team Fortress","app_id":440,"player_count":0,"max_players":24,"Bots":0,"server_type":"Dedicated","server_os":"Linux","password":true,"vac":true,"version":"7695204","steam_id":85568392924742820,"keywords":["nocrits","nodmgspread","payload","uncletopia"],"game_id":440,"stv_port":0,"stv_name":"","players":null},{"server_id":16,"name":"Uncletopia | New York City | 4 | Community","name_short":"nyc-4","host":"nyc-1.us.uncletopia.com","port":27045,"enabled":true,"region":"us-east","cc":"us","latitude":40.73061,"longitude":-73.93524,"reserved":0,"last_update":"0001-01-01T00:00:00Z","name_a2s":"Uncletopia | New York City | 4 | Community","protocol":17,"map":"pl_barnblitz","folder":"tf","game":"Team Fortress","app_id":440,"player_count":0,"max_players":24,"Bots":0,"server_type":"Dedicated","server_os":"Linux","password":true,"vac":true,"version":"7695204","steam_id":85568392924742821,"keywords":["nocrits","nodmgspread","payload","uncletopia"],"game_id":440,"stv_port":0,"stv_name":"","players":null},{"server_id":142,"name":"Uncletopia | São Paulo | 1 | All Maps","name_short":"sao-1","host":"sao-1.br.uncletopia.com","port":27015,"enabled":true,"region":"sa","cc":"br","latitude":-23.533773,"longitude":-46.62529,"reserved":0,"last_update":"0001-01-01T00:00:00Z","name_a2s":"Uncletopia | São Paulo | 1 | All Maps","protocol":17,"map":"koth_cascade","folder":"tf","game":"Team Fortress","app_id":440,"player_count":0,"max_players":24,"Bots":0,"server_type":"Dedicated","server_os":"Linux","password":true,"vac":true,"version":"7695204","steam_id":85568392924469996,"keywords":["cp","nocrits","nodmgspread","uncletopia"],"game_id":440,"stv_port":0,"stv_name":"","players":null},{"server_id":143,"name":"Uncletopia | São Paulo | 2 | All Maps","name_short":"sao-2","host":"sao-2.br.uncletopia.com","port":27015,"enabled":true,"region":"sa","cc":"br","latitude":-23.533773,"longitude":-46.62529,"reserved":0,"last_update":"0001-01-01T00:00:00Z","name_a2s":"Uncletopia | São Paulo | 2 | All Maps","protocol":17,"map":"cp_snakewater_final1","folder":"tf","game":"Team Fortress","app_id":440,"player_count":0,"max_players":24,"Bots":0,"server_type":"Dedicated","server_os":"Linux","password":true,"vac":true,"version":"7695204","steam_id":85568392924485349,"keywords":["cp","nocrits","nodmgspread","uncletopia"],"game_id":440,"stv_port":0,"stv_name":"","players":null},{"server_id":7,"name":"Uncletopia | Seattle | 1 | All Maps","name_short":"sea-1","host":"sea-1.us.uncletopia.com","port":27015,"enabled":true,"region":"us-west","cc":"us","latitude":47.608013,"longitude":-122.33517,"reserved":0,"last_update":"0001-01-01T00:00:00Z","name_a2s":"Uncletopia | Seattle | 1 | All Maps","protocol":17,"map":"koth_cascade","folder":"tf","game":"Team Fortress","app_id":440,"player_count":2,"max_players":24,"Bots":0,"server_type":"Dedicated","server_os":"Linux","password":true,"vac":true,"version":"7695204","steam_id":85568392924469997,"keywords":["cp","nocrits","nodmgspread","uncletopia"],"game_id":440,"stv_port":27016,"stv_name":"Uncletopia | Seattle | 1 | All Maps | STV","players":[{"user_id":666,"name":"retro 7","steam_id":76561198285265582,"connected_time":4425000000000,"state":"active","ping":73},{"user_id":548,"name":"Closed.","steam_id":76561198212598967,"connected_time":15399000000000,"state":"active","ping":69}]},{"server_id":119,"name":"Uncletopia | Seattle | 2 | All Maps","name_short":"sea-2","host":"sea-1.us.uncletopia.com","port":27025,"enabled":true,"region":"us-west","cc":"us","latitude":47.608013,"longitude":-122.33517,"reserved":0,"last_update":"0001-01-01T00:00:00Z","name_a2s":"Uncletopia | Seattle | 2 | All Maps","protocol":17,"map":"koth_cascade","folder":"tf","game":"Team Fortress","app_id":440,"player_count":0,"max_players":24,"Bots":0,"server_type":"Dedicated","server_os":"Linux","password":true,"vac":true,"version":"7695204","steam_id":85568392924469998,"keywords":["cp","nocrits","nodmgspread","uncletopia"],"game_id":440,"stv_port":27026,"stv_name":"Uncletopia | Seattle | 2 | All Maps | STV","players":null},{"server_id":17,"name":"Uncletopia | San Francisco | 1 | All Maps","name_short":"sfo-1","host":"sfo-1.us.uncletopia.com","port":27015,"enabled":true,"region":"us-west","cc":"us","latitude":37.77397,"longitude":-122.4313,"reserved":0,"last_update":"0001-01-01T00:00:00Z","name_a2s":"Uncletopia | San Francisco | 1 | All Maps","protocol":17,"map":"cp_process_final","folder":"tf","game":"Team Fortress","app_id":440,"player_count":23,"max_players":24,"Bots":0,"server_type":"Dedicated","server_os":"Linux","password":true,"vac":true,"version":"7695204","steam_id":85568392924469999,"keywords":["cp","nocrits","nodmgspread","uncletopia"],"game_id":440,"stv_port":27016,"stv_name":"Uncletopia | San Francisco | 1 | All Maps | STV","players":[{"user_id":495,"name":"pcplace","steam_id":76561198097987387,"connected_time":1398000000000,"state":"active","ping":59},{"user_id":496,"name":"Booger Brother","steam_id":76561198352111586,"connected_time":1292000000000,"state":"active","ping":96},{"user_id":501,"name":"Shmurda","steam_id":76561198284566282,"connected_time":727000000000,"state":"active","ping":63},{"user_id":502,"name":"amagicowl","steam_id":76561199060487814,"connected_time":725000000000,"state":"active","ping":77},{"user_id":468,"name":"Flyingcat9000","steam_id":76561198179561797,"connected_time":2819000000000,"state":"active","ping":45},{"user_id":470,"name":"King Klobber","steam_id":76561198091056403,"connected_time":2721000000000,"state":"active","ping":39},{"user_id":492,"name":"Jones","steam_id":76561198046037216,"connected_time":1550000000000,"state":"active","ping":77},{"user_id":503,"name":"40mike","steam_id":76561198169023104,"connected_time":707000000000,"state":"active","ping":55},{"user_id":437,"name":"Dr_Minty","steam_id":76561199043644449,"connected_time":4019000000000,"state":"active","ping":58},{"user_id":504,"name":"zzzeeeettttttaaaa","steam_id":76561198143209841,"connected_time":703000000000,"state":"active","ping":74},{"user_id":499,"name":"Bubbamanme","steam_id":76561198119778504,"connected_time":1197000000000,"state":"active","ping":70},{"user_id":515,"name":"TheOneTrueDev","steam_id":76561198107400823,"connected_time":78000000000,"state":"active","ping":93},{"user_id":506,"name":"Dad Rock Deluxe","steam_id":76561198051224819,"connected_time":503000000000,"state":"active","ping":85},{"user_id":507,"name":"Bagaboned","steam_id":76561198043761335,"connected_time":502000000000,"state":"active","ping":64},{"user_id":500,"name":"dys","steam_id":76561198076067588,"connected_time":985000000000,"state":"active","ping":160},{"user_id":393,"name":"super autism girl","steam_id":76561198008908085,"connected_time":7643000000000,"state":"active","ping":41},{"user_id":508,"name":"vgMaster749","steam_id":76561198205048900,"connected_time":492000000000,"state":"active","ping":95},{"user_id":509,"name":"Faded","steam_id":76561198117608110,"connected_time":448000000000,"state":"active","ping":63},{"user_id":510,"name":"ramato#SaveTf2","steam_id":76561198028703754,"connected_time":422000000000,"state":"active","ping":107},{"user_id":489,"name":"Quietsharp","steam_id":76561198277968438,"connected_time":1724000000000,"state":"active","ping":60},{"user_id":511,"name":"Mrluigi1111111","steam_id":76561198284677119,"connected_time":375000000000,"state":"active","ping":117},{"user_id":512,"name":"Jawnathan","steam_id":76561198158453231,"connected_time":172000000000,"state":"active","ping":46},{"user_id":514,"name":"$k8DEMON666","steam_id":76561198212993755,"connected_time":132000000000,"state":"active","ping":81}]},{"server_id":18,"name":"Uncletopia | San Francisco | 2 | All Maps","name_short":"sfo-2","host":"sfo-1.us.uncletopia.com","port":27025,"enabled":true,"region":"us-west","cc":"us","latitude":37.77397,"longitude":-122.4313,"reserved":0,"last_update":"0001-01-01T00:00:00Z","name_a2s":"Uncletopia | San Francisco | 2 | All Maps","protocol":17,"map":"cp_sunshine","folder":"tf","game":"Team Fortress","app_id":440,"player_count":0,"max_players":24,"Bots":0,"server_type":"Dedicated","server_os":"Linux","password":true,"vac":true,"version":"7695204","steam_id":85568392924470000,"keywords":["cp","nocrits","nodmgspread","uncletopia"],"game_id":440,"stv_port":27026,"stv_name":"Uncletopia | San Francisco | 2 | All Maps | STV","players":null},{"server_id":19,"name":"Uncletopia | San Francisco | 3 | No Payload","name_short":"sfo-3","host":"sfo-1.us.uncletopia.com","port":27035,"enabled":true,"region":"us-west","cc":"us","latitude":37.77397,"longitude":-122.4313,"reserved":0,"last_update":"0001-01-01T00:00:00Z","name_a2s":"Uncletopia | San Francisco | 3 | No Payload","protocol":17,"map":"cp_freight_final1","folder":"tf","game":"Team Fortress","app_id":440,"player_count":0,"max_players":24,"Bots":0,"server_type":"Dedicated","server_os":"Linux","password":true,"vac":true,"version":"7695204","steam_id":85568392924742824,"keywords":["cp","nocrits","nodmgspread","uncletopia"],"game_id":440,"stv_port":27036,"stv_name":"Uncletopia | San Francisco | 3 | No Payload | STV","players":null},{"server_id":20,"name":"Uncletopia | San Francisco | 4 | Community","name_short":"sfo-4","host":"sfo-1.us.uncletopia.com","port":27045,"enabled":true,"region":"us-west","cc":"us","latitude":37.77397,"longitude":-122.4313,"reserved":0,"last_update":"0001-01-01T00:00:00Z","name_a2s":"Uncletopia | San Francisco | 4 | Community","protocol":17,"map":"koth_highpass","folder":"tf","game":"Team Fortress","app_id":440,"player_count":0,"max_players":24,"Bots":0,"server_type":"Dedicated","server_os":"Linux","password":true,"vac":true,"version":"7695204","steam_id":85568392924742826,"keywords":["cp","nocrits","nodmgspread","uncletopia"],"game_id":440,"stv_port":0,"stv_name":"","players":null},{"server_id":141,"name":"Uncletopia | Sydney | 1 | All Maps","name_short":"syd-1","host":"syd-1.au.uncletopia.com","port":27015,"enabled":true,"region":"au","cc":"au","latitude":-33.865143,"longitude":151.2099,"reserved":0,"last_update":"0001-01-01T00:00:00Z","name_a2s":"Uncletopia | Sydney | 1 | All Maps","protocol":17,"map":"pl_upward","folder":"tf","game":"Team Fortress","app_id":440,"player_count":24,"max_players":24,"Bots":0,"server_type":"Dedicated","server_os":"Linux","password":true,"vac":true,"version":"7695204","steam_id":85568392924470001,"keywords":["nocrits","nodmgspread","payload","uncletopia"],"game_id":440,"stv_port":27016,"stv_name":"Uncletopia | Sydney | 1 | All Maps | STV","players":[{"user_id":629,"name":"MrSnifma","steam_id":76561198128695488,"connected_time":4425000000000,"state":"active","ping":59},{"user_id":659,"name":"lunaaa ♡♡♡","steam_id":76561199009912335,"connected_time":2767000000000,"state":"active","ping":52},{"user_id":671,"name":"EpicGuy4227","steam_id":76561198094132328,"connected_time":2408000000000,"state":"active","ping":52},{"user_id":673,"name":"J''''","steam_id":76561198047565137,"connected_time":2330000000000,"state":"active","ping":58},{"user_id":689,"name":"gave my love to a shooting star","steam_id":76561197990537324,"connected_time":280000000000,"state":"active","ping":105},{"user_id":630,"name":"pooarse","steam_id":76561198217959591,"connected_time":4422000000000,"state":"active","ping":59},{"user_id":667,"name":"Pew pew pew!","steam_id":76561198004120277,"connected_time":2595000000000,"state":"active","ping":43},{"user_id":688,"name":"Henry VI","steam_id":76561198024262242,"connected_time":977000000000,"state":"active","ping":76},{"user_id":632,"name":"krandlez` (Any/All)","steam_id":76561198044839726,"connected_time":4378000000000,"state":"active","ping":39},{"user_id":662,"name":"bweegus wagoogus glumbus","steam_id":76561198063481761,"connected_time":2735000000000,"state":"active","ping":44},{"user_id":675,"name":"tex","steam_id":76561198364851711,"connected_time":2153000000000,"state":"active","ping":73},{"user_id":681,"name":"Sir Samos","steam_id":76561198304366109,"connected_time":1318000000000,"state":"active","ping":73},{"user_id":684,"name":"CrinkleCutChimp","steam_id":76561198882283954,"connected_time":1272000000000,"state":"active","ping":75},{"user_id":683,"name":"hijik","steam_id":76561198359069277,"connected_time":1287000000000,"state":"active","ping":95},{"user_id":682,"name":"Straw Millionaire","steam_id":76561198140318336,"connected_time":1296000000000,"state":"active","ping":45},{"user_id":692,"name":"doritopig","steam_id":76561198169930194,"connected_time":36000000000,"state":"active","ping":63},{"user_id":577,"name":"Rogue (Anti-fire)","steam_id":76561198055404248,"connected_time":8227000000000,"state":"active","ping":50},{"user_id":687,"name":"TheDoctor30","steam_id":76561198433686866,"connected_time":1042000000000,"state":"active","ping":95},{"user_id":690,"name":"Tweet","steam_id":76561198268795538,"connected_time":255000000000,"state":"active","ping":44},{"user_id":663,"name":"york","steam_id":76561197996817216,"connected_time":2734000000000,"state":"active","ping":45},{"user_id":669,"name":"society for no more society","steam_id":76561198058459622,"connected_time":2550000000000,"state":"active","ping":63},{"user_id":654,"name":"iMustDestroyAll","steam_id":76561198108592373,"connected_time":3271000000000,"state":"active","ping":46},{"user_id":670,"name":"Amber","steam_id":76561198348492407,"connected_time":2545000000000,"state":"active","ping":60},{"user_id":665,"name":"Selling Anti-Matter for $543","steam_id":76561198070708382,"connected_time":2707000000000,"state":"active","ping":80}]},{"server_id":123,"name":"Uncletopia | Sydney | 2 | All Maps","name_short":"syd-2","host":"syd-1.au.uncletopia.com","port":27025,"enabled":true,"region":"au","cc":"au","latitude":-33.865143,"longitude":151.2099,"reserved":0,"last_update":"0001-01-01T00:00:00Z","name_a2s":"Uncletopia | Sydney | 2 | All Maps","protocol":17,"map":"pl_borneo","folder":"tf","game":"Team Fortress","app_id":440,"player_count":22,"max_players":24,"Bots":0,"server_type":"Dedicated","server_os":"Linux","password":true,"vac":true,"version":"7695204","steam_id":85568392924470002,"keywords":["nocrits","nodmgspread","payload","uncletopia"],"game_id":440,"stv_port":27026,"stv_name":"Uncletopia | Sydney | 2 | All Maps | STV","players":[{"user_id":262,"name":"kada","steam_id":76561199001188678,"connected_time":794000000000,"state":"active","ping":43},{"user_id":221,"name":"DelHasMangoes/yt","steam_id":76561198047183797,"connected_time":3729000000000,"state":"active","ping":83},{"user_id":263,"name":"TooLongName","steam_id":76561198082203205,"connected_time":679000000000,"state":"active","ping":53},{"user_id":249,"name":"Fatal1ty","steam_id":76561198245508458,"connected_time":2148000000000,"state":"active","ping":60},{"user_id":223,"name":"Dr Rags","steam_id":76561198179481430,"connected_time":3570000000000,"state":"active","ping":102},{"user_id":269,"name":"Empr","steam_id":76561198024387396,"connected_time":310000000000,"state":"active","ping":95},{"user_id":240,"name":"hawk","steam_id":76561198135164277,"connected_time":2492000000000,"state":"active","ping":49},{"user_id":266,"name":"Silly Billy","steam_id":76561198389609318,"connected_time":535000000000,"state":"active","ping":53},{"user_id":267,"name":"scuba cat... my beloved","steam_id":76561198203917953,"connected_time":530000000000,"state":"active","ping":58},{"user_id":245,"name":"bill","steam_id":76561198066726621,"connected_time":2313000000000,"state":"active","ping":51},{"user_id":225,"name":"ғ𝖔х","steam_id":76561198119447960,"connected_time":3394000000000,"state":"active","ping":88},{"user_id":229,"name":"Cute Jolyne Rat","steam_id":76561198299331658,"connected_time":2933000000000,"state":"active","ping":52},{"user_id":259,"name":"Comedy Mode","steam_id":76561198293250088,"connected_time":1349000000000,"state":"active","ping":102},{"user_id":235,"name":"spodrmen","steam_id":76561198119388600,"connected_time":2637000000000,"state":"active","ping":48},{"user_id":246,"name":"Im too cooked","steam_id":76561199006814024,"connected_time":2290000000000,"state":"active","ping":64},{"user_id":268,"name":"Madison Ivy","steam_id":76561198074674290,"connected_time":482000000000,"state":"active","ping":59},{"user_id":128,"name":"Charm","steam_id":76561198028891054,"connected_time":10454000000000,"state":"active","ping":60},{"user_id":228,"name":"Derrick","steam_id":76561198368959074,"connected_time":3014000000000,"state":"active","ping":58},{"user_id":250,"name":"Salty Dog","steam_id":76561198038713921,"connected_time":2140000000000,"state":"active","ping":59},{"user_id":248,"name":"Xristaveli","steam_id":76561198075149906,"connected_time":2250000000000,"state":"active","ping":60},{"user_id":234,"name":"Turb Durgler","steam_id":76561198055358448,"connected_time":2809000000000,"state":"active","ping":51},{"user_id":271,"name":"cimpact","steam_id":76561198452258917,"connected_time":155000000000,"state":"active","ping":165}]},{"server_id":395,"name":"Uncletopia | Sydney | 3 | All Maps","name_short":"syd-3","host":"syd-1.au.uncletopia.com","port":27035,"enabled":true,"region":"au","cc":"au","latitude":-33.865143,"longitude":151.2099,"reserved":0,"last_update":"0001-01-01T00:00:00Z","name_a2s":"Uncletopia | Sydney | 3 | All Maps","protocol":17,"map":"pl_thundermountain","folder":"tf","game":"Team Fortress","app_id":440,"player_count":13,"max_players":24,"Bots":0,"server_type":"Dedicated","server_os":"Linux","password":true,"vac":true,"version":"7695204","steam_id":85568392925194467,"keywords":["nocrits","nodmgspread","payload","uncletopia"],"game_id":440,"stv_port":27036,"stv_name":"Uncletopia | Sydney | 3 | All Maps | STV","players":[{"user_id":306,"name":"Scetaril","steam_id":76561199232961168,"connected_time":2261000000000,"state":"active","ping":52},{"user_id":307,"name":"floop flub","steam_id":76561198418968979,"connected_time":1300000000000,"state":"active","ping":106},{"user_id":308,"name":"Sad man","steam_id":76561199216905000,"connected_time":1028000000000,"state":"active","ping":51},{"user_id":262,"name":"Eduardo","steam_id":76561198110238382,"connected_time":5628000000000,"state":"active","ping":45},{"user_id":309,"name":"Interasyndicate","steam_id":76561199203474203,"connected_time":915000000000,"state":"active","ping":201},{"user_id":310,"name":"Kvistor","steam_id":76561198011396075,"connected_time":883000000000,"state":"active","ping":59},{"user_id":315,"name":"Dingo","steam_id":76561198315774295,"connected_time":523000000000,"state":"active","ping":64},{"user_id":317,"name":"Corporal_Shephard","steam_id":76561199175400818,"connected_time":58000000000,"state":"active","ping":191},{"user_id":313,"name":"Chrstin","steam_id":76561198011594220,"connected_time":800000000000,"state":"active","ping":49},{"user_id":263,"name":"Juan Bolsa","steam_id":76561198225848740,"connected_time":5595000000000,"state":"active","ping":97},{"user_id":316,"name":"SilverPenguin","steam_id":76561199025744213,"connected_time":304000000000,"state":"active","ping":98},{"user_id":318,"name":"Soggy Con-Guog","steam_id":76561198115327706,"connected_time":22000000000,"state":"active","ping":53},{"user_id":255,"name":"witchita!","steam_id":76561198951178401,"connected_time":5923000000000,"state":"active","ping":68}]},{"server_id":396,"name":"Uncletopia | Sydney | 4 | All Maps","name_short":"syd-4","host":"syd-1.au.uncletopia.com","port":27045,"enabled":true,"region":"au","cc":"au","latitude":-33.865143,"longitude":151.2099,"reserved":0,"last_update":"0001-01-01T00:00:00Z","name_a2s":"Uncletopia | Sydney | 4 | All Maps","protocol":17,"map":"koth_highpass","folder":"tf","game":"Team Fortress","app_id":440,"player_count":0,"max_players":24,"Bots":0,"server_type":"Dedicated","server_os":"Linux","password":true,"vac":true,"version":"7695204","steam_id":85568392925397958,"keywords":["cp","nocrits","nodmgspread","uncletopia"],"game_id":440,"stv_port":27046,"stv_name":"Uncletopia | Sydney | 4 | All Maps | STV","players":null},{"server_id":58,"name":"Uncletopia | Sydney | 5 | No Payload","name_short":"syd-5","host":"syd-1.au.uncletopia.com","port":27055,"enabled":true,"region":"au","cc":"au","latitude":-33.865143,"longitude":151.2099,"reserved":0,"last_update":"0001-01-01T00:00:00Z","name_a2s":"Uncletopia | Sydney | 5 | No Payload","protocol":17,"map":"koth_viaduct","folder":"tf","game":"Team Fortress","app_id":440,"player_count":0,"max_players":24,"Bots":0,"server_type":"Dedicated","server_os":"Linux","password":true,"vac":true,"version":"7695204","steam_id":85568392925397959,"keywords":["cp","nocrits","nodmgspread","uncletopia"],"game_id":440,"stv_port":0,"stv_name":"","players":null},{"server_id":59,"name":"Uncletopia | Sydney | 6 | Community","name_short":"syd-6","host":"syd-1.au.uncletopia.com","port":27065,"enabled":true,"region":"au","cc":"au","latitude":-33.865143,"longitude":151.2099,"reserved":0,"last_update":"0001-01-01T00:00:00Z","name_a2s":"Uncletopia | Sydney | 6 | Community","protocol":17,"map":"workshop/koth_bagel_rc5.ugc2514036946","folder":"tf","game":"Team Fortress","app_id":440,"player_count":0,"max_players":24,"Bots":0,"server_type":"Dedicated","server_os":"Linux","password":true,"vac":true,"version":"7695204","steam_id":85568392925397960,"keywords":["cp","nocrits","nodmgspread","uncletopia"],"game_id":440,"stv_port":27066,"stv_name":"Uncletopia | Sydney | 6 | Community | STV","players":null},{"server_id":49,"name":"Uncletopia | Warsaw | 1 | All Maps","name_short":"waw-1","host":"waw-1.pl.uncletopia.com","port":27015,"enabled":true,"region":"eu","cc":"pl","latitude":52.2297,"longitude":21.017532,"reserved":0,"last_update":"0001-01-01T00:00:00Z","name_a2s":"Uncletopia | Warsaw | 1 | All Maps","protocol":17,"map":"pl_frontier_final","folder":"tf","game":"Team Fortress","app_id":440,"player_count":0,"max_players":24,"Bots":0,"server_type":"Dedicated","server_os":"Linux","password":true,"vac":true,"version":"7695204","steam_id":85568392925397850,"keywords":["nocrits","nodmgspread","payload","uncletopia"],"game_id":440,"stv_port":0,"stv_name":"","players":null},{"server_id":50,"name":"Uncletopia | Warsaw | 2 | All Maps","name_short":"waw-2","host":"waw-1.pl.uncletopia.com","port":27025,"enabled":true,"region":"eu","cc":"pl","latitude":52.2297,"longitude":21.017532,"reserved":0,"last_update":"0001-01-01T00:00:00Z","name_a2s":"Uncletopia | Warsaw | 2 | All Maps","protocol":17,"map":"cp_process_final","folder":"tf","game":"Team Fortress","app_id":440,"player_count":0,"max_players":24,"Bots":0,"server_type":"Dedicated","server_os":"Linux","password":true,"vac":true,"version":"7695204","steam_id":85568392925397851,"keywords":["cp","nocrits","nodmgspread","uncletopia"],"game_id":440,"stv_port":27026,"stv_name":"Uncletopia | Warsaw | 2 | All Maps | STV","players":null},{"server_id":51,"name":"Uncletopia | Warsaw | 3 | All Maps","name_short":"waw-3","host":"waw-1.pl.uncletopia.com","port":27035,"enabled":true,"region":"eu","cc":"pl","latitude":52.2297,"longitude":21.017532,"reserved":0,"last_update":"0001-01-01T00:00:00Z","name_a2s":"Uncletopia | Warsaw | 3 | All Maps","protocol":17,"map":"pl_barnblitz","folder":"tf","game":"Team Fortress","app_id":440,"player_count":0,"max_players":24,"Bots":0,"server_type":"Dedicated","server_os":"Linux","password":true,"vac":true,"version":"7695204","steam_id":85568392925397852,"keywords":["nocrits","nodmgspread","payload","uncletopia"],"game_id":440,"stv_port":0,"stv_name":"","players":null},{"server_id":52,"name":"Uncletopia | Warsaw | 4 | All Maps","name_short":"waw-4","host":"waw-1.pl.uncletopia.com","port":27045,"enabled":true,"region":"eu","cc":"pl","latitude":52.2297,"longitude":21.017532,"reserved":0,"last_update":"0001-01-01T00:00:00Z","name_a2s":"Uncletopia | Warsaw | 4 | All Maps","protocol":17,"map":"cp_altitude","folder":"tf","game":"Team Fortress","app_id":440,"player_count":0,"max_players":24,"Bots":0,"server_type":"Dedicated","server_os":"Linux","password":true,"vac":true,"version":"7695204","steam_id":85568392925397853,"keywords":["cp","nocrits","nodmgspread","uncletopia"],"game_id":440,"stv_port":0,"stv_name":"","players":null},{"server_id":53,"name":"Uncletopia | Warsaw | 5 | No Payload","name_short":"waw-5","host":"waw-1.pl.uncletopia.com","port":27055,"enabled":true,"region":"eu","cc":"pl","latitude":52.2297,"longitude":21.017532,"reserved":0,"last_update":"0001-01-01T00:00:00Z","name_a2s":"Uncletopia | Warsaw | 5 | No Payload","protocol":17,"map":"koth_suijin","folder":"tf","game":"Team Fortress","app_id":440,"player_count":6,"max_players":24,"Bots":0,"server_type":"Dedicated","server_os":"Linux","password":true,"vac":true,"version":"7695204","steam_id":85568392925397854,"keywords":["cp","nocrits","nodmgspread","uncletopia"],"game_id":440,"stv_port":27056,"stv_name":"Uncletopia | Warsaw | 5 | No Payload | STV","players":[{"user_id":10,"name":"ArkhamMaster","steam_id":76561198268364051,"connected_time":727000000000,"state":"active","ping":78},{"user_id":16,"name":"Boyka_32","steam_id":76561199247580780,"connected_time":146000000000,"state":"active","ping":96},{"user_id":9,"name":"PerskuleBenener","steam_id":76561198156899375,"connected_time":1396000000000,"state":"active","ping":106},{"user_id":12,"name":"TSx* Osa__PL","steam_id":76561198027016799,"connected_time":627000000000,"state":"active","ping":45},{"user_id":13,"name":"TSx* Naxer","steam_id":76561198011986779,"connected_time":586000000000,"state":"active","ping":45},{"user_id":14,"name":"Pan W","steam_id":76561198384111099,"connected_time":453000000000,"state":"active","ping":44}]},{"server_id":54,"name":"Uncletopia | Warsaw | 6 | Community","name_short":"waw-6","host":"waw-1.pl.uncletopia.com","port":27065,"enabled":true,"region":"eu","cc":"pl","latitude":52.2297,"longitude":21.017532,"reserved":0,"last_update":"0001-01-01T00:00:00Z","name_a2s":"Uncletopia | Warsaw | 6 | Community","protocol":17,"map":"pl_barnblitz","folder":"tf","game":"Team Fortress","app_id":440,"player_count":0,"max_players":24,"Bots":0,"server_type":"Dedicated","server_os":"Linux","password":true,"vac":true,"version":"7695204","steam_id":85568392925397856,"keywords":["nocrits","nodmgspread","payload","uncletopia"],"game_id":440,"stv_port":0,"stv_name":"","players":null}]}