{"status":true,"message":"","result":[{"server_id":2,"name":"Uncletopia | Chicago | 1 | All Maps","name_short":"chi-1","host":"chi-1.us.uncletopia.com","port":27015,"enabled":true,"region":"us-central","cc":"us","latitude":41.881832,"longitude":-87.62318,"reserved":0,"last_update":"0001-01-01T00:00:00Z","name_a2s":"Uncletopia | Chicago | 1 | All Maps","protocol":17,"map":"koth_lakeside_final","folder":"tf","game":"Team Fortress","app_id":440,"player_count":0,"max_players":24,"Bots":0,"server_type":"Dedicated","server_os":"Linux","password":true,"vac":true,"version":"7932396","steam_id":85568392924469984,"keywords":["cp","nocrits","nodmgspread","uncletopia"],"game_id":440,"stv_port":27016,"stv_name":"Uncletopia | Chicago | 1 | All Maps | STV","players":null},{"server_id":106,"name":"Uncletopia | Chicago | 2 | All Maps","name_short":"chi-2","host":"chi-1.us.uncletopia.com","port":27025,"enabled":true,"region":"us-central","cc":"us","latitude":41.881832,"longitude":-87.62318,"reserved":0,"last_update":"0001-01-01T00:00:00Z","name_a2s":"Uncletopia | Chicago | 2 | All Maps","protocol":17,"map":"pl_frontier_final","folder":"tf","game":"Team Fortress","app_id":440,"player_count":24,"max_players":24,"Bots":0,"server_type":"Dedicated","server_os":"Linux","password":true,"vac":true,"version":"7932396","steam_id":85568392924469985,"keywords":["nocrits","nodmgspread","payload","uncletopia"],"game_id":440,"stv_port":27026,"stv_name":"Uncletopia | Chicago | 2 | All Maps | STV","players":[{"user_id":329,"name":"Banned Worthless Specimen","steam_id":76561198117206414,"connected_time":463000000000,"state":"active","ping":74},{"user_id":322,"name":"Waterphone","steam_id":76561199143331249,"connected_time":792000000000,"state":"active","ping":174},{"user_id":313,"name":"MyTeamIsAzz","steam_id":76561198241921220,"connected_time":1294000000000,"state":"active","ping":91},{"user_id":323,"name":"A1_Sauce","steam_id":76561199224566942,"connected_time":766000000000,"state":"active","ping":68},{"user_id":304,"name":"pong_","steam_id":76561198166982558,"connected_time":1948000000000,"state":"active","ping":84},{"user_id":265,"name":"Zanartan","steam_id":76561198050528902,"connected_time":4669000000000,"state":"active","ping":180},{"user_id":317,"name":"Craig Isonychia","steam_id":76561198272013678,"connected_time":1250000000000,"state":"active","ping":75},{"user_id":324,"name":"TheKees301","steam_id":76561198827506371,"connected_time":736000000000,"state":"active","ping":169},{"user_id":267,"name":"blazzeh","steam_id":76561198053407069,"connected_time":4642000000000,"state":"active","ping":119},{"user_id":278,"name":"William Wallace","steam_id":76561199343316814,"connected_time":3969000000000,"state":"active","ping":75},{"user_id":290,"name":"MrCreepypastaa","steam_id":76561198303726896,"connected_time":3195000000000,"state":"active","ping":117},{"user_id":298,"name":"Boot Mcstink","steam_id":76561199226873917,"connected_time":2855000000000,"state":"active","ping":85},{"user_id":331,"name":"a table","steam_id":76561198158461279,"connected_time":143000000000,"state":"active","ping":62},{"user_id":310,"name":"TheSnipersHat","steam_id":76561198057684066,"connected_time":1370000000000,"state":"active","ping":54},{"user_id":320,"name":"viagra addict","steam_id":76561198017705248,"connected_time":882000000000,"state":"active","ping":46},{"user_id":295,"name":"NotAName","steam_id":76561198192584098,"connected_time":2916000000000,"state":"active","ping":104},{"user_id":306,"name":"Xeno808","steam_id":76561198103758081,"connected_time":1620000000000,"state":"active","ping":59},{"user_id":319,"name":"Violet42","steam_id":76561198072927887,"connected_time":895000000000,"state":"active","ping":64},{"user_id":291,"name":"Villain_7","steam_id":76561198985858094,"connected_time":3173000000000,"state":"active","ping":66},{"user_id":315,"name":"LerN","steam_id":76561198083463877,"connected_time":1283000000000,"state":"active","ping":59},{"user_id":301,"name":"uncle grandpa gaming","steam_id":76561198063024859,"connected_time":2695000000000,"state":"active","ping":81},{"user_id":299,"name":"melvinsaurus56430","steam_id":76561198170276601,"connected_time":2842000000000,"state":"active","ping":90},{"user_id":300,"name":"golebdoo","steam_id":76561198237496978,"connected_time":2835000000000,"state":"active","ping":102},{"user_id":303,"name":"FenderBender","steam_id":76561198106379456,"connected_time":1968000000000,"state":"active","ping":114}]},{"server_id":402,"name":"Uncletopia | Chicago | 3 | All Maps","name_short":"chi-3","host":"chi-1.us.uncletopia.com","port":27035,"enabled":true,"region":"us-central","cc":"us","latitude":41.881832,"longitude":-87.62318,"reserved":0,"last_update":"0001-01-01T00:00:00Z","name_a2s":"Uncletopia | Chicago | 3 | All Maps","protocol":17,"map":"pl_badwater","folder":"tf","game":"Team Fortress","app_id":440,"player_count":0,"max_players":24,"Bots":0,"server_type":"Dedicated","server_os":"Linux","password":true,"vac":true,"version":"7932396","steam_id":85568392924515191,"keywords":["nocrits","nodmgspread","payload","uncletopia"],"game_id":440,"stv_port":27036,"stv_name":"Uncletopia | Chicago | 3 | All Maps | STV","players":null},{"server_id":403,"name":"Uncletopia | Chicago | 4 | All Maps","name_short":"chi-4","host":"chi-1.us.uncletopia.com","port":27045,"enabled":true,"region":"us-central","cc":"us","latitude":41.881832,"longitude":-87.62318,"reserved":0,"last_update":"0001-01-01T00:00:00Z","name_a2s":"Uncletopia | Chicago | 4 | All Maps","protocol":17,"map":"pl_snowycoast","folder":"tf","game":"Team Fortress","app_id":440,"player_count":0,"max_players":24,"Bots":0,"server_type":"Dedicated","server_os":"Linux","password":true,"vac":true,"version":"7932396","steam_id":85568392924515193,"keywords":["nocrits","nodmgspread","payload","uncletopia"],"game_id":440,"stv_port":27046,"stv_name":"Uncletopia | Chicago | 4 | All Maps | STV","players":null},{"server_id":36,"name":"Uncletopia | Chicago | 5 | All Maps","name_short":"chi-5","host":"chi-2.us.uncletopia.com","port":27015,"enabled":true,"region":"us-central","cc":"us","latitude":41.881832,"longitude":-87.62318,"reserved":0,"last_update":"0001-01-01T00:00:00Z","name_a2s":"Uncletopia | Chicago | 5 | All Maps","protocol":17,"map":"cp_snakewater_final1","folder":"tf","game":"Team Fortress","app_id":440,"player_count":24,"max_players":24,"Bots":0,"server_type":"Dedicated","server_os":"Linux","password":true,"vac":true,"version":"7932396","steam_id":85568392924866362,"keywords":["cp","nocrits","nodmgspread","uncletopia"],"game_id":440,"stv_port":27016,"stv_name":"Uncletopia | Chicago | 5 | All Maps | STV","players":[{"user_id":336,"name":"Decrepit Bones","steam_id":76561198053046161,"connected_time":2232000000000,"state":"active","ping":61},{"user_id":355,"name":"Walkiing","steam_id":76561198074473413,"connected_time":397000000000,"state":"active","ping":38},{"user_id":356,"name":"Young-OG","steam_id":76561198058800479,"connected_time":383000000000,"state":"active","ping":70},{"user_id":327,"name":"gretchling","steam_id":76561198046111695,"connected_time":3426000000000,"state":"active","ping":61},{"user_id":349,"name":"forg","steam_id":76561199160422863,"connected_time":707000000000,"state":"active","ping":114},{"user_id":318,"name":"Ziath","steam_id":76561198094009164,"connected_time":4333000000000,"state":"active","ping":60},{"user_id":357,"name":"stall","steam_id":76561199152861652,"connected_time":256000000000,"state":"active","ping":59},{"user_id":359,"name":"heck","steam_id":76561198308547958,"connected_time":138000000000,"state":"active","ping":60},{"user_id":337,"name":"nullptr","steam_id":76561198111790388,"connected_time":2209000000000,"state":"active","ping":89},{"user_id":342,"name":"FROYO Ding Dong","steam_id":76561198379421700,"connected_time":1307000000000,"state":"active","ping":71},{"user_id":300,"name":"S–°–ê–¢–¢–ïR","steam_id":76561198405168492,"connected_time":5707000000000,"state":"active","ping":81},{"user_id":321,"name":"beans","steam_id":76561198074275991,"connected_time":3898000000000,"state":"active","ping":50},{"user_id":345,"name":"Ji-man Choi","steam_id":76561198107899101,"connected_time":785000000000,"state":"active","ping":74},{"user_id":317,"name":"Jousty","steam_id":76561199162677853,"connected_time":4658000000000,"state":"active","ping":92},{"user_id":339,"name":"Malevo","steam_id":76561198148606522,"connected_time":2171000000000,"state":"active","ping":81},{"user_id":291,"name":"C Papi","steam_id":76561198027779564,"connected_time":6428000000000,"state":"active","ping":56},{"user_id":341,"name":"AGL Lr Nappa","steam_id":76561198313627753,"connected_time":1827000000000,"state":"active","ping":84},{"user_id":334,"name":"shadowking","steam_id":76561199284698401,"connected_time":2584000000000,"state":"active","ping":99},{"user_id":352,"name":"Simps in the Crib","steam_id":76561198830931110,"connected_time":641000000000,"state":"active","ping":62},{"user_id":335,"name":"pest","steam_id":76561198052571208,"connected_time":2561000000000,"state":"active","ping":70},{"user_id":354,"name":"BonesJohnson","steam_id":76561198799169951,"connected_time":444000000000,"state":"active","ping":146},{"user_id":320,"name":"daemon","steam_id":76561198001541433,"connected_time":4224000000000,"state":"active","ping":61},{"user_id":353,"name":"BigMommaGart","steam_id":76561198280306683,"connected_time":638000000000,"state":"active","ping":76},{"user_id":344,"name":"walrus","steam_id":76561198057853319,"connected_time":797000000000,"state":"active","ping":75}]},{"server_id":37,"name":"Uncletopia | Chicago | 6 | All Maps","name_short":"chi-6","host":"chi-2.us.uncletopia.com","port":27025,"enabled":true,"region":"us-central","cc":"us","latitude":41.881832,"longitude":-87.62318,"reserved":0,"last_update":"0001-01-01T00:00:00Z","name_a2s":"Uncletopia | Chicago | 6 | All Maps","protocol":17,"map":"koth_viaduct","folder":"tf","game":"Team Fortress","app_id":440,"player_count":0,"max_players":24,"Bots":0,"server_type":"Dedicated","server_os":"Linux","password":true,"vac":true,"version":"7932396","steam_id":85568392924866363,"keywords":["cp","nocrits","nodmgspread","uncletopia"],"game_id":440,"stv_port":27026,"stv_name":"Uncletopia | Chicago | 6 | All Maps | STV","players":null},{"server_id":38,"name":"Uncletopia | Chicago | 7 | Stopwatch Beta","name_short":"chi-7","host":"chi-2.us.uncletopia.com","port":27035,"enabled":true,"region":"us-central","cc":"us","latitude":41.881832,"longitude":-87.62318,"reserved":0,"last_update":"0001-01-01T00:00:00Z","name_a2s":"Uncletopia | Chicago | 7 | Stopwatch Beta","protocol":17,"map":"pl_borneo","folder":"tf","game":"Team Fortress","app_id":440,"player_count":0,"max_players":24,"Bots":0,"server_type":"Dedicated","server_os":"Linux","password":true,"vac":true,"version":"7932396","steam_id":85568392924866364,"keywords":["nocrits","nodmgspread","payload","uncletopia"],"game_id":440,"stv_port":27036,"stv_name":"Uncletopia | Chicago | 7 | Stopwatch Beta | STV","players":null},{"server_id":39,"name":"Uncletopia | Chicago | 8 | Community","name_short":"chi-8","host":"chi-2.us.uncletopia.com","port":27045,"enabled":true,"region":"us-central","cc":"us","latitude":41.881832,"longitude":-87.62318,"reserved":0,"last_update":"0001-01-01T00:00:00Z","name_a2s":"Uncletopia | Chicago | 8 | Community","protocol":17,"map":"koth_viaduct","folder":"tf","game":"Team Fortress","app_id":440,"player_count":0,"max_players":24,"Bots":0,"server_type":"Dedicated","server_os":"Linux","password":true,"vac":true,"version":"7932396","steam_id":85568392924866365,"keywords":["cp","nocrits","nodmgspread","uncletopia"],"game_id":440,"stv_port":27046,"stv_name":"Uncletopia | Chicago | 8 | Community | STV","players":null},{"server_id":8,"name":"Uncletopia | Dallas | 1 | All Maps","name_short":"dal-1","host":"dal-1.us.uncletopia.com","port":27015,"enabled":true,"region":"us-central","cc":"us","latitude":32.779167,"longitude":-96.80889,"reserved":0,"last_update":"0001-01-01T00:00:00Z","name_a2s":"Uncletopia | Dallas | 1 | All Maps","protocol":17,"map":"pl_frontier_final","folder":"tf","game":"Team Fortress","app_id":440,"player_count":24,"max_players":24,"Bots":0,"server_type":"Dedicated","server_os":"Linux","password":true,"vac":true,"version":"7932396","steam_id":85568392924469986,"keywords":["nocrits","nodmgspread","payload","uncletopia"],"game_id":440,"stv_port":27016,"stv_name":"Uncletopia | Dallas | 1 | All Maps | STV","players":[{"user_id":201,"name":"gay gay homo gay","steam_id":76561198084362787,"connected_time":3108000000000,"state":"active","ping":58},{"user_id":111,"name":"Urist McDwarf","steam_id":76561198164004939,"connected_time":6112000000000,"state":"active","ping":106},{"user_id":225,"name":"Bobby Jenkins","steam_id":76561198353567634,"connected_time":2561000000000,"state":"active","ping":81},{"user_id":207,"name":"Guess__Who","steam_id":76561198347828936,"connected_time":3017000000000,"state":"active","ping":89},{"user_id":246,"name":"Earthless","steam_id":76561199244039465,"connected_time":1938000000000,"state":"active","ping":93},{"user_id":259,"name":"LucasC.exe","steam_id":76561198053666348,"connected_time":1608000000000,"state":"active","ping":89},{"user_id":229,"name":"Fuzzynut","steam_id":76561197999172302,"connected_time":2483000000000,"state":"active","ping":167},{"user_id":268,"name":"carne asada","steam_id":76561198108398751,"connected_time":1348000000000,"state":"active","ping":83},{"user_id":231,"name":"SilentNinja","steam_id":76561198033912880,"connected_time":2457000000000,"state":"active","ping":88},{"user_id":272,"name":"Fox","steam_id":76561198210081927,"connected_time":725000000000,"state":"active","ping":78},{"user_id":269,"name":"jarrettconsult","steam_id":76561198249998262,"connected_time":1331000000000,"state":"active","ping":82},{"user_id":140,"name":"comet sooicidy","steam_id":76561198025173479,"connected_time":4262000000000,"state":"active","ping":97},{"user_id":267,"name":"Fake21","steam_id":76561198282065071,"connected_time":1378000000000,"state":"active","ping":48},{"user_id":228,"name":"DSM-IVCE","steam_id":76561199438515797,"connected_time":2496000000000,"state":"active","ping":131},{"user_id":271,"name":"Toest","steam_id":76561198076061844,"connected_time":771000000000,"state":"active","ping":77},{"user_id":230,"name":"avopikus","steam_id":76561198130006157,"connected_time":2468000000000,"state":"active","ping":194},{"user_id":275,"name":"Pornelius Hubert","steam_id":76561198186128723,"connected_time":519000000000,"state":"active","ping":50},{"user_id":234,"name":"mkl","steam_id":76561197986401685,"connected_time":2414000000000,"state":"active","ping":59},{"user_id":239,"name":"oh the treachery","steam_id":76561198127851014,"connected_time":2189000000000,"state":"active","ping":47},{"user_id":261,"name":"Dreamzapp","steam_id":76561199084936632,"connected_time":1586000000000,"state":"active","ping":96},{"user_id":243,"name":"Terf slayer","steam_id":76561198319992602,"connected_time":2096000000000,"state":"active","ping":53},{"user_id":265,"name":"Gavil√°n","steam_id":76561198285212453,"connected_time":1459000000000,"state":"active","ping":76},{"user_id":206,"name":"AttackCommander","steam_id":76561198111522679,"connected_time":3042000000000,"state":"active","ping":63},{"user_id":136,"name":"AnonymouzR011","steam_id":76561198262685906,"connected_time":4321000000000,"state":"active","ping":88}]},{"server_id":108,"name":"Uncletopia | Dallas | 2 | All Maps","name_short":"dal-2","host":"dal-1.us.uncletopia.com","port":27025,"enabled":true,"region":"us-central","cc":"us","latitude":32.779167,"longitude":-96.80889,"reserved":0,"last_update":"0001-01-01T00:00:00Z","name_a2s":"Uncletopia | Dallas | 2 | All Maps","protocol":17,"map":"koth_highpass","folder":"tf","game":"Team Fortress","app_id":440,"player_count":0,"max_players":24,"Bots":0,"server_type":"Dedicated","server_os":"Linux","password":true,"vac":true,"version":"7932396","steam_id":85568392924469988,"keywords":["cp","nocrits","nodmgspread","uncletopia"],"game_id":440,"stv_port":27026,"stv_name":"Uncletopia | Dallas | 2 | All Maps | STV","players":null},{"server_id":5,"name":"Uncletopia | Frankfurt | 1 | All Maps","name_short":"frk-1","host":"frk-1.de.uncletopia.com","port":27015,"enabled":true,"region":"eu","cc":"de","latitude":50.110924,"longitude":8.682127,"reserved":0,"last_update":"0001-01-01T00:00:00Z","name_a2s":"Uncletopia | Frankfurt | 1 | All Maps","protocol":17,"map":"pl_upward","folder":"tf","game":"Team Fortress","app_id":440,"player_count":24,"max_players":24,"Bots":0,"server_type":"Dedicated","server_os":"Linux","password":true,"vac":true,"version":"7932396","steam_id":85568392924469989,"keywords":["nocrits","nodmgspread","payload","uncletopia"],"game_id":440,"stv_port":27016,"stv_name":"Uncletopia | Frankfurt | 1 | All Maps | STV","players":[{"user_id":329,"name":"sHIFTINGvORTEX","steam_id":76561198231648332,"connected_time":2296000000000,"state":"active","ping":78},{"user_id":350,"name":"Artificial.Ignorance","steam_id":76561198453090180,"connected_time":658000000000,"state":"active","ping":161},{"user_id":338,"name":"Zizman","steam_id":76561198446562910,"connected_time":1516000000000,"state":"active","ping":138},{"user_id":343,"name":"Kazim","steam_id":76561198083612735,"connected_time":1169000000000,"state":"active","ping":111},{"user_id":319,"name":"eggsy","steam_id":76561198255623584,"connected_time":2941000000000,"state":"active","ping":60},{"user_id":332,"name":"Genesis","steam_id":76561198999652040,"connected_time":2148000000000,"state":"active","ping":45},{"user_id":357,"name":"the_Qcumber","steam_id":76561199152515819,"connected_time":20000000000,"state":"active","ping":76},{"user_id":322,"name":"Hootis","steam_id":76561198047506882,"connected_time":2853000000000,"state":"active","ping":59},{"user_id":346,"name":"iniT","steam_id":76561198019883794,"connected_time":699000000000,"state":"active","ping":59},{"user_id":348,"name":"zoinks!","steam_id":76561198068645362,"connected_time":691000000000,"state":"active","ping":53},{"user_id":325,"name":"Skippy","steam_id":76561199245844181,"connected_time":2618000000000,"state":"active","ping":69},{"user_id":349,"name":"He's Back and He's Black","steam_id":76561198105443986,"connected_time":690000000000,"state":"active","ping":77},{"user_id":296,"name":"Homosapien","steam_id":76561197972035953,"connected_time":4385000000000,"state":"active","ping":58},{"user_id":323,"name":"Germanium_Ge","steam_id":76561198130561775,"connected_time":2738000000000,"state":"active","ping":54},{"user_id":355,"name":"‚ô¨ ·¥õ·¥á·¥ã…™·¥õ ‚ô¨","steam_id":76561198111704722,"connected_time":180000000000,"state":"active","ping":76},{"user_id":274,"name":"Valkyrie","steam_id":76561198998403448,"connected_time":5367000000000,"state":"active","ping":98},{"user_id":356,"name":"boneez","steam_id":76561198186800982,"connected_time":78000000000,"state":"active","ping":64},{"user_id":351,"name":"L1ght","steam_id":76561198238180422,"connected_time":658000000000,"state":"active","ping":65},{"user_id":250,"name":"Leifrü¶å","steam_id":76561198076271106,"connected_time":6273000000000,"state":"active","ping":61},{"user_id":326,"name":"Robyn","steam_id":76561198140713805,"connected_time":2453000000000,"state":"active","ping":75},{"user_id":333,"name":"Playing with new mouse (im bad)","steam_id":76561198139404261,"connected_time":2111000000000,"state":"active","ping":59},{"user_id":354,"name":"Doggo225","steam_id":76561198166707002,"connected_time":305000000000,"state":"active","ping":45},{"user_id":352,"name":"femboy sniper main","steam_id":76561198119210003,"connected_time":657000000000,"state":"active","ping":94},{"user_id":347,"name":"skill based","steam_id":76561198341178432,"connected_time":698000000000,"state":"active","ping":59}]},{"server_id":110,"name":"Uncletopia | Frankfurt | 2 | All Maps","name_short":"frk-2","host":"frk-1.de.uncletopia.com","port":27025,"enabled":true,"region":"eu","cc":"de","latitude":50.110924,"longitude":8.682127,"reserved":0,"last_update":"0001-01-01T00:00:00Z","name_a2s":"Uncletopia | Frankfurt | 2 | All Maps","protocol":17,"map":"pl_rumford_event","folder":"tf","game":"Team Fortress","app_id":440,"player_count":22,"max_players":24,"Bots":0,"server_type":"Dedicated","server_os":"Linux","password":true,"vac":true,"version":"7932396","steam_id":85568392924469990,"keywords":["nocrits","nodmgspread","payload","uncletopia"],"game_id":440,"stv_port":27026,"stv_name":"Uncletopia | Frankfurt | 2 | All Maps | STV","players":[{"user_id":245,"name":"Mischail","steam_id":76561198016127010,"connected_time":615000000000,"state":"active","ping":64},{"user_id":240,"name":"Tea","steam_id":76561198799243030,"connected_time":1043000000000,"state":"active","ping":83},{"user_id":248,"name":"not a nihilist","steam_id":76561198004340466,"connected_time":203000000000,"state":"active","ping":52},{"user_id":194,"name":"TheEventGuy","steam_id":76561197972797744,"connected_time":4304000000000,"state":"active","ping":65},{"user_id":247,"name":"Mr.Schnittlauch","steam_id":76561198295868113,"connected_time":457000000000,"state":"active","ping":55},{"user_id":250,"name":"zinzyk","steam_id":76561198128011822,"connected_time":129000000000,"state":"active","ping":53},{"user_id":253,"name":"hot guy","steam_id":76561198083063005,"connected_time":50000000000,"state":"active","ping":49},{"user_id":218,"name":"Peen","steam_id":76561198124862665,"connected_time":2321000000000,"state":"active","ping":124},{"user_id":171,"name":"concorde","steam_id":76561198111134021,"connected_time":6079000000000,"state":"active","ping":82},{"user_id":249,"name":"Tvrdohlavoun","steam_id":76561198124962612,"connected_time":181000000000,"state":"active","ping":56},{"user_id":237,"name":"62.3 tons of democracy","steam_id":76561198218257120,"connected_time":1074000000000,"state":"active","ping":67},{"user_id":252,"name":"Brinier","steam_id":76561199012604288,"connected_time":56000000000,"state":"active","ping":62},{"user_id":215,"name":"Zaanx","steam_id":76561199125603907,"connected_time":2476000000000,"state":"active","ping":92},{"user_id":207,"name":"freight_conductor_754","steam_id":76561198165604007,"connected_time":2889000000000,"state":"active","ping":61},{"user_id":177,"name":"Daan77","steam_id":76561198129940468,"connected_time":5732000000000,"state":"active","ping":79},{"user_id":242,"name":"ldshwt","steam_id":76561198090364357,"connected_time":909000000000,"state":"active","ping":46},{"user_id":255,"name":"PapaMaxy","steam_id":76561198256362726,"connected_time":21000000000,"state":"spawning","ping":90},{"user_id":182,"name":"Qwerty","steam_id":76561198023525894,"connected_time":5640000000000,"state":"active","ping":90},{"user_id":234,"name":"hhhhhh","steam_id":76561198031982574,"connected_time":1297000000000,"state":"active","ping":54},{"user_id":227,"name":"Cathedra","steam_id":76561198430227030,"connected_time":1777000000000,"state":"active","ping":57},{"user_id":256,"name":"D√•vid","steam_id":76561198184135755,"connected_time":12000000000,"state":"spawning","ping":38},{"user_id":198,"name":"VampiuS","steam_id":76561197998827007,"connected_time":4105000000000,"state":"active","ping":57}]},{"server_id":308,"name":"Uncletopia | Frankfurt | 3 | All Maps","name_short":"frk-3","host":"frk-1.de.uncletopia.com","port":27035,"enabled":true,"region":"eu","cc":"de","latitude":50.110924,"longitude":8.682127,"reserved":0,"last_update":"0001-01-01T00:00:00Z","name_a2s":"Uncletopia | Frankfurt | 3 | All Maps","protocol":17,"map":"pl_pier","folder":"tf","game":"Team Fortress","app_id":440,"player_count":0,"max_players":24,"Bots":0,"server_type":"Dedicated","server_os":"Linux","password":true,"vac":true,"version":"7932396","steam_id":85568392924504274,"keywords":["nocrits","nodmgspread","payload","uncletopia"],"game_id":440,"stv_port":27036,"stv_name":"Uncletopia | Frankfurt | 3 | All Maps | STV","players":null},{"server_id":309,"name":"Uncletopia | Frankfurt | 4 | All Maps","name_short":"frk-4","host":"frk-1.de.uncletopia.com","port":27045,"enabled":true,"region":"eu","cc":"de","latitude":50.110924,"longitude":8.682127,"reserved":0,"last_update":"0001-01-01T00:00:00Z","name_a2s":"Uncletopia | Frankfurt | 4 | All Maps","protocol":17,"map":"pl_badwater","folder":"tf","game":"Team Fortress","app_id":440,"player_count":24,"max_players":24,"Bots":0,"server_type":"Dedicated","server_os":"Linux","password":true,"vac":true,"version":"7932396","steam_id":85568392924504275,"keywords":["nocrits","nodmgspread","payload","uncletopia"],"game_id":440,"stv_port":27046,"stv_name":"Uncletopia | Frankfurt | 4 | All Maps | STV","players":[{"user_id":557,"name":"Zerfesh","steam_id":76561198117534358,"connected_time":687000000000,"state":"active","ping":91},{"user_id":561,"name":"beep!","steam_id":76561198111674607,"connected_time":488000000000,"state":"active","ping":53},{"user_id":566,"name":"hisham","steam_id":76561198414437290,"connected_time":355000000000,"state":"active","ping":104},{"user_id":542,"name":"randompixel","steam_id":76561198003941207,"connected_time":1162000000000,"state":"active","ping":68},{"user_id":521,"name":"Envy","steam_id":76561198132723219,"connected_time":2603000000000,"state":"active","ping":96},{"user_id":565,"name":"ItsJustReno","steam_id":76561198431390404,"connected_time":471000000000,"state":"active","ping":68},{"user_id":562,"name":"Ziemniaczki z koperkiem","steam_id":76561198829123464,"connected_time":488000000000,"state":"active","ping":79},{"user_id":538,"name":"tf2 snake","steam_id":76561198193971167,"connected_time":1231000000000,"state":"active","ping":54},{"user_id":530,"name":"go play rimworld","steam_id":76561199397932924,"connected_time":2066000000000,"state":"active","ping":61},{"user_id":506,"name":"The Knight","steam_id":76561198055320626,"connected_time":3361000000000,"state":"active","ping":93},{"user_id":567,"name":"DrExplosive","steam_id":76561198063678579,"connected_time":258000000000,"state":"active","ping":51},{"user_id":559,"name":"Destinys","steam_id":76561198056132894,"connected_time":544000000000,"state":"active","ping":57},{"user_id":545,"name":"Simelis","steam_id":76561198034976400,"connected_time":1129000000000,"state":"active","ping":84},{"user_id":568,"name":"percocet.puppy.2007","steam_id":76561198148074472,"connected_time":245000000000,"state":"active","ping":45},{"user_id":550,"name":"$teomy :3","steam_id":76561199129423422,"connected_time":1004000000000,"state":"active","ping":87},{"user_id":569,"name":"weed.kitten.2009","steam_id":76561198147277460,"connected_time":237000000000,"state":"active","ping":58},{"user_id":571,"name":"mr. halal mode","steam_id":76561199227541378,"connected_time":12000000000,"state":"spawning","ping":177},{"user_id":532,"name":"MaximusTheFish","steam_id":76561199025652089,"connected_time":1754000000000,"state":"active","ping":64},{"user_id":533,"name":"SchwanzusLongus","steam_id":76561198112599986,"connected_time":1748000000000,"state":"active","ping":45},{"user_id":534,"name":"Barak93","steam_id":76561198044585705,"connected_time":1741000000000,"state":"active","ping":61},{"user_id":517,"name":"Nabalazs","steam_id":76561198086970184,"connected_time":2835000000000,"state":"active","ping":86},{"user_id":547,"name":"garry","steam_id":76561198019078145,"connected_time":1116000000000,"state":"active","ping":75},{"user_id":570,"name":"Wardruna96","steam_id":76561199057083828,"connected_time":50000000000,"state":"active","ping":70},{"user_id":564,"name":"BananowyJ","steam_id":76561198121069798,"connected_time":478000000000,"state":"active","ping":79}]},{"server_id":310,"name":"Uncletopia | Frankfurt | 5 | All Maps","name_short":"frk-5","host":"frk-1.de.uncletopia.com","port":27055,"enabled":true,"region":"eu","cc":"de","latitude":50.110924,"longitude":8.682127,"reserved":0,"last_update":"0001-01-01T00:00:00Z","name_a2s":"Uncletopia | Frankfurt | 5 | All Maps","protocol":17,"map":"pl_upward","folder":"tf","game":"Team Fortress","app_id":440,"player_count":24,"max_players":24,"Bots":0,"server_type":"Dedicated","server_os":"Linux","password":true,"vac":true,"version":"7932396","steam_id":85568392924504277,"keywords":["nocrits","nodmgspread","payload","uncletopia"],"game_id":440,"stv_port":27056,"stv_name":"Uncletopia | Frankfurt | 5 | All Maps | STV","players":[{"user_id":196,"name":"After8","steam_id":76561198090750865,"connected_time":7659000000000,"state":"active","ping":63},{"user_id":304,"name":"Human Hunter 5000","steam_id":76561199147152361,"connected_time":460000000000,"state":"active","ping":113},{"user_id":276,"name":"howabe","steam_id":76561197996486818,"connected_time":2466000000000,"state":"active","ping":53},{"user_id":291,"name":"Pumpkin Pie","steam_id":76561198115230959,"connected_time":1499000000000,"state":"active","ping":82},{"user_id":261,"name":"pizzaboob","steam_id":76561198097507847,"connected_time":3858000000000,"state":"active","ping":75},{"user_id":252,"name":"Udinese Dion","steam_id":76561198067931573,"connected_time":4364000000000,"state":"active","ping":44},{"user_id":298,"name":"Vershal Smershal","steam_id":76561198116223995,"connected_time":1079000000000,"state":"active","ping":59},{"user_id":286,"name":"Cheshireycat","steam_id":76561198067204908,"connected_time":2106000000000,"state":"active","ping":69},{"user_id":303,"name":"randem_","steam_id":76561198338793755,"connected_time":836000000000,"state":"active","ping":47},{"user_id":301,"name":"Pilaarius","steam_id":76561198120273212,"connected_time":1007000000000,"state":"active","ping":91},{"user_id":302,"name":"WolfmanCZ","steam_id":76561199157141414,"connected_time":1006000000000,"state":"active","ping":68},{"user_id":270,"name":"Flight of the Blonde Giraffes","steam_id":76561198451585571,"connected_time":2883000000000,"state":"active","ping":59},{"user_id":307,"name":"Oxitocin","steam_id":76561198119542899,"connected_time":203000000000,"state":"active","ping":78},{"user_id":274,"name":"d u k k i","steam_id":76561198071807437,"connected_time":2589000000000,"state":"active","ping":74},{"user_id":287,"name":"kaiser18887","steam_id":76561199482346702,"connected_time":1945000000000,"state":"active","ping":83},{"user_id":306,"name":"HwK!","steam_id":76561198287835588,"connected_time":295000000000,"state":"active","ping":87},{"user_id":265,"name":"Irgend so n Trottel","steam_id":76561197997126444,"connected_time":3726000000000,"state":"active","ping":67},{"user_id":275,"name":"I jazzed myself","steam_id":76561198203016603,"connected_time":2571000000000,"state":"active","ping":82},{"user_id":305,"name":"$hiMpy","steam_id":76561198044397252,"connected_time":436000000000,"state":"active","ping":63},{"user_id":259,"name":"cuddles \u003c3","steam_id":76561198805181599,"connected_time":3869000000000,"state":"active","ping":71},{"user_id":283,"name":"DEFAULT","steam_id":76561198044219183,"connected_time":2316000000000,"state":"active","ping":97},{"user_id":285,"name":"dunduu","steam_id":76561198875240717,"connected_time":2263000000000,"state":"active","ping":60},{"user_id":295,"name":"HEHE IM DOG","steam_id":76561198091175903,"connected_time":1406000000000,"state":"active","ping":76}]},{"server_id":311,"name":"Uncletopia | Frankfurt | 6 | All Maps","name_short":"frk-6","host":"frk-1.de.uncletopia.com","port":27065,"enabled":true,"region":"eu","cc":"de","latitude":50.110924,"longitude":8.682127,"reserved":0,"last_update":"0001-01-01T00:00:00Z","name_a2s":"Uncletopia | Frankfurt | 6 | All Maps","protocol":17,"map":"koth_viaduct","folder":"tf","game":"Team Fortress","app_id":440,"player_count":4,"max_players":24,"Bots":0,"server_type":"Dedicated","server_os":"Linux","password":true,"vac":true,"version":"7932396","steam_id":85568392924504278,"keywords":["cp","nocrits","nodmgspread","uncletopia"],"game_id":440,"stv_port":27066,"stv_name":"Uncletopia | Frankfurt | 6 | All Maps | STV","players":[{"user_id":22,"name":"fexxor","steam_id":76561198030051719,"connected_time":1006000000000,"state":"active","ping":74},{"user_id":24,"name":"Lundback","steam_id":76561198256021018,"connected_time":772000000000,"state":"active","ping":71},{"user_id":25,"name":"Uncle Henk","steam_id":76561198067863614,"connected_time":651000000000,"state":"active","ping":68},{"user_id":26,"name":"Steffe","steam_id":76561198141990783,"connected_time":338000000000,"state":"active","ping":88}]},{"server_id":23,"name":"Uncletopia | Frankfurt | 7 | Stopwatch Beta","name_short":"frk-7","host":"frk-1.de.uncletopia.com","port":27075,"enabled":true,"region":"eu","cc":"de","latitude":50.110924,"longitude":8.682127,"reserved":0,"last_update":"0001-01-01T00:00:00Z","name_a2s":"Uncletopia | Frankfurt | 7 | Stopwatch Beta","protocol":17,"map":"pl_snowycoast","folder":"tf","game":"Team Fortress","app_id":440,"player_count":0,"max_players":24,"Bots":0,"server_type":"Dedicated","server_os":"Linux","password":true,"vac":true,"version":"7932396","steam_id":85568392924742827,"keywords":["nocrits","nodmgspread","payload","uncletopia"],"game_id":440,"stv_port":27076,"stv_name":"Uncletopia | Frankfurt | 7 | Stopwatch Beta | STV","players":null},{"server_id":24,"name":"Uncletopia | Frankfurt | 8 | Community","name_short":"frk-8","host":"frk-1.de.uncletopia.com","port":27085,"enabled":true,"region":"eu","cc":"de","latitude":50.110924,"longitude":8.682127,"reserved":0,"last_update":"0001-01-01T00:00:00Z","name_a2s":"Uncletopia | Frankfurt | 8 | Community","protocol":17,"map":"workshop/cp_propaganda_b18.ugc1603743849","folder":"tf","game":"Team Fortress","app_id":440,"player_count":0,"max_players":24,"Bots":0,"server_type":"Dedicated","server_os":"Linux","password":true,"vac":true,"version":"7932396","steam_id":85568392924742828,"keywords":["cp","nocrits","nodmgspread","uncletopia"],"game_id":440,"stv_port":27086,"stv_name":"Uncletopia | Frankfurt | 8 | Community | STV","players":null},{"server_id":202,"name":"Uncletopia | Hong Kong | 1 | All Maps","name_short":"hgk-1","host":"hgk-1.hk.uncletopia.com","port":27015,"enabled":true,"region":"asia","cc":"hk","latitude":22.302711,"longitude":114.177216,"reserved":0,"last_update":"0001-01-01T00:00:00Z","name_a2s":"Uncletopia | Hong Kong | 1 | All Maps","protocol":17,"map":"cp_mountainlab","folder":"tf","game":"Team Fortress","app_id":440,"player_count":0,"max_players":24,"Bots":0,"server_type":"Dedicated","server_os":"Linux","password":true,"vac":true,"version":"7932396","steam_id":85568392924494504,"keywords":["cp","nocrits","nodmgspread","uncletopia"],"game_id":440,"stv_port":27016,"stv_name":"Uncletopia | Hong Kong | 1 | All Maps | STV","players":null},{"server_id":1,"name":"Uncletopia | Los Angeles | 1 | All Maps","name_short":"lax-1","host":"lax-1.us.uncletopia.com","port":27015,"enabled":true,"region":"us-west","cc":"us","latitude":33.94279,"longitude":-118.41004,"reserved":0,"last_update":"0001-01-01T00:00:00Z","name_a2s":"Uncletopia | Los Angeles | 1 | All Maps","protocol":17,"map":"pl_badwater","folder":"tf","game":"Team Fortress","app_id":440,"player_count":0,"max_players":24,"Bots":0,"server_type":"Dedicated","server_os":"Linux","password":true,"vac":true,"version":"7932396","steam_id":85568392924469991,"keywords":["nocrits","nodmgspread","payload","uncletopia"],"game_id":440,"stv_port":27016,"stv_name":"Uncletopia | Los Angeles | 1 | All Maps | STV","players":null},{"server_id":112,"name":"Uncletopia | Los Angeles | 2 | All Maps","name_short":"lax-2","host":"lax-1.us.uncletopia.com","port":27025,"enabled":true,"region":"us-west","cc":"us","latitude":33.94279,"longitude":-118.41004,"reserved":0,"last_update":"0001-01-01T00:00:00Z","name_a2s":"Uncletopia | Los Angeles | 2 | All Maps","protocol":17,"map":"pl_pier","folder":"tf","game":"Team Fortress","app_id":440,"player_count":19,"max_players":24,"Bots":0,"server_type":"Dedicated","server_os":"Linux","password":true,"vac":true,"version":"7932396","steam_id":85568392924469992,"keywords":["nocrits","nodmgspread","payload","uncletopia"],"game_id":440,"stv_port":27026,"stv_name":"Uncletopia | Los Angeles | 2 | All Maps | STV","players":[{"user_id":104,"name":"Siren","steam_id":76561198047395823,"connected_time":1081000000000,"state":"active","ping":91},{"user_id":113,"name":"SneekiCheekiQbone","steam_id":76561198045077980,"connected_time":120000000000,"state":"active","ping":41},{"user_id":109,"name":"Wayside","steam_id":76561198999627870,"connected_time":872000000000,"state":"active","ping":73},{"user_id":114,"name":"poob","steam_id":76561198406728732,"connected_time":83000000000,"state":"active","ping":92},{"user_id":71,"name":"Tyler\u0026Fingers","steam_id":76561198085154485,"connected_time":4010000000000,"state":"active","ping":114},{"user_id":102,"name":"Brain damage squirrel","steam_id":76561198846344452,"connected_time":1265000000000,"state":"active","ping":56},{"user_id":94,"name":"e doctor","steam_id":76561198081851446,"connected_time":2129000000000,"state":"active","ping":105},{"user_id":115,"name":"mango cafe","steam_id":76561198142328193,"connected_time":81000000000,"state":"active","ping":73},{"user_id":116,"name":"Engideer","steam_id":76561198145733164,"connected_time":56000000000,"state":"active","ping":68},{"user_id":35,"name":"Dr. Hashbrown","steam_id":76561198410780370,"connected_time":6595000000000,"state":"active","ping":66},{"user_id":110,"name":"\u003c`)))))\u003c fish","steam_id":76561198410078962,"connected_time":705000000000,"state":"active","ping":46},{"user_id":101,"name":"BadfalloutFan111","steam_id":76561199004408659,"connected_time":1339000000000,"state":"active","ping":336},{"user_id":93,"name":"_cza","steam_id":76561198079793576,"connected_time":2202000000000,"state":"active","ping":76},{"user_id":111,"name":"shakoiwa","steam_id":76561199059441773,"connected_time":127000000000,"state":"active","ping":50},{"user_id":90,"name":"GlizzLord","steam_id":76561198321010427,"connected_time":2316000000000,"state":"active","ping":67},{"user_id":107,"name":"youtube yownloader","steam_id":76561199015787558,"connected_time":1061000000000,"state":"active","ping":46},{"user_id":108,"name":"TeCon","steam_id":76561198049127236,"connected_time":883000000000,"state":"active","ping":48},{"user_id":100,"name":"dAiLyGrInD","steam_id":76561198163531915,"connected_time":1865000000000,"state":"active","ping":81},{"user_id":112,"name":"The_Machine","steam_id":76561198120939109,"connected_time":127000000000,"state":"active","ping":58}]},{"server_id":324,"name":"Uncletopia | Los Angeles | 3 | All Maps","name_short":"lax-3","host":"lax-1.us.uncletopia.com","port":27035,"enabled":true,"region":"us-west","cc":"us","latitude":33.94279,"longitude":-118.41004,"reserved":0,"last_update":"0001-01-01T00:00:00Z","name_a2s":"Uncletopia | Los Angeles | 3 | All Maps","protocol":17,"map":"pl_borneo","folder":"tf","game":"Team Fortress","app_id":440,"player_count":0,"max_players":24,"Bots":0,"server_type":"Dedicated","server_os":"Linux","password":true,"vac":true,"version":"7932396","steam_id":85568392924510198,"keywords":["nocrits","nodmgspread","payload","uncletopia"],"game_id":440,"stv_port":27036,"stv_name":"Uncletopia | Los Angeles | 3 | All Maps | STV","players":null},{"server_id":25,"name":"Uncletopia | Los Angeles | 4 | Stopwatch Beta","name_short":"lax-4","host":"lax-1.us.uncletopia.com","port":27045,"enabled":true,"region":"us-west","cc":"us","latitude":33.94279,"longitude":-118.41004,"reserved":0,"last_update":"0001-01-01T00:00:00Z","name_a2s":"Uncletopia | Los Angeles | 4 | Stopwatch Beta","protocol":17,"map":"workshop/koth_clearcut_b15.ugc2107050255","folder":"tf","game":"Team Fortress","app_id":440,"player_count":0,"max_players":24,"Bots":0,"server_type":"Dedicated","server_os":"Linux","password":true,"vac":true,"version":"7932396","steam_id":85568392924510199,"keywords":["cp","nocrits","nodmgspread","uncletopia"],"game_id":440,"stv_port":27046,"stv_name":"Uncletopia | Los Angeles | 4 | Stopwatch Beta | STV","players":null},{"server_id":11,"name":"Uncletopia | London | 1 | All Maps","name_short":"lon-1","host":"lon-1.uk.uncletopia.com","port":27015,"enabled":true,"region":"eu","cc":"gb","latitude":51.509865,"longitude":-0.118092,"reserved":0,"last_update":"0001-01-01T00:00:00Z","name_a2s":"Uncletopia | London | 1 | All Maps","protocol":17,"map":"plr_hightower","folder":"tf","game":"Team Fortress","app_id":440,"player_count":23,"max_players":24,"Bots":0,"server_type":"Dedicated","server_os":"Linux","password":true,"vac":true,"version":"7932396","steam_id":85568392924367362,"keywords":["nocrits","nodmgspread","payload","uncletopia"],"game_id":440,"stv_port":27016,"stv_name":"Uncletopia | London | 1 | All Maps | STV","players":[{"user_id":465,"name":"IceDreamer","steam_id":76561197997569989,"connected_time":6878000000000,"state":"active","ping":43},{"user_id":546,"name":"The_Milk_Man","steam_id":76561198085000339,"connected_time":464000000000,"state":"active","ping":140},{"user_id":537,"name":"Sentry hater","steam_id":76561199269309068,"connected_time":1766000000000,"state":"active","ping":84},{"user_id":508,"name":"pad6z23h8s","steam_id":76561198880756741,"connected_time":3378000000000,"state":"active","ping":84},{"user_id":539,"name":"lord-carlos","steam_id":76561198025150761,"connected_time":1630000000000,"state":"active","ping":61},{"user_id":505,"name":"tj","steam_id":76561198160466307,"connected_time":3728000000000,"state":"active","ping":74},{"user_id":523,"name":"Rook","steam_id":76561197995204779,"connected_time":3039000000000,"state":"active","ping":46},{"user_id":469,"name":"z29ba2t0t1l301e17 (Song)","steam_id":76561198032359132,"connected_time":6405000000000,"state":"active","ping":44},{"user_id":534,"name":"DroidRanger","steam_id":76561198158858171,"connected_time":1828000000000,"state":"active","ping":55},{"user_id":536,"name":"(‚òû Õ°¬∞ Õú ñ Õ°¬∞)‚òû","steam_id":76561199130128575,"connected_time":1797000000000,"state":"active","ping":181},{"user_id":515,"name":"Green","steam_id":76561198063046552,"connected_time":3205000000000,"state":"active","ping":112},{"user_id":527,"name":"Paladin","steam_id":76561198042593027,"connected_time":2779000000000,"state":"active","ping":97},{"user_id":533,"name":"b_bence03","steam_id":76561198271353722,"connected_time":2201000000000,"state":"active","ping":76},{"user_id":547,"name":"Well-seasoned mokI","steam_id":76561198964028825,"connected_time":327000000000,"state":"active","ping":60},{"user_id":538,"name":"JustAndy","steam_id":76561199389110875,"connected_time":1754000000000,"state":"active","ping":98},{"user_id":521,"name":"nappo","steam_id":76561198060105180,"connected_time":3070000000000,"state":"active","ping":62},{"user_id":530,"name":"Bepperman","steam_id":76561198397517828,"connected_time":2452000000000,"state":"active","ping":59},{"user_id":522,"name":"Espa√±aa","steam_id":76561198879587832,"connected_time":3041000000000,"state":"active","ping":77},{"user_id":525,"name":"Snake-chan","steam_id":76561199044755854,"connected_time":2890000000000,"state":"active","ping":71},{"user_id":540,"name":"Anime coomer","steam_id":76561197993362052,"connected_time":1472000000000,"state":"active","ping":67},{"user_id":532,"name":"Munibe","steam_id":76561198107967904,"connected_time":2365000000000,"state":"active","ping":69},{"user_id":542,"name":"bad farter","steam_id":76561198261853441,"connected_time":888000000000,"state":"active","ping":75},{"user_id":477,"name":"PASTAMAN!!!","steam_id":76561198995641765,"connected_time":5399000000000,"state":"active","ping":62}]},{"server_id":114,"name":"Uncletopia | London | 2 | All Maps","name_short":"lon-2","host":"lon-1.uk.uncletopia.com","port":27025,"enabled":true,"region":"eu","cc":"gb","latitude":51.509865,"longitude":-0.118092,"reserved":0,"last_update":"0001-01-01T00:00:00Z","name_a2s":"Uncletopia | London | 2 | All Maps","protocol":17,"map":"pl_pier","folder":"tf","game":"Team Fortress","app_id":440,"player_count":24,"max_players":24,"Bots":0,"server_type":"Dedicated","server_os":"Linux","password":true,"vac":true,"version":"7932396","steam_id":85568392924470941,"keywords":["nocrits","nodmgspread","payload","uncletopia"],"game_id":440,"stv_port":27026,"stv_name":"Uncletopia | London | 2 | All Maps | STV","players":[{"user_id":302,"name":"clunk","steam_id":76561198836460767,"connected_time":10083000000000,"state":"active","ping":80},{"user_id":392,"name":"fence_","steam_id":76561198150386379,"connected_time":4998000000000,"state":"active","ping":46},{"user_id":433,"name":"Michael Praetorius","steam_id":76561198828286161,"connected_time":487000000000,"state":"active","ping":64},{"user_id":436,"name":"Sven Tsuro","steam_id":76561198973179445,"connected_time":154000000000,"state":"active","ping":46},{"user_id":406,"name":"rachel aldana's massive milkers","steam_id":76561198025916703,"connected_time":3736000000000,"state":"active","ping":68},{"user_id":353,"name":"askulap","steam_id":76561197992018795,"connected_time":7458000000000,"state":"active","ping":84},{"user_id":409,"name":"Cutlass","steam_id":76561197979392696,"connected_time":3601000000000,"state":"active","ping":55},{"user_id":399,"name":"RLCrazyCat3","steam_id":76561197983757878,"connected_time":4314000000000,"state":"active","ping":67},{"user_id":397,"name":"Hexagon","steam_id":76561198151205758,"connected_time":4732000000000,"state":"active","ping":58},{"user_id":358,"name":"Penis Contortionist","steam_id":76561198073663784,"connected_time":7357000000000,"state":"active","ping":40},{"user_id":425,"name":"Jimmy","steam_id":76561198133680783,"connected_time":2391000000000,"state":"active","ping":77},{"user_id":430,"name":"fwench fwy","steam_id":76561198058432834,"connected_time":1252000000000,"state":"active","ping":47},{"user_id":408,"name":"Mr. Mundy","steam_id":76561198132008918,"connected_time":3692000000000,"state":"active","ping":86},{"user_id":364,"name":"UltimateSlayer","steam_id":76561198384109309,"connected_time":7154000000000,"state":"active","ping":57},{"user_id":365,"name":"quesadilla","steam_id":76561198162873354,"connected_time":7107000000000,"state":"active","ping":128},{"user_id":434,"name":"Guardian1101101001","steam_id":76561199005016123,"connected_time":470000000000,"state":"active","ping":80},{"user_id":426,"name":"Mr_Pulse_","steam_id":76561198095001602,"connected_time":2216000000000,"state":"active","ping":110},{"user_id":418,"name":"Gnome561","steam_id":76561198183771141,"connected_time":3011000000000,"state":"active","ping":75},{"user_id":424,"name":"[T]aKer","steam_id":76561198001778013,"connected_time":2455000000000,"state":"active","ping":45},{"user_id":431,"name":"Sarahtonin","steam_id":76561197992144115,"connected_time":1062000000000,"state":"active","ping":75},{"user_id":435,"name":"Baba Sraka","steam_id":76561198128292318,"connected_time":383000000000,"state":"active","ping":129},{"user_id":439,"name":"Rock..","steam_id":76561198004641963,"connected_time":83000000000,"state":"active","ping":75},{"user_id":438,"name":"SJM","steam_id":76561198799066983,"connected_time":120000000000,"state":"active","ping":103},{"user_id":429,"name":"garfield telephone","steam_id":76561199121717685,"connected_time":1545000000000,"state":"active","ping":67}]},{"server_id":320,"name":"Uncletopia | London | 3 | All Maps","name_short":"lon-3","host":"lon-1.uk.uncletopia.com","port":27035,"enabled":true,"region":"eu","cc":"gb","latitude":51.509865,"longitude":-0.118092,"reserved":0,"last_update":"0001-01-01T00:00:00Z","name_a2s":"Uncletopia | London | 3 | All Maps","protocol":17,"map":"plr_nightfall_final","folder":"tf","game":"Team Fortress","app_id":440,"player_count":24,"max_players":24,"Bots":0,"server_type":"Dedicated","server_os":"Linux","password":true,"vac":true,"version":"7932396","steam_id":85568392924510192,"keywords":["nocrits","nodmgspread","payload","uncletopia"],"game_id":440,"stv_port":27036,"stv_name":"Uncletopia | London | 3 | All Maps | STV","players":[{"user_id":151,"name":"shrark","steam_id":76561198090001673,"connected_time":1839000000000,"state":"active","ping":142},{"user_id":157,"name":"flange","steam_id":76561198040182692,"connected_time":1097000000000,"state":"active","ping":38},{"user_id":125,"name":"VolcanicArts","steam_id":76561198063453246,"connected_time":2602000000000,"state":"active","ping":57},{"user_id":172,"name":"Axord","steam_id":76561199289652176,"connected_time":96000000000,"state":"active","ping":105},{"user_id":169,"name":"Flal","steam_id":76561198453819816,"connected_time":690000000000,"state":"active","ping":74},{"user_id":153,"name":"alan","steam_id":76561198306947435,"connected_time":1780000000000,"state":"active","ping":68},{"user_id":166,"name":"Programmer Socks Gaming","steam_id":76561198982674420,"connected_time":870000000000,"state":"active","ping":41},{"user_id":132,"name":"THE Grosser","steam_id":76561197995530666,"connected_time":2372000000000,"state":"active","ping":60},{"user_id":142,"name":"i am a idiot","steam_id":76561199466495926,"connected_time":1998000000000,"state":"active","ping":74},{"user_id":154,"name":"i will the cat","steam_id":76561198095560087,"connected_time":1740000000000,"state":"active","ping":82},{"user_id":174,"name":"spooky buisness","steam_id":76561199065599888,"connected_time":66000000000,"state":"spawning","ping":82},{"user_id":159,"name":"Apulaite (Gin)","steam_id":76561198093458326,"connected_time":1051000000000,"state":"active","ping":67},{"user_id":145,"name":"Edgar","steam_id":76561198065255259,"connected_time":1961000000000,"state":"active","ping":56},{"user_id":173,"name":"pHJ","steam_id":76561198022289525,"connected_time":80000000000,"state":"active","ping":59},{"user_id":175,"name":"C.H.E.R.E.P.","steam_id":76561198026938595,"connected_time":46000000000,"state":"active","ping":84},{"user_id":146,"name":"Blastrock64","steam_id":76561199008932704,"connected_time":1960000000000,"state":"active","ping":67},{"user_id":96,"name":"Plep","steam_id":76561198840259819,"connected_time":3721000000000,"state":"active","ping":59},{"user_id":161,"name":"Nephi","steam_id":76561198031525122,"connected_time":1033000000000,"state":"active","ping":156},{"user_id":147,"name":"Juliderkek","steam_id":76561198962270674,"connected_time":1951000000000,"state":"active","ping":92},{"user_id":165,"name":"silicasandwhich","steam_id":76561198178809821,"connected_time":880000000000,"state":"active","ping":163},{"user_id":163,"name":"Dolcelatte","steam_id":76561198038501770,"connected_time":955000000000,"state":"active","ping":72},{"user_id":164,"name":"Truegear","steam_id":76561198059511386,"connected_time":914000000000,"state":"active","ping":68},{"user_id":167,"name":"[Jokerice] 2haloes","steam_id":76561198044886397,"connected_time":825000000000,"state":"active","ping":38},{"user_id":176,"name":"UnKeL DaYnE","steam_id":76561199064058171,"connected_time":29000000000,"state":"active","ping":82}]},{"server_id":321,"name":"Uncletopia | London | 4 | All Maps","name_short":"lon-4","host":"lon-1.uk.uncletopia.com","port":27045,"enabled":true,"region":"eu","cc":"gb","latitude":51.509865,"longitude":-0.118092,"reserved":0,"last_update":"0001-01-01T00:00:00Z","name_a2s":"Uncletopia | London | 4 | All Maps","protocol":17,"map":"pl_frontier_final","folder":"tf","game":"Team Fortress","app_id":440,"player_count":23,"max_players":24,"Bots":0,"server_type":"Dedicated","server_os":"Linux","password":true,"vac":true,"version":"7932396","steam_id":85568392924510193,"keywords":["nocrits","nodmgspread","payload","uncletopia"],"game_id":440,"stv_port":27046,"stv_name":"Uncletopia | London | 4 | All Maps | STV","players":[{"user_id":103,"name":"GabGame","steam_id":76561198105631808,"connected_time":1817000000000,"state":"active","ping":66},{"user_id":84,"name":"Gentlemann of Scotland","steam_id":76561198073941805,"connected_time":2830000000000,"state":"active","ping":54},{"user_id":111,"name":"Luuk","steam_id":76561198088266026,"connected_time":1407000000000,"state":"active","ping":42},{"user_id":18,"name":"The Blue Moon","steam_id":76561198368140755,"connected_time":5938000000000,"state":"active","ping":32},{"user_id":93,"name":"TAFI03","steam_id":76561198213082089,"connected_time":2583000000000,"state":"active","ping":63},{"user_id":94,"name":"Portal79","steam_id":76561198095499584,"connected_time":2371000000000,"state":"active","ping":57},{"user_id":118,"name":"stephanie10am","steam_id":76561198258487465,"connected_time":454000000000,"state":"active","ping":95},{"user_id":57,"name":"Kestrel","steam_id":76561198144033005,"connected_time":3634000000000,"state":"active","ping":54},{"user_id":114,"name":"JaneDoe","steam_id":76561198067081506,"connected_time":792000000000,"state":"active","ping":84},{"user_id":117,"name":"Max Power","steam_id":76561198019269089,"connected_time":582000000000,"state":"active","ping":53},{"user_id":115,"name":"Popop","steam_id":76561198004793795,"connected_time":775000000000,"state":"active","ping":46},{"user_id":98,"name":"Enkloth!","steam_id":76561198115106008,"connected_time":2167000000000,"state":"active","ping":47},{"user_id":112,"name":"Combat Wombat","steam_id":76561197994720068,"connected_time":1133000000000,"state":"active","ping":62},{"user_id":89,"name":"Porridge Moisturizer","steam_id":76561198336523288,"connected_time":2765000000000,"state":"active","ping":129},{"user_id":62,"name":"wot","steam_id":76561199213783029,"connected_time":3495000000000,"state":"active","ping":107},{"user_id":65,"name":"Sandvich","steam_id":76561199079493666,"connected_time":3293000000000,"state":"active","ping":105},{"user_id":67,"name":"ROX","steam_id":76561198272289320,"connected_time":3244000000000,"state":"active","ping":66},{"user_id":106,"name":"666sammy","steam_id":76561198016607625,"connected_time":1790000000000,"state":"active","ping":80},{"user_id":100,"name":"Ritzy","steam_id":76561198381955342,"connected_time":2084000000000,"state":"active","ping":50},{"user_id":107,"name":"two","steam_id":76561199067334982,"connected_time":1788000000000,"state":"active","ping":104},{"user_id":110,"name":"FoOzTV","steam_id":76561197998636728,"connected_time":1524000000000,"state":"active","ping":68},{"user_id":91,"name":"Syd","steam_id":76561198020515027,"connected_time":2756000000000,"state":"active","ping":85},{"user_id":47,"name":"Monkeytonk","steam_id":76561198081151851,"connected_time":4389000000000,"state":"active","ping":38}]},{"server_id":21,"name":"Uncletopia | London | 5 | All Maps","name_short":"lon-5","host":"lon-1.uk.uncletopia.com","port":27055,"enabled":true,"region":"eu","cc":"gb","latitude":51.509865,"longitude":-0.118092,"reserved":0,"last_update":"0001-01-01T00:00:00Z","name_a2s":"Uncletopia | London | 5 | All Maps","protocol":17,"map":"pl_barnblitz","folder":"tf","game":"Team Fortress","app_id":440,"player_count":24,"max_players":24,"Bots":0,"server_type":"Dedicated","server_os":"Linux","password":true,"vac":true,"version":"7932396","steam_id":85568392924742829,"keywords":["nocrits","nodmgspread","payload","uncletopia"],"game_id":440,"stv_port":27056,"stv_name":"Uncletopia | London | 5 | All Maps | STV","players":[{"user_id":101,"name":"Aeinzalot","steam_id":76561198195288449,"connected_time":256000000000,"state":"active","ping":46},{"user_id":86,"name":"sashimi","steam_id":76561198041964141,"connected_time":1487000000000,"state":"active","ping":41},{"user_id":66,"name":"Just Navlis","steam_id":76561198090479609,"connected_time":2637000000000,"state":"active","ping":50},{"user_id":51,"name":"kreeekz","steam_id":76561198014431602,"connected_time":3363000000000,"state":"active","ping":74},{"user_id":54,"name":"Even R√º√ºd","steam_id":76561197981144291,"connected_time":3151000000000,"state":"active","ping":74},{"user_id":93,"name":"c4ctus","steam_id":76561198925655488,"connected_time":921000000000,"state":"active","ping":83},{"user_id":94,"name":"Salih","steam_id":76561198287934839,"connected_time":884000000000,"state":"active","ping":63},{"user_id":98,"name":"WHUSSKEY","steam_id":76561198137827441,"connected_time":314000000000,"state":"active","ping":78},{"user_id":68,"name":"DelaNo","steam_id":76561199125086655,"connected_time":2542000000000,"state":"active","ping":39},{"user_id":104,"name":"Fish 'n' Chips","steam_id":76561198033476886,"connected_time":10000000000,"state":"spawning","ping":50},{"user_id":89,"name":"Diggity","steam_id":76561198297157085,"connected_time":993000000000,"state":"active","ping":40},{"user_id":57,"name":"Oak","steam_id":76561198067315672,"connected_time":3079000000000,"state":"active","ping":48},{"user_id":99,"name":"Koss","steam_id":76561198033316239,"connected_time":311000000000,"state":"active","ping":112},{"user_id":72,"name":"highest noon","steam_id":76561199103959197,"connected_time":2055000000000,"state":"active","ping":98},{"user_id":40,"name":"degenerate gaming","steam_id":76561198257495109,"connected_time":3862000000000,"state":"active","ping":92},{"user_id":67,"name":"Pink ‚ùÄ","steam_id":76561198972047944,"connected_time":2628000000000,"state":"active","ping":56},{"user_id":81,"name":"Kekeke","steam_id":76561198063672270,"connected_time":1665000000000,"state":"active","ping":110},{"user_id":91,"name":"GEP Gun","steam_id":76561197981821003,"connected_time":937000000000,"state":"active","ping":60},{"user_id":32,"name":"Strix","steam_id":76561198015322735,"connected_time":3913000000000,"state":"active","ping":69},{"user_id":92,"name":"socaramel","steam_id":76561197984480336,"connected_time":936000000000,"state":"active","ping":76},{"user_id":96,"name":"ÔΩÑÔΩÖÔΩìÔΩãÔΩíÔΩÅÔΩô","steam_id":76561198805536170,"connected_time":870000000000,"state":"active","ping":82},{"user_id":73,"name":"Amandus","steam_id":76561198036281079,"connected_time":2015000000000,"state":"active","ping":60},{"user_id":97,"name":"goblinninja110","steam_id":76561198269159354,"connected_time":868000000000,"state":"active","ping":54},{"user_id":103,"name":"snake oil salesman","steam_id":76561198019065232,"connected_time":28000000000,"state":"active","ping":29}]},{"server_id":22,"name":"Uncletopia | London | 6 | All Maps","name_short":"lon-6","host":"lon-1.uk.uncletopia.com","port":27065,"enabled":true,"region":"eu","cc":"gb","latitude":51.509865,"longitude":-0.118092,"reserved":0,"last_update":"0001-01-01T00:00:00Z","name_a2s":"Uncletopia | London | 6 | All Maps","protocol":17,"map":"cp_process_final","folder":"tf","game":"Team Fortress","app_id":440,"player_count":6,"max_players":24,"Bots":0,"server_type":"Dedicated","server_os":"Linux","password":true,"vac":true,"version":"7932396","steam_id":85568392924742830,"keywords":["cp","nocrits","nodmgspread","uncletopia"],"game_id":440,"stv_port":27066,"stv_name":"Uncletopia | London | 6 | All Maps | STV","players":[{"user_id":21,"name":"Shadow The Hedgehog","steam_id":76561198323622980,"connected_time":1489000000000,"state":"active","ping":75},{"user_id":22,"name":"Olav","steam_id":76561198039976361,"connected_time":1180000000000,"state":"active","ping":85},{"user_id":23,"name":"F","steam_id":76561199149462792,"connected_time":1109000000000,"state":"active","ping":60},{"user_id":25,"name":"Soaya","steam_id":76561199101510855,"connected_time":721000000000,"state":"active","ping":42},{"user_id":26,"name":"‚ò≠TheDevilsEye‚ò≠","steam_id":76561198017379398,"connected_time":720000000000,"state":"active","ping":72},{"user_id":27,"name":"vladthelad","steam_id":76561199295290233,"connected_time":324000000000,"state":"active","ping":31}]},{"server_id":40,"name":"Uncletopia | London | 7 | No Payload","name_short":"lon-7","host":"lon-1.uk.uncletopia.com","port":27075,"enabled":true,"region":"eu","cc":"gb","latitude":51.509865,"longitude":-0.118092,"reserved":0,"last_update":"0001-01-01T00:00:00Z","name_a2s":"Uncletopia | London | 7 | No Payload","protocol":17,"map":"koth_cascade","folder":"tf","game":"Team Fortress","app_id":440,"player_count":24,"max_players":24,"Bots":0,"server_type":"Dedicated","server_os":"Linux","password":true,"vac":true,"version":"7932396","steam_id":85568392924964314,"keywords":["cp","nocrits","nodmgspread","uncletopia"],"game_id":440,"stv_port":27076,"stv_name":"Uncletopia | London | 7 | No Payload | STV","players":[{"user_id":44,"name":"LOBZIK","steam_id":76561198114830120,"connected_time":316000000000,"state":"active","ping":78},{"user_id":45,"name":"Moose","steam_id":76561198352381052,"connected_time":312000000000,"state":"active","ping":94},{"user_id":30,"name":"P3rsErkki","steam_id":76561198063093495,"connected_time":1021000000000,"state":"active","ping":70},{"user_id":13,"name":"MGE BROTHER","steam_id":76561198796600155,"connected_time":1561000000000,"state":"active","ping":90},{"user_id":14,"name":"LET'S F!CK THEM!","steam_id":76561198297602677,"connected_time":1547000000000,"state":"active","ping":89},{"user_id":48,"name":"SlwoF√∏","steam_id":76561198049663931,"connected_time":244000000000,"state":"active","ping":58},{"user_id":36,"name":"Fat Pigeon","steam_id":76561198817940142,"connected_time":811000000000,"state":"active","ping":52},{"user_id":51,"name":"fifrok","steam_id":76561198799267621,"connected_time":19000000000,"state":"active","ping":79},{"user_id":31,"name":"‚ù§ Sparx ‚ù§","steam_id":76561198095009261,"connected_time":1006000000000,"state":"active","ping":62},{"user_id":19,"name":"q47tx","steam_id":76561199181333933,"connected_time":1295000000000,"state":"active","ping":103},{"user_id":50,"name":"Zazou","steam_id":76561198028076362,"connected_time":126000000000,"state":"active","ping":41},{"user_id":21,"name":"StormPumpe","steam_id":76561198081905430,"connected_time":1277000000000,"state":"active","ping":65},{"user_id":42,"name":"FishNachoz","steam_id":76561198026519426,"connected_time":551000000000,"state":"active","ping":54},{"user_id":27,"name":"Batman","steam_id":76561199041636597,"connected_time":1173000000000,"state":"active","ping":76},{"user_id":47,"name":"chess club manager","steam_id":76561198011047413,"connected_time":264000000000,"state":"active","ping":85},{"user_id":37,"name":"Biggus Dickus","steam_id":76561198018358868,"connected_time":684000000000,"state":"active","ping":68},{"user_id":28,"name":"FirePenguin","steam_id":76561198151468340,"connected_time":1173000000000,"state":"active","ping":36},{"user_id":33,"name":"JC","steam_id":76561198029213352,"connected_time":967000000000,"state":"active","ping":42},{"user_id":49,"name":"M√©bh √ìg MacT√≠re","steam_id":76561198346399624,"connected_time":218000000000,"state":"active","ping":87},{"user_id":34,"name":"The Hellgineer","steam_id":76561198349622940,"connected_time":937000000000,"state":"active","ping":57},{"user_id":38,"name":"elijah","steam_id":76561198093936708,"connected_time":663000000000,"state":"active","ping":58},{"user_id":39,"name":"georg1e","steam_id":76561199032591040,"connected_time":643000000000,"state":"active","ping":74},{"user_id":40,"name":"var","steam_id":76561198886111917,"connected_time":617000000000,"state":"active","ping":63},{"user_id":43,"name":"Momovsky","steam_id":76561198005738407,"connected_time":518000000000,"state":"active","ping":92}]},{"server_id":41,"name":"Uncletopia | London | 8 | Community","name_short":"lon-8","host":"lon-1.uk.uncletopia.com","port":27085,"enabled":true,"region":"eu","cc":"gb","latitude":51.509865,"longitude":-0.118092,"reserved":0,"last_update":"0001-01-01T00:00:00Z","name_a2s":"Uncletopia | London | 8 | Community","protocol":17,"map":"workshop/cp_mannbase_rc2a.ugc1900737467","folder":"tf","game":"Team Fortress","app_id":440,"player_count":1,"max_players":24,"Bots":0,"server_type":"Dedicated","server_os":"Linux","password":true,"vac":true,"version":"7932396","steam_id":85568392924964315,"keywords":["cp","nocrits","nodmgspread","uncletopia"],"game_id":440,"stv_port":27086,"stv_name":"Uncletopia | London | 8 | Community | STV","players":[{"user_id":13,"name":"RiddleHorse","steam_id":76561198356626006,"connected_time":378000000000,"state":"active","ping":54}]},{"server_id":300,"name":"Uncletopia | Montr√©al | 1 | All Maps","name_short":"mtl-1","host":"mtl-1.ca.uncletopia.com","port":27015,"enabled":true,"region":"us-east","cc":"ca","latitude":45.50889,"longitude":-73.56167,"reserved":0,"last_update":"0001-01-01T00:00:00Z","name_a2s":"Uncletopia | Montr√©al | 1 | All Maps","protocol":17,"map":"cp_altitude","folder":"tf","game":"Team Fortress","app_id":440,"player_count":0,"max_players":24,"Bots":0,"server_type":"Dedicated","server_os":"Linux","password":true,"vac":true,"version":"7932396","steam_id":85568392924500087,"keywords":["cp","nocrits","nodmgspread","uncletopia"],"game_id":440,"stv_port":27016,"stv_name":"Uncletopia | Montr√©al | 1 | All Maps | STV","players":null},{"server_id":301,"name":"Uncletopia | Montr√©al | 2 | All Maps","name_short":"mtl-2","host":"mtl-1.ca.uncletopia.com","port":27025,"enabled":true,"region":"us-east","cc":"ca","latitude":45.50889,"longitude":-73.56167,"reserved":0,"last_update":"0001-01-01T00:00:00Z","name_a2s":"Uncletopia | Montr√©al | 2 | All Maps","protocol":17,"map":"koth_lakeside_final","folder":"tf","game":"Team Fortress","app_id":440,"player_count":2,"max_players":24,"Bots":0,"server_type":"Dedicated","server_os":"Linux","password":true,"vac":true,"version":"7932396","steam_id":85568392924500088,"keywords":["cp","nocrits","nodmgspread","uncletopia"],"game_id":440,"stv_port":27026,"stv_name":"Uncletopia | Montr√©al | 2 | All Maps | STV","players":[{"user_id":3,"name":"St. Bobson Q Dugnutt III Esq Sr","steam_id":76561197993459985,"connected_time":934000000000,"state":"active","ping":70},{"user_id":4,"name":"Turbocat","steam_id":76561198145431353,"connected_time":872000000000,"state":"active","ping":60}]},{"server_id":302,"name":"Uncletopia | Montr√©al | 3 | All Maps","name_short":"mtl-3","host":"mtl-1.ca.uncletopia.com","port":27035,"enabled":true,"region":"us-east","cc":"ca","latitude":45.50889,"longitude":-73.56167,"reserved":0,"last_update":"0001-01-01T00:00:00Z","name_a2s":"Uncletopia | Montr√©al | 3 | All Maps","protocol":17,"map":"cp_process_final","folder":"tf","game":"Team Fortress","app_id":440,"player_count":0,"max_players":24,"Bots":0,"server_type":"Dedicated","server_os":"Linux","password":true,"vac":true,"version":"7932396","steam_id":85568392924500089,"keywords":["cp","nocrits","nodmgspread","uncletopia"],"game_id":440,"stv_port":27036,"stv_name":"Uncletopia | Montr√©al | 3 | All Maps | STV","players":null},{"server_id":303,"name":"Uncletopia | Montr√©al | 4 | No Payload","name_short":"mtl-4","host":"mtl-1.ca.uncletopia.com","port":27045,"enabled":true,"region":"us-east","cc":"ca","latitude":45.50889,"longitude":-73.56167,"reserved":0,"last_update":"0001-01-01T00:00:00Z","name_a2s":"Uncletopia | Montr√©al | 4 | No Payload","protocol":17,"map":"cp_snakewater_final1","folder":"tf","game":"Team Fortress","app_id":440,"player_count":0,"max_players":24,"Bots":0,"server_type":"Dedicated","server_os":"Linux","password":true,"vac":true,"version":"7932396","steam_id":85568392924500090,"keywords":["cp","nocrits","nodmgspread","uncletopia"],"game_id":440,"stv_port":27046,"stv_name":"Uncletopia | Montr√©al | 4 | No Payload | STV","players":null},{"server_id":13,"name":"Uncletopia | New York City | 1 | All Maps","name_short":"nyc-1","host":"nyc-1.us.uncletopia.com","port":27015,"enabled":true,"region":"us-east","cc":"us","latitude":40.73061,"longitude":-73.93524,"reserved":0,"last_update":"0001-01-01T00:00:00Z","name_a2s":"Uncletopia | New York City | 1 | All Maps","protocol":17,"map":"cp_dustbowl","folder":"tf","game":"Team Fortress","app_id":440,"player_count":24,"max_players":24,"Bots":0,"server_type":"Dedicated","server_os":"Linux","password":true,"vac":true,"version":"7932396","steam_id":85568392924469993,"keywords":["cp","nocrits","nodmgspread","uncletopia"],"game_id":440,"stv_port":27016,"stv_name":"Uncletopia | New York City | 1 | All Maps | STV","players":[{"user_id":62,"name":"Shino","steam_id":76561198272401589,"connected_time":6453000000000,"state":"active","ping":84},{"user_id":145,"name":"Gram Cracker","steam_id":76561198064989909,"connected_time":750000000000,"state":"active","ping":56},{"user_id":146,"name":"shmoney maker","steam_id":76561198241948526,"connected_time":748000000000,"state":"active","ping":60},{"user_id":148,"name":"he/him whimper","steam_id":76561198097175164,"connected_time":475000000000,"state":"active","ping":66},{"user_id":123,"name":"Brown_Dream","steam_id":76561198975766145,"connected_time":2418000000000,"state":"active","ping":68},{"user_id":98,"name":"Deeply","steam_id":76561199000786530,"connected_time":4373000000000,"state":"active","ping":103},{"user_id":130,"name":"imng","steam_id":76561198014988031,"connected_time":1851000000000,"state":"active","ping":74},{"user_id":142,"name":"Sigiferd","steam_id":76561198148788110,"connected_time":1004000000000,"state":"active","ping":121},{"user_id":124,"name":"Baron von Whoopsie","steam_id":76561197996691013,"connected_time":2306000000000,"state":"active","ping":62},{"user_id":94,"name":"triple_range_merge","steam_id":76561198991225026,"connected_time":4790000000000,"state":"active","ping":57},{"user_id":134,"name":"homsar","steam_id":76561199031742838,"connected_time":1322000000000,"state":"active","ping":56},{"user_id":153,"name":"craZend","steam_id":76561198848063795,"connected_time":251000000000,"state":"active","ping":85},{"user_id":100,"name":"Xx_gam3rberg_xX","steam_id":76561199035781025,"connected_time":4370000000000,"state":"active","ping":66},{"user_id":155,"name":"RarestGuide","steam_id":76561198050338923,"connected_time":183000000000,"state":"active","ping":65},{"user_id":150,"name":"minecraft","steam_id":76561198104345201,"connected_time":366000000000,"state":"active","ping":93},{"user_id":152,"name":"craf","steam_id":76561198163535075,"connected_time":267000000000,"state":"active","ping":60},{"user_id":157,"name":"Marrow \u003c3","steam_id":76561198930350337,"connected_time":143000000000,"state":"active","ping":55},{"user_id":51,"name":"Stolid","steam_id":76561197998506423,"connected_time":7745000000000,"state":"active","ping":122},{"user_id":154,"name":"LORDO","steam_id":76561198044824675,"connected_time":239000000000,"state":"active","ping":78},{"user_id":158,"name":"TheLuzinator","steam_id":76561198377144604,"connected_time":128000000000,"state":"active","ping":78},{"user_id":129,"name":"Flowers","steam_id":76561198031669899,"connected_time":1919000000000,"state":"active","ping":70},{"user_id":80,"name":"Koishi","steam_id":76561198054541054,"connected_time":5808000000000,"state":"active","ping":47},{"user_id":81,"name":"ayecodex","steam_id":76561199477598858,"connected_time":5807000000000,"state":"active","ping":49},{"user_id":159,"name":"10 FPS Gaymer","steam_id":76561199200969139,"connected_time":128000000000,"state":"active","ping":137}]},{"server_id":14,"name":"Uncletopia | New York City | 2 | All Maps","name_short":"nyc-2","host":"nyc-1.us.uncletopia.com","port":27025,"enabled":true,"region":"us-east","cc":"us","latitude":40.73061,"longitude":-73.93524,"reserved":0,"last_update":"0001-01-01T00:00:00Z","name_a2s":"Uncletopia | New York City | 2 | All Maps","protocol":17,"map":"koth_lakeside_final","folder":"tf","game":"Team Fortress","app_id":440,"player_count":0,"max_players":24,"Bots":0,"server_type":"Dedicated","server_os":"Linux","password":true,"vac":true,"version":"7932396","steam_id":85568392924469994,"keywords":["cp","nocrits","nodmgspread","uncletopia"],"game_id":440,"stv_port":27026,"stv_name":"Uncletopia | New York City | 2 | All Maps | STV","players":null},{"server_id":15,"name":"Uncletopia | New York City | 3 | Stopwatch Beta","name_short":"nyc-3","host":"nyc-1.us.uncletopia.com","port":27035,"enabled":true,"region":"us-east","cc":"us","latitude":40.73061,"longitude":-73.93524,"reserved":0,"last_update":"0001-01-01T00:00:00Z","name_a2s":"Uncletopia | New York City | 3 | Stopwatch Beta","protocol":17,"map":"koth_lakeside_final","folder":"tf","game":"Team Fortress","app_id":440,"player_count":0,"max_players":24,"Bots":0,"server_type":"Dedicated","server_os":"Linux","password":true,"vac":true,"version":"7932396","steam_id":85568392924742820,"keywords":["cp","nocrits","nodmgspread","uncletopia"],"game_id":440,"stv_port":27036,"stv_name":"Uncletopia | New York City | 3 | Stopwatch Beta | STV","players":null},{"server_id":16,"name":"Uncletopia | New York City | 4 | Community","name_short":"nyc-4","host":"nyc-1.us.uncletopia.com","port":27045,"enabled":true,"region":"us-east","cc":"us","latitude":40.73061,"longitude":-73.93524,"reserved":0,"last_update":"0001-01-01T00:00:00Z","name_a2s":"Uncletopia | New York City | 4 | Community","protocol":17,"map":"workshop/pl_corrode_rc2.ugc546577989","folder":"tf","game":"Team Fortress","app_id":440,"player_count":21,"max_players":24,"Bots":0,"server_type":"Dedicated","server_os":"Linux","password":true,"vac":true,"version":"7932396","steam_id":85568392924742821,"keywords":["nocrits","nodmgspread","payload","uncletopia"],"game_id":440,"stv_port":27046,"stv_name":"Uncletopia | New York City | 4 | Community | STV","players":[{"user_id":252,"name":"MommaMilky123","steam_id":76561199149697526,"connected_time":253000000000,"state":"active","ping":153},{"user_id":242,"name":"whimsical little creature","steam_id":76561198271710504,"connected_time":910000000000,"state":"active","ping":70},{"user_id":48,"name":"I really enjoy MEN","steam_id":76561198164119602,"connected_time":13717000000000,"state":"active","ping":160},{"user_id":254,"name":"Rusteanes","steam_id":76561199090021148,"connected_time":121000000000,"state":"active","ping":88},{"user_id":245,"name":"Frontier Psychiatrist","steam_id":76561198038689088,"connected_time":497000000000,"state":"active","ping":89},{"user_id":246,"name":"vadim_kotler","steam_id":76561199016634369,"connected_time":431000000000,"state":"active","ping":175},{"user_id":243,"name":"cran","steam_id":76561198178840075,"connected_time":516000000000,"state":"active","ping":169},{"user_id":221,"name":"Loaf E¬≤r","steam_id":76561198174967027,"connected_time":2188000000000,"state":"active","ping":60},{"user_id":255,"name":"Claymanryan","steam_id":76561198018556283,"connected_time":75000000000,"state":"active","ping":101},{"user_id":213,"name":"HOODOO_LOVER_2007","steam_id":76561199087691214,"connected_time":3519000000000,"state":"active","ping":86},{"user_id":256,"name":"A strange old man","steam_id":76561198035529717,"connected_time":74000000000,"state":"active","ping":70},{"user_id":247,"name":"turntechGodhead","steam_id":76561198113793427,"connected_time":427000000000,"state":"active","ping":71},{"user_id":248,"name":"StarManMatt","steam_id":76561198125513574,"connected_time":407000000000,"state":"active","ping":85},{"user_id":232,"name":"Stick","steam_id":76561198001509374,"connected_time":1474000000000,"state":"active","ping":87},{"user_id":203,"name":"lvl 99 bastard","steam_id":76561198044761617,"connected_time":4103000000000,"state":"active","ping":62},{"user_id":253,"name":"Scoob","steam_id":76561198133592995,"connected_time":134000000000,"state":"active","ping":92},{"user_id":249,"name":"Spike Bones","steam_id":76561198234926120,"connected_time":404000000000,"state":"active","ping":86},{"user_id":257,"name":"poopeater69","steam_id":76561199091396502,"connected_time":53000000000,"state":"spawning","ping":373},{"user_id":225,"name":"Amaretto Sour","steam_id":76561198063112844,"connected_time":2056000000000,"state":"active","ping":57},{"user_id":258,"name":"LazySushi","steam_id":76561198043802202,"connected_time":19000000000,"state":"active","ping":146},{"user_id":236,"name":"ÔºîÔºê Ôº¶Ôº∞Ôº≥","steam_id":76561198272394965,"connected_time":1373000000000,"state":"active","ping":126}]},{"server_id":142,"name":"Uncletopia | S√£o Paulo | 1 | All Maps","name_short":"sao-1","host":"sao-1.br.uncletopia.com","port":27015,"enabled":true,"region":"sa","cc":"br","latitude":-23.533773,"longitude":-46.62529,"reserved":0,"last_update":"0001-01-01T00:00:00Z","name_a2s":"Uncletopia | S√£o Paulo | 1 | All Maps","protocol":17,"map":"pl_badwater","folder":"tf","game":"Team Fortress","app_id":440,"player_count":0,"max_players":24,"Bots":0,"server_type":"Dedicated","server_os":"Linux","password":true,"vac":true,"version":"7932396","steam_id":85568392924469996,"keywords":["nocrits","nodmgspread","payload","uncletopia"],"game_id":440,"stv_port":27016,"stv_name":"Uncletopia | S√£o Paulo | 1 | All Maps | STV","players":null},{"server_id":143,"name":"Uncletopia | S√£o Paulo | 2 | All Maps","name_short":"sao-2","host":"sao-2.br.uncletopia.com","port":27015,"enabled":true,"region":"sa","cc":"br","latitude":-23.533773,"longitude":-46.62529,"reserved":0,"last_update":"0001-01-01T00:00:00Z","name_a2s":"Uncletopia | S√£o Paulo | 2 | All Maps","protocol":17,"map":"koth_lakeside_final","folder":"tf","game":"Team Fortress","app_id":440,"player_count":0,"max_players":24,"Bots":0,"server_type":"Dedicated","server_os":"Linux","password":true,"vac":true,"version":"7932396","steam_id":85568392924485349,"keywords":["cp","nocrits","nodmgspread","uncletopia"],"game_id":440,"stv_port":27016,"stv_name":"Uncletopia | S√£o Paulo | 2 | All Maps | STV","players":null},{"server_id":7,"name":"Uncletopia | Seattle | 1 | All Maps","name_short":"sea-1","host":"sea-1.us.uncletopia.com","port":27015,"enabled":true,"region":"us-west","cc":"us","latitude":47.608013,"longitude":-122.33517,"reserved":0,"last_update":"0001-01-01T00:00:00Z","name_a2s":"Uncletopia | Seattle | 1 | All Maps","protocol":17,"map":"koth_cascade","folder":"tf","game":"Team Fortress","app_id":440,"player_count":24,"max_players":24,"Bots":0,"server_type":"Dedicated","server_os":"Linux","password":true,"vac":true,"version":"7932396","steam_id":85568392924469997,"keywords":["cp","nocrits","nodmgspread","uncletopia"],"game_id":440,"stv_port":27016,"stv_name":"Uncletopia | Seattle | 1 | All Maps | STV","players":[{"user_id":18,"name":"Mediarch","steam_id":76561198050765729,"connected_time":3697000000000,"state":"active","ping":58},{"user_id":71,"name":"donkeyballs2007","steam_id":76561199466298683,"connected_time":125000000000,"state":"active","ping":72},{"user_id":22,"name":"TGMason","steam_id":76561198313793419,"connected_time":3272000000000,"state":"active","ping":84},{"user_id":23,"name":"Varie","steam_id":76561199454930210,"connected_time":3193000000000,"state":"active","ping":130},{"user_id":56,"name":"Shalom","steam_id":76561198410005222,"connected_time":1860000000000,"state":"active","ping":61},{"user_id":46,"name":"polo","steam_id":76561198046659257,"connected_time":2380000000000,"state":"active","ping":49},{"user_id":68,"name":"bandit","steam_id":76561198126546221,"connected_time":148000000000,"state":"active","ping":73},{"user_id":69,"name":"Piggy","steam_id":76561198000399862,"connected_time":147000000000,"state":"active","ping":87},{"user_id":52,"name":"mutedx10","steam_id":76561198253556858,"connected_time":2206000000000,"state":"active","ping":96},{"user_id":61,"name":"o o o o o o o o o","steam_id":76561197993757506,"connected_time":977000000000,"state":"active","ping":68},{"user_id":64,"name":"venomew2","steam_id":76561198327081077,"connected_time":687000000000,"state":"active","ping":85},{"user_id":72,"name":"toes","steam_id":76561198221151676,"connected_time":114000000000,"state":"active","ping":54},{"user_id":65,"name":"MoonlightDragon","steam_id":76561198124808865,"connected_time":685000000000,"state":"active","ping":141},{"user_id":73,"name":"D","steam_id":76561198292908619,"connected_time":108000000000,"state":"active","ping":180},{"user_id":39,"name":"Cookie","steam_id":76561198283317413,"connected_time":2516000000000,"state":"active","ping":103},{"user_id":40,"name":"FireQuiz","steam_id":76561198107357249,"connected_time":2477000000000,"state":"active","ping":70},{"user_id":67,"name":"26O3 Ê•µÂÖâÈù¢Á¥ó","steam_id":76561198964074985,"connected_time":403000000000,"state":"active","ping":65},{"user_id":44,"name":"Salmon Destroyer 9000","steam_id":76561198065826749,"connected_time":2423000000000,"state":"active","ping":93},{"user_id":48,"name":"Amy Sapphire","steam_id":76561198122860452,"connected_time":2342000000000,"state":"active","ping":83},{"user_id":74,"name":"duckgod 2.o","steam_id":76561198938434440,"connected_time":107000000000,"state":"active","ping":93},{"user_id":50,"name":"Zer0Educati0n","steam_id":76561198093939709,"connected_time":2303000000000,"state":"active","ping":75},{"user_id":66,"name":"Daddy Topps","steam_id":76561198203594332,"connected_time":670000000000,"state":"active","ping":34},{"user_id":54,"name":"frick off law enforcement","steam_id":76561198255022731,"connected_time":2190000000000,"state":"active","ping":75},{"user_id":55,"name":"fungus","steam_id":76561198155478710,"connected_time":2146000000000,"state":"active","ping":60}]},{"server_id":119,"name":"Uncletopia | Seattle | 2 | All Maps","name_short":"sea-2","host":"sea-1.us.uncletopia.com","port":27025,"enabled":true,"region":"us-west","cc":"us","latitude":47.608013,"longitude":-122.33517,"reserved":0,"last_update":"0001-01-01T00:00:00Z","name_a2s":"Uncletopia | Seattle | 2 | All Maps","protocol":17,"map":"pl_pier","folder":"tf","game":"Team Fortress","app_id":440,"player_count":21,"max_players":24,"Bots":0,"server_type":"Dedicated","server_os":"Linux","password":true,"vac":true,"version":"7932396","steam_id":85568392924469998,"keywords":["nocrits","nodmgspread","payload","uncletopia"],"game_id":440,"stv_port":27026,"stv_name":"Uncletopia | Seattle | 2 | All Maps | STV","players":[{"user_id":307,"name":"Thequirka","steam_id":76561198968058652,"connected_time":444000000000,"state":"active","ping":51},{"user_id":287,"name":"Epifiny","steam_id":76561198027958086,"connected_time":1406000000000,"state":"active","ping":126},{"user_id":300,"name":"trks","steam_id":76561198233984300,"connected_time":524000000000,"state":"active","ping":96},{"user_id":294,"name":"Cherry Bomb!","steam_id":76561198017947020,"connected_time":935000000000,"state":"active","ping":109},{"user_id":275,"name":"Grilled Jizo","steam_id":76561199250875340,"connected_time":2269000000000,"state":"active","ping":61},{"user_id":222,"name":"Daz","steam_id":76561198041431938,"connected_time":6700000000000,"state":"active","ping":51},{"user_id":308,"name":"UnusualTofu","steam_id":76561198060103750,"connected_time":387000000000,"state":"active","ping":86},{"user_id":220,"name":"Thewaffleman141","steam_id":76561198083068694,"connected_time":6781000000000,"state":"active","ping":105},{"user_id":277,"name":"corbenis","steam_id":76561199012442511,"connected_time":1698000000000,"state":"active","ping":76},{"user_id":238,"name":"Mr. Stockington","steam_id":76561198091354032,"connected_time":4740000000000,"state":"active","ping":66},{"user_id":278,"name":"rxqueen","steam_id":76561198049258493,"connected_time":1687000000000,"state":"active","ping":45},{"user_id":258,"name":"Dr. PP","steam_id":76561199018184096,"connected_time":3997000000000,"state":"active","ping":99},{"user_id":304,"name":"snobis gaming","steam_id":76561198084927866,"connected_time":477000000000,"state":"active","ping":96},{"user_id":302,"name":"Shark Sandwich","steam_id":76561198025007938,"connected_time":519000000000,"state":"active","ping":61},{"user_id":305,"name":"Abu Shoosh","steam_id":76561198094990358,"connected_time":475000000000,"state":"active","ping":75},{"user_id":295,"name":"Luna","steam_id":76561198082944789,"connected_time":904000000000,"state":"active","ping":78},{"user_id":309,"name":"albert jones","steam_id":76561198404271005,"connected_time":364000000000,"state":"active","ping":87},{"user_id":298,"name":"pinky","steam_id":76561199109784776,"connected_time":603000000000,"state":"active","ping":108},{"user_id":306,"name":"KFCereal","steam_id":76561198087627424,"connected_time":470000000000,"state":"active","ping":121},{"user_id":256,"name":"Ockulus","steam_id":76561199069638460,"connected_time":4199000000000,"state":"active","ping":77},{"user_id":290,"name":"Star Child","steam_id":76561198040292894,"connected_time":1344000000000,"state":"active","ping":87}]},{"server_id":406,"name":"Uncletopia | Seattle | 3 | Stopwatch Beta","name_short":"sea-3","host":"sea-1.us.uncletopia.com","port":27035,"enabled":true,"region":"us-west","cc":"us","latitude":47.608013,"longitude":-122.33517,"reserved":0,"last_update":"0001-01-01T00:00:00Z","name_a2s":"Uncletopia | Seattle | 3 | Stopwatch Beta","protocol":17,"map":"workshop/koth_clearcut_b15.ugc2107050255","folder":"tf","game":"Team Fortress","app_id":440,"player_count":0,"max_players":24,"Bots":0,"server_type":"Dedicated","server_os":"Linux","password":true,"vac":true,"version":"7932396","steam_id":85568392924515217,"keywords":["cp","nocrits","nodmgspread","uncletopia"],"game_id":440,"stv_port":27036,"stv_name":"Uncletopia | Seattle | 3 | Stopwatch Beta | STV","players":null},{"server_id":17,"name":"Uncletopia | San Francisco | 1 | All Maps","name_short":"sfo-1","host":"sfo-1.us.uncletopia.com","port":27015,"enabled":true,"region":"us-west","cc":"us","latitude":37.77397,"longitude":-122.4313,"reserved":0,"last_update":"0001-01-01T00:00:00Z","name_a2s":"Uncletopia | San Francisco | 1 | All Maps","protocol":17,"map":"pl_frontier_final","folder":"tf","game":"Team Fortress","app_id":440,"player_count":0,"max_players":24,"Bots":0,"server_type":"Dedicated","server_os":"Linux","password":true,"vac":true,"version":"7932396","steam_id":85568392924469999,"keywords":["nocrits","nodmgspread","payload","uncletopia"],"game_id":440,"stv_port":27016,"stv_name":"Uncletopia | San Francisco | 1 | All Maps | STV","players":null},{"server_id":18,"name":"Uncletopia | San Francisco | 2 | All Maps","name_short":"sfo-2","host":"sfo-1.us.uncletopia.com","port":27025,"enabled":true,"region":"us-west","cc":"us","latitude":37.77397,"longitude":-122.4313,"reserved":0,"last_update":"0001-01-01T00:00:00Z","name_a2s":"Uncletopia | San Francisco | 2 | All Maps","protocol":17,"map":"pl_frontier_final","folder":"tf","game":"Team Fortress","app_id":440,"player_count":0,"max_players":24,"Bots":0,"server_type":"Dedicated","server_os":"Linux","password":true,"vac":true,"version":"7932396","steam_id":85568392924470000,"keywords":["nocrits","nodmgspread","payload","uncletopia"],"game_id":440,"stv_port":27026,"stv_name":"Uncletopia | San Francisco | 2 | All Maps | STV","players":null},{"server_id":19,"name":"Uncletopia | San Francisco | 3 | Stopwatch Beta","name_short":"sfo-3","host":"sfo-1.us.uncletopia.com","port":27035,"enabled":true,"region":"us-west","cc":"us","latitude":37.77397,"longitude":-122.4313,"reserved":0,"last_update":"0001-01-01T00:00:00Z","name_a2s":"Uncletopia | San Francisco | 3 | Stopwatch Beta","protocol":17,"map":"koth_lakeside_final","folder":"tf","game":"Team Fortress","app_id":440,"player_count":0,"max_players":24,"Bots":0,"server_type":"Dedicated","server_os":"Linux","password":true,"vac":true,"version":"7932396","steam_id":85568392924742824,"keywords":["cp","nocrits","nodmgspread","uncletopia"],"game_id":440,"stv_port":27036,"stv_name":"Uncletopia | San Francisco | 3 | Stopwatch Beta | STV","players":null},{"server_id":20,"name":"Uncletopia | San Francisco | 4 | Community","name_short":"sfo-4","host":"sfo-1.us.uncletopia.com","port":27045,"enabled":true,"region":"us-west","cc":"us","latitude":37.77397,"longitude":-122.4313,"reserved":0,"last_update":"0001-01-01T00:00:00Z","name_a2s":"Uncletopia | San Francisco | 4 | Community","protocol":17,"map":"pl_borneo","folder":"tf","game":"Team Fortress","app_id":440,"player_count":0,"max_players":24,"Bots":0,"server_type":"Dedicated","server_os":"Linux","password":true,"vac":true,"version":"7932396","steam_id":85568392924742826,"keywords":["nocrits","nodmgspread","payload","uncletopia"],"game_id":440,"stv_port":27046,"stv_name":"Uncletopia | San Francisco | 4 | Community | STV","players":null},{"server_id":141,"name":"Uncletopia | Sydney | 1 | All Maps","name_short":"syd-1","host":"syd-1.au.uncletopia.com","port":27015,"enabled":true,"region":"au","cc":"au","latitude":-33.865143,"longitude":151.2099,"reserved":0,"last_update":"0001-01-01T00:00:00Z","name_a2s":"Uncletopia | Sydney | 1 | All Maps","protocol":17,"map":"koth_lakeside_final","folder":"tf","game":"Team Fortress","app_id":440,"player_count":0,"max_players":24,"Bots":0,"server_type":"Dedicated","server_os":"Linux","password":true,"vac":true,"version":"7932396","steam_id":85568392924470001,"keywords":["cp","nocrits","nodmgspread","uncletopia"],"game_id":440,"stv_port":27016,"stv_name":"Uncletopia | Sydney | 1 | All Maps | STV","players":null},{"server_id":123,"name":"Uncletopia | Sydney | 2 | All Maps","name_short":"syd-2","host":"syd-1.au.uncletopia.com","port":27025,"enabled":true,"region":"au","cc":"au","latitude":-33.865143,"longitude":151.2099,"reserved":0,"last_update":"0001-01-01T00:00:00Z","name_a2s":"Uncletopia | Sydney | 2 | All Maps","protocol":17,"map":"koth_lakeside_final","folder":"tf","game":"Team Fortress","app_id":440,"player_count":0,"max_players":24,"Bots":0,"server_type":"Dedicated","server_os":"Linux","password":true,"vac":true,"version":"7932396","steam_id":85568392924470002,"keywords":["cp","nocrits","nodmgspread","uncletopia"],"game_id":440,"stv_port":27026,"stv_name":"Uncletopia | Sydney | 2 | All Maps | STV","players":null},{"server_id":395,"name":"Uncletopia | Sydney | 3 | All Maps","name_short":"syd-3","host":"syd-1.au.uncletopia.com","port":27035,"enabled":true,"region":"au","cc":"au","latitude":-33.865143,"longitude":151.2099,"reserved":0,"last_update":"0001-01-01T00:00:00Z","name_a2s":"Uncletopia | Sydney | 3 | All Maps","protocol":17,"map":"cp_process_final","folder":"tf","game":"Team Fortress","app_id":440,"player_count":0,"max_players":24,"Bots":0,"server_type":"Dedicated","server_os":"Linux","password":true,"vac":true,"version":"7932396","steam_id":85568392925194467,"keywords":["cp","nocrits","nodmgspread","uncletopia"],"game_id":440,"stv_port":27036,"stv_name":"Uncletopia | Sydney | 3 | All Maps | STV","players":null},{"server_id":396,"name":"Uncletopia | Sydney | 4 | All Maps","name_short":"syd-4","host":"syd-1.au.uncletopia.com","port":27045,"enabled":true,"region":"au","cc":"au","latitude":-33.865143,"longitude":151.2099,"reserved":0,"last_update":"0001-01-01T00:00:00Z","name_a2s":"Uncletopia | Sydney | 4 | All Maps","protocol":17,"map":"pl_upward","folder":"tf","game":"Team Fortress","app_id":440,"player_count":0,"max_players":24,"Bots":0,"server_type":"Dedicated","server_os":"Linux","password":true,"vac":true,"version":"7932396","steam_id":85568392925397958,"keywords":["nocrits","nodmgspread","payload","uncletopia"],"game_id":440,"stv_port":27046,"stv_name":"Uncletopia | Sydney | 4 | All Maps | STV","players":null},{"server_id":58,"name":"Uncletopia | Sydney | 5 | Stopwatch Beta","name_short":"syd-5","host":"syd-1.au.uncletopia.com","port":27055,"enabled":true,"region":"au","cc":"au","latitude":-33.865143,"longitude":151.2099,"reserved":0,"last_update":"0001-01-01T00:00:00Z","name_a2s":"Uncletopia | Sydney | 5 | Stopwatch Beta","protocol":17,"map":"pl_borneo","folder":"tf","game":"Team Fortress","app_id":440,"player_count":0,"max_players":24,"Bots":0,"server_type":"Dedicated","server_os":"Linux","password":true,"vac":true,"version":"7932396","steam_id":85568392925397959,"keywords":["nocrits","nodmgspread","payload","uncletopia"],"game_id":440,"stv_port":27056,"stv_name":"Uncletopia | Sydney | 5 | Stopwatch Beta | STV","players":null},{"server_id":59,"name":"Uncletopia | Sydney | 6 | Community","name_short":"syd-6","host":"syd-1.au.uncletopia.com","port":27065,"enabled":true,"region":"au","cc":"au","latitude":-33.865143,"longitude":151.2099,"reserved":0,"last_update":"0001-01-01T00:00:00Z","name_a2s":"Uncletopia | Sydney | 6 | Community","protocol":17,"map":"pl_badwater","folder":"tf","game":"Team Fortress","app_id":440,"player_count":0,"max_players":24,"Bots":0,"server_type":"Dedicated","server_os":"Linux","password":true,"vac":true,"version":"7932396","steam_id":85568392925397960,"keywords":["nocrits","nodmgspread","payload","uncletopia"],"game_id":440,"stv_port":27066,"stv_name":"Uncletopia | Sydney | 6 | Community | STV","players":null},{"server_id":49,"name":"Uncletopia | Warsaw | 1 | All Maps","name_short":"waw-1","host":"waw-1.pl.uncletopia.com","port":27015,"enabled":true,"region":"eu","cc":"pl","latitude":52.2297,"longitude":21.017532,"reserved":0,"last_update":"0001-01-01T00:00:00Z","name_a2s":"","protocol":0,"map":"","folder":"","game":"","app_id":0,"player_count":0,"max_players":0,"Bots":0,"server_type":"","server_os":"","password":false,"vac":false,"version":"","steam_id":0,"keywords":null,"game_id":0,"stv_port":0,"stv_name":"","players":null},{"server_id":50,"name":"Uncletopia | Warsaw | 2 | All Maps","name_short":"waw-2","host":"waw-1.pl.uncletopia.com","port":27025,"enabled":true,"region":"eu","cc":"pl","latitude":52.2297,"longitude":21.017532,"reserved":0,"last_update":"0001-01-01T00:00:00Z","name_a2s":"Uncletopia | Warsaw | 2 | All Maps","protocol":17,"map":"cp_altitude","folder":"tf","game":"Team Fortress","app_id":440,"player_count":0,"max_players":24,"Bots":0,"server_type":"Dedicated","server_os":"Linux","password":true,"vac":true,"version":"7932396","steam_id":85568392925397851,"keywords":["cp","nocrits","nodmgspread","uncletopia"],"game_id":440,"stv_port":27026,"stv_name":"Uncletopia | Warsaw | 2 | All Maps | STV","players":null},{"server_id":51,"name":"Uncletopia | Warsaw | 3 | All Maps","name_short":"waw-3","host":"waw-1.pl.uncletopia.com","port":27035,"enabled":true,"region":"eu","cc":"pl","latitude":52.2297,"longitude":21.017532,"reserved":0,"last_update":"0001-01-01T00:00:00Z","name_a2s":"Uncletopia | Warsaw | 3 | All Maps","protocol":17,"map":"koth_lakeside_final","folder":"tf","game":"Team Fortress","app_id":440,"player_count":2,"max_players":24,"Bots":0,"server_type":"Dedicated","server_os":"Linux","password":true,"vac":true,"version":"7932396","steam_id":85568392925397852,"keywords":["cp","nocrits","nodmgspread","uncletopia"],"game_id":440,"stv_port":27036,"stv_name":"Uncletopia | Warsaw | 3 | All Maps | STV","players":[{"user_id":5,"name":"Hunter1608","steam_id":76561198882950579,"connected_time":98000000000,"state":"active","ping":86},{"user_id":6,"name":"sashadudin0107","steam_id":76561199367593517,"connected_time":69000000000,"state":"active","ping":99}]},{"server_id":52,"name":"Uncletopia | Warsaw | 4 | All Maps","name_short":"waw-4","host":"waw-1.pl.uncletopia.com","port":27045,"enabled":true,"region":"eu","cc":"pl","latitude":52.2297,"longitude":21.017532,"reserved":0,"last_update":"0001-01-01T00:00:00Z","name_a2s":"Uncletopia | Warsaw | 4 | All Maps","protocol":17,"map":"pl_barnblitz","folder":"tf","game":"Team Fortress","app_id":440,"player_count":0,"max_players":24,"Bots":0,"server_type":"Dedicated","server_os":"Linux","password":true,"vac":true,"version":"7932396","steam_id":85568392925397853,"keywords":["nocrits","nodmgspread","payload","uncletopia"],"game_id":440,"stv_port":27046,"stv_name":"Uncletopia | Warsaw | 4 | All Maps | STV","players":null},{"server_id":53,"name":"Uncletopia | Warsaw | 5 | Stopwatch Beta","name_short":"waw-5","host":"waw-1.pl.uncletopia.com","port":27055,"enabled":true,"region":"eu","cc":"pl","latitude":52.2297,"longitude":21.017532,"reserved":0,"last_update":"0001-01-01T00:00:00Z","name_a2s":"Uncletopia | Warsaw | 5 | Stopwatch Beta","protocol":17,"map":"cp_granary","folder":"tf","game":"Team Fortress","app_id":440,"player_count":0,"max_players":24,"Bots":0,"server_type":"Dedicated","server_os":"Linux","password":true,"vac":true,"version":"7932396","steam_id":85568392925397854,"keywords":["cp","nocrits","nodmgspread","uncletopia"],"game_id":440,"stv_port":27056,"stv_name":"Uncletopia | Warsaw | 5 | Stopwatch Beta | STV","players":null},{"server_id":54,"name":"Uncletopia | Warsaw | 6 | Community","name_short":"waw-6","host":"waw-1.pl.uncletopia.com","port":27065,"enabled":true,"region":"eu","cc":"pl","latitude":52.2297,"longitude":21.017532,"reserved":0,"last_update":"0001-01-01T00:00:00Z","name_a2s":"Uncletopia | Warsaw | 6 | Community","protocol":17,"map":"workshop/cp_overgrown_rc8.ugc503939302","folder":"tf","game":"Team Fortress","app_id":440,"player_count":0,"max_players":24,"Bots":0,"server_type":"Dedicated","server_os":"Linux","password":true,"vac":true,"version":"7932396","steam_id":85568392925397856,"keywords":["cp","nocrits","nodmgspread","uncletopia"],"game_id":440,"stv_port":27066,"stv_name":"Uncletopia | Warsaw | 6 | Community | STV","players":null}]}