{"status":true,"message":"","result":[{"server_id":9,"name":"Uncletopia | Atlanta | 1 | All Maps","name_short":"atl-1","host":"atl-1.us.uncletopia.com","port":27015,"enabled":true,"region":"us-east","cc":"us","latitude":33.753746,"longitude":-84.38633,"reserved":0,"last_update":"0001-01-01T00:00:00Z","name_a2s":"Uncletopia | Atlanta | 1 | All Maps","protocol":17,"map":"pl_barnblitz","folder":"tf","game":"Team Fortress","app_id":440,"player_count":24,"max_players":24,"Bots":0,"server_type":"Dedicated","server_os":"Linux","password":true,"vac":true,"version":"7757534","steam_id":85568392924469982,"keywords":["nocrits","nodmgspread","payload","uncletopia"],"game_id":440,"stv_port":27016,"stv_name":"Uncletopia | Atlanta | 1 | All Maps | STV","players":[{"user_id":171,"name":"Toygar","steam_id":76561198023679830,"connected_time":538000000000,"state":"active","ping":63},{"user_id":166,"name":"Protoshake","steam_id":76561198840276176,"connected_time":993000000000,"state":"active","ping":79},{"user_id":172,"name":"BlueKirbvii","steam_id":76561199021459412,"connected_time":515000000000,"state":"active","ping":95},{"user_id":165,"name":"knotsofunny","steam_id":76561198071336304,"connected_time":1077000000000,"state":"active","ping":69},{"user_id":151,"name":"Mad Cow","steam_id":76561199470707812,"connected_time":2600000000000,"state":"active","ping":72},{"user_id":159,"name":"The Spy from TF2","steam_id":76561199121276474,"connected_time":1774000000000,"state":"active","ping":82},{"user_id":173,"name":"Rin \"Hindwing\" Redtail","steam_id":76561199074865638,"connected_time":498000000000,"state":"active","ping":59},{"user_id":174,"name":"BazicPerzanity | #SaveTF2","steam_id":76561198307843713,"connected_time":489000000000,"state":"active","ping":77},{"user_id":110,"name":"Ejaculation Zach","steam_id":76561198203765200,"connected_time":6019000000000,"state":"active","ping":78},{"user_id":168,"name":"yomo","steam_id":76561198063175935,"connected_time":668000000000,"state":"active","ping":57},{"user_id":178,"name":"Fight Milk","steam_id":76561198046189668,"connected_time":223000000000,"state":"active","ping":74},{"user_id":170,"name":"M@verick","steam_id":76561198006363519,"connected_time":582000000000,"state":"active","ping":77},{"user_id":114,"name":"girlboss","steam_id":76561197989019617,"connected_time":5957000000000,"state":"active","ping":73},{"user_id":167,"name":"Anji's onlyfans","steam_id":76561198353160282,"connected_time":927000000000,"state":"active","ping":76},{"user_id":177,"name":"gameace777","steam_id":76561198047696511,"connected_time":330000000000,"state":"active","ping":66},{"user_id":179,"name":"glitchy","steam_id":76561199009135766,"connected_time":216000000000,"state":"active","ping":61},{"user_id":161,"name":"Ashes!","steam_id":76561197998475441,"connected_time":1731000000000,"state":"active","ping":94},{"user_id":134,"name":"RED1 | vid_","steam_id":76561198065159053,"connected_time":4488000000000,"state":"active","ping":48},{"user_id":164,"name":"bigconkeldurrfan3000","steam_id":76561198258062078,"connected_time":1289000000000,"state":"active","ping":81},{"user_id":148,"name":"Whoa","steam_id":76561197970353496,"connected_time":2843000000000,"state":"active","ping":74},{"user_id":154,"name":"hamal cine","steam_id":76561198079619374,"connected_time":2040000000000,"state":"active","ping":57},{"user_id":162,"name":"atserc","steam_id":76561197997570349,"connected_time":1676000000000,"state":"active","ping":79},{"user_id":149,"name":"kick bots = gigachad","steam_id":76561198384098648,"connected_time":2799000000000,"state":"active","ping":66},{"user_id":169,"name":"BLU1 l Epifiny","steam_id":76561198027958086,"connected_time":668000000000,"state":"active","ping":92}]},{"server_id":400,"name":"Uncletopia | Atlanta | 3 | Stopwatch Beta","name_short":"atl-3","host":"atl-1.us.uncletopia.com","port":27035,"enabled":true,"region":"us-east","cc":"us","latitude":33.753746,"longitude":-84.38633,"reserved":0,"last_update":"0001-01-01T00:00:00Z","name_a2s":"Uncletopia | Atlanta | 3 | Stopwatch Beta","protocol":17,"map":"pl_borneo","folder":"tf","game":"Team Fortress","app_id":440,"player_count":0,"max_players":24,"Bots":0,"server_type":"Dedicated","server_os":"Linux","password":true,"vac":true,"version":"7757534","steam_id":85568392924515187,"keywords":["nocrits","nodmgspread","payload","uncletopia"],"game_id":440,"stv_port":27036,"stv_name":"Uncletopia | Atlanta | 3 | Stopwatch Beta | STV","players":null},{"server_id":401,"name":"Uncletopia | Atlanta | 4 | No Payload","name_short":"atl-4","host":"atl-1.us.uncletopia.com","port":27045,"enabled":true,"region":"us-east","cc":"us","latitude":33.753746,"longitude":-84.38633,"reserved":0,"last_update":"0001-01-01T00:00:00Z","name_a2s":"Uncletopia | Atlanta | 4 | No Payload","protocol":17,"map":"pl_pier","folder":"tf","game":"Team Fortress","app_id":440,"player_count":0,"max_players":24,"Bots":0,"server_type":"Dedicated","server_os":"Linux","password":true,"vac":true,"version":"7723704","steam_id":85568392924515188,"keywords":["nocrits","nodmgspread","payload","uncletopia"],"game_id":440,"stv_port":27046,"stv_name":"Uncletopia | Atlanta | 4 | No Payload | STV","players":null},{"server_id":2,"name":"Uncletopia | Chicago | 1 | All Maps","name_short":"chi-1","host":"chi-1.us.uncletopia.com","port":27015,"enabled":true,"region":"us-central","cc":"us","latitude":41.881832,"longitude":-87.62318,"reserved":0,"last_update":"0001-01-01T00:00:00Z","name_a2s":"Uncletopia | Chicago | 1 | All Maps","protocol":17,"map":"pl_upward","folder":"tf","game":"Team Fortress","app_id":440,"player_count":24,"max_players":24,"Bots":0,"server_type":"Dedicated","server_os":"Linux","password":true,"vac":true,"version":"7757534","steam_id":85568392924469984,"keywords":["nocrits","nodmgspread","payload","uncletopia"],"game_id":440,"stv_port":27016,"stv_name":"Uncletopia | Chicago | 1 | All Maps | STV","players":[{"user_id":295,"name":"b. eno","steam_id":76561198109901138,"connected_time":18000000000,"state":"active","ping":81},{"user_id":253,"name":"Sexyrevolver","steam_id":76561199058132505,"connected_time":2943000000000,"state":"active","ping":60},{"user_id":260,"name":"PotatoChamp","steam_id":76561198074247215,"connected_time":2141000000000,"state":"active","ping":116},{"user_id":285,"name":"Skuntle Bingoid","steam_id":76561199097297812,"connected_time":783000000000,"state":"active","ping":144},{"user_id":294,"name":"capybara","steam_id":76561198843437081,"connected_time":155000000000,"state":"active","ping":107},{"user_id":241,"name":"creeeeeee","steam_id":76561198392539722,"connected_time":5471000000000,"state":"active","ping":84},{"user_id":284,"name":"eclipseDemise","steam_id":76561198317900751,"connected_time":810000000000,"state":"active","ping":70},{"user_id":286,"name":"Pixler544","steam_id":76561198240575132,"connected_time":782000000000,"state":"active","ping":87},{"user_id":230,"name":"Triples_","steam_id":76561198094249561,"connected_time":5804000000000,"state":"active","ping":53},{"user_id":281,"name":"debin","steam_id":76561198070711217,"connected_time":927000000000,"state":"active","ping":56},{"user_id":287,"name":"ClickityShiba","steam_id":76561199381626991,"connected_time":774000000000,"state":"active","ping":91},{"user_id":265,"name":"Dexter","steam_id":76561198050149035,"connected_time":2069000000000,"state":"active","ping":69},{"user_id":254,"name":"Big Phony","steam_id":76561199092395311,"connected_time":2933000000000,"state":"active","ping":64},{"user_id":267,"name":"Gobbo Nikki","steam_id":76561198164401669,"connected_time":2035000000000,"state":"active","ping":66},{"user_id":288,"name":"Rx Auntie","steam_id":76561198051618393,"connected_time":754000000000,"state":"active","ping":68},{"user_id":268,"name":"APJP","steam_id":76561198454287025,"connected_time":2020000000000,"state":"active","ping":78},{"user_id":290,"name":"gamer dilbert","steam_id":76561197984752473,"connected_time":744000000000,"state":"active","ping":49},{"user_id":233,"name":"HollowMan","steam_id":76561198967266827,"connected_time":5664000000000,"state":"active","ping":86},{"user_id":291,"name":"üíï Bussy Gaming üíï","steam_id":76561198983966907,"connected_time":654000000000,"state":"active","ping":75},{"user_id":282,"name":"Tyco","steam_id":76561197978414167,"connected_time":854000000000,"state":"active","ping":75},{"user_id":276,"name":"R2D28MYFOOD","steam_id":76561198124315872,"connected_time":1641000000000,"state":"active","ping":89},{"user_id":273,"name":"Tones","steam_id":76561198039572032,"connected_time":1935000000000,"state":"active","ping":69},{"user_id":199,"name":"Dali","steam_id":76561198077593486,"connected_time":8090000000000,"state":"active","ping":124},{"user_id":293,"name":"iamoctopii","steam_id":76561198876901076,"connected_time":566000000000,"state":"active","ping":142}]},{"server_id":106,"name":"Uncletopia | Chicago | 2 | All Maps","name_short":"chi-2","host":"chi-1.us.uncletopia.com","port":27025,"enabled":true,"region":"us-central","cc":"us","latitude":41.881832,"longitude":-87.62318,"reserved":0,"last_update":"0001-01-01T00:00:00Z","name_a2s":"Uncletopia | Chicago | 2 | All Maps","protocol":17,"map":"pl_swiftwater_final1","folder":"tf","game":"Team Fortress","app_id":440,"player_count":24,"max_players":24,"Bots":0,"server_type":"Dedicated","server_os":"Linux","password":true,"vac":true,"version":"7757534","steam_id":85568392924469985,"keywords":["nocrits","nodmgspread","payload","uncletopia"],"game_id":440,"stv_port":27026,"stv_name":"Uncletopia | Chicago | 2 | All Maps | STV","players":[{"user_id":11,"name":"The World's Softest Sandwich","steam_id":76561198015577707,"connected_time":4783000000000,"state":"active","ping":73},{"user_id":33,"name":"Pescavelho","steam_id":76561198267897588,"connected_time":4232000000000,"state":"active","ping":166},{"user_id":50,"name":"foxy is a good guy","steam_id":76561198367019006,"connected_time":3059000000000,"state":"active","ping":70},{"user_id":73,"name":"Uncle Majic the Hip Hop Magicia","steam_id":76561198107924303,"connected_time":245000000000,"state":"active","ping":61},{"user_id":75,"name":"DamienB","steam_id":76561198014923455,"connected_time":234000000000,"state":"active","ping":75},{"user_id":42,"name":"nav","steam_id":76561198872608266,"connected_time":3350000000000,"state":"active","ping":83},{"user_id":62,"name":"Sentry (Egg_toast)","steam_id":76561198392370897,"connected_time":1541000000000,"state":"active","ping":67},{"user_id":76,"name":"maS","steam_id":76561198033846407,"connected_time":225000000000,"state":"active","ping":60},{"user_id":79,"name":"A Fruit","steam_id":76561198951830050,"connected_time":203000000000,"state":"active","ping":62},{"user_id":55,"name":"no","steam_id":76561198248853140,"connected_time":2469000000000,"state":"active","ping":49},{"user_id":77,"name":"PonYOOOOOOO","steam_id":76561199067424111,"connected_time":210000000000,"state":"active","ping":116},{"user_id":71,"name":"bhop","steam_id":76561198064885639,"connected_time":673000000000,"state":"active","ping":81},{"user_id":44,"name":"doctor sex md","steam_id":76561198150678175,"connected_time":3265000000000,"state":"active","ping":100},{"user_id":72,"name":"Quansen","steam_id":76561198151594550,"connected_time":602000000000,"state":"active","ping":59},{"user_id":78,"name":"tasty","steam_id":76561198083839061,"connected_time":210000000000,"state":"active","ping":74},{"user_id":25,"name":"Dictatorial Karelian","steam_id":76561198196736457,"connected_time":4334000000000,"state":"active","ping":159},{"user_id":39,"name":"cat","steam_id":76561198370487545,"connected_time":3486000000000,"state":"active","ping":77},{"user_id":80,"name":"I Lead MLB In \"Bats Eaten\"","steam_id":76561198034079853,"connected_time":183000000000,"state":"active","ping":71},{"user_id":67,"name":"Sage","steam_id":76561198143101697,"connected_time":966000000000,"state":"active","ping":99},{"user_id":64,"name":"bocchi la roca","steam_id":76561198025668771,"connected_time":978000000000,"state":"active","ping":136},{"user_id":32,"name":"Eliteal","steam_id":76561198215609817,"connected_time":4255000000000,"state":"active","ping":47},{"user_id":34,"name":"TTTY224","steam_id":76561198941176499,"connected_time":4218000000000,"state":"active","ping":79},{"user_id":81,"name":"Smeagol Thomas Peterson","steam_id":76561198127540797,"connected_time":176000000000,"state":"active","ping":88},{"user_id":41,"name":"Fresh Lychee","steam_id":76561198045399559,"connected_time":3463000000000,"state":"active","ping":59}]},{"server_id":402,"name":"Uncletopia | Chicago | 3 | All Maps","name_short":"chi-3","host":"chi-1.us.uncletopia.com","port":27035,"enabled":true,"region":"us-central","cc":"us","latitude":41.881832,"longitude":-87.62318,"reserved":0,"last_update":"0001-01-01T00:00:00Z","name_a2s":"Uncletopia | Chicago | 3 | All Maps","protocol":17,"map":"pl_badwater","folder":"tf","game":"Team Fortress","app_id":440,"player_count":24,"max_players":24,"Bots":0,"server_type":"Dedicated","server_os":"Linux","password":true,"vac":true,"version":"7757534","steam_id":85568392924515191,"keywords":["nocrits","nodmgspread","payload","uncletopia"],"game_id":440,"stv_port":27036,"stv_name":"Uncletopia | Chicago | 3 | All Maps | STV","players":[{"user_id":50,"name":"Unwavering Flavor","steam_id":76561198053306065,"connected_time":663000000000,"state":"active","ping":76},{"user_id":45,"name":"BLU1 | Shame","steam_id":76561198100490994,"connected_time":823000000000,"state":"active","ping":72},{"user_id":44,"name":"Bush.exe","steam_id":76561198124385307,"connected_time":879000000000,"state":"active","ping":65},{"user_id":11,"name":"rox!","steam_id":76561198307200753,"connected_time":2375000000000,"state":"active","ping":86},{"user_id":12,"name":"Genie","steam_id":76561198070858815,"connected_time":2317000000000,"state":"active","ping":45},{"user_id":13,"name":"Goat Priestess","steam_id":76561198273751425,"connected_time":2300000000000,"state":"active","ping":77},{"user_id":48,"name":"tree","steam_id":76561198116885731,"connected_time":765000000000,"state":"active","ping":48},{"user_id":15,"name":"Professor farnsworth","steam_id":76561199092595513,"connected_time":2292000000000,"state":"active","ping":112},{"user_id":46,"name":"The Drunk Clown","steam_id":76561197986850426,"connected_time":789000000000,"state":"active","ping":75},{"user_id":17,"name":"rubb3r","steam_id":76561198096874230,"connected_time":2275000000000,"state":"active","ping":60},{"user_id":18,"name":"‚óÜPizzaPasta‚óÜ","steam_id":76561198161440852,"connected_time":2227000000000,"state":"active","ping":82},{"user_id":19,"name":"Transgender Vanny","steam_id":76561198297961039,"connected_time":2150000000000,"state":"active","ping":55},{"user_id":20,"name":"Cuttle's Fish","steam_id":76561198280483257,"connected_time":2137000000000,"state":"active","ping":59},{"user_id":53,"name":"Coolmonkey82","steam_id":76561198881847410,"connected_time":62000000000,"state":"active","ping":60},{"user_id":43,"name":"your colonoscopy results","steam_id":76561198017705248,"connected_time":921000000000,"state":"active","ping":46},{"user_id":26,"name":"IPlayGamez","steam_id":76561198041387508,"connected_time":1857000000000,"state":"active","ping":65},{"user_id":27,"name":"tweddyW","steam_id":76561198342953315,"connected_time":1856000000000,"state":"active","ping":93},{"user_id":28,"name":"Chafn","steam_id":76561197969386702,"connected_time":1840000000000,"state":"active","ping":99},{"user_id":47,"name":"Kanye is my Biggest Fan","steam_id":76561198162363747,"connected_time":776000000000,"state":"active","ping":69},{"user_id":52,"name":"Elders_Lord","steam_id":76561199012779980,"connected_time":321000000000,"state":"active","ping":61},{"user_id":41,"name":"nut","steam_id":76561198395577807,"connected_time":1366000000000,"state":"active","ping":59},{"user_id":49,"name":"ICanOnlySeeMyHands02","steam_id":76561199467713448,"connected_time":727000000000,"state":"active","ping":90},{"user_id":51,"name":"Engee's homie","steam_id":76561199025387547,"connected_time":623000000000,"state":"active","ping":109},{"user_id":38,"name":"jstn","steam_id":76561198845283665,"connected_time":1692000000000,"state":"active","ping":74}]},{"server_id":403,"name":"Uncletopia | Chicago | 4 | All Maps","name_short":"chi-4","host":"chi-1.us.uncletopia.com","port":27045,"enabled":true,"region":"us-central","cc":"us","latitude":41.881832,"longitude":-87.62318,"reserved":0,"last_update":"0001-01-01T00:00:00Z","name_a2s":"Uncletopia | Chicago | 4 | All Maps","protocol":17,"map":"cp_altitude","folder":"tf","game":"Team Fortress","app_id":440,"player_count":0,"max_players":24,"Bots":0,"server_type":"Dedicated","server_os":"Linux","password":true,"vac":true,"version":"7757534","steam_id":85568392924515193,"keywords":["cp","nocrits","nodmgspread","uncletopia"],"game_id":440,"stv_port":27046,"stv_name":"Uncletopia | Chicago | 4 | All Maps | STV","players":null},{"server_id":36,"name":"Uncletopia | Chicago | 5 | All Maps","name_short":"chi-5","host":"chi-2.us.uncletopia.com","port":27015,"enabled":true,"region":"us-central","cc":"us","latitude":41.881832,"longitude":-87.62318,"reserved":0,"last_update":"0001-01-01T00:00:00Z","name_a2s":"Uncletopia | Chicago | 5 | All Maps","protocol":17,"map":"pl_pier","folder":"tf","game":"Team Fortress","app_id":440,"player_count":24,"max_players":24,"Bots":0,"server_type":"Dedicated","server_os":"Linux","password":true,"vac":true,"version":"7757534","steam_id":85568392924866362,"keywords":["nocrits","nodmgspread","payload","uncletopia"],"game_id":440,"stv_port":27016,"stv_name":"Uncletopia | Chicago | 5 | All Maps | STV","players":[{"user_id":293,"name":"Tyrone","steam_id":76561198189429665,"connected_time":175000000000,"state":"active","ping":74},{"user_id":289,"name":"A Reliable 2004 Honda Civic","steam_id":76561198088071133,"connected_time":555000000000,"state":"active","ping":84},{"user_id":223,"name":"Tom","steam_id":76561198070630154,"connected_time":6042000000000,"state":"active","ping":89},{"user_id":278,"name":"phroliax","steam_id":76561198207075529,"connected_time":1546000000000,"state":"active","ping":83},{"user_id":231,"name":"Mug Moment Gaming","steam_id":76561198233098136,"connected_time":5404000000000,"state":"active","ping":71},{"user_id":279,"name":"potty trained","steam_id":76561198141557766,"connected_time":1540000000000,"state":"active","ping":74},{"user_id":251,"name":"ExplosiveGamer21","steam_id":76561198132370955,"connected_time":3312000000000,"state":"active","ping":115},{"user_id":269,"name":"Leviathan","steam_id":76561197997528907,"connected_time":2197000000000,"state":"active","ping":59},{"user_id":290,"name":"Ronkhus","steam_id":76561198408528727,"connected_time":492000000000,"state":"active","ping":151},{"user_id":281,"name":"John Wilkes Booth","steam_id":76561198062103069,"connected_time":1534000000000,"state":"active","ping":84},{"user_id":262,"name":"_DrunkenGibberish_","steam_id":76561199123070071,"connected_time":2551000000000,"state":"active","ping":105},{"user_id":292,"name":"Ogalog","steam_id":76561198859755728,"connected_time":365000000000,"state":"active","ping":143},{"user_id":236,"name":"JFK GAMING","steam_id":76561198025593142,"connected_time":4284000000000,"state":"active","ping":57},{"user_id":282,"name":"poopfeast420","steam_id":76561198056158882,"connected_time":1528000000000,"state":"active","ping":77},{"user_id":291,"name":"Lennu","steam_id":76561198060730154,"connected_time":444000000000,"state":"active","ping":73},{"user_id":286,"name":"Frogavious","steam_id":76561198067324603,"connected_time":1497000000000,"state":"active","ping":85},{"user_id":283,"name":"‚ú™kook ‚ô•  ‚ô•","steam_id":76561198037846151,"connected_time":1520000000000,"state":"active","ping":60},{"user_id":256,"name":"Mr. Rogers","steam_id":76561198296190438,"connected_time":3043000000000,"state":"active","ping":57},{"user_id":204,"name":"Enzo","steam_id":76561197975076681,"connected_time":6890000000000,"state":"active","ping":53},{"user_id":284,"name":"FitzyBear","steam_id":76561198409189585,"connected_time":1519000000000,"state":"active","ping":67},{"user_id":270,"name":"Data","steam_id":76561197996329548,"connected_time":2140000000000,"state":"active","ping":63},{"user_id":285,"name":"Kvlt Leader","steam_id":76561198063449953,"connected_time":1502000000000,"state":"active","ping":81},{"user_id":288,"name":"Monica Lewinsky's boytoy","steam_id":76561198946575364,"connected_time":1000000000000,"state":"active","ping":78},{"user_id":247,"name":"jzplr üé∑üêõ","steam_id":76561198091901520,"connected_time":3618000000000,"state":"active","ping":72}]},{"server_id":37,"name":"Uncletopia | Chicago | 6 | All Maps","name_short":"chi-6","host":"chi-2.us.uncletopia.com","port":27025,"enabled":true,"region":"us-central","cc":"us","latitude":41.881832,"longitude":-87.62318,"reserved":0,"last_update":"0001-01-01T00:00:00Z","name_a2s":"Uncletopia | Chicago | 6 | All Maps","protocol":17,"map":"cp_process_final","folder":"tf","game":"Team Fortress","app_id":440,"player_count":22,"max_players":24,"Bots":0,"server_type":"Dedicated","server_os":"Linux","password":true,"vac":true,"version":"7757534","steam_id":85568392924866363,"keywords":["cp","nocrits","nodmgspread","uncletopia"],"game_id":440,"stv_port":27026,"stv_name":"Uncletopia | Chicago | 6 | All Maps | STV","players":[{"user_id":187,"name":"Kinbo2487","steam_id":76561198184714198,"connected_time":107000000000,"state":"active","ping":76},{"user_id":186,"name":"Decot","steam_id":76561198042016967,"connected_time":169000000000,"state":"active","ping":83},{"user_id":160,"name":"All Tomorrow's Parties","steam_id":76561197995936212,"connected_time":1225000000000,"state":"active","ping":51},{"user_id":179,"name":"Jw. www.vaticancatholic.com","steam_id":76561198190170075,"connected_time":609000000000,"state":"active","ping":60},{"user_id":152,"name":"hey beautiful!","steam_id":76561198224614084,"connected_time":1446000000000,"state":"active","ping":74},{"user_id":172,"name":"Local","steam_id":76561198069537437,"connected_time":890000000000,"state":"active","ping":116},{"user_id":141,"name":"Prime Sanity","steam_id":76561198395766307,"connected_time":2757000000000,"state":"active","ping":46},{"user_id":100,"name":"gretchling","steam_id":76561198046111695,"connected_time":5476000000000,"state":"active","ping":62},{"user_id":159,"name":"Kindagoodplayer","steam_id":76561198814625843,"connected_time":1236000000000,"state":"active","ping":75},{"user_id":190,"name":"cassius","steam_id":76561198203851303,"connected_time":55000000000,"state":"active","ping":82},{"user_id":189,"name":"sand mountain sam","steam_id":76561198929605128,"connected_time":82000000000,"state":"active","ping":50},{"user_id":144,"name":"nnobi","steam_id":76561198878729277,"connected_time":2752000000000,"state":"active","ping":75},{"user_id":191,"name":"Xitea","steam_id":76561198086511399,"connected_time":52000000000,"state":"active","ping":74},{"user_id":174,"name":"Ketryf","steam_id":76561198140849890,"connected_time":851000000000,"state":"active","ping":169},{"user_id":171,"name":"3 spooky 5 me","steam_id":76561199049488718,"connected_time":921000000000,"state":"active","ping":84},{"user_id":180,"name":"Clean Lines","steam_id":76561197960691518,"connected_time":525000000000,"state":"active","ping":52},{"user_id":192,"name":"BoioftheNile","steam_id":76561198834204114,"connected_time":11000000000,"state":"spawning","ping":119},{"user_id":177,"name":"Coolstuff","steam_id":76561198178350213,"connected_time":838000000000,"state":"active","ping":54},{"user_id":169,"name":"CutiX","steam_id":76561198306912450,"connected_time":962000000000,"state":"active","ping":79},{"user_id":73,"name":"notquiteblue","steam_id":76561198838382205,"connected_time":8011000000000,"state":"active","ping":85},{"user_id":165,"name":"North Central Positronics Rep","steam_id":76561198133718360,"connected_time":1166000000000,"state":"active","ping":60},{"user_id":183,"name":"toadburger","steam_id":76561198979526319,"connected_time":468000000000,"state":"active","ping":52}]},{"server_id":38,"name":"Uncletopia | Chicago | 7 | Stopwatch Beta","name_short":"chi-7","host":"chi-2.us.uncletopia.com","port":27035,"enabled":true,"region":"us-central","cc":"us","latitude":41.881832,"longitude":-87.62318,"reserved":0,"last_update":"0001-01-01T00:00:00Z","name_a2s":"Uncletopia | Chicago | 7 | Stopwatch Beta","protocol":17,"map":"pl_upward","folder":"tf","game":"Team Fortress","app_id":440,"player_count":25,"max_players":24,"Bots":0,"server_type":"Dedicated","server_os":"Linux","password":true,"vac":true,"version":"7757534","steam_id":85568392924866364,"keywords":["nocrits","nodmgspread","payload","uncletopia"],"game_id":440,"stv_port":27036,"stv_name":"Uncletopia | Chicago | 7 | Stopwatch Beta | STV","players":[{"user_id":295,"name":"John the Faptist","steam_id":76561198119567552,"connected_time":546000000000,"state":"active","ping":107},{"user_id":277,"name":"Mythos #SaveTF2","steam_id":76561198050243068,"connected_time":1139000000000,"state":"active","ping":67},{"user_id":286,"name":"lord setch","steam_id":76561198252328518,"connected_time":892000000000,"state":"active","ping":96},{"user_id":299,"name":"Frenemy \u003e:D","steam_id":76561198011363677,"connected_time":325000000000,"state":"active","ping":45},{"user_id":306,"name":"NGsterson","steam_id":76561198162108154,"connected_time":222000000000,"state":"active","ping":107},{"user_id":308,"name":"Hurb","steam_id":76561198746677086,"connected_time":106000000000,"state":"active","ping":75},{"user_id":307,"name":"prdxninja","steam_id":76561198170081774,"connected_time":113000000000,"state":"active","ping":44},{"user_id":309,"name":"Xitea","steam_id":76561198086511399,"connected_time":62000000000,"state":"connecting","ping":0},{"user_id":285,"name":"Snoopy","steam_id":76561198273735974,"connected_time":934000000000,"state":"active","ping":102},{"user_id":287,"name":"Back with the milk","steam_id":76561199020105501,"connected_time":890000000000,"state":"active","ping":72},{"user_id":289,"name":"totoro","steam_id":76561198210420871,"connected_time":870000000000,"state":"active","ping":45},{"user_id":290,"name":"the grungler!","steam_id":76561198058485742,"connected_time":852000000000,"state":"active","ping":58},{"user_id":293,"name":"LazyCat","steam_id":76561198012861648,"connected_time":634000000000,"state":"active","ping":62},{"user_id":294,"name":"oh shoot its another guy","steam_id":76561199376593582,"connected_time":566000000000,"state":"active","ping":71},{"user_id":296,"name":"_normal","steam_id":76561198338505734,"connected_time":545000000000,"state":"active","ping":55},{"user_id":297,"name":"Meat Man","steam_id":76561198345602657,"connected_time":528000000000,"state":"active","ping":70},{"user_id":298,"name":"Lamy","steam_id":76561198348354629,"connected_time":352000000000,"state":"active","ping":92},{"user_id":300,"name":"macboas","steam_id":76561199203393893,"connected_time":310000000000,"state":"active","ping":153},{"user_id":301,"name":"sky","steam_id":76561198021649180,"connected_time":307000000000,"state":"active","ping":61},{"user_id":261,"name":"keysandrew","steam_id":76561198077178683,"connected_time":2759000000000,"state":"active","ping":86},{"user_id":303,"name":"Antknee","steam_id":76561198263793809,"connected_time":276000000000,"state":"active","ping":80},{"user_id":250,"name":"Fresh0c0","steam_id":76561198271933283,"connected_time":3990000000000,"state":"active","ping":60},{"user_id":304,"name":"Genius Meme","steam_id":76561198162911254,"connected_time":269000000000,"state":"active","ping":109},{"user_id":305,"name":"Kebab","steam_id":76561199075899115,"connected_time":255000000000,"state":"active","ping":92},{"user_id":310,"name":"Weak","steam_id":76561198857135096,"connected_time":9000000000,"state":"active","ping":76}]},{"server_id":39,"name":"Uncletopia | Chicago | 8 | Community","name_short":"chi-8","host":"chi-2.us.uncletopia.com","port":27045,"enabled":true,"region":"us-central","cc":"us","latitude":41.881832,"longitude":-87.62318,"reserved":0,"last_update":"0001-01-01T00:00:00Z","name_a2s":"Uncletopia | Chicago | 8 | Community","protocol":17,"map":"pl_pier","folder":"tf","game":"Team Fortress","app_id":440,"player_count":0,"max_players":24,"Bots":0,"server_type":"Dedicated","server_os":"Linux","password":true,"vac":true,"version":"7757534","steam_id":85568392924866365,"keywords":["nocrits","nodmgspread","payload","uncletopia"],"game_id":440,"stv_port":27046,"stv_name":"Uncletopia | Chicago | 8 | Community | STV","players":null},{"server_id":8,"name":"Uncletopia | Dallas | 1 | All Maps","name_short":"dal-1","host":"dal-1.us.uncletopia.com","port":27015,"enabled":true,"region":"us-central","cc":"us","latitude":32.779167,"longitude":-96.80889,"reserved":0,"last_update":"0001-01-01T00:00:00Z","name_a2s":"Uncletopia | Dallas | 1 | All Maps","protocol":17,"map":"pl_frontier_final","folder":"tf","game":"Team Fortress","app_id":440,"player_count":24,"max_players":24,"Bots":0,"server_type":"Dedicated","server_os":"Linux","password":true,"vac":true,"version":"7757534","steam_id":85568392924469986,"keywords":["nocrits","nodmgspread","payload","uncletopia"],"game_id":440,"stv_port":27016,"stv_name":"Uncletopia | Dallas | 1 | All Maps | STV","players":[{"user_id":221,"name":"No Credit","steam_id":76561198110245806,"connected_time":1982000000000,"state":"active","ping":90},{"user_id":237,"name":"boomerang fish","steam_id":76561198113166394,"connected_time":555000000000,"state":"active","ping":67},{"user_id":233,"name":"pingus","steam_id":76561198268995867,"connected_time":1162000000000,"state":"active","ping":73},{"user_id":71,"name":"yitz","steam_id":76561198375575841,"connected_time":11399000000000,"state":"active","ping":74},{"user_id":193,"name":"Blue_Yoshi","steam_id":76561199455280829,"connected_time":5116000000000,"state":"active","ping":68},{"user_id":206,"name":"bad at video games","steam_id":76561198328675913,"connected_time":4121000000000,"state":"active","ping":126},{"user_id":32,"name":"Fred","steam_id":76561197983870604,"connected_time":14174000000000,"state":"active","ping":69},{"user_id":187,"name":"pelt","steam_id":76561197993593754,"connected_time":5798000000000,"state":"active","ping":68},{"user_id":234,"name":"BloodyRevel","steam_id":76561198286519652,"connected_time":876000000000,"state":"active","ping":98},{"user_id":197,"name":"Kylar","steam_id":76561198196979431,"connected_time":4749000000000,"state":"active","ping":91},{"user_id":33,"name":"Fishstall","steam_id":76561198038126034,"connected_time":14149000000000,"state":"active","ping":65},{"user_id":225,"name":"Plato the Battle Philosopher","steam_id":76561198000299187,"connected_time":1639000000000,"state":"active","ping":86},{"user_id":57,"name":"exer","steam_id":76561197973093864,"connected_time":12862000000000,"state":"active","ping":79},{"user_id":194,"name":"breloom","steam_id":76561198062922146,"connected_time":4877000000000,"state":"active","ping":58},{"user_id":198,"name":"Chris P Bacon","steam_id":76561199217021327,"connected_time":4692000000000,"state":"active","ping":75},{"user_id":216,"name":"Tommy Provolone","steam_id":76561198170062377,"connected_time":2712000000000,"state":"active","ping":75},{"user_id":210,"name":"Pneumo.","steam_id":76561197987911883,"connected_time":3711000000000,"state":"active","ping":131},{"user_id":226,"name":"teatimesukka","steam_id":76561198978749594,"connected_time":1614000000000,"state":"active","ping":38},{"user_id":236,"name":"Inkspot","steam_id":76561199003790541,"connected_time":602000000000,"state":"active","ping":70},{"user_id":235,"name":"MARIOPARTYDSFAN","steam_id":76561198872122117,"connected_time":714000000000,"state":"active","ping":68},{"user_id":201,"name":"garry","steam_id":76561199091007559,"connected_time":4623000000000,"state":"active","ping":88},{"user_id":228,"name":"Anxious Nerd Bird","steam_id":76561198112178602,"connected_time":1400000000000,"state":"active","ping":83},{"user_id":231,"name":"Onyx","steam_id":76561198275349640,"connected_time":1328000000000,"state":"active","ping":60},{"user_id":215,"name":"Derply","steam_id":76561198871211642,"connected_time":2942000000000,"state":"active","ping":71}]},{"server_id":108,"name":"Uncletopia | Dallas | 2 | All Maps","name_short":"dal-2","host":"dal-1.us.uncletopia.com","port":27025,"enabled":true,"region":"us-central","cc":"us","latitude":32.779167,"longitude":-96.80889,"reserved":0,"last_update":"0001-01-01T00:00:00Z","name_a2s":"Uncletopia | Dallas | 2 | All Maps","protocol":17,"map":"cp_mossrock","folder":"tf","game":"Team Fortress","app_id":440,"player_count":21,"max_players":24,"Bots":0,"server_type":"Dedicated","server_os":"Linux","password":true,"vac":true,"version":"7757534","steam_id":85568392924469988,"keywords":["cp","nocrits","nodmgspread","uncletopia"],"game_id":440,"stv_port":27026,"stv_name":"Uncletopia | Dallas | 2 | All Maps | STV","players":[{"user_id":52,"name":"BuhByeFalecia","steam_id":76561198364710587,"connected_time":4862000000000,"state":"active","ping":50},{"user_id":119,"name":"Jadus","steam_id":76561199091462938,"connected_time":22000000000,"state":"spawning","ping":76},{"user_id":96,"name":"Ozone-flavored Starburst","steam_id":76561199163688421,"connected_time":1665000000000,"state":"active","ping":69},{"user_id":113,"name":"F0restFerret","steam_id":76561199112458876,"connected_time":672000000000,"state":"active","ping":89},{"user_id":115,"name":"ÔºîÔºê Ôº¶Ôº∞Ôº≥","steam_id":76561198272394965,"connected_time":575000000000,"state":"active","ping":150},{"user_id":120,"name":"vollot","steam_id":76561198333275750,"connected_time":12000000000,"state":"spawning","ping":106},{"user_id":85,"name":"Harold","steam_id":76561198057317770,"connected_time":2033000000000,"state":"active","ping":71},{"user_id":87,"name":"rmbl","steam_id":76561198150137369,"connected_time":2028000000000,"state":"active","ping":70},{"user_id":117,"name":"bigboimarven","steam_id":76561198844778810,"connected_time":374000000000,"state":"active","ping":55},{"user_id":116,"name":"sugar wall blaster","steam_id":76561198325011551,"connected_time":427000000000,"state":"active","ping":83},{"user_id":83,"name":"Serene Salamander","steam_id":76561198001094770,"connected_time":2284000000000,"state":"active","ping":78},{"user_id":102,"name":"Snugboo","steam_id":76561198147970327,"connected_time":1461000000000,"state":"active","ping":74},{"user_id":118,"name":"SPREAD CHRISTMAS CHEER AND JOY","steam_id":76561198800386026,"connected_time":179000000000,"state":"active","ping":109},{"user_id":111,"name":"Padre Pat","steam_id":76561198392985381,"connected_time":1171000000000,"state":"active","ping":90},{"user_id":76,"name":"Bullwinkle J. Moose","steam_id":76561198075977196,"connected_time":2879000000000,"state":"active","ping":61},{"user_id":104,"name":"Amberezzed","steam_id":76561198801467075,"connected_time":1449000000000,"state":"active","ping":52},{"user_id":112,"name":"Obama fried chicken |Ham mafia|","steam_id":76561199164180110,"connected_time":780000000000,"state":"spawning","ping":86},{"user_id":114,"name":"mineblast99","steam_id":76561199065648954,"connected_time":636000000000,"state":"active","ping":75},{"user_id":63,"name":"Dragonofponies","steam_id":76561199016800803,"connected_time":4133000000000,"state":"active","ping":77},{"user_id":110,"name":"CHIEF","steam_id":76561198011209422,"connected_time":1298000000000,"state":"active","ping":32},{"user_id":108,"name":"Pastartes","steam_id":76561199187195812,"connected_time":1370000000000,"state":"spawning","ping":63}]},{"server_id":5,"name":"Uncletopia | Frankfurt | 1 | All Maps","name_short":"frk-1","host":"frk-1.de.uncletopia.com","port":27015,"enabled":true,"region":"eu","cc":"de","latitude":50.110924,"longitude":8.682127,"reserved":0,"last_update":"0001-01-01T00:00:00Z","name_a2s":"Uncletopia | Frankfurt | 1 | All Maps","protocol":17,"map":"koth_lakeside_final","folder":"tf","game":"Team Fortress","app_id":440,"player_count":15,"max_players":24,"Bots":0,"server_type":"Dedicated","server_os":"Linux","password":true,"vac":true,"version":"7757534","steam_id":85568392924469989,"keywords":["cp","nocrits","nodmgspread","uncletopia"],"game_id":440,"stv_port":27016,"stv_name":"Uncletopia | Frankfurt | 1 | All Maps | STV","players":[{"user_id":423,"name":"SocialistBacon","steam_id":76561198055872267,"connected_time":7438000000000,"state":"active","ping":79},{"user_id":530,"name":"Dr. Le Quack","steam_id":76561197995711176,"connected_time":580000000000,"state":"active","ping":86},{"user_id":519,"name":"AGamer75","steam_id":76561199045267748,"connected_time":1309000000000,"state":"active","ping":125},{"user_id":531,"name":"Asphi","steam_id":76561198071606547,"connected_time":552000000000,"state":"active","ping":60},{"user_id":432,"name":"aksu","steam_id":76561198083955517,"connected_time":7243000000000,"state":"active","ping":60},{"user_id":534,"name":"Quackus Duckus","steam_id":76561198442928985,"connected_time":131000000000,"state":"active","ping":165},{"user_id":535,"name":"pootis","steam_id":76561199121999261,"connected_time":101000000000,"state":"active","ping":108},{"user_id":498,"name":"Áå™Ê≠¶ËÄÖ","steam_id":76561198085080008,"connected_time":3156000000000,"state":"active","ping":76},{"user_id":528,"name":"DeCypher","steam_id":76561198171992619,"connected_time":711000000000,"state":"active","ping":59},{"user_id":497,"name":"Cliff Barnes","steam_id":76561198032213783,"connected_time":3282000000000,"state":"active","ping":60},{"user_id":511,"name":"Bumblebee","steam_id":76561198033551105,"connected_time":1983000000000,"state":"active","ping":56},{"user_id":460,"name":"Suetolog","steam_id":76561199053090212,"connected_time":5455000000000,"state":"active","ping":56},{"user_id":532,"name":"yurkur","steam_id":76561198407108497,"connected_time":317000000000,"state":"active","ping":47},{"user_id":522,"name":"nedilya","steam_id":76561198039692077,"connected_time":1226000000000,"state":"active","ping":50},{"user_id":525,"name":"boy","steam_id":76561198162462063,"connected_time":885000000000,"state":"active","ping":58}]},{"server_id":110,"name":"Uncletopia | Frankfurt | 2 | All Maps","name_short":"frk-2","host":"frk-1.de.uncletopia.com","port":27025,"enabled":true,"region":"eu","cc":"de","latitude":50.110924,"longitude":8.682127,"reserved":0,"last_update":"0001-01-01T00:00:00Z","name_a2s":"Uncletopia | Frankfurt | 2 | All Maps","protocol":17,"map":"pl_wutville_event","folder":"tf","game":"Team Fortress","app_id":440,"player_count":8,"max_players":24,"Bots":0,"server_type":"Dedicated","server_os":"Linux","password":true,"vac":true,"version":"7757534","steam_id":85568392924469990,"keywords":["nocrits","nodmgspread","payload","uncletopia"],"game_id":440,"stv_port":27026,"stv_name":"Uncletopia | Frankfurt | 2 | All Maps | STV","players":[{"user_id":459,"name":"hoovy","steam_id":76561199439044494,"connected_time":176000000000,"state":"active","ping":189},{"user_id":381,"name":"Spy at a moderate distance","steam_id":76561198002162167,"connected_time":2512000000000,"state":"active","ping":74},{"user_id":442,"name":"the","steam_id":76561198293567489,"connected_time":851000000000,"state":"active","ping":67},{"user_id":453,"name":"Ash üíõ","steam_id":76561198260495385,"connected_time":470000000000,"state":"active","ping":51},{"user_id":454,"name":"meap","steam_id":76561198126639221,"connected_time":432000000000,"state":"active","ping":90},{"user_id":457,"name":"tealoverr.190","steam_id":76561199028497703,"connected_time":306000000000,"state":"active","ping":100},{"user_id":456,"name":"MagicTITIKAKA","steam_id":76561198129509548,"connected_time":336000000000,"state":"active","ping":99},{"user_id":436,"name":"Lord Odment","steam_id":76561198044354976,"connected_time":1027000000000,"state":"active","ping":108}]},{"server_id":308,"name":"Uncletopia | Frankfurt | 3 | All Maps","name_short":"frk-3","host":"frk-1.de.uncletopia.com","port":27035,"enabled":true,"region":"eu","cc":"de","latitude":50.110924,"longitude":8.682127,"reserved":0,"last_update":"0001-01-01T00:00:00Z","name_a2s":"Uncletopia | Frankfurt | 3 | All Maps","protocol":17,"map":"cp_process_final","folder":"tf","game":"Team Fortress","app_id":440,"player_count":21,"max_players":24,"Bots":0,"server_type":"Dedicated","server_os":"Linux","password":true,"vac":true,"version":"7757534","steam_id":85568392924504274,"keywords":["cp","nocrits","nodmgspread","uncletopia"],"game_id":440,"stv_port":27036,"stv_name":"Uncletopia | Frankfurt | 3 | All Maps | STV","players":[{"user_id":612,"name":"Jorge","steam_id":76561198155880257,"connected_time":1168000000000,"state":"active","ping":102},{"user_id":649,"name":"pinkerton","steam_id":76561198083103830,"connected_time":84000000000,"state":"active","ping":105},{"user_id":608,"name":"Masa (Finno-Ugric gentleman)","steam_id":76561198343396172,"connected_time":1313000000000,"state":"active","ping":101},{"user_id":609,"name":"Nesto","steam_id":76561198015065391,"connected_time":1249000000000,"state":"active","ping":90},{"user_id":611,"name":"Daniel","steam_id":76561198015148369,"connected_time":1216000000000,"state":"active","ping":85},{"user_id":610,"name":"Kulebra","steam_id":76561198041462031,"connected_time":1242000000000,"state":"active","ping":102},{"user_id":650,"name":"whatever","steam_id":76561198095943461,"connected_time":48000000000,"state":"active","ping":59},{"user_id":635,"name":"lyudmilakh","steam_id":76561198362779878,"connected_time":463000000000,"state":"active","ping":90},{"user_id":621,"name":"e36 1.8","steam_id":76561198134203031,"connected_time":874000000000,"state":"active","ping":59},{"user_id":633,"name":"mt","steam_id":76561197961319303,"connected_time":520000000000,"state":"active","ping":46},{"user_id":641,"name":"Akira Yamaoka Fan","steam_id":76561198146194820,"connected_time":303000000000,"state":"active","ping":58},{"user_id":648,"name":"rat :3","steam_id":76561198151884156,"connected_time":203000000000,"state":"active","ping":61},{"user_id":634,"name":"powej","steam_id":76561198056381418,"connected_time":497000000000,"state":"active","ping":55},{"user_id":631,"name":"SIR MEPHEDRONE","steam_id":76561198302623594,"connected_time":545000000000,"state":"active","ping":94},{"user_id":642,"name":"Furno","steam_id":76561197999723047,"connected_time":296000000000,"state":"active","ping":46},{"user_id":637,"name":"Parapluie","steam_id":76561197971640301,"connected_time":384000000000,"state":"active","ping":45},{"user_id":639,"name":"Bonysquawk","steam_id":76561199145282057,"connected_time":325000000000,"state":"active","ping":84},{"user_id":640,"name":"Kapitan Polska","steam_id":76561197968069413,"connected_time":324000000000,"state":"active","ping":69},{"user_id":643,"name":"Jeff","steam_id":76561198426044127,"connected_time":291000000000,"state":"active","ping":46},{"user_id":645,"name":"Gio'sMonkey","steam_id":76561198892432223,"connected_time":273000000000,"state":"active","ping":87},{"user_id":646,"name":"Enfield","steam_id":76561197981578171,"connected_time":266000000000,"state":"active","ping":79}]},{"server_id":309,"name":"Uncletopia | Frankfurt | 4 | All Maps","name_short":"frk-4","host":"frk-1.de.uncletopia.com","port":27045,"enabled":true,"region":"eu","cc":"de","latitude":50.110924,"longitude":8.682127,"reserved":0,"last_update":"0001-01-01T00:00:00Z","name_a2s":"Uncletopia | Frankfurt | 4 | All Maps","protocol":17,"map":"pl_goldrush","folder":"tf","game":"Team Fortress","app_id":440,"player_count":23,"max_players":24,"Bots":0,"server_type":"Dedicated","server_os":"Linux","password":true,"vac":true,"version":"7757534","steam_id":85568392924504275,"keywords":["nocrits","nodmgspread","payload","uncletopia"],"game_id":440,"stv_port":27046,"stv_name":"Uncletopia | Frankfurt | 4 | All Maps | STV","players":[{"user_id":455,"name":"sHIFTINGvORTEX","steam_id":76561198231648332,"connected_time":528000000000,"state":"active","ping":76},{"user_id":444,"name":"Bruski","steam_id":76561198053589119,"connected_time":943000000000,"state":"active","ping":97},{"user_id":462,"name":"Chambersite","steam_id":76561198197022399,"connected_time":46000000000,"state":"active","ping":64},{"user_id":461,"name":"DeleteTrickster","steam_id":76561198397120242,"connected_time":47000000000,"state":"active","ping":86},{"user_id":451,"name":"Jonas Destark","steam_id":76561198030327441,"connected_time":834000000000,"state":"active","ping":56},{"user_id":446,"name":"grape","steam_id":76561198048836593,"connected_time":933000000000,"state":"active","ping":71},{"user_id":425,"name":"BATTLE_FORK","steam_id":76561198085753101,"connected_time":2996000000000,"state":"active","ping":81},{"user_id":403,"name":"Lux","steam_id":76561198060417740,"connected_time":4112000000000,"state":"active","ping":56},{"user_id":441,"name":"KajaStorm","steam_id":76561199215842872,"connected_time":1409000000000,"state":"active","ping":128},{"user_id":427,"name":"foo","steam_id":76561198042000263,"connected_time":2903000000000,"state":"active","ping":73},{"user_id":420,"name":"KittyKate ‚ù§","steam_id":76561198116340817,"connected_time":3069000000000,"state":"active","ping":59},{"user_id":456,"name":"your_local_penguin","steam_id":76561199224954346,"connected_time":374000000000,"state":"active","ping":90},{"user_id":457,"name":"Jimmy","steam_id":76561198133680783,"connected_time":336000000000,"state":"active","ping":64},{"user_id":388,"name":"Sweat Plantation","steam_id":76561198025086883,"connected_time":5176000000000,"state":"active","ping":84},{"user_id":447,"name":"Majami","steam_id":76561198054365738,"connected_time":931000000000,"state":"active","ping":74},{"user_id":386,"name":"Lord of the Lockerroom","steam_id":76561198080619697,"connected_time":5418000000000,"state":"active","ping":87},{"user_id":435,"name":"katzdani","steam_id":76561198843351132,"connected_time":2321000000000,"state":"active","ping":60},{"user_id":454,"name":"Gui","steam_id":76561198072054467,"connected_time":664000000000,"state":"active","ping":88},{"user_id":449,"name":"Noah May","steam_id":76561198411732527,"connected_time":917000000000,"state":"active","ping":56},{"user_id":458,"name":"hideki","steam_id":76561198030728517,"connected_time":77000000000,"state":"active","ping":33},{"user_id":439,"name":"ZeeZer0","steam_id":76561198043828441,"connected_time":2186000000000,"state":"active","ping":36},{"user_id":460,"name":"fregaropa","steam_id":76561198150806166,"connected_time":65000000000,"state":"spawning","ping":104},{"user_id":378,"name":"Bing Chilling","steam_id":76561198065376942,"connected_time":6114000000000,"state":"active","ping":72}]},{"server_id":310,"name":"Uncletopia | Frankfurt | 5 | All Maps","name_short":"frk-5","host":"frk-1.de.uncletopia.com","port":27055,"enabled":true,"region":"eu","cc":"de","latitude":50.110924,"longitude":8.682127,"reserved":0,"last_update":"0001-01-01T00:00:00Z","name_a2s":"Uncletopia | Frankfurt | 5 | All Maps","protocol":17,"map":"pl_badwater","folder":"tf","game":"Team Fortress","app_id":440,"player_count":24,"max_players":24,"Bots":0,"server_type":"Dedicated","server_os":"Linux","password":true,"vac":true,"version":"7757534","steam_id":85568392924504277,"keywords":["nocrits","nodmgspread","payload","uncletopia"],"game_id":440,"stv_port":27056,"stv_name":"Uncletopia | Frankfurt | 5 | All Maps | STV","players":[{"user_id":102,"name":"Zeko","steam_id":76561198876834737,"connected_time":652000000000,"state":"active","ping":183},{"user_id":76,"name":"Tobb_Harvard","steam_id":76561199222100485,"connected_time":2550000000000,"state":"active","ping":79},{"user_id":101,"name":"skibidi bop yes yes yes","steam_id":76561198306177608,"connected_time":687000000000,"state":"active","ping":87},{"user_id":103,"name":"It's Schradin' time.","steam_id":76561199037749675,"connected_time":624000000000,"state":"active","ping":59},{"user_id":80,"name":"Dirty Harry","steam_id":76561198813079990,"connected_time":2210000000000,"state":"active","ping":56},{"user_id":109,"name":"Klinmir","steam_id":76561198352339376,"connected_time":529000000000,"state":"active","ping":89},{"user_id":50,"name":"jones","steam_id":76561198044434971,"connected_time":3412000000000,"state":"active","ping":61},{"user_id":117,"name":"SPAMTON G. SPAMTON","steam_id":76561199232838703,"connected_time":153000000000,"state":"active","ping":73},{"user_id":45,"name":"Faxter","steam_id":76561198011771605,"connected_time":3467000000000,"state":"active","ping":68},{"user_id":115,"name":"tim","steam_id":76561198143626955,"connected_time":347000000000,"state":"active","ping":49},{"user_id":107,"name":"Yoss","steam_id":76561198013655572,"connected_time":557000000000,"state":"active","ping":55},{"user_id":96,"name":"Rigby","steam_id":76561198021552128,"connected_time":1288000000000,"state":"active","ping":115},{"user_id":120,"name":"not_available","steam_id":76561198092506466,"connected_time":2000000000,"state":"spawning","ping":69},{"user_id":99,"name":"Dirty Dom","steam_id":76561198043745396,"connected_time":1015000000000,"state":"active","ping":69},{"user_id":85,"name":"0xDEADBEEF","steam_id":76561199075416111,"connected_time":2028000000000,"state":"active","ping":90},{"user_id":57,"name":"Nostradamus","steam_id":76561198349792686,"connected_time":3044000000000,"state":"active","ping":67},{"user_id":86,"name":":)","steam_id":76561198039964082,"connected_time":2024000000000,"state":"active","ping":62},{"user_id":98,"name":"naleksi","steam_id":76561198018391055,"connected_time":1179000000000,"state":"active","ping":109},{"user_id":119,"name":"eple","steam_id":76561198017686306,"connected_time":56000000000,"state":"active","ping":58},{"user_id":108,"name":"ÿ±ÿßŸäŸÜ","steam_id":76561199167206295,"connected_time":540000000000,"state":"active","ping":77},{"user_id":93,"name":"_zipfile","steam_id":76561198066133808,"connected_time":1487000000000,"state":"active","ping":67},{"user_id":114,"name":"lanzer","steam_id":76561198049983016,"connected_time":427000000000,"state":"active","ping":105},{"user_id":113,"name":"HeroldBaum","steam_id":76561198063420715,"connected_time":495000000000,"state":"active","ping":45},{"user_id":100,"name":"moser23","steam_id":76561197960543171,"connected_time":840000000000,"state":"active","ping":52}]},{"server_id":311,"name":"Uncletopia | Frankfurt | 6 | All Maps","name_short":"frk-6","host":"frk-1.de.uncletopia.com","port":27065,"enabled":true,"region":"eu","cc":"de","latitude":50.110924,"longitude":8.682127,"reserved":0,"last_update":"0001-01-01T00:00:00Z","name_a2s":"Uncletopia | Frankfurt | 6 | All Maps","protocol":17,"map":"pl_barnblitz","folder":"tf","game":"Team Fortress","app_id":440,"player_count":24,"max_players":24,"Bots":0,"server_type":"Dedicated","server_os":"Linux","password":true,"vac":true,"version":"7757534","steam_id":85568392924504278,"keywords":["nocrits","nodmgspread","payload","uncletopia"],"game_id":440,"stv_port":27066,"stv_name":"Uncletopia | Frankfurt | 6 | All Maps | STV","players":[{"user_id":289,"name":"GEP Gun","steam_id":76561197981821003,"connected_time":541000000000,"state":"active","ping":74},{"user_id":294,"name":"Kemalismus","steam_id":76561198394441106,"connected_time":124000000000,"state":"active","ping":111},{"user_id":285,"name":"akela","steam_id":76561198122010232,"connected_time":839000000000,"state":"active","ping":61},{"user_id":291,"name":"Kotlet schabowy","steam_id":76561198048983509,"connected_time":465000000000,"state":"active","ping":81},{"user_id":284,"name":"Bob_Tostas","steam_id":76561198249006560,"connected_time":945000000000,"state":"active","ping":89},{"user_id":288,"name":"i am bread","steam_id":76561199180277321,"connected_time":574000000000,"state":"active","ping":69},{"user_id":270,"name":"glyph","steam_id":76561197980736364,"connected_time":1726000000000,"state":"active","ping":76},{"user_id":271,"name":"Innocent Bystander","steam_id":76561198259885007,"connected_time":1709000000000,"state":"active","ping":57},{"user_id":246,"name":"Knez","steam_id":76561198043806388,"connected_time":3215000000000,"state":"active","ping":57},{"user_id":242,"name":"Doriian","steam_id":76561198071438810,"connected_time":3550000000000,"state":"active","ping":82},{"user_id":282,"name":"–ü–µ—Å –ü–∞—Ç—Ä–æ–Ω","steam_id":76561198273199378,"connected_time":1004000000000,"state":"active","ping":67},{"user_id":226,"name":"YuraGreek","steam_id":76561198050182252,"connected_time":4819000000000,"state":"active","ping":78},{"user_id":262,"name":"galaxy","steam_id":76561198164819022,"connected_time":1850000000000,"state":"active","ping":68},{"user_id":276,"name":"Z√°por√°k","steam_id":76561198207175503,"connected_time":1416000000000,"state":"active","ping":57},{"user_id":287,"name":"makin' piss","steam_id":76561198052136478,"connected_time":606000000000,"state":"active","ping":69},{"user_id":269,"name":"ikc159","steam_id":76561198020559026,"connected_time":1733000000000,"state":"active","ping":70},{"user_id":292,"name":"Vericu","steam_id":76561199084447853,"connected_time":441000000000,"state":"active","ping":109},{"user_id":277,"name":"benifis163","steam_id":76561198420973492,"connected_time":1384000000000,"state":"active","ping":122},{"user_id":278,"name":"Farmercy","steam_id":76561198000038039,"connected_time":1344000000000,"state":"active","ping":60},{"user_id":272,"name":"Na'vi Misato (by popular demand","steam_id":76561198130860698,"connected_time":1691000000000,"state":"active","ping":61},{"user_id":280,"name":"captaine flow chapka","steam_id":76561198059170538,"connected_time":1077000000000,"state":"active","ping":70},{"user_id":293,"name":"BierBuikBarry","steam_id":76561198345790498,"connected_time":386000000000,"state":"active","ping":78},{"user_id":295,"name":"poopless joe","steam_id":76561198133532980,"connected_time":29000000000,"state":"active","ping":62},{"user_id":273,"name":"PLUTO","steam_id":76561198312436128,"connected_time":1632000000000,"state":"active","ping":118}]},{"server_id":23,"name":"Uncletopia | Frankfurt | 7 | Stopwatch Beta","name_short":"frk-7","host":"frk-1.de.uncletopia.com","port":27075,"enabled":true,"region":"eu","cc":"de","latitude":50.110924,"longitude":8.682127,"reserved":0,"last_update":"0001-01-01T00:00:00Z","name_a2s":"Uncletopia | Frankfurt | 7 | Stopwatch Beta","protocol":17,"map":"workshop/pl_badwater_pro_v12.ugc2142942074","folder":"tf","game":"Team Fortress","app_id":440,"player_count":0,"max_players":24,"Bots":0,"server_type":"Dedicated","server_os":"Linux","password":true,"vac":true,"version":"7757534","steam_id":85568392924742827,"keywords":["nocrits","nodmgspread","payload","uncletopia"],"game_id":440,"stv_port":27076,"stv_name":"Uncletopia | Frankfurt | 7 | Stopwatch Beta | STV","players":null},{"server_id":24,"name":"Uncletopia | Frankfurt | 8 | Community","name_short":"frk-8","host":"frk-1.de.uncletopia.com","port":27085,"enabled":true,"region":"eu","cc":"de","latitude":50.110924,"longitude":8.682127,"reserved":0,"last_update":"0001-01-01T00:00:00Z","name_a2s":"Uncletopia | Frankfurt | 8 | Community","protocol":17,"map":"workshop/cp_overgrown_rc7b.ugc503939302","folder":"tf","game":"Team Fortress","app_id":440,"player_count":23,"max_players":24,"Bots":0,"server_type":"Dedicated","server_os":"Linux","password":true,"vac":true,"version":"7757534","steam_id":85568392924742828,"keywords":["cp","nocrits","nodmgspread","uncletopia"],"game_id":440,"stv_port":27086,"stv_name":"Uncletopia | Frankfurt | 8 | Community | STV","players":[{"user_id":496,"name":"Tails8521","steam_id":76561198051747164,"connected_time":4379000000000,"state":"active","ping":61},{"user_id":561,"name":"78","steam_id":76561198208328357,"connected_time":882000000000,"state":"active","ping":75},{"user_id":579,"name":"JujuBalu","steam_id":76561198207253071,"connected_time":28000000000,"state":"active","ping":46},{"user_id":525,"name":"TylowStar","steam_id":76561198357107806,"connected_time":3420000000000,"state":"active","ping":75},{"user_id":580,"name":"FroggoDoggo","steam_id":76561199103118465,"connected_time":23000000000,"state":"active","ping":211},{"user_id":547,"name":"Welder","steam_id":76561198355300561,"connected_time":1889000000000,"state":"active","ping":60},{"user_id":577,"name":"Paulo","steam_id":76561198001386978,"connected_time":207000000000,"state":"active","ping":49},{"user_id":581,"name":"Albatar","steam_id":76561198079321557,"connected_time":19000000000,"state":"spawning","ping":194},{"user_id":558,"name":"McHatin","steam_id":76561198057806691,"connected_time":1086000000000,"state":"spawning","ping":147},{"user_id":573,"name":"player","steam_id":76561198054474684,"connected_time":451000000000,"state":"active","ping":75},{"user_id":548,"name":"Sgreff","steam_id":76561198036304365,"connected_time":1884000000000,"state":"active","ping":59},{"user_id":575,"name":"Hetmanych","steam_id":76561198870926865,"connected_time":400000000000,"state":"active","ping":195},{"user_id":567,"name":"ALARM","steam_id":76561198120686521,"connected_time":802000000000,"state":"active","ping":55},{"user_id":524,"name":"mumbler","steam_id":76561197970641239,"connected_time":3466000000000,"state":"spawning","ping":165},{"user_id":554,"name":"Nemsio66 #SAVETF2","steam_id":76561198383959458,"connected_time":1551000000000,"state":"active","ping":123},{"user_id":578,"name":"aGreedGryphon","steam_id":76561198245175308,"connected_time":102000000000,"state":"spawning","ping":210},{"user_id":562,"name":"w4gthp0h","steam_id":76561198133193445,"connected_time":881000000000,"state":"spawning","ping":187},{"user_id":555,"name":"Doomguy","steam_id":76561199011852966,"connected_time":1521000000000,"state":"spawning","ping":305},{"user_id":515,"name":"„ÇÜ„Åö potato bear","steam_id":76561198031286581,"connected_time":3814000000000,"state":"active","ping":45},{"user_id":570,"name":"nomsie","steam_id":76561198283752777,"connected_time":641000000000,"state":"spawning","ping":223},{"user_id":571,"name":"Fat Pigeon","steam_id":76561198817940142,"connected_time":612000000000,"state":"active","ping":60},{"user_id":549,"name":"vi hava en usel regering","steam_id":76561198037978654,"connected_time":1884000000000,"state":"active","ping":65},{"user_id":563,"name":"√°rv√≠zt≈±r≈ë t√ºk√∂rf√∫r√≥g√©p","steam_id":76561198296643061,"connected_time":876000000000,"state":"active","ping":54}]},{"server_id":202,"name":"Uncletopia | Hong Kong | 1 | All Maps","name_short":"hgk-1","host":"hgk-1.hk.uncletopia.com","port":27015,"enabled":true,"region":"asia","cc":"hk","latitude":22.302711,"longitude":114.177216,"reserved":0,"last_update":"0001-01-01T00:00:00Z","name_a2s":"Uncletopia | Hong Kong | 1 | All Maps","protocol":17,"map":"koth_highpass","folder":"tf","game":"Team Fortress","app_id":440,"player_count":0,"max_players":24,"Bots":0,"server_type":"Dedicated","server_os":"Linux","password":true,"vac":true,"version":"7757534","steam_id":85568392924494504,"keywords":["cp","nocrits","nodmgspread","uncletopia"],"game_id":440,"stv_port":27016,"stv_name":"Uncletopia | Hong Kong | 1 | All Maps | STV","players":null},{"server_id":1,"name":"Uncletopia | Los Angeles | 1 | All Maps","name_short":"lax-1","host":"lax-1.us.uncletopia.com","port":27015,"enabled":true,"region":"us-west","cc":"us","latitude":33.94279,"longitude":-118.41004,"reserved":0,"last_update":"0001-01-01T00:00:00Z","name_a2s":"Uncletopia | Los Angeles | 1 | All Maps","protocol":17,"map":"pl_badwater","folder":"tf","game":"Team Fortress","app_id":440,"player_count":0,"max_players":24,"Bots":0,"server_type":"Dedicated","server_os":"Linux","password":true,"vac":true,"version":"7757534","steam_id":85568392924469991,"keywords":["nocrits","nodmgspread","payload","uncletopia"],"game_id":440,"stv_port":27016,"stv_name":"Uncletopia | Los Angeles | 1 | All Maps | STV","players":null},{"server_id":112,"name":"Uncletopia | Los Angeles | 2 | All Maps","name_short":"lax-2","host":"lax-1.us.uncletopia.com","port":27025,"enabled":true,"region":"us-west","cc":"us","latitude":33.94279,"longitude":-118.41004,"reserved":0,"last_update":"0001-01-01T00:00:00Z","name_a2s":"Uncletopia | Los Angeles | 2 | All Maps","protocol":17,"map":"koth_viaduct","folder":"tf","game":"Team Fortress","app_id":440,"player_count":0,"max_players":24,"Bots":0,"server_type":"Dedicated","server_os":"Linux","password":true,"vac":true,"version":"7757534","steam_id":85568392924469992,"keywords":["cp","nocrits","nodmgspread","uncletopia"],"game_id":440,"stv_port":27026,"stv_name":"Uncletopia | Los Angeles | 2 | All Maps | STV","players":null},{"server_id":324,"name":"Uncletopia | Los Angeles | 3 | All Maps","name_short":"lax-3","host":"lax-1.us.uncletopia.com","port":27035,"enabled":true,"region":"us-west","cc":"us","latitude":33.94279,"longitude":-118.41004,"reserved":0,"last_update":"0001-01-01T00:00:00Z","name_a2s":"Uncletopia | Los Angeles | 3 | All Maps","protocol":17,"map":"pl_badwater","folder":"tf","game":"Team Fortress","app_id":440,"player_count":0,"max_players":24,"Bots":0,"server_type":"Dedicated","server_os":"Linux","password":true,"vac":true,"version":"7757534","steam_id":85568392924510198,"keywords":["nocrits","nodmgspread","payload","uncletopia"],"game_id":440,"stv_port":27036,"stv_name":"Uncletopia | Los Angeles | 3 | All Maps | STV","players":null},{"server_id":25,"name":"Uncletopia | Los Angeles | 4 | Stopwatch Beta","name_short":"lax-4","host":"lax-1.us.uncletopia.com","port":27045,"enabled":true,"region":"us-west","cc":"us","latitude":33.94279,"longitude":-118.41004,"reserved":0,"last_update":"0001-01-01T00:00:00Z","name_a2s":"Uncletopia | Los Angeles | 4 | Stopwatch Beta","protocol":17,"map":"pl_borneo","folder":"tf","game":"Team Fortress","app_id":440,"player_count":0,"max_players":24,"Bots":0,"server_type":"Dedicated","server_os":"Linux","password":true,"vac":true,"version":"7757534","steam_id":85568392924510199,"keywords":["nocrits","nodmgspread","payload","uncletopia"],"game_id":440,"stv_port":27046,"stv_name":"Uncletopia | Los Angeles | 4 | Stopwatch Beta | STV","players":null},{"server_id":11,"name":"Uncletopia | London | 1 | All Maps","name_short":"lon-1","host":"lon-1.uk.uncletopia.com","port":27015,"enabled":true,"region":"eu","cc":"gb","latitude":51.509865,"longitude":-0.118092,"reserved":0,"last_update":"0001-01-01T00:00:00Z","name_a2s":"Uncletopia | London | 1 | All Maps","protocol":17,"map":"pl_borneo","folder":"tf","game":"Team Fortress","app_id":440,"player_count":24,"max_players":24,"Bots":0,"server_type":"Dedicated","server_os":"Linux","password":true,"vac":true,"version":"7757534","steam_id":85568392924367362,"keywords":["nocrits","nodmgspread","payload","uncletopia"],"game_id":440,"stv_port":27016,"stv_name":"Uncletopia | London | 1 | All Maps | STV","players":[{"user_id":422,"name":"antlionguard","steam_id":76561198072747143,"connected_time":2480000000000,"state":"active","ping":105},{"user_id":451,"name":"ghost","steam_id":76561198189940229,"connected_time":980000000000,"state":"active","ping":53},{"user_id":357,"name":"ivanmixo","steam_id":76561198160213989,"connected_time":7655000000000,"state":"active","ping":65},{"user_id":421,"name":"born2shitforced2wipe","steam_id":76561198203074833,"connected_time":2488000000000,"state":"active","ping":91},{"user_id":453,"name":"Johnny Cockroach","steam_id":76561198049648277,"connected_time":811000000000,"state":"active","ping":116},{"user_id":428,"name":"Oak","steam_id":76561198067315672,"connected_time":2419000000000,"state":"active","ping":50},{"user_id":452,"name":"Getrkod","steam_id":76561198986560793,"connected_time":835000000000,"state":"active","ping":55},{"user_id":450,"name":"ciliorkun18","steam_id":76561198228942500,"connected_time":1192000000000,"state":"active","ping":94},{"user_id":443,"name":"Kyzmarüóø","steam_id":76561198366208324,"connected_time":1637000000000,"state":"active","ping":84},{"user_id":436,"name":"Bumpin'Scrunts","steam_id":76561198069641252,"connected_time":2196000000000,"state":"active","ping":49},{"user_id":403,"name":"Le Bon Toutou","steam_id":76561198300902712,"connected_time":3547000000000,"state":"active","ping":74},{"user_id":447,"name":"Kahvi","steam_id":76561198723244199,"connected_time":1265000000000,"state":"active","ping":82},{"user_id":448,"name":"Celtins","steam_id":76561198839837475,"connected_time":1259000000000,"state":"active","ping":59},{"user_id":454,"name":"Datenegassie","steam_id":76561198089417032,"connected_time":655000000000,"state":"active","ping":67},{"user_id":455,"name":"toothpaste vaper","steam_id":76561198078458780,"connected_time":347000000000,"state":"active","ping":64},{"user_id":418,"name":"Bad and Wuji","steam_id":76561199385280253,"connected_time":2567000000000,"state":"active","ping":116},{"user_id":430,"name":"ijustsmokeandcry","steam_id":76561198044189114,"connected_time":2401000000000,"state":"active","ping":66},{"user_id":431,"name":"Davey","steam_id":76561198256879107,"connected_time":2371000000000,"state":"active","ping":76},{"user_id":437,"name":"astra","steam_id":76561198042980579,"connected_time":2179000000000,"state":"active","ping":61},{"user_id":457,"name":"Luk3","steam_id":76561198340519063,"connected_time":209000000000,"state":"active","ping":75},{"user_id":435,"name":"„ÉÜ„Ç§„É´„Çπ","steam_id":76561198022403271,"connected_time":2269000000000,"state":"active","ping":52},{"user_id":404,"name":"Dominus.","steam_id":76561199065917088,"connected_time":3503000000000,"state":"active","ping":59},{"user_id":363,"name":"Numroth","steam_id":76561198001100167,"connected_time":7158000000000,"state":"active","ping":96},{"user_id":420,"name":"Father Jon","steam_id":76561198324730919,"connected_time":2509000000000,"state":"active","ping":174}]},{"server_id":114,"name":"Uncletopia | London | 2 | All Maps","name_short":"lon-2","host":"lon-1.uk.uncletopia.com","port":27025,"enabled":true,"region":"eu","cc":"gb","latitude":51.509865,"longitude":-0.118092,"reserved":0,"last_update":"0001-01-01T00:00:00Z","name_a2s":"Uncletopia | London | 2 | All Maps","protocol":17,"map":"plr_hightower","folder":"tf","game":"Team Fortress","app_id":440,"player_count":24,"max_players":24,"Bots":0,"server_type":"Dedicated","server_os":"Linux","password":true,"vac":true,"version":"7757534","steam_id":85568392924470941,"keywords":["nocrits","nodmgspread","payload","uncletopia"],"game_id":440,"stv_port":27026,"stv_name":"Uncletopia | London | 2 | All Maps | STV","players":[{"user_id":558,"name":"butts","steam_id":76561198060105180,"connected_time":4726000000000,"state":"active","ping":70},{"user_id":621,"name":"Mug Maniac","steam_id":76561198120866920,"connected_time":114000000000,"state":"active","ping":130},{"user_id":580,"name":"UnusualBrit","steam_id":76561198255679838,"connected_time":2620000000000,"state":"active","ping":54},{"user_id":560,"name":"im red","steam_id":76561199087284519,"connected_time":4449000000000,"state":"active","ping":90},{"user_id":581,"name":"Tuga inglesa","steam_id":76561198442803577,"connected_time":2584000000000,"state":"active","ping":72},{"user_id":605,"name":"dum","steam_id":76561198053386482,"connected_time":1257000000000,"state":"active","ping":145},{"user_id":606,"name":"ender45","steam_id":76561198840955715,"connected_time":1175000000000,"state":"active","ping":30},{"user_id":610,"name":"Vsevers","steam_id":76561198984861515,"connected_time":1007000000000,"state":"active","ping":96},{"user_id":450,"name":"Bostrash641","steam_id":76561199447225685,"connected_time":11426000000000,"state":"active","ping":74},{"user_id":592,"name":"Avitz","steam_id":76561197986150359,"connected_time":2273000000000,"state":"active","ping":43},{"user_id":615,"name":"Mozza","steam_id":76561198035915570,"connected_time":381000000000,"state":"active","ping":76},{"user_id":608,"name":"Ser≈æant R≈Ø≈æen√≠nov√© Avok√°d","steam_id":76561198140404998,"connected_time":1133000000000,"state":"active","ping":70},{"user_id":613,"name":"frosty","steam_id":76561198094560834,"connected_time":429000000000,"state":"active","ping":46},{"user_id":604,"name":"mud","steam_id":76561198141497461,"connected_time":1264000000000,"state":"active","ping":70},{"user_id":617,"name":"ShiftingMind","steam_id":76561198448975127,"connected_time":346000000000,"state":"active","ping":51},{"user_id":609,"name":"donal rump","steam_id":76561198136239861,"connected_time":1133000000000,"state":"active","ping":46},{"user_id":612,"name":"Zach","steam_id":76561198454281725,"connected_time":480000000000,"state":"active","ping":113},{"user_id":565,"name":"FreshBang","steam_id":76561198112112350,"connected_time":4260000000000,"state":"active","ping":67},{"user_id":619,"name":"Dwevy","steam_id":76561198090379437,"connected_time":209000000000,"state":"active","ping":51},{"user_id":618,"name":"pumpkin spice go.ggez.ro","steam_id":76561198449957490,"connected_time":313000000000,"state":"active","ping":97},{"user_id":623,"name":"JohkupohkuXD","steam_id":76561198391108762,"connected_time":85000000000,"state":"active","ping":93},{"user_id":590,"name":"daanvanliempt05","steam_id":76561198355398948,"connected_time":2408000000000,"state":"active","ping":45},{"user_id":588,"name":"Ksawery Popkowski","steam_id":76561198107197608,"connected_time":2476000000000,"state":"active","ping":87},{"user_id":611,"name":"AWildTamim","steam_id":76561198048060652,"connected_time":837000000000,"state":"active","ping":32}]},{"server_id":320,"name":"Uncletopia | London | 3 | All Maps","name_short":"lon-3","host":"lon-1.uk.uncletopia.com","port":27035,"enabled":true,"region":"eu","cc":"gb","latitude":51.509865,"longitude":-0.118092,"reserved":0,"last_update":"0001-01-01T00:00:00Z","name_a2s":"Uncletopia | London | 3 | All Maps","protocol":17,"map":"pl_pier","folder":"tf","game":"Team Fortress","app_id":440,"player_count":18,"max_players":24,"Bots":0,"server_type":"Dedicated","server_os":"Linux","password":true,"vac":true,"version":"7757534","steam_id":85568392924510192,"keywords":["nocrits","nodmgspread","payload","uncletopia"],"game_id":440,"stv_port":27036,"stv_name":"Uncletopia | London | 3 | All Maps | STV","players":[{"user_id":367,"name":"magneta_game_hen","steam_id":76561198090970359,"connected_time":34000000000,"state":"active","ping":74},{"user_id":364,"name":"Matchesia","steam_id":76561198194692662,"connected_time":108000000000,"state":"active","ping":47},{"user_id":330,"name":"limbicsystem","steam_id":76561198025612680,"connected_time":2564000000000,"state":"active","ping":55},{"user_id":363,"name":"XavierSweet","steam_id":76561198091781913,"connected_time":330000000000,"state":"active","ping":54},{"user_id":362,"name":"metallic girlboss","steam_id":76561198845468781,"connected_time":679000000000,"state":"active","ping":90},{"user_id":290,"name":"Scarlet","steam_id":76561198075966579,"connected_time":4491000000000,"state":"active","ping":34},{"user_id":329,"name":"Agro | KritzKast","steam_id":76561197970498549,"connected_time":2644000000000,"state":"active","ping":44},{"user_id":365,"name":"fucking awesome gangster minion","steam_id":76561198796600155,"connected_time":108000000000,"state":"active","ping":97},{"user_id":368,"name":"Oz","steam_id":76561198082977363,"connected_time":13000000000,"state":"active","ping":47},{"user_id":354,"name":"ricky pee pee","steam_id":76561198152620745,"connected_time":1176000000000,"state":"active","ping":54},{"user_id":291,"name":"102ping","steam_id":76561199000963772,"connected_time":4377000000000,"state":"active","ping":54},{"user_id":366,"name":"Badass gangnam style minion","steam_id":76561198297602677,"connected_time":98000000000,"state":"active","ping":96},{"user_id":353,"name":"bug!!","steam_id":76561198060410822,"connected_time":1203000000000,"state":"active","ping":48},{"user_id":348,"name":"Mikeal Normal","steam_id":76561198241759034,"connected_time":1814000000000,"state":"active","ping":92},{"user_id":335,"name":"Jedleo","steam_id":76561198347292531,"connected_time":2345000000000,"state":"active","ping":59},{"user_id":349,"name":"Harrison256","steam_id":76561198078975210,"connected_time":1785000000000,"state":"active","ping":48},{"user_id":352,"name":"Fujin Takama","steam_id":76561198103143049,"connected_time":1246000000000,"state":"active","ping":61},{"user_id":343,"name":"BrownBreadMan","steam_id":76561199092834214,"connected_time":2035000000000,"state":"active","ping":54}]},{"server_id":321,"name":"Uncletopia | London | 4 | All Maps","name_short":"lon-4","host":"lon-1.uk.uncletopia.com","port":27045,"enabled":true,"region":"eu","cc":"gb","latitude":51.509865,"longitude":-0.118092,"reserved":0,"last_update":"0001-01-01T00:00:00Z","name_a2s":"Uncletopia | London | 4 | All Maps","protocol":17,"map":"pl_badwater","folder":"tf","game":"Team Fortress","app_id":440,"player_count":24,"max_players":24,"Bots":0,"server_type":"Dedicated","server_os":"Linux","password":true,"vac":true,"version":"7757534","steam_id":85568392924510193,"keywords":["nocrits","nodmgspread","payload","uncletopia"],"game_id":440,"stv_port":27046,"stv_name":"Uncletopia | London | 4 | All Maps | STV","players":[{"user_id":258,"name":"Lavi","steam_id":76561198000911853,"connected_time":1822000000000,"state":"active","ping":98},{"user_id":267,"name":"silicon based life form","steam_id":76561199127121346,"connected_time":1404000000000,"state":"active","ping":50},{"user_id":284,"name":"lord-carlos","steam_id":76561198025150761,"connected_time":200000000000,"state":"active","ping":60},{"user_id":248,"name":"The one who doesn't knock","steam_id":76561198283636523,"connected_time":2557000000000,"state":"active","ping":63},{"user_id":274,"name":"SodaKid_7","steam_id":76561198079419485,"connected_time":826000000000,"state":"active","ping":153},{"user_id":212,"name":"The Deadly Doughnut","steam_id":76561198079049349,"connected_time":4347000000000,"state":"active","ping":52},{"user_id":211,"name":"Adopted?","steam_id":76561198118667043,"connected_time":4474000000000,"state":"active","ping":51},{"user_id":237,"name":"GARbageTrash","steam_id":76561199101269633,"connected_time":2686000000000,"state":"active","ping":86},{"user_id":277,"name":"SoupER","steam_id":76561198063056668,"connected_time":741000000000,"state":"active","ping":42},{"user_id":270,"name":"Blind","steam_id":76561198310295139,"connected_time":1206000000000,"state":"active","ping":101},{"user_id":241,"name":"Toscorp","steam_id":76561198353760522,"connected_time":2614000000000,"state":"active","ping":61},{"user_id":238,"name":"goblin","steam_id":76561198151122921,"connected_time":2644000000000,"state":"active","ping":76},{"user_id":276,"name":"fae \u003c3","steam_id":76561198880591656,"connected_time":746000000000,"state":"active","ping":44},{"user_id":282,"name":"Tumajarbisaun","steam_id":76561198029296012,"connected_time":223000000000,"state":"active","ping":71},{"user_id":256,"name":"zaleek69","steam_id":76561198058877595,"connected_time":1923000000000,"state":"active","ping":80},{"user_id":250,"name":"[BROBOT] Nergal","steam_id":76561198098172161,"connected_time":2548000000000,"state":"active","ping":67},{"user_id":288,"name":"cazador","steam_id":76561198123096922,"connected_time":104000000000,"state":"active","ping":114},{"user_id":285,"name":"RataDeOrdenador","steam_id":76561198071291263,"connected_time":181000000000,"state":"active","ping":77},{"user_id":289,"name":"Jokudami","steam_id":76561198346604154,"connected_time":82000000000,"state":"active","ping":51},{"user_id":269,"name":"tete","steam_id":76561198045222850,"connected_time":1358000000000,"state":"active","ping":75},{"user_id":246,"name":"[BROBOT] Woteron","steam_id":76561198057425460,"connected_time":2591000000000,"state":"active","ping":65},{"user_id":257,"name":"·†å·†å ·†å ·†å ·†å ·†å ·†å·†å","steam_id":76561198139659854,"connected_time":1911000000000,"state":"active","ping":90},{"user_id":280,"name":"tralala","steam_id":76561198037810091,"connected_time":278000000000,"state":"active","ping":120},{"user_id":287,"name":"FairlyFatFungus","steam_id":76561199152828854,"connected_time":168000000000,"state":"active","ping":56}]},{"server_id":21,"name":"Uncletopia | London | 5 | All Maps","name_short":"lon-5","host":"lon-1.uk.uncletopia.com","port":27055,"enabled":true,"region":"eu","cc":"gb","latitude":51.509865,"longitude":-0.118092,"reserved":0,"last_update":"0001-01-01T00:00:00Z","name_a2s":"Uncletopia | London | 5 | All Maps","protocol":17,"map":"pl_frontier_final","folder":"tf","game":"Team Fortress","app_id":440,"player_count":24,"max_players":24,"Bots":0,"server_type":"Dedicated","server_os":"Linux","password":true,"vac":true,"version":"7757534","steam_id":85568392924742829,"keywords":["nocrits","nodmgspread","payload","uncletopia"],"game_id":440,"stv_port":27056,"stv_name":"Uncletopia | London | 5 | All Maps | STV","players":[{"user_id":716,"name":"lvl. 50 honkler","steam_id":76561198061688660,"connected_time":618000000000,"state":"active","ping":110},{"user_id":676,"name":"teddyswk","steam_id":76561198404939571,"connected_time":3203000000000,"state":"active","ping":91},{"user_id":720,"name":"Smilin' Wanderer","steam_id":76561198067698907,"connected_time":203000000000,"state":"active","ping":69},{"user_id":671,"name":"s a i","steam_id":76561197970379754,"connected_time":3943000000000,"state":"active","ping":68},{"user_id":669,"name":"Mor'du","steam_id":76561198274105878,"connected_time":4312000000000,"state":"active","ping":89},{"user_id":722,"name":"Lew","steam_id":76561198076039504,"connected_time":16000000000,"state":"spawning","ping":45},{"user_id":651,"name":"biohazard.pt","steam_id":76561198088367808,"connected_time":5285000000000,"state":"active","ping":99},{"user_id":689,"name":"random_player691","steam_id":76561199209946306,"connected_time":1953000000000,"state":"active","ping":58},{"user_id":704,"name":"The Penguin \u003c3","steam_id":76561198072511599,"connected_time":1251000000000,"state":"active","ping":59},{"user_id":705,"name":"NotNecessary","steam_id":76561199451938365,"connected_time":1222000000000,"state":"active","ping":59},{"user_id":601,"name":"Hydnhof","steam_id":76561198120989805,"connected_time":6824000000000,"state":"active","ping":70},{"user_id":712,"name":"jovi_","steam_id":76561198449280552,"connected_time":1131000000000,"state":"active","ping":50},{"user_id":701,"name":"Moja jaja ≈°lajdraju","steam_id":76561198280390098,"connected_time":1393000000000,"state":"active","ping":78},{"user_id":682,"name":"Motley_","steam_id":76561198116057976,"connected_time":2771000000000,"state":"active","ping":36},{"user_id":691,"name":"Dodo","steam_id":76561198001877653,"connected_time":1873000000000,"state":"active","ping":69},{"user_id":713,"name":"Charlie Horse","steam_id":76561199043573980,"connected_time":770000000000,"state":"active","ping":121},{"user_id":673,"name":"kaelan!","steam_id":76561198001425310,"connected_time":3284000000000,"state":"active","ping":74},{"user_id":707,"name":"Cinek","steam_id":76561198133810911,"connected_time":1191000000000,"state":"active","ping":78},{"user_id":687,"name":"Searching...","steam_id":76561198191078771,"connected_time":2036000000000,"state":"active","ping":74},{"user_id":719,"name":"ChefMike","steam_id":76561198414034069,"connected_time":288000000000,"state":"active","ping":146},{"user_id":721,"name":"Mantis Toboggan, M.D","steam_id":76561197963562704,"connected_time":193000000000,"state":"active","ping":63},{"user_id":699,"name":"Tetas :)","steam_id":76561198004149495,"connected_time":1531000000000,"state":"active","ping":75},{"user_id":718,"name":"DrRavioli","steam_id":76561198170822595,"connected_time":366000000000,"state":"active","ping":75},{"user_id":680,"name":"A Pigeon","steam_id":76561198114090555,"connected_time":3139000000000,"state":"active","ping":82}]},{"server_id":22,"name":"Uncletopia | London | 6 | All Maps","name_short":"lon-6","host":"lon-1.uk.uncletopia.com","port":27065,"enabled":true,"region":"eu","cc":"gb","latitude":51.509865,"longitude":-0.118092,"reserved":0,"last_update":"0001-01-01T00:00:00Z","name_a2s":"Uncletopia | London | 6 | All Maps","protocol":17,"map":"pl_badwater","folder":"tf","game":"Team Fortress","app_id":440,"player_count":24,"max_players":24,"Bots":0,"server_type":"Dedicated","server_os":"Linux","password":true,"vac":true,"version":"7757534","steam_id":85568392924742830,"keywords":["nocrits","nodmgspread","payload","uncletopia"],"game_id":440,"stv_port":27066,"stv_name":"Uncletopia | London | 6 | All Maps | STV","players":[{"user_id":221,"name":"Danny Dyer","steam_id":76561198129077371,"connected_time":1931000000000,"state":"active","ping":60},{"user_id":208,"name":"Not Funny Anymore Lol","steam_id":76561198092680133,"connected_time":2177000000000,"state":"active","ping":44},{"user_id":250,"name":"zccyqqq","steam_id":76561198358006442,"connected_time":201000000000,"state":"active","ping":73},{"user_id":251,"name":"PluNgBe #SaveTF2","steam_id":76561198131100420,"connected_time":197000000000,"state":"active","ping":53},{"user_id":252,"name":"Catboy 9S gaming","steam_id":76561197999024118,"connected_time":165000000000,"state":"active","ping":78},{"user_id":229,"name":"Key Lyor Selph","steam_id":76561198256704286,"connected_time":1361000000000,"state":"active","ping":68},{"user_id":246,"name":"no bitches nigusman","steam_id":76561199466723428,"connected_time":814000000000,"state":"active","ping":92},{"user_id":245,"name":"FishD.ck_47","steam_id":76561198114773103,"connected_time":835000000000,"state":"active","ping":69},{"user_id":115,"name":"Lord Maldimort","steam_id":76561198063150039,"connected_time":10548000000000,"state":"active","ping":63},{"user_id":105,"name":"Matomatic","steam_id":76561198063013603,"connected_time":11270000000000,"state":"active","ping":56},{"user_id":247,"name":"Ready Rice‚Ñ¢","steam_id":76561198091969871,"connected_time":807000000000,"state":"active","ping":84},{"user_id":237,"name":"BeefHammer","steam_id":76561198078426223,"connected_time":1125000000000,"state":"active","ping":85},{"user_id":248,"name":"pepper","steam_id":76561198059782462,"connected_time":767000000000,"state":"active","ping":60},{"user_id":235,"name":"Mazhavil","steam_id":76561198350435096,"connected_time":1157000000000,"state":"active","ping":116},{"user_id":249,"name":"Mr. Hunts","steam_id":76561197981910397,"connected_time":711000000000,"state":"active","ping":74},{"user_id":253,"name":"DocTwoEight","steam_id":76561198153488940,"connected_time":147000000000,"state":"active","ping":75},{"user_id":225,"name":"Skooks","steam_id":76561198125022077,"connected_time":1775000000000,"state":"active","ping":56},{"user_id":206,"name":"The Yes Man","steam_id":76561198112558416,"connected_time":2475000000000,"state":"active","ping":30},{"user_id":239,"name":"E","steam_id":76561198166340115,"connected_time":1065000000000,"state":"active","ping":63},{"user_id":218,"name":"Grillem Dafoe","steam_id":76561198306874574,"connected_time":1984000000000,"state":"active","ping":61},{"user_id":240,"name":"spillr-.-","steam_id":76561198031330889,"connected_time":1063000000000,"state":"active","ping":114},{"user_id":242,"name":"Spoingus","steam_id":76561198161402859,"connected_time":1009000000000,"state":"active","ping":80},{"user_id":223,"name":"drew","steam_id":76561198012304706,"connected_time":1812000000000,"state":"active","ping":102},{"user_id":244,"name":"British Disapproval","steam_id":76561198001375260,"connected_time":905000000000,"state":"active","ping":57}]},{"server_id":40,"name":"Uncletopia | London | 7 | No Payload","name_short":"lon-7","host":"lon-1.uk.uncletopia.com","port":27075,"enabled":true,"region":"eu","cc":"gb","latitude":51.509865,"longitude":-0.118092,"reserved":0,"last_update":"0001-01-01T00:00:00Z","name_a2s":"Uncletopia | London | 7 | No Payload","protocol":17,"map":"cp_gorge","folder":"tf","game":"Team Fortress","app_id":440,"player_count":24,"max_players":24,"Bots":0,"server_type":"Dedicated","server_os":"Linux","password":true,"vac":true,"version":"7757534","steam_id":85568392924964314,"keywords":["cp","nocrits","nodmgspread","uncletopia"],"game_id":440,"stv_port":27076,"stv_name":"Uncletopia | London | 7 | No Payload | STV","players":[{"user_id":490,"name":"LOBZIK","steam_id":76561198114830120,"connected_time":1017000000000,"state":"active","ping":78},{"user_id":456,"name":"Soihtu","steam_id":76561198025574278,"connected_time":1960000000000,"state":"active","ping":76},{"user_id":479,"name":"A Featherless Biped","steam_id":76561198307904901,"connected_time":1215000000000,"state":"active","ping":43},{"user_id":455,"name":"Rasa","steam_id":76561198030864396,"connected_time":2014000000000,"state":"active","ping":92},{"user_id":457,"name":"Knoxxen","steam_id":76561198071114510,"connected_time":1871000000000,"state":"active","ping":73},{"user_id":458,"name":"Tengu","steam_id":76561198024146649,"connected_time":1729000000000,"state":"active","ping":38},{"user_id":494,"name":"Eyeball Sucker","steam_id":76561198195865734,"connected_time":871000000000,"state":"active","ping":87},{"user_id":459,"name":"MordyQ","steam_id":76561198025613597,"connected_time":1722000000000,"state":"active","ping":104},{"user_id":460,"name":"Smiles","steam_id":76561198107197973,"connected_time":1713000000000,"state":"active","ping":150},{"user_id":461,"name":"ray von rabenstein","steam_id":76561198061380070,"connected_time":1707000000000,"state":"active","ping":64},{"user_id":462,"name":"zek","steam_id":76561198862763731,"connected_time":1706000000000,"state":"active","ping":60},{"user_id":498,"name":"Sigma","steam_id":76561198409297558,"connected_time":374000000000,"state":"active","ping":70},{"user_id":464,"name":"Shi Ê≠ª","steam_id":76561199214163032,"connected_time":1688000000000,"state":"active","ping":104},{"user_id":477,"name":"tori_spring","steam_id":76561199375975842,"connected_time":1286000000000,"state":"active","ping":52},{"user_id":469,"name":"pebbles","steam_id":76561198884449271,"connected_time":1606000000000,"state":"active","ping":66},{"user_id":495,"name":"Puro ‚ô•","steam_id":76561198039016765,"connected_time":866000000000,"state":"active","ping":99},{"user_id":496,"name":"Ben UFO","steam_id":76561198001648348,"connected_time":845000000000,"state":"active","ping":50},{"user_id":499,"name":"Flex","steam_id":76561197970482191,"connected_time":187000000000,"state":"active","ping":70},{"user_id":478,"name":"Major","steam_id":76561198086483282,"connected_time":1231000000000,"state":"active","ping":50},{"user_id":482,"name":"Zezaid","steam_id":76561199031452227,"connected_time":1135000000000,"state":"active","ping":59},{"user_id":491,"name":"sex havin'","steam_id":76561198169857427,"connected_time":924000000000,"state":"active","ping":73},{"user_id":497,"name":"EZPK","steam_id":76561197987474355,"connected_time":844000000000,"state":"active","ping":65},{"user_id":485,"name":"Koi-Koi","steam_id":76561198045527771,"connected_time":1093000000000,"state":"active","ping":53},{"user_id":488,"name":"portal","steam_id":76561198094569952,"connected_time":1049000000000,"state":"active","ping":35}]},{"server_id":41,"name":"Uncletopia | London | 8 | Community","name_short":"lon-8","host":"lon-1.uk.uncletopia.com","port":27085,"enabled":true,"region":"eu","cc":"gb","latitude":51.509865,"longitude":-0.118092,"reserved":0,"last_update":"0001-01-01T00:00:00Z","name_a2s":"Uncletopia | London | 8 | Community","protocol":17,"map":"workshop/rd_asteroid_redux_b1.ugc2154902912","folder":"tf","game":"Team Fortress","app_id":440,"player_count":0,"max_players":24,"Bots":0,"server_type":"Dedicated","server_os":"Linux","password":true,"vac":true,"version":"7757534","steam_id":85568392924964315,"keywords":["beta","nocrits","nodmgspread","rd","uncletopia"],"game_id":440,"stv_port":27086,"stv_name":"Uncletopia | London | 8 | Community | STV","players":null},{"server_id":300,"name":"Uncletopia | Montr√©al | 1 | All Maps","name_short":"mtl-1","host":"mtl-1.ca.uncletopia.com","port":27015,"enabled":true,"region":"us-east","cc":"ca","latitude":45.50889,"longitude":-73.56167,"reserved":0,"last_update":"0001-01-01T00:00:00Z","name_a2s":"Uncletopia | Montr√©al | 1 | All Maps","protocol":17,"map":"koth_cascade","folder":"tf","game":"Team Fortress","app_id":440,"player_count":0,"max_players":24,"Bots":0,"server_type":"Dedicated","server_os":"Linux","password":true,"vac":true,"version":"7757534","steam_id":85568392924500087,"keywords":["cp","nocrits","nodmgspread","uncletopia"],"game_id":440,"stv_port":27016,"stv_name":"Uncletopia | Montr√©al | 1 | All Maps | STV","players":null},{"server_id":301,"name":"Uncletopia | Montr√©al | 2 | All Maps","name_short":"mtl-2","host":"mtl-1.ca.uncletopia.com","port":27025,"enabled":true,"region":"us-east","cc":"ca","latitude":45.50889,"longitude":-73.56167,"reserved":0,"last_update":"0001-01-01T00:00:00Z","name_a2s":"Uncletopia | Montr√©al | 2 | All Maps","protocol":17,"map":"pl_badwater","folder":"tf","game":"Team Fortress","app_id":440,"player_count":0,"max_players":24,"Bots":0,"server_type":"Dedicated","server_os":"Linux","password":true,"vac":true,"version":"7757534","steam_id":85568392924500088,"keywords":["nocrits","nodmgspread","payload","uncletopia"],"game_id":440,"stv_port":27026,"stv_name":"Uncletopia | Montr√©al | 2 | All Maps | STV","players":null},{"server_id":302,"name":"Uncletopia | Montr√©al | 3 | All Maps","name_short":"mtl-3","host":"mtl-1.ca.uncletopia.com","port":27035,"enabled":true,"region":"us-east","cc":"ca","latitude":45.50889,"longitude":-73.56167,"reserved":0,"last_update":"0001-01-01T00:00:00Z","name_a2s":"Uncletopia | Montr√©al | 3 | All Maps","protocol":17,"map":"pl_swiftwater_final1","folder":"tf","game":"Team Fortress","app_id":440,"player_count":0,"max_players":24,"Bots":0,"server_type":"Dedicated","server_os":"Linux","password":true,"vac":true,"version":"7757534","steam_id":85568392924500089,"keywords":["nocrits","nodmgspread","payload","uncletopia"],"game_id":440,"stv_port":27036,"stv_name":"Uncletopia | Montr√©al | 3 | All Maps | STV","players":null},{"server_id":303,"name":"Uncletopia | Montr√©al | 4 | No Payload","name_short":"mtl-4","host":"mtl-1.ca.uncletopia.com","port":27045,"enabled":true,"region":"us-east","cc":"ca","latitude":45.50889,"longitude":-73.56167,"reserved":0,"last_update":"0001-01-01T00:00:00Z","name_a2s":"Uncletopia | Montr√©al | 4 | No Payload","protocol":17,"map":"koth_lakeside_final","folder":"tf","game":"Team Fortress","app_id":440,"player_count":0,"max_players":24,"Bots":0,"server_type":"Dedicated","server_os":"Linux","password":true,"vac":true,"version":"7757534","steam_id":85568392924500090,"keywords":["cp","nocrits","nodmgspread","uncletopia"],"game_id":440,"stv_port":27046,"stv_name":"Uncletopia | Montr√©al | 4 | No Payload | STV","players":null},{"server_id":13,"name":"Uncletopia | New York City | 1 | All Maps","name_short":"nyc-1","host":"nyc-1.us.uncletopia.com","port":27015,"enabled":true,"region":"us-east","cc":"us","latitude":40.73061,"longitude":-73.93524,"reserved":0,"last_update":"0001-01-01T00:00:00Z","name_a2s":"Uncletopia | New York City | 1 | All Maps","protocol":17,"map":"cp_yukon_final","folder":"tf","game":"Team Fortress","app_id":440,"player_count":24,"max_players":24,"Bots":0,"server_type":"Dedicated","server_os":"Linux","password":true,"vac":true,"version":"7757534","steam_id":85568392924469993,"keywords":["cp","nocrits","nodmgspread","uncletopia"],"game_id":440,"stv_port":27016,"stv_name":"Uncletopia | New York City | 1 | All Maps | STV","players":[{"user_id":164,"name":"Havok","steam_id":76561198063455003,"connected_time":30000000000,"state":"spawning","ping":44},{"user_id":126,"name":"TheWallaby","steam_id":76561198948037546,"connected_time":2450000000000,"state":"active","ping":49},{"user_id":160,"name":"PzVIIIMaus","steam_id":76561198346559365,"connected_time":241000000000,"state":"active","ping":61},{"user_id":161,"name":"SuperFresh","steam_id":76561198200723198,"connected_time":232000000000,"state":"active","ping":54},{"user_id":123,"name":"FunnyUsernameWow","steam_id":76561198324177635,"connected_time":2692000000000,"state":"active","ping":58},{"user_id":151,"name":"Durham.","steam_id":76561199013125141,"connected_time":540000000000,"state":"active","ping":148},{"user_id":153,"name":"ThrobbingFerret","steam_id":76561199075576606,"connected_time":448000000000,"state":"active","ping":131},{"user_id":128,"name":"Smorg","steam_id":76561198368999744,"connected_time":2380000000000,"state":"active","ping":52},{"user_id":72,"name":"localization files","steam_id":76561197997139225,"connected_time":5698000000000,"state":"active","ping":45},{"user_id":137,"name":"TriggerHappyPacifist","steam_id":76561197963455267,"connected_time":1396000000000,"state":"active","ping":122},{"user_id":163,"name":"LalitoTV","steam_id":76561198334302951,"connected_time":162000000000,"state":"active","ping":133},{"user_id":157,"name":"Vec","steam_id":76561198044505262,"connected_time":354000000000,"state":"active","ping":98},{"user_id":115,"name":"Nagol","steam_id":76561198125274726,"connected_time":3503000000000,"state":"active","ping":114},{"user_id":159,"name":"Anax Alter","steam_id":76561198110249546,"connected_time":266000000000,"state":"active","ping":49},{"user_id":89,"name":"tabasco","steam_id":76561198355094896,"connected_time":4993000000000,"state":"active","ping":55},{"user_id":139,"name":"PileofPolygons","steam_id":76561199321343460,"connected_time":1281000000000,"state":"active","ping":71},{"user_id":156,"name":"specialinsect","steam_id":76561198324718706,"connected_time":411000000000,"state":"active","ping":50},{"user_id":140,"name":"boneyard","steam_id":76561199080454140,"connected_time":1231000000000,"state":"active","ping":57},{"user_id":141,"name":"Plane","steam_id":76561199229484330,"connected_time":1200000000000,"state":"active","ping":69},{"user_id":112,"name":"Lain","steam_id":76561198252784944,"connected_time":3855000000000,"state":"active","ping":105},{"user_id":87,"name":"onionbagel4","steam_id":76561199134895220,"connected_time":5039000000000,"state":"active","ping":54},{"user_id":142,"name":"Magnolia","steam_id":76561199044602594,"connected_time":1198000000000,"state":"active","ping":39},{"user_id":162,"name":"Pigeonhunter","steam_id":76561198109881524,"connected_time":230000000000,"state":"active","ping":97},{"user_id":145,"name":"Dilbert","steam_id":76561198195613682,"connected_time":783000000000,"state":"active","ping":75}]},{"server_id":14,"name":"Uncletopia | New York City | 2 | All Maps","name_short":"nyc-2","host":"nyc-1.us.uncletopia.com","port":27025,"enabled":true,"region":"us-east","cc":"us","latitude":40.73061,"longitude":-73.93524,"reserved":0,"last_update":"0001-01-01T00:00:00Z","name_a2s":"Uncletopia | New York City | 2 | All Maps","protocol":17,"map":"koth_highpass","folder":"tf","game":"Team Fortress","app_id":440,"player_count":0,"max_players":24,"Bots":0,"server_type":"Dedicated","server_os":"Linux","password":true,"vac":true,"version":"7757534","steam_id":85568392924469994,"keywords":["cp","nocrits","nodmgspread","uncletopia"],"game_id":440,"stv_port":27026,"stv_name":"Uncletopia | New York City | 2 | All Maps | STV","players":null},{"server_id":15,"name":"Uncletopia | New York City | 3 | Stopwatch Beta","name_short":"nyc-3","host":"nyc-1.us.uncletopia.com","port":27035,"enabled":true,"region":"us-east","cc":"us","latitude":40.73061,"longitude":-73.93524,"reserved":0,"last_update":"0001-01-01T00:00:00Z","name_a2s":"Uncletopia | New York City | 3 | Stopwatch Beta","protocol":17,"map":"koth_highpass","folder":"tf","game":"Team Fortress","app_id":440,"player_count":0,"max_players":24,"Bots":0,"server_type":"Dedicated","server_os":"Linux","password":true,"vac":true,"version":"7757534","steam_id":85568392924742820,"keywords":["cp","nocrits","nodmgspread","uncletopia"],"game_id":440,"stv_port":27036,"stv_name":"Uncletopia | New York City | 3 | Stopwatch Beta | STV","players":null},{"server_id":16,"name":"Uncletopia | New York City | 4 | Community","name_short":"nyc-4","host":"nyc-1.us.uncletopia.com","port":27045,"enabled":true,"region":"us-east","cc":"us","latitude":40.73061,"longitude":-73.93524,"reserved":0,"last_update":"0001-01-01T00:00:00Z","name_a2s":"Uncletopia | New York City | 4 | Community","protocol":17,"map":"workshop/koth_bagel_rc5.ugc2514036946","folder":"tf","game":"Team Fortress","app_id":440,"player_count":0,"max_players":24,"Bots":0,"server_type":"Dedicated","server_os":"Linux","password":true,"vac":true,"version":"7757534","steam_id":85568392924742821,"keywords":["cp","nocrits","nodmgspread","uncletopia"],"game_id":440,"stv_port":27046,"stv_name":"Uncletopia | New York City | 4 | Community | STV","players":null},{"server_id":142,"name":"Uncletopia | S√£o Paulo | 1 | All Maps","name_short":"sao-1","host":"sao-1.br.uncletopia.com","port":27015,"enabled":true,"region":"sa","cc":"br","latitude":-23.533773,"longitude":-46.62529,"reserved":0,"last_update":"0001-01-01T00:00:00Z","name_a2s":"Uncletopia | S√£o Paulo | 1 | All Maps","protocol":17,"map":"cp_snakewater_final1","folder":"tf","game":"Team Fortress","app_id":440,"player_count":0,"max_players":24,"Bots":0,"server_type":"Dedicated","server_os":"Linux","password":true,"vac":true,"version":"7757534","steam_id":85568392924469996,"keywords":["cp","nocrits","nodmgspread","uncletopia"],"game_id":440,"stv_port":27016,"stv_name":"Uncletopia | S√£o Paulo | 1 | All Maps | STV","players":null},{"server_id":143,"name":"Uncletopia | S√£o Paulo | 2 | All Maps","name_short":"sao-2","host":"sao-2.br.uncletopia.com","port":27015,"enabled":true,"region":"sa","cc":"br","latitude":-23.533773,"longitude":-46.62529,"reserved":0,"last_update":"0001-01-01T00:00:00Z","name_a2s":"Uncletopia | S√£o Paulo | 2 | All Maps","protocol":17,"map":"koth_cascade","folder":"tf","game":"Team Fortress","app_id":440,"player_count":0,"max_players":24,"Bots":0,"server_type":"Dedicated","server_os":"Linux","password":true,"vac":true,"version":"7757534","steam_id":85568392924485349,"keywords":["cp","nocrits","nodmgspread","uncletopia"],"game_id":440,"stv_port":27016,"stv_name":"Uncletopia | S√£o Paulo | 2 | All Maps | STV","players":null},{"server_id":7,"name":"Uncletopia | Seattle | 1 | All Maps","name_short":"sea-1","host":"sea-1.us.uncletopia.com","port":27015,"enabled":true,"region":"us-west","cc":"us","latitude":47.608013,"longitude":-122.33517,"reserved":0,"last_update":"0001-01-01T00:00:00Z","name_a2s":"Uncletopia | Seattle | 1 | All Maps","protocol":17,"map":"pl_frontier_final","folder":"tf","game":"Team Fortress","app_id":440,"player_count":0,"max_players":24,"Bots":0,"server_type":"Dedicated","server_os":"Linux","password":true,"vac":true,"version":"7757534","steam_id":85568392924469997,"keywords":["nocrits","nodmgspread","payload","uncletopia"],"game_id":440,"stv_port":27016,"stv_name":"Uncletopia | Seattle | 1 | All Maps | STV","players":null},{"server_id":119,"name":"Uncletopia | Seattle | 2 | All Maps","name_short":"sea-2","host":"sea-1.us.uncletopia.com","port":27025,"enabled":true,"region":"us-west","cc":"us","latitude":47.608013,"longitude":-122.33517,"reserved":0,"last_update":"0001-01-01T00:00:00Z","name_a2s":"Uncletopia | Seattle | 2 | All Maps","protocol":17,"map":"pl_badwater","folder":"tf","game":"Team Fortress","app_id":440,"player_count":3,"max_players":24,"Bots":0,"server_type":"Dedicated","server_os":"Linux","password":true,"vac":true,"version":"7757534","steam_id":85568392924469998,"keywords":["nocrits","nodmgspread","payload","uncletopia"],"game_id":440,"stv_port":27026,"stv_name":"Uncletopia | Seattle | 2 | All Maps | STV","players":[{"user_id":5,"name":"volta","steam_id":76561199214283884,"connected_time":1436000000000,"state":"active","ping":163},{"user_id":6,"name":"Lightatex","steam_id":76561199068097196,"connected_time":1406000000000,"state":"active","ping":100},{"user_id":14,"name":"penguinlord30","steam_id":76561198437116566,"connected_time":500000000000,"state":"active","ping":56}]},{"server_id":406,"name":"Uncletopia | Seattle | 3 | Stopwatch Beta","name_short":"sea-3","host":"sea-1.us.uncletopia.com","port":27035,"enabled":true,"region":"us-west","cc":"us","latitude":47.608013,"longitude":-122.33517,"reserved":0,"last_update":"0001-01-01T00:00:00Z","name_a2s":"Uncletopia | Seattle | 3 | Stopwatch Beta","protocol":17,"map":"cp_sunshine","folder":"tf","game":"Team Fortress","app_id":440,"player_count":0,"max_players":24,"Bots":0,"server_type":"Dedicated","server_os":"Linux","password":true,"vac":true,"version":"7757534","steam_id":85568392924515217,"keywords":["cp","nocrits","nodmgspread","uncletopia"],"game_id":440,"stv_port":27036,"stv_name":"Uncletopia | Seattle | 3 | Stopwatch Beta | STV","players":null},{"server_id":17,"name":"Uncletopia | San Francisco | 1 | All Maps","name_short":"sfo-1","host":"sfo-1.us.uncletopia.com","port":27015,"enabled":true,"region":"us-west","cc":"us","latitude":37.77397,"longitude":-122.4313,"reserved":0,"last_update":"0001-01-01T00:00:00Z","name_a2s":"Uncletopia | San Francisco | 1 | All Maps","protocol":17,"map":"koth_lakeside_final","folder":"tf","game":"Team Fortress","app_id":440,"player_count":0,"max_players":24,"Bots":0,"server_type":"Dedicated","server_os":"Linux","password":true,"vac":true,"version":"7757534","steam_id":85568392924469999,"keywords":["cp","nocrits","nodmgspread","uncletopia"],"game_id":440,"stv_port":27016,"stv_name":"Uncletopia | San Francisco | 1 | All Maps | STV","players":null},{"server_id":18,"name":"Uncletopia | San Francisco | 2 | All Maps","name_short":"sfo-2","host":"sfo-1.us.uncletopia.com","port":27025,"enabled":true,"region":"us-west","cc":"us","latitude":37.77397,"longitude":-122.4313,"reserved":0,"last_update":"0001-01-01T00:00:00Z","name_a2s":"Uncletopia | San Francisco | 2 | All Maps","protocol":17,"map":"pl_borneo","folder":"tf","game":"Team Fortress","app_id":440,"player_count":9,"max_players":24,"Bots":0,"server_type":"Dedicated","server_os":"Linux","password":true,"vac":true,"version":"7757534","steam_id":85568392924470000,"keywords":["nocrits","nodmgspread","payload","uncletopia"],"game_id":440,"stv_port":27026,"stv_name":"Uncletopia | San Francisco | 2 | All Maps | STV","players":[{"user_id":22,"name":"gerge","steam_id":76561199160149960,"connected_time":680000000000,"state":"active","ping":222},{"user_id":10,"name":"Mom","steam_id":76561198207936000,"connected_time":1554000000000,"state":"active","ping":32},{"user_id":27,"name":"corbenis","steam_id":76561199012442511,"connected_time":119000000000,"state":"active","ping":81},{"user_id":24,"name":"Maid 'n' China","steam_id":76561198423392976,"connected_time":435000000000,"state":"active","ping":48},{"user_id":25,"name":"car gas is yummy","steam_id":76561199045901994,"connected_time":331000000000,"state":"active","ping":68},{"user_id":18,"name":"Abbreviated","steam_id":76561198088423054,"connected_time":1015000000000,"state":"active","ping":99},{"user_id":26,"name":"Room","steam_id":76561199174579733,"connected_time":246000000000,"state":"active","ping":120},{"user_id":23,"name":"Revac","steam_id":76561198151331447,"connected_time":610000000000,"state":"active","ping":30},{"user_id":28,"name":"Flarelo","steam_id":76561198086024407,"connected_time":6000000000,"state":"spawning","ping":100}]},{"server_id":19,"name":"Uncletopia | San Francisco | 3 | Stopwatch Beta","name_short":"sfo-3","host":"sfo-1.us.uncletopia.com","port":27035,"enabled":true,"region":"us-west","cc":"us","latitude":37.77397,"longitude":-122.4313,"reserved":0,"last_update":"0001-01-01T00:00:00Z","name_a2s":"Uncletopia | San Francisco | 3 | Stopwatch Beta","protocol":17,"map":"koth_viaduct","folder":"tf","game":"Team Fortress","app_id":440,"player_count":0,"max_players":24,"Bots":0,"server_type":"Dedicated","server_os":"Linux","password":true,"vac":true,"version":"7757534","steam_id":85568392924742824,"keywords":["cp","nocrits","nodmgspread","uncletopia"],"game_id":440,"stv_port":27036,"stv_name":"Uncletopia | San Francisco | 3 | Stopwatch Beta | STV","players":null},{"server_id":20,"name":"Uncletopia | San Francisco | 4 | Community","name_short":"sfo-4","host":"sfo-1.us.uncletopia.com","port":27045,"enabled":true,"region":"us-west","cc":"us","latitude":37.77397,"longitude":-122.4313,"reserved":0,"last_update":"0001-01-01T00:00:00Z","name_a2s":"Uncletopia | San Francisco | 4 | Community","protocol":17,"map":"workshop/cp_overgrown_rc7b.ugc503939302","folder":"tf","game":"Team Fortress","app_id":440,"player_count":24,"max_players":24,"Bots":0,"server_type":"Dedicated","server_os":"Linux","password":true,"vac":true,"version":"7757534","steam_id":85568392924742826,"keywords":["cp","nocrits","nodmgspread","uncletopia"],"game_id":440,"stv_port":27046,"stv_name":"Uncletopia | San Francisco | 4 | Community | STV","players":[{"user_id":274,"name":"DrummerDiddles","steam_id":76561198327364451,"connected_time":736000000000,"state":"active","ping":99},{"user_id":273,"name":"afeel5004","steam_id":76561199273696662,"connected_time":852000000000,"state":"active","ping":49},{"user_id":275,"name":"Greasermane117","steam_id":76561198263748683,"connected_time":706000000000,"state":"active","ping":55},{"user_id":276,"name":"Amish Robot","steam_id":76561198041156065,"connected_time":689000000000,"state":"active","ping":95},{"user_id":286,"name":"Aleks","steam_id":76561198815609623,"connected_time":269000000000,"state":"active","ping":182},{"user_id":256,"name":"Moth","steam_id":76561198170253694,"connected_time":1961000000000,"state":"active","ping":103},{"user_id":87,"name":"TheGreatDong","steam_id":76561198000634178,"connected_time":12469000000000,"state":"active","ping":64},{"user_id":221,"name":"NewNebula12","steam_id":76561198146473719,"connected_time":3703000000000,"state":"active","ping":72},{"user_id":289,"name":"mremannn","steam_id":76561198241105316,"connected_time":223000000000,"state":"active","ping":78},{"user_id":287,"name":"Kuma","steam_id":76561199100813140,"connected_time":263000000000,"state":"active","ping":69},{"user_id":262,"name":"maximusbabaximus","steam_id":76561198419378913,"connected_time":1191000000000,"state":"active","ping":60},{"user_id":253,"name":"Lactose ‡πëÔ≠•","steam_id":76561198208256987,"connected_time":2186000000000,"state":"active","ping":70},{"user_id":264,"name":"schnedwob","steam_id":76561197999146588,"connected_time":1053000000000,"state":"active","ping":88},{"user_id":265,"name":"lavender","steam_id":76561199069518286,"connected_time":1051000000000,"state":"active","ping":66},{"user_id":290,"name":"the back fat talked dirty to me","steam_id":76561198986534519,"connected_time":155000000000,"state":"active","ping":47},{"user_id":227,"name":"Tibetan Pop Star","steam_id":76561198844903984,"connected_time":3123000000000,"state":"active","ping":70},{"user_id":255,"name":"TothBrush","steam_id":76561198028254471,"connected_time":2141000000000,"state":"active","ping":68},{"user_id":291,"name":"Delimeat","steam_id":76561198043824595,"connected_time":141000000000,"state":"active","ping":58},{"user_id":288,"name":"CryptikLemur","steam_id":76561198008892360,"connected_time":256000000000,"state":"active","ping":100},{"user_id":283,"name":"Venezia","steam_id":76561197994107407,"connected_time":351000000000,"state":"active","ping":102},{"user_id":252,"name":"Tom Skirrett","steam_id":76561198014600788,"connected_time":2198000000000,"state":"active","ping":90},{"user_id":257,"name":"Wso1123","steam_id":76561198048040111,"connected_time":1520000000000,"state":"active","ping":64},{"user_id":280,"name":"Jettsn","steam_id":76561198219309655,"connected_time":489000000000,"state":"active","ping":62},{"user_id":284,"name":"HideOnTate","steam_id":76561198209880837,"connected_time":346000000000,"state":"active","ping":73}]},{"server_id":141,"name":"Uncletopia | Sydney | 1 | All Maps","name_short":"syd-1","host":"syd-1.au.uncletopia.com","port":27015,"enabled":true,"region":"au","cc":"au","latitude":-33.865143,"longitude":151.2099,"reserved":0,"last_update":"0001-01-01T00:00:00Z","name_a2s":"Uncletopia | Sydney | 1 | All Maps","protocol":17,"map":"koth_lakeside_final","folder":"tf","game":"Team Fortress","app_id":440,"player_count":0,"max_players":24,"Bots":0,"server_type":"Dedicated","server_os":"Linux","password":true,"vac":true,"version":"7757534","steam_id":85568392924470001,"keywords":["cp","nocrits","nodmgspread","uncletopia"],"game_id":440,"stv_port":27016,"stv_name":"Uncletopia | Sydney | 1 | All Maps | STV","players":null},{"server_id":123,"name":"Uncletopia | Sydney | 2 | All Maps","name_short":"syd-2","host":"syd-1.au.uncletopia.com","port":27025,"enabled":true,"region":"au","cc":"au","latitude":-33.865143,"longitude":151.2099,"reserved":0,"last_update":"0001-01-01T00:00:00Z","name_a2s":"Uncletopia | Sydney | 2 | All Maps","protocol":17,"map":"koth_viaduct","folder":"tf","game":"Team Fortress","app_id":440,"player_count":0,"max_players":24,"Bots":0,"server_type":"Dedicated","server_os":"Linux","password":true,"vac":true,"version":"7757534","steam_id":85568392924470002,"keywords":["cp","nocrits","nodmgspread","uncletopia"],"game_id":440,"stv_port":27026,"stv_name":"Uncletopia | Sydney | 2 | All Maps | STV","players":null},{"server_id":395,"name":"Uncletopia | Sydney | 3 | All Maps","name_short":"syd-3","host":"syd-1.au.uncletopia.com","port":27035,"enabled":true,"region":"au","cc":"au","latitude":-33.865143,"longitude":151.2099,"reserved":0,"last_update":"0001-01-01T00:00:00Z","name_a2s":"Uncletopia | Sydney | 3 | All Maps","protocol":17,"map":"koth_viaduct","folder":"tf","game":"Team Fortress","app_id":440,"player_count":0,"max_players":24,"Bots":0,"server_type":"Dedicated","server_os":"Linux","password":true,"vac":true,"version":"7757534","steam_id":85568392925194467,"keywords":["cp","nocrits","nodmgspread","uncletopia"],"game_id":440,"stv_port":27036,"stv_name":"Uncletopia | Sydney | 3 | All Maps | STV","players":null},{"server_id":396,"name":"Uncletopia | Sydney | 4 | All Maps","name_short":"syd-4","host":"syd-1.au.uncletopia.com","port":27045,"enabled":true,"region":"au","cc":"au","latitude":-33.865143,"longitude":151.2099,"reserved":0,"last_update":"0001-01-01T00:00:00Z","name_a2s":"Uncletopia | Sydney | 4 | All Maps","protocol":17,"map":"cp_snakewater_final1","folder":"tf","game":"Team Fortress","app_id":440,"player_count":0,"max_players":24,"Bots":0,"server_type":"Dedicated","server_os":"Linux","password":true,"vac":true,"version":"7757534","steam_id":85568392925397958,"keywords":["cp","nocrits","nodmgspread","uncletopia"],"game_id":440,"stv_port":27046,"stv_name":"Uncletopia | Sydney | 4 | All Maps | STV","players":null},{"server_id":58,"name":"Uncletopia | Sydney | 5 | Stopwatch Beta","name_short":"syd-5","host":"syd-1.au.uncletopia.com","port":27055,"enabled":true,"region":"au","cc":"au","latitude":-33.865143,"longitude":151.2099,"reserved":0,"last_update":"0001-01-01T00:00:00Z","name_a2s":"Uncletopia | Sydney | 5 | Stopwatch Beta","protocol":17,"map":"pl_barnblitz","folder":"tf","game":"Team Fortress","app_id":440,"player_count":0,"max_players":24,"Bots":0,"server_type":"Dedicated","server_os":"Linux","password":true,"vac":true,"version":"7757534","steam_id":85568392925397959,"keywords":["nocrits","nodmgspread","payload","uncletopia"],"game_id":440,"stv_port":27056,"stv_name":"Uncletopia | Sydney | 5 | Stopwatch Beta | STV","players":null},{"server_id":59,"name":"Uncletopia | Sydney | 6 | Community","name_short":"syd-6","host":"syd-1.au.uncletopia.com","port":27065,"enabled":true,"region":"au","cc":"au","latitude":-33.865143,"longitude":151.2099,"reserved":0,"last_update":"0001-01-01T00:00:00Z","name_a2s":"Uncletopia | Sydney | 6 | Community","protocol":17,"map":"cp_mountainlab","folder":"tf","game":"Team Fortress","app_id":440,"player_count":0,"max_players":24,"Bots":0,"server_type":"Dedicated","server_os":"Linux","password":true,"vac":true,"version":"7757534","steam_id":85568392925397960,"keywords":["cp","nocrits","nodmgspread","uncletopia"],"game_id":440,"stv_port":27066,"stv_name":"Uncletopia | Sydney | 6 | Community | STV","players":null},{"server_id":49,"name":"Uncletopia | Warsaw | 1 | All Maps","name_short":"waw-1","host":"waw-1.pl.uncletopia.com","port":27015,"enabled":true,"region":"eu","cc":"pl","latitude":52.2297,"longitude":21.017532,"reserved":0,"last_update":"0001-01-01T00:00:00Z","name_a2s":"","protocol":0,"map":"","folder":"","game":"","app_id":0,"player_count":0,"max_players":0,"Bots":0,"server_type":"","server_os":"","password":false,"vac":false,"version":"","steam_id":0,"keywords":null,"game_id":0,"stv_port":0,"stv_name":"","players":null},{"server_id":50,"name":"Uncletopia | Warsaw | 2 | All Maps","name_short":"waw-2","host":"waw-1.pl.uncletopia.com","port":27025,"enabled":true,"region":"eu","cc":"pl","latitude":52.2297,"longitude":21.017532,"reserved":0,"last_update":"0001-01-01T00:00:00Z","name_a2s":"Uncletopia | Warsaw | 2 | All Maps","protocol":17,"map":"koth_lakeside_final","folder":"tf","game":"Team Fortress","app_id":440,"player_count":4,"max_players":24,"Bots":0,"server_type":"Dedicated","server_os":"Linux","password":true,"vac":true,"version":"7757534","steam_id":85568392925397851,"keywords":["cp","nocrits","nodmgspread","uncletopia"],"game_id":440,"stv_port":27026,"stv_name":"Uncletopia | Warsaw | 2 | All Maps | STV","players":[{"user_id":9,"name":"William_00f","steam_id":76561199071492041,"connected_time":1525000000000,"state":"active","ping":70},{"user_id":10,"name":"bassim.taj","steam_id":76561198965823482,"connected_time":1486000000000,"state":"active","ping":221},{"user_id":11,"name":"mokeyithink","steam_id":76561198844663441,"connected_time":1391000000000,"state":"active","ping":101},{"user_id":16,"name":"Truegr","steam_id":76561198811912339,"connected_time":794000000000,"state":"active","ping":73}]},{"server_id":51,"name":"Uncletopia | Warsaw | 3 | All Maps","name_short":"waw-3","host":"waw-1.pl.uncletopia.com","port":27035,"enabled":true,"region":"eu","cc":"pl","latitude":52.2297,"longitude":21.017532,"reserved":0,"last_update":"0001-01-01T00:00:00Z","name_a2s":"Uncletopia | Warsaw | 3 | All Maps","protocol":17,"map":"pl_pier","folder":"tf","game":"Team Fortress","app_id":440,"player_count":0,"max_players":24,"Bots":0,"server_type":"Dedicated","server_os":"Linux","password":true,"vac":true,"version":"7757534","steam_id":85568392925397852,"keywords":["nocrits","nodmgspread","payload","uncletopia"],"game_id":440,"stv_port":27036,"stv_name":"Uncletopia | Warsaw | 3 | All Maps | STV","players":null},{"server_id":52,"name":"Uncletopia | Warsaw | 4 | All Maps","name_short":"waw-4","host":"waw-1.pl.uncletopia.com","port":27045,"enabled":true,"region":"eu","cc":"pl","latitude":52.2297,"longitude":21.017532,"reserved":0,"last_update":"0001-01-01T00:00:00Z","name_a2s":"Uncletopia | Warsaw | 4 | All Maps","protocol":17,"map":"pl_frontier_final","folder":"tf","game":"Team Fortress","app_id":440,"player_count":0,"max_players":24,"Bots":0,"server_type":"Dedicated","server_os":"Linux","password":true,"vac":true,"version":"7757534","steam_id":85568392925397853,"keywords":["nocrits","nodmgspread","payload","uncletopia"],"game_id":440,"stv_port":27046,"stv_name":"Uncletopia | Warsaw | 4 | All Maps | STV","players":null},{"server_id":53,"name":"Uncletopia | Warsaw | 5 | Stopwatch Beta","name_short":"waw-5","host":"waw-1.pl.uncletopia.com","port":27055,"enabled":true,"region":"eu","cc":"pl","latitude":52.2297,"longitude":21.017532,"reserved":0,"last_update":"0001-01-01T00:00:00Z","name_a2s":"Uncletopia | Warsaw | 5 | Stopwatch Beta","protocol":17,"map":"pl_upward","folder":"tf","game":"Team Fortress","app_id":440,"player_count":0,"max_players":24,"Bots":0,"server_type":"Dedicated","server_os":"Linux","password":true,"vac":true,"version":"7757534","steam_id":85568392925397854,"keywords":["nocrits","nodmgspread","payload","uncletopia"],"game_id":440,"stv_port":27056,"stv_name":"Uncletopia | Warsaw | 5 | Stopwatch Beta | STV","players":null},{"server_id":54,"name":"Uncletopia | Warsaw | 6 | Community","name_short":"waw-6","host":"waw-1.pl.uncletopia.com","port":27065,"enabled":true,"region":"eu","cc":"pl","latitude":52.2297,"longitude":21.017532,"reserved":0,"last_update":"0001-01-01T00:00:00Z","name_a2s":"Uncletopia | Warsaw | 6 | Community","protocol":17,"map":"workshop/koth_bagel_rc5.ugc2514036946","folder":"tf","game":"Team Fortress","app_id":440,"player_count":0,"max_players":24,"Bots":0,"server_type":"Dedicated","server_os":"Linux","password":true,"vac":true,"version":"7757534","steam_id":85568392925397856,"keywords":["cp","nocrits","nodmgspread","uncletopia"],"game_id":440,"stv_port":27066,"stv_name":"Uncletopia | Warsaw | 6 | Community | STV","players":null}]}