{"status":true,"message":"","result":[{"server_id":9,"name":"Uncletopia | Atlanta | 1 | All Maps","name_short":"atl-1","host":"atl-1.us.uncletopia.com","port":27015,"enabled":true,"region":"us-east","cc":"us","latitude":33.753746,"longitude":-84.38633,"reserved":0,"last_update":"0001-01-01T00:00:00Z","name_a2s":"Uncletopia | Atlanta | 1 | All Maps","protocol":17,"map":"pl_pier","folder":"tf","game":"Team Fortress","app_id":440,"player_count":24,"max_players":24,"Bots":0,"server_type":"Dedicated","server_os":"Linux","password":true,"vac":true,"version":"7757534","steam_id":85568392924469982,"keywords":["nocrits","nodmgspread","payload","uncletopia"],"game_id":440,"stv_port":27016,"stv_name":"Uncletopia | Atlanta | 1 | All Maps | STV","players":[{"user_id":171,"name":"RED1 | nomad","steam_id":76561197998740399,"connected_time":2014000000000,"state":"active","ping":69},{"user_id":186,"name":"shephield","steam_id":76561197965111567,"connected_time":771000000000,"state":"active","ping":56},{"user_id":112,"name":"Dorothy","steam_id":76561198152455316,"connected_time":7015000000000,"state":"active","ping":106},{"user_id":180,"name":"^2Moving^1shadoW","steam_id":76561198078674411,"connected_time":1625000000000,"state":"active","ping":84},{"user_id":166,"name":"ATL1 | Le4n!!!","steam_id":76561198045522596,"connected_time":2033000000000,"state":"active","ping":69},{"user_id":179,"name":"Falleax","steam_id":76561198021154908,"connected_time":1696000000000,"state":"active","ping":74},{"user_id":95,"name":"1 Extra Large Chihuahua","steam_id":76561198130772096,"connected_time":8450000000000,"state":"active","ping":53},{"user_id":191,"name":"CurseOD","steam_id":76561198203289110,"connected_time":504000000000,"state":"active","ping":65},{"user_id":193,"name":"Nostrildamus","steam_id":76561198056647457,"connected_time":146000000000,"state":"active","ping":58},{"user_id":150,"name":"Jin Gulilo","steam_id":76561198065151242,"connected_time":3056000000000,"state":"active","ping":73},{"user_id":188,"name":"[❤] Lena ♥","steam_id":76561198973084169,"connected_time":769000000000,"state":"active","ping":150},{"user_id":152,"name":"Sigma Spy","steam_id":76561198253181773,"connected_time":2790000000000,"state":"active","ping":59},{"user_id":190,"name":"LG_Fridge_User","steam_id":76561198977815014,"connected_time":622000000000,"state":"active","ping":125},{"user_id":121,"name":"Ashes!","steam_id":76561197998475441,"connected_time":6089000000000,"state":"active","ping":68},{"user_id":85,"name":"Cleetus","steam_id":76561198055879094,"connected_time":9435000000000,"state":"active","ping":62},{"user_id":189,"name":"BLU1 | Shame","steam_id":76561198100490994,"connected_time":763000000000,"state":"active","ping":60},{"user_id":177,"name":"RASTAPEEK","steam_id":76561198098284483,"connected_time":1748000000000,"state":"active","ping":45},{"user_id":170,"name":"Im High","steam_id":76561198049954886,"connected_time":2021000000000,"state":"active","ping":74},{"user_id":178,"name":"Zho Biden","steam_id":76561198079224101,"connected_time":1723000000000,"state":"active","ping":44},{"user_id":192,"name":"pilbo winklater","steam_id":76561198867130576,"connected_time":380000000000,"state":"active","ping":87},{"user_id":175,"name":"vebr","steam_id":76561199189391772,"connected_time":1879000000000,"state":"active","ping":87},{"user_id":122,"name":"nikzera","steam_id":76561198068025863,"connected_time":5939000000000,"state":"active","ping":181},{"user_id":167,"name":"RED1 | snoops","steam_id":76561197986760351,"connected_time":2030000000000,"state":"active","ping":75},{"user_id":173,"name":"Viokik","steam_id":76561198408846602,"connected_time":1922000000000,"state":"active","ping":72}]},{"server_id":400,"name":"Uncletopia | Atlanta | 3 | Community","name_short":"atl-3","host":"atl-1.us.uncletopia.com","port":27035,"enabled":true,"region":"us-east","cc":"us","latitude":33.753746,"longitude":-84.38633,"reserved":0,"last_update":"0001-01-01T00:00:00Z","name_a2s":"Uncletopia | Atlanta | 3 | Community","protocol":17,"map":"workshop/koth_product_final.ugc454272353","folder":"tf","game":"Team Fortress","app_id":440,"player_count":0,"max_players":32,"Bots":0,"server_type":"Dedicated","server_os":"Linux","password":true,"vac":true,"version":"7757534","steam_id":85568392924515187,"keywords":["cp","increased_maxplayers","nocrits","nodmgspread","uncletopia"],"game_id":440,"stv_port":27036,"stv_name":"Uncletopia | Atlanta | 3 | Community | STV","players":null},{"server_id":401,"name":"Uncletopia | Atlanta | 4 | No Payload","name_short":"atl-4","host":"atl-1.us.uncletopia.com","port":27045,"enabled":true,"region":"us-east","cc":"us","latitude":33.753746,"longitude":-84.38633,"reserved":0,"last_update":"0001-01-01T00:00:00Z","name_a2s":"","protocol":0,"map":"","folder":"","game":"","app_id":0,"player_count":0,"max_players":0,"Bots":0,"server_type":"","server_os":"","password":false,"vac":false,"version":"","steam_id":0,"keywords":null,"game_id":0,"stv_port":0,"stv_name":"","players":null},{"server_id":2,"name":"Uncletopia | Chicago | 1 | All Maps","name_short":"chi-1","host":"chi-1.us.uncletopia.com","port":27015,"enabled":true,"region":"us-central","cc":"us","latitude":41.881832,"longitude":-87.62318,"reserved":0,"last_update":"0001-01-01T00:00:00Z","name_a2s":"Uncletopia | Chicago | 1 | All Maps","protocol":17,"map":"pl_snowycoast","folder":"tf","game":"Team Fortress","app_id":440,"player_count":24,"max_players":24,"Bots":0,"server_type":"Dedicated","server_os":"Linux","password":true,"vac":true,"version":"7757534","steam_id":85568392924469984,"keywords":["nocrits","nodmgspread","payload","uncletopia"],"game_id":440,"stv_port":27016,"stv_name":"Uncletopia | Chicago | 1 | All Maps | STV","players":[{"user_id":325,"name":"The Cyberborn Butcher","steam_id":76561198802514971,"connected_time":4392000000000,"state":"active","ping":126},{"user_id":333,"name":"KevCraft","steam_id":76561199000622939,"connected_time":3858000000000,"state":"active","ping":78},{"user_id":353,"name":"Sea raider (raiding your bussy)","steam_id":76561199223358782,"connected_time":1920000000000,"state":"active","ping":103},{"user_id":365,"name":"uncle_plastic_computer","steam_id":76561199082610233,"connected_time":1015000000000,"state":"active","ping":59},{"user_id":373,"name":"Quentin","steam_id":76561198032941413,"connected_time":266000000000,"state":"active","ping":81},{"user_id":372,"name":"Lampshade","steam_id":76561198082925095,"connected_time":279000000000,"state":"active","ping":54},{"user_id":367,"name":"Qball","steam_id":76561198179016466,"connected_time":821000000000,"state":"active","ping":55},{"user_id":348,"name":"sentientpieceoftoast(they/them)","steam_id":76561199032992123,"connected_time":2355000000000,"state":"active","ping":81},{"user_id":361,"name":"Exidy","steam_id":76561198036216584,"connected_time":1419000000000,"state":"active","ping":84},{"user_id":315,"name":"Sydney","steam_id":76561198797603297,"connected_time":4905000000000,"state":"active","ping":59},{"user_id":360,"name":"Bastee1021","steam_id":76561199456141163,"connected_time":1510000000000,"state":"active","ping":131},{"user_id":309,"name":"chloe","steam_id":76561198369849908,"connected_time":5209000000000,"state":"active","ping":74},{"user_id":306,"name":"The Overmind","steam_id":76561199170229428,"connected_time":5299000000000,"state":"active","ping":76},{"user_id":357,"name":"bruiseraaron","steam_id":76561198020092380,"connected_time":1687000000000,"state":"active","ping":59},{"user_id":352,"name":"PzVIIIMaus","steam_id":76561198346559365,"connected_time":1932000000000,"state":"active","ping":47},{"user_id":368,"name":"Stew Eater","steam_id":76561198978307159,"connected_time":771000000000,"state":"active","ping":67},{"user_id":349,"name":"ZofoJackson","steam_id":76561197998366861,"connected_time":2021000000000,"state":"active","ping":54},{"user_id":335,"name":"Quark","steam_id":76561198328155605,"connected_time":3513000000000,"state":"active","ping":54},{"user_id":371,"name":"TheBrocklobster","steam_id":76561198039682984,"connected_time":468000000000,"state":"active","ping":107},{"user_id":356,"name":"[S]Mr. X [No Monitor]","steam_id":76561197963746035,"connected_time":1882000000000,"state":"active","ping":106},{"user_id":366,"name":"richard clock","steam_id":76561198048455671,"connected_time":834000000000,"state":"active","ping":59},{"user_id":305,"name":"Fuegan Ra","steam_id":76561198287923849,"connected_time":5330000000000,"state":"active","ping":52},{"user_id":329,"name":"Lia_Rein","steam_id":76561198151569597,"connected_time":4091000000000,"state":"active","ping":139},{"user_id":359,"name":"Tyrone","steam_id":76561198189429665,"connected_time":1657000000000,"state":"active","ping":73}]},{"server_id":106,"name":"Uncletopia | Chicago | 2 | All Maps","name_short":"chi-2","host":"chi-1.us.uncletopia.com","port":27025,"enabled":true,"region":"us-central","cc":"us","latitude":41.881832,"longitude":-87.62318,"reserved":0,"last_update":"0001-01-01T00:00:00Z","name_a2s":"Uncletopia | Chicago | 2 | All Maps","protocol":17,"map":"pl_badwater","folder":"tf","game":"Team Fortress","app_id":440,"player_count":24,"max_players":24,"Bots":0,"server_type":"Dedicated","server_os":"Linux","password":true,"vac":true,"version":"7757534","steam_id":85568392924469985,"keywords":["nocrits","nodmgspread","payload","uncletopia"],"game_id":440,"stv_port":27026,"stv_name":"Uncletopia | Chicago | 2 | All Maps | STV","players":[{"user_id":80,"name":"3fu23141wv6fn46y","steam_id":76561199383789041,"connected_time":362000000000,"state":"active","ping":180},{"user_id":71,"name":"Shichinitzi","steam_id":76561198003833732,"connected_time":923000000000,"state":"active","ping":53},{"user_id":55,"name":"ham bone","steam_id":76561198351143785,"connected_time":1763000000000,"state":"active","ping":75},{"user_id":86,"name":"the entire cast of shrek 2","steam_id":76561198367019006,"connected_time":212000000000,"state":"active","ping":69},{"user_id":79,"name":"Lionel Messi","steam_id":76561198226207032,"connected_time":423000000000,"state":"active","ping":53},{"user_id":72,"name":"Mr. Mane T.S.H.A.","steam_id":76561198056728986,"connected_time":898000000000,"state":"active","ping":59},{"user_id":76,"name":"Pawn Cushman","steam_id":76561198221635676,"connected_time":619000000000,"state":"active","ping":64},{"user_id":29,"name":"shake","steam_id":76561199064204750,"connected_time":2296000000000,"state":"active","ping":79},{"user_id":82,"name":"Squid121","steam_id":76561198038832034,"connected_time":312000000000,"state":"active","ping":107},{"user_id":31,"name":"MelonLikeAFelon","steam_id":76561198060170336,"connected_time":2247000000000,"state":"active","ping":73},{"user_id":32,"name":"Seven","steam_id":76561198259947055,"connected_time":2240000000000,"state":"active","ping":66},{"user_id":34,"name":"nolife","steam_id":76561198414300607,"connected_time":2189000000000,"state":"active","ping":113},{"user_id":35,"name":"catrinaisahuman","steam_id":76561198281355729,"connected_time":2183000000000,"state":"active","ping":64},{"user_id":91,"name":"Ghost","steam_id":76561198110914180,"connected_time":36000000000,"state":"active","ping":172},{"user_id":68,"name":"Clean Lines","steam_id":76561197960691518,"connected_time":1380000000000,"state":"active","ping":48},{"user_id":40,"name":"Snoozey","steam_id":76561198017120466,"connected_time":2069000000000,"state":"active","ping":76},{"user_id":69,"name":"leonardo doujinshi","steam_id":76561198025810326,"connected_time":1090000000000,"state":"active","ping":61},{"user_id":83,"name":"Chemo","steam_id":76561197961308370,"connected_time":289000000000,"state":"active","ping":71},{"user_id":43,"name":"Cretin32","steam_id":76561198986265728,"connected_time":2047000000000,"state":"active","ping":98},{"user_id":85,"name":"Critscare","steam_id":76561198087712508,"connected_time":260000000000,"state":"active","ping":45},{"user_id":50,"name":"Microreo","steam_id":76561198006966554,"connected_time":1990000000000,"state":"active","ping":73},{"user_id":77,"name":"rept","steam_id":76561198022100969,"connected_time":575000000000,"state":"active","ping":51},{"user_id":90,"name":"Godmode","steam_id":76561198076240365,"connected_time":100000000000,"state":"active","ping":65},{"user_id":88,"name":"Ciaphas Cain","steam_id":76561198185598330,"connected_time":207000000000,"state":"active","ping":84}]},{"server_id":402,"name":"Uncletopia | Chicago | 3 | All Maps","name_short":"chi-3","host":"chi-1.us.uncletopia.com","port":27035,"enabled":true,"region":"us-central","cc":"us","latitude":41.881832,"longitude":-87.62318,"reserved":0,"last_update":"0001-01-01T00:00:00Z","name_a2s":"Uncletopia | Chicago | 3 | All Maps","protocol":17,"map":"pl_badwater","folder":"tf","game":"Team Fortress","app_id":440,"player_count":18,"max_players":24,"Bots":0,"server_type":"Dedicated","server_os":"Linux","password":true,"vac":true,"version":"7757534","steam_id":85568392924515191,"keywords":["nocrits","nodmgspread","payload","uncletopia"],"game_id":440,"stv_port":27036,"stv_name":"Uncletopia | Chicago | 3 | All Maps | STV","players":[{"user_id":326,"name":"Blue Protogen - 001198","steam_id":76561198145791867,"connected_time":254000000000,"state":"active","ping":105},{"user_id":322,"name":"Futanari Gary","steam_id":76561198190323610,"connected_time":419000000000,"state":"active","ping":98},{"user_id":327,"name":"garfield","steam_id":76561198114119308,"connected_time":212000000000,"state":"active","ping":60},{"user_id":323,"name":"Zenabie","steam_id":76561198088372680,"connected_time":418000000000,"state":"active","ping":99},{"user_id":305,"name":"Azula's #1 Fan","steam_id":76561198133111058,"connected_time":1828000000000,"state":"active","ping":72},{"user_id":328,"name":"Nightfall","steam_id":76561198169718867,"connected_time":200000000000,"state":"active","ping":113},{"user_id":329,"name":"totoro","steam_id":76561198210420871,"connected_time":193000000000,"state":"active","ping":35},{"user_id":330,"name":"DO NOT call me BART SIMPSON!!","steam_id":76561198069113375,"connected_time":70000000000,"state":"active","ping":59},{"user_id":331,"name":"Gibby","steam_id":76561199336569123,"connected_time":39000000000,"state":"active","ping":138},{"user_id":319,"name":"Lara","steam_id":76561199072612733,"connected_time":690000000000,"state":"active","ping":70},{"user_id":315,"name":"coolfalcon168","steam_id":76561198948665710,"connected_time":1366000000000,"state":"active","ping":77},{"user_id":296,"name":"CamSoup","steam_id":76561198202483168,"connected_time":2546000000000,"state":"active","ping":63},{"user_id":332,"name":"Wagemage","steam_id":76561198013625580,"connected_time":30000000000,"state":"spawning","ping":82},{"user_id":320,"name":"Quibbli","steam_id":76561199214866732,"connected_time":607000000000,"state":"active","ping":59},{"user_id":308,"name":"Waluigi","steam_id":76561198891626233,"connected_time":1627000000000,"state":"active","ping":74},{"user_id":333,"name":"john trevolta","steam_id":76561197998867160,"connected_time":24000000000,"state":"active","ping":79},{"user_id":317,"name":"Violet42","steam_id":76561198072927887,"connected_time":1103000000000,"state":"active","ping":62},{"user_id":318,"name":"merge without looking","steam_id":76561198056702628,"connected_time":1056000000000,"state":"active","ping":64}]},{"server_id":403,"name":"Uncletopia | Chicago | 4 | All Maps","name_short":"chi-4","host":"chi-1.us.uncletopia.com","port":27045,"enabled":true,"region":"us-central","cc":"us","latitude":41.881832,"longitude":-87.62318,"reserved":0,"last_update":"0001-01-01T00:00:00Z","name_a2s":"Uncletopia | Chicago | 4 | All Maps","protocol":17,"map":"koth_lakeside_final","folder":"tf","game":"Team Fortress","app_id":440,"player_count":23,"max_players":24,"Bots":0,"server_type":"Dedicated","server_os":"Linux","password":true,"vac":true,"version":"7757534","steam_id":85568392924515193,"keywords":["cp","nocrits","nodmgspread","uncletopia"],"game_id":440,"stv_port":27046,"stv_name":"Uncletopia | Chicago | 4 | All Maps | STV","players":[{"user_id":371,"name":"Margaret Thatcher, but moreso","steam_id":76561198121955432,"connected_time":901000000000,"state":"active","ping":45},{"user_id":356,"name":"I am a Toaster","steam_id":76561199190216106,"connected_time":1157000000000,"state":"active","ping":65},{"user_id":349,"name":"jamalsmallzz","steam_id":76561199120206913,"connected_time":1752000000000,"state":"active","ping":66},{"user_id":388,"name":"Riandox","steam_id":76561198130577326,"connected_time":314000000000,"state":"active","ping":59},{"user_id":391,"name":"edgඞr","steam_id":76561198369967690,"connected_time":202000000000,"state":"active","ping":62},{"user_id":379,"name":"admiralmonk","steam_id":76561198845021470,"connected_time":624000000000,"state":"active","ping":56},{"user_id":361,"name":"SKIN IS WHERE THE FLAVOR IS","steam_id":76561198115842661,"connected_time":1028000000000,"state":"active","ping":72},{"user_id":362,"name":"EOAW","steam_id":76561198310451639,"connected_time":1019000000000,"state":"active","ping":104},{"user_id":363,"name":"clemssbu","steam_id":76561199471394992,"connected_time":1016000000000,"state":"active","ping":144},{"user_id":364,"name":"GTAD","steam_id":76561198071159505,"connected_time":1009000000000,"state":"active","ping":105},{"user_id":380,"name":"Yayifications","steam_id":76561198066227208,"connected_time":622000000000,"state":"active","ping":74},{"user_id":366,"name":"Dispenser (Twan)","steam_id":76561197991064908,"connected_time":990000000000,"state":"active","ping":60},{"user_id":384,"name":"relay","steam_id":76561198314662811,"connected_time":443000000000,"state":"active","ping":95},{"user_id":392,"name":"1000 Ping","steam_id":76561198098330939,"connected_time":192000000000,"state":"active","ping":123},{"user_id":369,"name":"Brain Tumor","steam_id":76561198805526881,"connected_time":955000000000,"state":"active","ping":78},{"user_id":370,"name":"Sleepy_","steam_id":76561198812423309,"connected_time":933000000000,"state":"active","ping":99},{"user_id":373,"name":"TF2 need a sex update","steam_id":76561199103964705,"connected_time":822000000000,"state":"active","ping":117},{"user_id":376,"name":"yeahelliot","steam_id":76561198167299951,"connected_time":759000000000,"state":"active","ping":66},{"user_id":390,"name":"NOM","steam_id":76561198362874591,"connected_time":257000000000,"state":"active","ping":103},{"user_id":393,"name":"$50 amazon gift card","steam_id":76561198978797171,"connected_time":189000000000,"state":"active","ping":72},{"user_id":395,"name":"Sneikijs","steam_id":76561198052549308,"connected_time":106000000000,"state":"active","ping":130},{"user_id":396,"name":"Hey Kid","steam_id":76561198087089023,"connected_time":74000000000,"state":"active","ping":63},{"user_id":397,"name":"Lorenzbo","steam_id":76561198043790668,"connected_time":66000000000,"state":"active","ping":69}]},{"server_id":36,"name":"Uncletopia | Chicago | 5 | All Maps","name_short":"chi-5","host":"chi-2.us.uncletopia.com","port":27015,"enabled":true,"region":"us-central","cc":"us","latitude":41.881832,"longitude":-87.62318,"reserved":0,"last_update":"0001-01-01T00:00:00Z","name_a2s":"Uncletopia | Chicago | 5 | All Maps","protocol":17,"map":"koth_cascade","folder":"tf","game":"Team Fortress","app_id":440,"player_count":0,"max_players":24,"Bots":0,"server_type":"Dedicated","server_os":"Linux","password":true,"vac":true,"version":"7757534","steam_id":85568392924866362,"keywords":["cp","nocrits","nodmgspread","uncletopia"],"game_id":440,"stv_port":27016,"stv_name":"Uncletopia | Chicago | 5 | All Maps | STV","players":null},{"server_id":37,"name":"Uncletopia | Chicago | 6 | All Maps","name_short":"chi-6","host":"chi-2.us.uncletopia.com","port":27025,"enabled":true,"region":"us-central","cc":"us","latitude":41.881832,"longitude":-87.62318,"reserved":0,"last_update":"0001-01-01T00:00:00Z","name_a2s":"Uncletopia | Chicago | 6 | All Maps","protocol":17,"map":"koth_cascade","folder":"tf","game":"Team Fortress","app_id":440,"player_count":0,"max_players":24,"Bots":0,"server_type":"Dedicated","server_os":"Linux","password":true,"vac":true,"version":"7757534","steam_id":85568392924866363,"keywords":["cp","nocrits","nodmgspread","uncletopia"],"game_id":440,"stv_port":27026,"stv_name":"Uncletopia | Chicago | 6 | All Maps | STV","players":null},{"server_id":38,"name":"Uncletopia | Chicago | 7 | Stopwatch Beta","name_short":"chi-7","host":"chi-2.us.uncletopia.com","port":27035,"enabled":true,"region":"us-central","cc":"us","latitude":41.881832,"longitude":-87.62318,"reserved":0,"last_update":"0001-01-01T00:00:00Z","name_a2s":"Uncletopia | Chicago | 7 | Stopwatch Beta","protocol":17,"map":"workshop/koth_ramjam_rc1.ugc459778887","folder":"tf","game":"Team Fortress","app_id":440,"player_count":0,"max_players":24,"Bots":0,"server_type":"Dedicated","server_os":"Linux","password":true,"vac":true,"version":"7757534","steam_id":85568392924866364,"keywords":["cp","nocrits","nodmgspread","uncletopia"],"game_id":440,"stv_port":27036,"stv_name":"Uncletopia | Chicago | 7 | Stopwatch Beta | STV","players":null},{"server_id":39,"name":"Uncletopia | Chicago | 8 | Community","name_short":"chi-8","host":"chi-2.us.uncletopia.com","port":27045,"enabled":true,"region":"us-central","cc":"us","latitude":41.881832,"longitude":-87.62318,"reserved":0,"last_update":"0001-01-01T00:00:00Z","name_a2s":"Uncletopia | Chicago | 8 | Community","protocol":17,"map":"pl_barnblitz","folder":"tf","game":"Team Fortress","app_id":440,"player_count":0,"max_players":24,"Bots":0,"server_type":"Dedicated","server_os":"Linux","password":true,"vac":true,"version":"7757534","steam_id":85568392924866365,"keywords":["nocrits","nodmgspread","payload","uncletopia"],"game_id":440,"stv_port":27046,"stv_name":"Uncletopia | Chicago | 8 | Community | STV","players":null},{"server_id":8,"name":"Uncletopia | Dallas | 1 | All Maps","name_short":"dal-1","host":"dal-1.us.uncletopia.com","port":27015,"enabled":true,"region":"us-central","cc":"us","latitude":32.779167,"longitude":-96.80889,"reserved":0,"last_update":"0001-01-01T00:00:00Z","name_a2s":"Uncletopia | Dallas | 1 | All Maps","protocol":17,"map":"pl_badwater","folder":"tf","game":"Team Fortress","app_id":440,"player_count":24,"max_players":24,"Bots":0,"server_type":"Dedicated","server_os":"Linux","password":true,"vac":true,"version":"7757534","steam_id":85568392924469986,"keywords":["nocrits","nodmgspread","payload","uncletopia"],"game_id":440,"stv_port":27016,"stv_name":"Uncletopia | Dallas | 1 | All Maps | STV","players":[{"user_id":262,"name":"Kuddly Kay (She/Her)","steam_id":76561198353432576,"connected_time":341000000000,"state":"active","ping":96},{"user_id":216,"name":"TF2Pugs.com","steam_id":76561198002516729,"connected_time":4116000000000,"state":"active","ping":66},{"user_id":261,"name":"BeeseDeez","steam_id":76561198011012347,"connected_time":423000000000,"state":"active","ping":74},{"user_id":195,"name":"Weegeee","steam_id":76561198049000586,"connected_time":5232000000000,"state":"active","ping":62},{"user_id":258,"name":"Smissmas Enjoyer","steam_id":76561197970795094,"connected_time":490000000000,"state":"active","ping":68},{"user_id":263,"name":"Alteraxia","steam_id":76561198213333961,"connected_time":339000000000,"state":"active","ping":61},{"user_id":208,"name":"Frog","steam_id":76561198066319653,"connected_time":4339000000000,"state":"active","ping":61},{"user_id":255,"name":"LogicalFurret","steam_id":76561198350604657,"connected_time":627000000000,"state":"active","ping":75},{"user_id":259,"name":"magical_mage0","steam_id":76561198213271916,"connected_time":473000000000,"state":"active","ping":70},{"user_id":242,"name":"Mellou","steam_id":76561198212048740,"connected_time":1573000000000,"state":"active","ping":51},{"user_id":248,"name":"Not A Rapper","steam_id":76561198077523537,"connected_time":1146000000000,"state":"active","ping":94},{"user_id":223,"name":"damiankiller1243","steam_id":76561198868885090,"connected_time":3694000000000,"state":"active","ping":69},{"user_id":260,"name":"Critical","steam_id":76561198123744966,"connected_time":453000000000,"state":"active","ping":93},{"user_id":161,"name":"Dictator Noodle","steam_id":76561198277243768,"connected_time":7976000000000,"state":"active","ping":81},{"user_id":221,"name":"David.Smith.2009","steam_id":76561198309760791,"connected_time":3889000000000,"state":"active","ping":124},{"user_id":225,"name":"cactus eater","steam_id":76561199107499844,"connected_time":3537000000000,"state":"active","ping":88},{"user_id":212,"name":"♡a femboy♡","steam_id":76561199212971864,"connected_time":4288000000000,"state":"active","ping":112},{"user_id":251,"name":"Antknee","steam_id":76561198263793809,"connected_time":839000000000,"state":"active","ping":88},{"user_id":256,"name":"into_dust","steam_id":76561197995620232,"connected_time":624000000000,"state":"active","ping":75},{"user_id":181,"name":"TTV/PolperLane","steam_id":76561198079439317,"connected_time":6531000000000,"state":"active","ping":66},{"user_id":204,"name":"life","steam_id":76561198142254567,"connected_time":4687000000000,"state":"active","ping":80},{"user_id":245,"name":"w a o w","steam_id":76561198060769385,"connected_time":1545000000000,"state":"active","ping":93},{"user_id":257,"name":"hi, white people expert here!","steam_id":76561198058617608,"connected_time":603000000000,"state":"active","ping":89},{"user_id":249,"name":"SlooperSoaker","steam_id":76561198121050895,"connected_time":1115000000000,"state":"active","ping":72}]},{"server_id":108,"name":"Uncletopia | Dallas | 2 | All Maps","name_short":"dal-2","host":"dal-1.us.uncletopia.com","port":27025,"enabled":true,"region":"us-central","cc":"us","latitude":32.779167,"longitude":-96.80889,"reserved":0,"last_update":"0001-01-01T00:00:00Z","name_a2s":"Uncletopia | Dallas | 2 | All Maps","protocol":17,"map":"koth_cascade","folder":"tf","game":"Team Fortress","app_id":440,"player_count":0,"max_players":24,"Bots":0,"server_type":"Dedicated","server_os":"Linux","password":true,"vac":true,"version":"7757534","steam_id":85568392924469988,"keywords":["cp","nocrits","nodmgspread","uncletopia"],"game_id":440,"stv_port":27026,"stv_name":"Uncletopia | Dallas | 2 | All Maps | STV","players":null},{"server_id":5,"name":"Uncletopia | Frankfurt | 1 | All Maps","name_short":"frk-1","host":"frk-1.de.uncletopia.com","port":27015,"enabled":true,"region":"eu","cc":"de","latitude":50.110924,"longitude":8.682127,"reserved":0,"last_update":"0001-01-01T00:00:00Z","name_a2s":"Uncletopia | Frankfurt | 1 | All Maps","protocol":17,"map":"koth_highpass","folder":"tf","game":"Team Fortress","app_id":440,"player_count":0,"max_players":24,"Bots":0,"server_type":"Dedicated","server_os":"Linux","password":true,"vac":true,"version":"7757534","steam_id":85568392924469989,"keywords":["cp","nocrits","nodmgspread","uncletopia"],"game_id":440,"stv_port":27016,"stv_name":"Uncletopia | Frankfurt | 1 | All Maps | STV","players":null},{"server_id":110,"name":"Uncletopia | Frankfurt | 2 | All Maps","name_short":"frk-2","host":"frk-1.de.uncletopia.com","port":27025,"enabled":true,"region":"eu","cc":"de","latitude":50.110924,"longitude":8.682127,"reserved":0,"last_update":"0001-01-01T00:00:00Z","name_a2s":"Uncletopia | Frankfurt | 2 | All Maps","protocol":17,"map":"cp_altitude","folder":"tf","game":"Team Fortress","app_id":440,"player_count":0,"max_players":24,"Bots":0,"server_type":"Dedicated","server_os":"Linux","password":true,"vac":true,"version":"7757534","steam_id":85568392924469990,"keywords":["cp","nocrits","nodmgspread","uncletopia"],"game_id":440,"stv_port":27026,"stv_name":"Uncletopia | Frankfurt | 2 | All Maps | STV","players":null},{"server_id":308,"name":"Uncletopia | Frankfurt | 3 | All Maps","name_short":"frk-3","host":"frk-1.de.uncletopia.com","port":27035,"enabled":true,"region":"eu","cc":"de","latitude":50.110924,"longitude":8.682127,"reserved":0,"last_update":"0001-01-01T00:00:00Z","name_a2s":"Uncletopia | Frankfurt | 3 | All Maps","protocol":17,"map":"pl_badwater","folder":"tf","game":"Team Fortress","app_id":440,"player_count":24,"max_players":24,"Bots":0,"server_type":"Dedicated","server_os":"Linux","password":true,"vac":true,"version":"7757534","steam_id":85568392924504274,"keywords":["nocrits","nodmgspread","payload","uncletopia"],"game_id":440,"stv_port":27036,"stv_name":"Uncletopia | Frankfurt | 3 | All Maps | STV","players":[{"user_id":284,"name":"muttonchops","steam_id":76561198068054530,"connected_time":5534000000000,"state":"active","ping":96},{"user_id":343,"name":"LEGEND FUMO.","steam_id":76561198061033903,"connected_time":29000000000,"state":"active","ping":45},{"user_id":321,"name":"Rezkey","steam_id":76561198206079048,"connected_time":3233000000000,"state":"active","ping":60},{"user_id":328,"name":"rat performance","steam_id":76561198065854668,"connected_time":1637000000000,"state":"active","ping":56},{"user_id":322,"name":"BERZERKER","steam_id":76561198051925782,"connected_time":3228000000000,"state":"active","ping":71},{"user_id":313,"name":"Rolloden","steam_id":76561198069414404,"connected_time":3512000000000,"state":"active","ping":55},{"user_id":323,"name":"Volcyy","steam_id":76561198063979124,"connected_time":2450000000000,"state":"active","ping":39},{"user_id":331,"name":"the joy of recycling","steam_id":76561198415564349,"connected_time":1460000000000,"state":"active","ping":61},{"user_id":310,"name":"Serton♝","steam_id":76561198011061126,"connected_time":3529000000000,"state":"active","ping":85},{"user_id":265,"name":"meriones","steam_id":76561198034234373,"connected_time":7025000000000,"state":"active","ping":59},{"user_id":295,"name":"Slow Mode","steam_id":76561199414716848,"connected_time":4954000000000,"state":"active","ping":74},{"user_id":299,"name":"Brass beast heavy","steam_id":76561198274197623,"connected_time":4765000000000,"state":"active","ping":72},{"user_id":330,"name":"Mega Saturn","steam_id":76561198024750500,"connected_time":1521000000000,"state":"active","ping":101},{"user_id":271,"name":"Mach |=|20BB|)","steam_id":76561198952487564,"connected_time":6888000000000,"state":"active","ping":86},{"user_id":272,"name":"LarsInABox","steam_id":76561198028329262,"connected_time":6621000000000,"state":"active","ping":76},{"user_id":339,"name":"mei","steam_id":76561198028078806,"connected_time":288000000000,"state":"active","ping":58},{"user_id":337,"name":"I am piss man","steam_id":76561198039209685,"connected_time":504000000000,"state":"active","ping":55},{"user_id":332,"name":"edgar","steam_id":76561198212862423,"connected_time":1454000000000,"state":"active","ping":46},{"user_id":304,"name":"Anri Okita's Massive Milkers","steam_id":76561199186352720,"connected_time":4526000000000,"state":"active","ping":74},{"user_id":270,"name":"Pestdoktor","steam_id":76561198058159271,"connected_time":6922000000000,"state":"active","ping":58},{"user_id":334,"name":"Bleachy","steam_id":76561198101976229,"connected_time":1437000000000,"state":"active","ping":57},{"user_id":338,"name":"Lukas","steam_id":76561198009118452,"connected_time":412000000000,"state":"active","ping":61},{"user_id":342,"name":"DSSD","steam_id":76561197975128756,"connected_time":222000000000,"state":"active","ping":71},{"user_id":320,"name":"BSantos57","steam_id":76561198000597094,"connected_time":3336000000000,"state":"active","ping":94}]},{"server_id":309,"name":"Uncletopia | Frankfurt | 4 | All Maps","name_short":"frk-4","host":"frk-1.de.uncletopia.com","port":27045,"enabled":true,"region":"eu","cc":"de","latitude":50.110924,"longitude":8.682127,"reserved":0,"last_update":"0001-01-01T00:00:00Z","name_a2s":"Uncletopia | Frankfurt | 4 | All Maps","protocol":17,"map":"koth_harvest_final","folder":"tf","game":"Team Fortress","app_id":440,"player_count":12,"max_players":24,"Bots":0,"server_type":"Dedicated","server_os":"Linux","password":true,"vac":true,"version":"7757534","steam_id":85568392924504275,"keywords":["cp","nocrits","nodmgspread","uncletopia"],"game_id":440,"stv_port":27046,"stv_name":"Uncletopia | Frankfurt | 4 | All Maps | STV","players":[{"user_id":635,"name":"Quill","steam_id":76561198348124998,"connected_time":398000000000,"state":"active","ping":67},{"user_id":637,"name":"Mumble","steam_id":76561198386885092,"connected_time":378000000000,"state":"active","ping":74},{"user_id":638,"name":"balinter","steam_id":76561198103408801,"connected_time":350000000000,"state":"active","ping":74},{"user_id":631,"name":"MrDimka","steam_id":76561199214148332,"connected_time":1128000000000,"state":"active","ping":72},{"user_id":639,"name":"Joff-tchoff-tchoffo-tchoffo-tch","steam_id":76561198044167743,"connected_time":328000000000,"state":"active","ping":76},{"user_id":616,"name":"Samus","steam_id":76561198045943019,"connected_time":1755000000000,"state":"active","ping":44},{"user_id":640,"name":"BeefHammer","steam_id":76561198078426223,"connected_time":226000000000,"state":"active","ping":100},{"user_id":617,"name":"TurboTabs","steam_id":76561198009785131,"connected_time":1751000000000,"state":"active","ping":60},{"user_id":641,"name":"Ready Rice™","steam_id":76561198091969871,"connected_time":207000000000,"state":"active","ping":89},{"user_id":620,"name":"New","steam_id":76561198402195911,"connected_time":1616000000000,"state":"active","ping":110},{"user_id":634,"name":"cockwater","steam_id":76561198209101861,"connected_time":462000000000,"state":"active","ping":65},{"user_id":628,"name":"glyphoglossus molossus","steam_id":76561198191291749,"connected_time":1303000000000,"state":"active","ping":64}]},{"server_id":310,"name":"Uncletopia | Frankfurt | 5 | All Maps","name_short":"frk-5","host":"frk-1.de.uncletopia.com","port":27055,"enabled":true,"region":"eu","cc":"de","latitude":50.110924,"longitude":8.682127,"reserved":0,"last_update":"0001-01-01T00:00:00Z","name_a2s":"Uncletopia | Frankfurt | 5 | All Maps","protocol":17,"map":"pl_snowycoast","folder":"tf","game":"Team Fortress","app_id":440,"player_count":24,"max_players":24,"Bots":0,"server_type":"Dedicated","server_os":"Linux","password":true,"vac":true,"version":"7757534","steam_id":85568392924504277,"keywords":["nocrits","nodmgspread","payload","uncletopia"],"game_id":440,"stv_port":27056,"stv_name":"Uncletopia | Frankfurt | 5 | All Maps | STV","players":[{"user_id":345,"name":"Knez","steam_id":76561198043806388,"connected_time":2082000000000,"state":"active","ping":58},{"user_id":305,"name":"H-say","steam_id":76561198177400362,"connected_time":4789000000000,"state":"active","ping":84},{"user_id":355,"name":"Doofus","steam_id":76561198273411260,"connected_time":320000000000,"state":"active","ping":135},{"user_id":343,"name":"mac","steam_id":76561198081209005,"connected_time":2489000000000,"state":"active","ping":81},{"user_id":290,"name":"-makina","steam_id":76561198273042780,"connected_time":6091000000000,"state":"active","ping":62},{"user_id":348,"name":"gwałt wątroby 0,7 i 5 piw","steam_id":76561199038973360,"connected_time":1369000000000,"state":"active","ping":97},{"user_id":227,"name":"whatever","steam_id":76561198095943461,"connected_time":9933000000000,"state":"active","ping":59},{"user_id":356,"name":"SOBAKIN_F","steam_id":76561199226117708,"connected_time":297000000000,"state":"active","ping":84},{"user_id":353,"name":"yurkur","steam_id":76561198407108497,"connected_time":1176000000000,"state":"active","ping":48},{"user_id":349,"name":"Peter Pats","steam_id":76561198418538887,"connected_time":1367000000000,"state":"active","ping":96},{"user_id":301,"name":"syms","steam_id":76561198066679812,"connected_time":4871000000000,"state":"active","ping":78},{"user_id":361,"name":"perch","steam_id":76561198214849363,"connected_time":134000000000,"state":"active","ping":74},{"user_id":358,"name":"relic_","steam_id":76561199053114167,"connected_time":231000000000,"state":"active","ping":71},{"user_id":359,"name":"Behind you","steam_id":76561198102420849,"connected_time":224000000000,"state":"active","ping":60},{"user_id":319,"name":"BenteBent","steam_id":76561198297920637,"connected_time":3510000000000,"state":"active","ping":76},{"user_id":329,"name":"ArmedWithWings","steam_id":76561198154615474,"connected_time":3119000000000,"state":"active","ping":84},{"user_id":342,"name":"mag","steam_id":76561198019205829,"connected_time":2532000000000,"state":"active","ping":70},{"user_id":360,"name":"supermariogrows","steam_id":76561198200238915,"connected_time":205000000000,"state":"active","ping":58},{"user_id":311,"name":"doritos cubun","steam_id":76561198116530769,"connected_time":4127000000000,"state":"active","ping":88},{"user_id":350,"name":"makiverem","steam_id":76561198425866216,"connected_time":1296000000000,"state":"active","ping":89},{"user_id":362,"name":"Lovely dove bombing diarrhea","steam_id":76561198042593027,"connected_time":134000000000,"state":"active","ping":88},{"user_id":288,"name":"rigel_","steam_id":76561198148640847,"connected_time":6278000000000,"state":"active","ping":75},{"user_id":286,"name":"Fox","steam_id":76561198052541711,"connected_time":6490000000000,"state":"active","ping":71},{"user_id":363,"name":"Bisturi","steam_id":76561199233979726,"connected_time":122000000000,"state":"active","ping":79}]},{"server_id":311,"name":"Uncletopia | Frankfurt | 6 | All Maps","name_short":"frk-6","host":"frk-1.de.uncletopia.com","port":27065,"enabled":true,"region":"eu","cc":"de","latitude":50.110924,"longitude":8.682127,"reserved":0,"last_update":"0001-01-01T00:00:00Z","name_a2s":"Uncletopia | Frankfurt | 6 | All Maps","protocol":17,"map":"koth_viaduct","folder":"tf","game":"Team Fortress","app_id":440,"player_count":0,"max_players":24,"Bots":0,"server_type":"Dedicated","server_os":"Linux","password":true,"vac":true,"version":"7757534","steam_id":85568392924504278,"keywords":["cp","nocrits","nodmgspread","uncletopia"],"game_id":440,"stv_port":27066,"stv_name":"Uncletopia | Frankfurt | 6 | All Maps | STV","players":null},{"server_id":23,"name":"Uncletopia | Frankfurt | 7 | Stopwatch Beta","name_short":"frk-7","host":"frk-1.de.uncletopia.com","port":27075,"enabled":true,"region":"eu","cc":"de","latitude":50.110924,"longitude":8.682127,"reserved":0,"last_update":"0001-01-01T00:00:00Z","name_a2s":"Uncletopia | Frankfurt | 7 | Stopwatch Beta","protocol":17,"map":"pl_frontier_final","folder":"tf","game":"Team Fortress","app_id":440,"player_count":0,"max_players":24,"Bots":0,"server_type":"Dedicated","server_os":"Linux","password":true,"vac":true,"version":"7757534","steam_id":85568392924742827,"keywords":["nocrits","nodmgspread","payload","uncletopia"],"game_id":440,"stv_port":27076,"stv_name":"Uncletopia | Frankfurt | 7 | Stopwatch Beta | STV","players":null},{"server_id":24,"name":"Uncletopia | Frankfurt | 8 | Community","name_short":"frk-8","host":"frk-1.de.uncletopia.com","port":27085,"enabled":true,"region":"eu","cc":"de","latitude":50.110924,"longitude":8.682127,"reserved":0,"last_update":"0001-01-01T00:00:00Z","name_a2s":"Uncletopia | Frankfurt | 8 | Community","protocol":17,"map":"workshop/pl_vigil_rc9.ugc1266210012","folder":"tf","game":"Team Fortress","app_id":440,"player_count":23,"max_players":24,"Bots":0,"server_type":"Dedicated","server_os":"Linux","password":true,"vac":true,"version":"7757534","steam_id":85568392924742828,"keywords":["nocrits","nodmgspread","payload","uncletopia"],"game_id":440,"stv_port":27086,"stv_name":"Uncletopia | Frankfurt | 8 | Community | STV","players":[{"user_id":499,"name":"tiia (cold hends)","steam_id":76561198046196005,"connected_time":4716000000000,"state":"active","ping":43},{"user_id":545,"name":"Kosten","steam_id":76561198039013154,"connected_time":2066000000000,"state":"active","ping":72},{"user_id":549,"name":"Churaq Cyril","steam_id":76561198125381319,"connected_time":1790000000000,"state":"active","ping":81},{"user_id":567,"name":"Benzo Fury","steam_id":76561198025259336,"connected_time":337000000000,"state":"active","ping":54},{"user_id":565,"name":"THVG","steam_id":76561199156685368,"connected_time":526000000000,"state":"active","ping":61},{"user_id":533,"name":"Daga","steam_id":76561198055450219,"connected_time":2566000000000,"state":"active","ping":53},{"user_id":568,"name":"DarthMurloc_OW","steam_id":76561198075577711,"connected_time":175000000000,"state":"active","ping":75},{"user_id":544,"name":"ChickenMan99","steam_id":76561197961400205,"connected_time":2122000000000,"state":"active","ping":70},{"user_id":552,"name":"nicco","steam_id":76561198046217866,"connected_time":1556000000000,"state":"active","ping":44},{"user_id":432,"name":"Qwerty","steam_id":76561198023525894,"connected_time":9380000000000,"state":"active","ping":81},{"user_id":569,"name":"Phalcon","steam_id":76561197987051394,"connected_time":172000000000,"state":"active","ping":75},{"user_id":561,"name":"tone","steam_id":76561197975301462,"connected_time":842000000000,"state":"active","ping":79},{"user_id":555,"name":"dustloaf","steam_id":76561198074339302,"connected_time":1264000000000,"state":"active","ping":88},{"user_id":557,"name":"H GAMING","steam_id":76561198160862631,"connected_time":1245000000000,"state":"active","ping":59},{"user_id":508,"name":"Fish","steam_id":76561198182278770,"connected_time":4392000000000,"state":"active","ping":76},{"user_id":539,"name":"kektuse","steam_id":76561198088426580,"connected_time":2476000000000,"state":"active","ping":60},{"user_id":541,"name":"HOI","steam_id":76561198061182117,"connected_time":2147000000000,"state":"active","ping":62},{"user_id":570,"name":"happy","steam_id":76561198053141766,"connected_time":136000000000,"state":"active","ping":94},{"user_id":529,"name":"БимбоУнитаз","steam_id":76561198072477605,"connected_time":2769000000000,"state":"active","ping":69},{"user_id":530,"name":"mud","steam_id":76561198141497461,"connected_time":2711000000000,"state":"active","ping":68},{"user_id":531,"name":"dum","steam_id":76561198053386482,"connected_time":2707000000000,"state":"active","ping":162},{"user_id":559,"name":"washed up","steam_id":76561198275742101,"connected_time":1141000000000,"state":"active","ping":57},{"user_id":560,"name":"darktheif54","steam_id":76561198043650119,"connected_time":1092000000000,"state":"active","ping":60}]},{"server_id":202,"name":"Uncletopia | Hong Kong | 1 | All Maps","name_short":"hgk-1","host":"hgk-1.hk.uncletopia.com","port":27015,"enabled":true,"region":"asia","cc":"hk","latitude":22.302711,"longitude":114.177216,"reserved":0,"last_update":"0001-01-01T00:00:00Z","name_a2s":"Uncletopia | Hong Kong | 1 | All Maps","protocol":17,"map":"pl_pier","folder":"tf","game":"Team Fortress","app_id":440,"player_count":0,"max_players":24,"Bots":0,"server_type":"Dedicated","server_os":"Linux","password":true,"vac":true,"version":"7757534","steam_id":85568392924494504,"keywords":["nocrits","nodmgspread","payload","uncletopia"],"game_id":440,"stv_port":27016,"stv_name":"Uncletopia | Hong Kong | 1 | All Maps | STV","players":null},{"server_id":1,"name":"Uncletopia | Los Angeles | 1 | All Maps","name_short":"lax-1","host":"lax-1.us.uncletopia.com","port":27015,"enabled":true,"region":"us-west","cc":"us","latitude":33.94279,"longitude":-118.41004,"reserved":0,"last_update":"0001-01-01T00:00:00Z","name_a2s":"Uncletopia | Los Angeles | 1 | All Maps","protocol":17,"map":"koth_lakeside_final","folder":"tf","game":"Team Fortress","app_id":440,"player_count":9,"max_players":24,"Bots":0,"server_type":"Dedicated","server_os":"Linux","password":true,"vac":true,"version":"7757534","steam_id":85568392924469991,"keywords":["cp","nocrits","nodmgspread","uncletopia"],"game_id":440,"stv_port":27016,"stv_name":"Uncletopia | Los Angeles | 1 | All Maps | STV","players":[{"user_id":9,"name":"Stimpry","steam_id":76561199055662248,"connected_time":1999000000000,"state":"active","ping":59},{"user_id":11,"name":"Wackydavo","steam_id":76561197990094209,"connected_time":1903000000000,"state":"active","ping":90},{"user_id":12,"name":"(derogatory)","steam_id":76561199059257565,"connected_time":1443000000000,"state":"active","ping":114},{"user_id":13,"name":"CrackedSanity","steam_id":76561198279841251,"connected_time":1013000000000,"state":"active","ping":44},{"user_id":16,"name":"Bingus Digner","steam_id":76561199259761729,"connected_time":92000000000,"state":"active","ping":119},{"user_id":15,"name":"Kopenich","steam_id":76561198066205245,"connected_time":312000000000,"state":"active","ping":47},{"user_id":17,"name":"Nibotshooter","steam_id":76561199284825579,"connected_time":92000000000,"state":"active","ping":69},{"user_id":18,"name":"TheLuckyOne","steam_id":76561198804171849,"connected_time":80000000000,"state":"active","ping":97},{"user_id":19,"name":"fulices","steam_id":76561198420163702,"connected_time":34000000000,"state":"active","ping":37}]},{"server_id":112,"name":"Uncletopia | Los Angeles | 2 | All Maps","name_short":"lax-2","host":"lax-1.us.uncletopia.com","port":27025,"enabled":true,"region":"us-west","cc":"us","latitude":33.94279,"longitude":-118.41004,"reserved":0,"last_update":"0001-01-01T00:00:00Z","name_a2s":"Uncletopia | Los Angeles | 2 | All Maps","protocol":17,"map":"koth_cascade","folder":"tf","game":"Team Fortress","app_id":440,"player_count":0,"max_players":24,"Bots":0,"server_type":"Dedicated","server_os":"Linux","password":true,"vac":true,"version":"7757534","steam_id":85568392924469992,"keywords":["cp","nocrits","nodmgspread","uncletopia"],"game_id":440,"stv_port":27026,"stv_name":"Uncletopia | Los Angeles | 2 | All Maps | STV","players":null},{"server_id":324,"name":"Uncletopia | Los Angeles | 3 | All Maps","name_short":"lax-3","host":"lax-1.us.uncletopia.com","port":27035,"enabled":true,"region":"us-west","cc":"us","latitude":33.94279,"longitude":-118.41004,"reserved":0,"last_update":"0001-01-01T00:00:00Z","name_a2s":"Uncletopia | Los Angeles | 3 | All Maps","protocol":17,"map":"cp_sunshine","folder":"tf","game":"Team Fortress","app_id":440,"player_count":0,"max_players":24,"Bots":0,"server_type":"Dedicated","server_os":"Linux","password":true,"vac":true,"version":"7757534","steam_id":85568392924510198,"keywords":["cp","nocrits","nodmgspread","uncletopia"],"game_id":440,"stv_port":27036,"stv_name":"Uncletopia | Los Angeles | 3 | All Maps | STV","players":null},{"server_id":25,"name":"Uncletopia | Los Angeles | 4 | Stopwatch Beta","name_short":"lax-4","host":"lax-1.us.uncletopia.com","port":27045,"enabled":true,"region":"us-west","cc":"us","latitude":33.94279,"longitude":-118.41004,"reserved":0,"last_update":"0001-01-01T00:00:00Z","name_a2s":"Uncletopia | Los Angeles | 4 | Stopwatch Beta","protocol":17,"map":"pl_frontier_final","folder":"tf","game":"Team Fortress","app_id":440,"player_count":0,"max_players":24,"Bots":0,"server_type":"Dedicated","server_os":"Linux","password":true,"vac":true,"version":"7757534","steam_id":85568392924510199,"keywords":["nocrits","nodmgspread","payload","uncletopia"],"game_id":440,"stv_port":27046,"stv_name":"Uncletopia | Los Angeles | 4 | Stopwatch Beta | STV","players":null},{"server_id":11,"name":"Uncletopia | London | 1 | All Maps","name_short":"lon-1","host":"lon-1.uk.uncletopia.com","port":27015,"enabled":true,"region":"eu","cc":"gb","latitude":51.509865,"longitude":-0.118092,"reserved":0,"last_update":"0001-01-01T00:00:00Z","name_a2s":"Uncletopia | London | 1 | All Maps","protocol":17,"map":"ctf_2fort","folder":"tf","game":"Team Fortress","app_id":440,"player_count":20,"max_players":24,"Bots":0,"server_type":"Dedicated","server_os":"Linux","password":true,"vac":true,"version":"7757534","steam_id":85568392924367362,"keywords":["ctf","nocrits","nodmgspread","uncletopia"],"game_id":440,"stv_port":27016,"stv_name":"Uncletopia | London | 1 | All Maps | STV","players":[{"user_id":777,"name":"Skagzilla| trade.tf","steam_id":76561198260114743,"connected_time":1341000000000,"state":"active","ping":48},{"user_id":767,"name":"Medic Main","steam_id":76561198057918945,"connected_time":1463000000000,"state":"active","ping":113},{"user_id":806,"name":"Joy","steam_id":76561198155314925,"connected_time":316000000000,"state":"active","ping":53},{"user_id":753,"name":"Cynosure","steam_id":76561198121286517,"connected_time":2562000000000,"state":"active","ping":30},{"user_id":724,"name":"nedilya","steam_id":76561198039692077,"connected_time":4187000000000,"state":"active","ping":66},{"user_id":741,"name":"Aaron","steam_id":76561197990046953,"connected_time":2678000000000,"state":"active","ping":59},{"user_id":803,"name":"Bobo","steam_id":76561198052308399,"connected_time":426000000000,"state":"active","ping":70},{"user_id":757,"name":"Hermitcrack","steam_id":76561198149216441,"connected_time":2258000000000,"state":"active","ping":75},{"user_id":739,"name":"Yakub","steam_id":76561198014279521,"connected_time":3026000000000,"state":"active","ping":92},{"user_id":747,"name":"gnarly business","steam_id":76561198832688767,"connected_time":2622000000000,"state":"active","ping":47},{"user_id":769,"name":"KPhii","steam_id":76561198970587061,"connected_time":1453000000000,"state":"active","ping":73},{"user_id":772,"name":"bruhemian","steam_id":76561198191854931,"connected_time":1436000000000,"state":"active","ping":45},{"user_id":768,"name":"Prome","steam_id":76561199050383942,"connected_time":1463000000000,"state":"active","ping":48},{"user_id":758,"name":"snowii","steam_id":76561198836246326,"connected_time":2137000000000,"state":"active","ping":62},{"user_id":726,"name":"Farao Ramses II","steam_id":76561198078722712,"connected_time":4094000000000,"state":"active","ping":44},{"user_id":808,"name":"XavierSweet","steam_id":76561198091781913,"connected_time":178000000000,"state":"active","ping":54},{"user_id":761,"name":"Bumpin'Scrunts","steam_id":76561198069641252,"connected_time":2013000000000,"state":"active","ping":46},{"user_id":781,"name":"Senior","steam_id":76561198065014164,"connected_time":1215000000000,"state":"active","ping":45},{"user_id":763,"name":"glass of water and a baguette","steam_id":76561198188642265,"connected_time":1972000000000,"state":"active","ping":57},{"user_id":737,"name":"beebo","steam_id":76561199120277007,"connected_time":3333000000000,"state":"active","ping":56}]},{"server_id":114,"name":"Uncletopia | London | 2 | All Maps","name_short":"lon-2","host":"lon-1.uk.uncletopia.com","port":27025,"enabled":true,"region":"eu","cc":"gb","latitude":51.509865,"longitude":-0.118092,"reserved":0,"last_update":"0001-01-01T00:00:00Z","name_a2s":"Uncletopia | London | 2 | All Maps","protocol":17,"map":"koth_viaduct","folder":"tf","game":"Team Fortress","app_id":440,"player_count":23,"max_players":24,"Bots":0,"server_type":"Dedicated","server_os":"Linux","password":true,"vac":true,"version":"7757534","steam_id":85568392924470941,"keywords":["cp","nocrits","nodmgspread","uncletopia"],"game_id":440,"stv_port":27026,"stv_name":"Uncletopia | London | 2 | All Maps | STV","players":[{"user_id":207,"name":"Gnarville","steam_id":76561198006373329,"connected_time":4638000000000,"state":"active","ping":46},{"user_id":278,"name":"Joey Lemons","steam_id":76561198068104187,"connected_time":1266000000000,"state":"active","ping":132},{"user_id":299,"name":"X45Y","steam_id":76561198112534025,"connected_time":63000000000,"state":"active","ping":52},{"user_id":250,"name":"Drek","steam_id":76561198060281197,"connected_time":2516000000000,"state":"active","ping":64},{"user_id":246,"name":"Arturias","steam_id":76561198188720263,"connected_time":2547000000000,"state":"active","ping":60},{"user_id":247,"name":"Mario3ghj","steam_id":76561198069804561,"connected_time":2542000000000,"state":"active","ping":95},{"user_id":300,"name":"Mr.SlappiiYT","steam_id":76561199349185137,"connected_time":61000000000,"state":"active","ping":122},{"user_id":276,"name":"ignitor \u003c3","steam_id":76561198218996844,"connected_time":1389000000000,"state":"active","ping":55},{"user_id":249,"name":"tua","steam_id":76561198034955422,"connected_time":2535000000000,"state":"active","ping":53},{"user_id":268,"name":"ciliorkun18","steam_id":76561198228942500,"connected_time":1744000000000,"state":"active","ping":90},{"user_id":287,"name":"Doshie","steam_id":76561198449622305,"connected_time":952000000000,"state":"active","ping":191},{"user_id":255,"name":"☯","steam_id":76561198351154533,"connected_time":2424000000000,"state":"active","ping":49},{"user_id":294,"name":"Fortuit","steam_id":76561198065143703,"connected_time":458000000000,"state":"active","ping":76},{"user_id":293,"name":"Bentley","steam_id":76561197978252169,"connected_time":482000000000,"state":"active","ping":62},{"user_id":296,"name":"Cranjis McBasketball","steam_id":76561198051290193,"connected_time":377000000000,"state":"active","ping":50},{"user_id":272,"name":"SimplePig","steam_id":76561198071862153,"connected_time":1636000000000,"state":"active","ping":111},{"user_id":297,"name":"iki","steam_id":76561198119607160,"connected_time":279000000000,"state":"active","ping":75},{"user_id":228,"name":"Femboy Gaming","steam_id":76561198174108515,"connected_time":3357000000000,"state":"active","ping":51},{"user_id":291,"name":"Laru","steam_id":76561197998838438,"connected_time":669000000000,"state":"active","ping":76},{"user_id":288,"name":"Noise Marine","steam_id":76561198843167121,"connected_time":936000000000,"state":"active","ping":58},{"user_id":298,"name":"Garoiop","steam_id":76561198082326459,"connected_time":237000000000,"state":"active","ping":44},{"user_id":301,"name":"MrVegasAguitar","steam_id":76561198084466946,"connected_time":54000000000,"state":"active","ping":157},{"user_id":302,"name":"Cheshireycat","steam_id":76561198067204908,"connected_time":36000000000,"state":"active","ping":51}]},{"server_id":320,"name":"Uncletopia | London | 3 | All Maps","name_short":"lon-3","host":"lon-1.uk.uncletopia.com","port":27035,"enabled":true,"region":"eu","cc":"gb","latitude":51.509865,"longitude":-0.118092,"reserved":0,"last_update":"0001-01-01T00:00:00Z","name_a2s":"Uncletopia | London | 3 | All Maps","protocol":17,"map":"koth_viaduct","folder":"tf","game":"Team Fortress","app_id":440,"player_count":0,"max_players":24,"Bots":0,"server_type":"Dedicated","server_os":"Linux","password":true,"vac":true,"version":"7757534","steam_id":85568392924510192,"keywords":["cp","nocrits","nodmgspread","uncletopia"],"game_id":440,"stv_port":27036,"stv_name":"Uncletopia | London | 3 | All Maps | STV","players":null},{"server_id":321,"name":"Uncletopia | London | 4 | All Maps","name_short":"lon-4","host":"lon-1.uk.uncletopia.com","port":27045,"enabled":true,"region":"eu","cc":"gb","latitude":51.509865,"longitude":-0.118092,"reserved":0,"last_update":"0001-01-01T00:00:00Z","name_a2s":"Uncletopia | London | 4 | All Maps","protocol":17,"map":"koth_viaduct","folder":"tf","game":"Team Fortress","app_id":440,"player_count":0,"max_players":24,"Bots":0,"server_type":"Dedicated","server_os":"Linux","password":true,"vac":true,"version":"7757534","steam_id":85568392924510193,"keywords":["cp","nocrits","nodmgspread","uncletopia"],"game_id":440,"stv_port":27046,"stv_name":"Uncletopia | London | 4 | All Maps | STV","players":null},{"server_id":21,"name":"Uncletopia | London | 5 | All Maps","name_short":"lon-5","host":"lon-1.uk.uncletopia.com","port":27055,"enabled":true,"region":"eu","cc":"gb","latitude":51.509865,"longitude":-0.118092,"reserved":0,"last_update":"0001-01-01T00:00:00Z","name_a2s":"Uncletopia | London | 5 | All Maps","protocol":17,"map":"pl_barnblitz","folder":"tf","game":"Team Fortress","app_id":440,"player_count":25,"max_players":24,"Bots":0,"server_type":"Dedicated","server_os":"Linux","password":true,"vac":true,"version":"7757534","steam_id":85568392924742829,"keywords":["nocrits","nodmgspread","payload","uncletopia"],"game_id":440,"stv_port":27056,"stv_name":"Uncletopia | London | 5 | All Maps | STV","players":[{"user_id":376,"name":"Boof it","steam_id":76561198531978435,"connected_time":770000000000,"state":"active","ping":69},{"user_id":335,"name":"HiiamAngel","steam_id":76561198240499888,"connected_time":4463000000000,"state":"active","ping":81},{"user_id":377,"name":"Mönthly Crüise","steam_id":76561198120329367,"connected_time":755000000000,"state":"active","ping":84},{"user_id":361,"name":"Doublë","steam_id":76561198257836694,"connected_time":2961000000000,"state":"active","ping":39},{"user_id":372,"name":"iAmBack!\u003c3","steam_id":76561198004525276,"connected_time":1463000000000,"state":"active","ping":81},{"user_id":337,"name":"Planet","steam_id":76561198044626616,"connected_time":4438000000000,"state":"active","ping":59},{"user_id":360,"name":"Mad_Scientist","steam_id":76561198121431854,"connected_time":3151000000000,"state":"active","ping":60},{"user_id":365,"name":"lasagne for lunch","steam_id":76561198060620030,"connected_time":2459000000000,"state":"active","ping":63},{"user_id":350,"name":"Christmas Ham","steam_id":76561198119601623,"connected_time":3776000000000,"state":"active","ping":49},{"user_id":354,"name":"Grillem Dafoe","steam_id":76561198306874574,"connected_time":3429000000000,"state":"active","ping":57},{"user_id":410,"name":"Battle Medic(scunt)","steam_id":76561198306105623,"connected_time":197000000000,"state":"active","ping":67},{"user_id":560,"name":"Saken","steam_id":76561198049075295,"connected_time":19000000000,"state":"active","ping":60},{"user_id":382,"name":"dr salty","steam_id":76561198103547595,"connected_time":588000000000,"state":"active","ping":54},{"user_id":573,"name":"i...must..kill.all","steam_id":76561198089330547,"connected_time":12000000000,"state":"active","ping":65},{"user_id":364,"name":"scharque","steam_id":76561198071227039,"connected_time":2794000000000,"state":"active","ping":66},{"user_id":343,"name":"Literally a Trans Woman","steam_id":76561198054639925,"connected_time":4181000000000,"state":"active","ping":122},{"user_id":386,"name":"Oxer","steam_id":76561198055942412,"connected_time":289000000000,"state":"active","ping":83},{"user_id":374,"name":"Tort","steam_id":76561198329646769,"connected_time":1377000000000,"state":"active","ping":56},{"user_id":380,"name":"The Suspisuos Gibus (no audio)","steam_id":76561198162727605,"connected_time":633000000000,"state":"active","ping":74},{"user_id":323,"name":"Sabour","steam_id":76561197963965445,"connected_time":5256000000000,"state":"active","ping":72},{"user_id":381,"name":"Motley_","steam_id":76561198116057976,"connected_time":626000000000,"state":"active","ping":38},{"user_id":383,"name":"pizzer","steam_id":76561198402230799,"connected_time":586000000000,"state":"active","ping":63},{"user_id":384,"name":"kaelan!","steam_id":76561198001425310,"connected_time":577000000000,"state":"active","ping":75},{"user_id":349,"name":"Bob.","steam_id":76561198330093822,"connected_time":3917000000000,"state":"active","ping":76}]},{"server_id":22,"name":"Uncletopia | London | 6 | All Maps","name_short":"lon-6","host":"lon-1.uk.uncletopia.com","port":27065,"enabled":true,"region":"eu","cc":"gb","latitude":51.509865,"longitude":-0.118092,"reserved":0,"last_update":"0001-01-01T00:00:00Z","name_a2s":"Uncletopia | London | 6 | All Maps","protocol":17,"map":"koth_cascade","folder":"tf","game":"Team Fortress","app_id":440,"player_count":0,"max_players":24,"Bots":0,"server_type":"Dedicated","server_os":"Linux","password":true,"vac":true,"version":"7757534","steam_id":85568392924742830,"keywords":["cp","nocrits","nodmgspread","uncletopia"],"game_id":440,"stv_port":27066,"stv_name":"Uncletopia | London | 6 | All Maps | STV","players":null},{"server_id":40,"name":"Uncletopia | London | 7 | No Payload","name_short":"lon-7","host":"lon-1.uk.uncletopia.com","port":27075,"enabled":true,"region":"eu","cc":"gb","latitude":51.509865,"longitude":-0.118092,"reserved":0,"last_update":"0001-01-01T00:00:00Z","name_a2s":"Uncletopia | London | 7 | No Payload","protocol":17,"map":"cp_powerhouse","folder":"tf","game":"Team Fortress","app_id":440,"player_count":0,"max_players":24,"Bots":0,"server_type":"Dedicated","server_os":"Linux","password":true,"vac":true,"version":"7757534","steam_id":85568392924964314,"keywords":["cp","nocrits","nodmgspread","uncletopia"],"game_id":440,"stv_port":27076,"stv_name":"Uncletopia | London | 7 | No Payload | STV","players":null},{"server_id":41,"name":"Uncletopia | London | 8 | Community","name_short":"lon-8","host":"lon-1.uk.uncletopia.com","port":27085,"enabled":true,"region":"eu","cc":"gb","latitude":51.509865,"longitude":-0.118092,"reserved":0,"last_update":"0001-01-01T00:00:00Z","name_a2s":"Uncletopia | London | 8 | Community","protocol":17,"map":"workshop/koth_ashville_final.ugc2130459942","folder":"tf","game":"Team Fortress","app_id":440,"player_count":5,"max_players":24,"Bots":0,"server_type":"Dedicated","server_os":"Linux","password":true,"vac":true,"version":"7757534","steam_id":85568392924964315,"keywords":["cp","nocrits","nodmgspread","uncletopia"],"game_id":440,"stv_port":27086,"stv_name":"Uncletopia | London | 8 | Community | STV","players":[{"user_id":8,"name":"Big Stupid Ugly Twink","steam_id":76561198156906497,"connected_time":3337000000000,"state":"active","ping":45},{"user_id":9,"name":"Platy","steam_id":76561198073442109,"connected_time":3332000000000,"state":"active","ping":54},{"user_id":10,"name":"lost","steam_id":76561198068624497,"connected_time":3307000000000,"state":"active","ping":148},{"user_id":11,"name":"boar hammer","steam_id":76561198396168679,"connected_time":1381000000000,"state":"active","ping":177},{"user_id":12,"name":"nop 21","steam_id":76561198331641220,"connected_time":934000000000,"state":"active","ping":50}]},{"server_id":300,"name":"Uncletopia | Montréal | 1 | All Maps","name_short":"mtl-1","host":"mtl-1.ca.uncletopia.com","port":27015,"enabled":true,"region":"us-east","cc":"ca","latitude":45.50889,"longitude":-73.56167,"reserved":0,"last_update":"0001-01-01T00:00:00Z","name_a2s":"Uncletopia | Montréal | 1 | All Maps","protocol":17,"map":"pl_borneo","folder":"tf","game":"Team Fortress","app_id":440,"player_count":0,"max_players":24,"Bots":0,"server_type":"Dedicated","server_os":"Linux","password":true,"vac":true,"version":"7757534","steam_id":85568392924500087,"keywords":["nocrits","nodmgspread","payload","uncletopia"],"game_id":440,"stv_port":27016,"stv_name":"Uncletopia | Montréal | 1 | All Maps | STV","players":null},{"server_id":301,"name":"Uncletopia | Montréal | 2 | All Maps","name_short":"mtl-2","host":"mtl-1.ca.uncletopia.com","port":27025,"enabled":true,"region":"us-east","cc":"ca","latitude":45.50889,"longitude":-73.56167,"reserved":0,"last_update":"0001-01-01T00:00:00Z","name_a2s":"Uncletopia | Montréal | 2 | All Maps","protocol":17,"map":"koth_viaduct","folder":"tf","game":"Team Fortress","app_id":440,"player_count":0,"max_players":24,"Bots":0,"server_type":"Dedicated","server_os":"Linux","password":true,"vac":true,"version":"7757534","steam_id":85568392924500088,"keywords":["cp","nocrits","nodmgspread","uncletopia"],"game_id":440,"stv_port":27026,"stv_name":"Uncletopia | Montréal | 2 | All Maps | STV","players":null},{"server_id":302,"name":"Uncletopia | Montréal | 3 | All Maps","name_short":"mtl-3","host":"mtl-1.ca.uncletopia.com","port":27035,"enabled":true,"region":"us-east","cc":"ca","latitude":45.50889,"longitude":-73.56167,"reserved":0,"last_update":"0001-01-01T00:00:00Z","name_a2s":"Uncletopia | Montréal | 3 | All Maps","protocol":17,"map":"cp_dustbowl","folder":"tf","game":"Team Fortress","app_id":440,"player_count":0,"max_players":24,"Bots":0,"server_type":"Dedicated","server_os":"Linux","password":true,"vac":true,"version":"7757534","steam_id":85568392924500089,"keywords":["cp","nocrits","nodmgspread","uncletopia"],"game_id":440,"stv_port":27036,"stv_name":"Uncletopia | Montréal | 3 | All Maps | STV","players":null},{"server_id":303,"name":"Uncletopia | Montréal | 4 | No Payload","name_short":"mtl-4","host":"mtl-1.ca.uncletopia.com","port":27045,"enabled":true,"region":"us-east","cc":"ca","latitude":45.50889,"longitude":-73.56167,"reserved":0,"last_update":"0001-01-01T00:00:00Z","name_a2s":"Uncletopia | Montréal | 4 | No Payload","protocol":17,"map":"pl_borneo","folder":"tf","game":"Team Fortress","app_id":440,"player_count":0,"max_players":24,"Bots":0,"server_type":"Dedicated","server_os":"Linux","password":true,"vac":true,"version":"7757534","steam_id":85568392924500090,"keywords":["nocrits","nodmgspread","payload","uncletopia"],"game_id":440,"stv_port":27046,"stv_name":"Uncletopia | Montréal | 4 | No Payload | STV","players":null},{"server_id":13,"name":"Uncletopia | New York City | 1 | All Maps","name_short":"nyc-1","host":"nyc-1.us.uncletopia.com","port":27015,"enabled":true,"region":"us-east","cc":"us","latitude":40.73061,"longitude":-73.93524,"reserved":0,"last_update":"0001-01-01T00:00:00Z","name_a2s":"Uncletopia | New York City | 1 | All Maps","protocol":17,"map":"pl_pier","folder":"tf","game":"Team Fortress","app_id":440,"player_count":24,"max_players":24,"Bots":0,"server_type":"Dedicated","server_os":"Linux","password":true,"vac":true,"version":"7757534","steam_id":85568392924469993,"keywords":["nocrits","nodmgspread","payload","uncletopia"],"game_id":440,"stv_port":27016,"stv_name":"Uncletopia | New York City | 1 | All Maps | STV","players":[{"user_id":433,"name":"clavin_","steam_id":76561198046398447,"connected_time":731000000000,"state":"active","ping":45},{"user_id":435,"name":"Dad","steam_id":76561199091290729,"connected_time":658000000000,"state":"active","ping":93},{"user_id":368,"name":"Saint","steam_id":76561199122494395,"connected_time":4083000000000,"state":"active","ping":85},{"user_id":442,"name":"Drake the Pixel","steam_id":76561198131824401,"connected_time":243000000000,"state":"active","ping":40},{"user_id":397,"name":"Pi Guy","steam_id":76561199071784224,"connected_time":2364000000000,"state":"active","ping":73},{"user_id":432,"name":"Spike","steam_id":76561198141356571,"connected_time":782000000000,"state":"active","ping":67},{"user_id":441,"name":"Bat in a thousand","steam_id":76561198320506848,"connected_time":310000000000,"state":"active","ping":104},{"user_id":422,"name":"Goober","steam_id":76561198105930089,"connected_time":1465000000000,"state":"active","ping":77},{"user_id":406,"name":"Johnny Lawrence #JohnnyMaxxing","steam_id":76561199367141671,"connected_time":1844000000000,"state":"active","ping":51},{"user_id":434,"name":"Juneau","steam_id":76561198048056421,"connected_time":730000000000,"state":"active","ping":105},{"user_id":414,"name":"God's Goofiest Goober","steam_id":76561198132557605,"connected_time":1715000000000,"state":"active","ping":104},{"user_id":409,"name":"hot pockets in your area","steam_id":76561198052988988,"connected_time":1762000000000,"state":"active","ping":53},{"user_id":437,"name":"quatelhelix","steam_id":76561198066708113,"connected_time":604000000000,"state":"active","ping":83},{"user_id":440,"name":"Myn","steam_id":76561198055438857,"connected_time":330000000000,"state":"active","ping":60},{"user_id":431,"name":"Bali","steam_id":76561198038693845,"connected_time":934000000000,"state":"active","ping":103},{"user_id":411,"name":"ExtremeDucks","steam_id":76561198351756464,"connected_time":1749000000000,"state":"active","ping":88},{"user_id":396,"name":"De_pressed","steam_id":76561198154619174,"connected_time":2700000000000,"state":"active","ping":106},{"user_id":412,"name":"6t26j","steam_id":76561198278282836,"connected_time":1738000000000,"state":"active","ping":57},{"user_id":415,"name":"WannaSeeA","steam_id":76561198097701042,"connected_time":1691000000000,"state":"active","ping":91},{"user_id":438,"name":"Buff Banner activist","steam_id":76561199215017657,"connected_time":571000000000,"state":"active","ping":101},{"user_id":439,"name":"FlameJamez","steam_id":76561198144826722,"connected_time":500000000000,"state":"active","ping":93},{"user_id":393,"name":"Dr. Feelsbad","steam_id":76561198117671709,"connected_time":2776000000000,"state":"active","ping":70},{"user_id":443,"name":"Charmander","steam_id":76561199473449638,"connected_time":232000000000,"state":"active","ping":73},{"user_id":424,"name":"Maxxycat","steam_id":76561198194062681,"connected_time":1146000000000,"state":"active","ping":74}]},{"server_id":14,"name":"Uncletopia | New York City | 2 | All Maps","name_short":"nyc-2","host":"nyc-1.us.uncletopia.com","port":27025,"enabled":true,"region":"us-east","cc":"us","latitude":40.73061,"longitude":-73.93524,"reserved":0,"last_update":"0001-01-01T00:00:00Z","name_a2s":"Uncletopia | New York City | 2 | All Maps","protocol":17,"map":"pl_pier","folder":"tf","game":"Team Fortress","app_id":440,"player_count":24,"max_players":24,"Bots":0,"server_type":"Dedicated","server_os":"Linux","password":true,"vac":true,"version":"7757534","steam_id":85568392924469994,"keywords":["nocrits","nodmgspread","payload","uncletopia"],"game_id":440,"stv_port":27026,"stv_name":"Uncletopia | New York City | 2 | All Maps | STV","players":[{"user_id":230,"name":"Bogmire Gaming","steam_id":76561199047953189,"connected_time":2320000000000,"state":"active","ping":81},{"user_id":224,"name":"QwilfishFan22","steam_id":76561198078565975,"connected_time":2805000000000,"state":"active","ping":53},{"user_id":221,"name":"tony fantano 2","steam_id":76561197997139225,"connected_time":2853000000000,"state":"active","ping":45},{"user_id":231,"name":"allenr200415","steam_id":76561198950845093,"connected_time":2316000000000,"state":"active","ping":85},{"user_id":222,"name":"EmptyB33R","steam_id":76561198993166528,"connected_time":2832000000000,"state":"active","ping":137},{"user_id":247,"name":"Snorty","steam_id":76561198114304454,"connected_time":858000000000,"state":"active","ping":73},{"user_id":245,"name":"amnyak","steam_id":76561198165831950,"connected_time":935000000000,"state":"active","ping":68},{"user_id":234,"name":"kametro4","steam_id":76561198835430429,"connected_time":2055000000000,"state":"active","ping":66},{"user_id":259,"name":"Dark Saturday","steam_id":76561198152056777,"connected_time":5000000000,"state":"spawning","ping":58},{"user_id":246,"name":"Evil_Elephant","steam_id":76561199055338631,"connected_time":932000000000,"state":"active","ping":94},{"user_id":256,"name":"19 ssnb","steam_id":76561198077902438,"connected_time":579000000000,"state":"active","ping":63},{"user_id":248,"name":"Candy Sparkles","steam_id":76561198126871264,"connected_time":851000000000,"state":"active","ping":73},{"user_id":228,"name":"Bee","steam_id":76561198074681324,"connected_time":2587000000000,"state":"active","ping":46},{"user_id":153,"name":"Fresh0c0","steam_id":76561198271933283,"connected_time":6377000000000,"state":"active","ping":77},{"user_id":249,"name":"Marc G","steam_id":76561198062650363,"connected_time":836000000000,"state":"active","ping":80},{"user_id":258,"name":"spherewithahat","steam_id":76561199122192660,"connected_time":22000000000,"state":"spawning","ping":78},{"user_id":242,"name":"HorseCooker","steam_id":76561198076588370,"connected_time":1159000000000,"state":"active","ping":65},{"user_id":260,"name":"Weerk","steam_id":76561199209543551,"connected_time":3000000000,"state":"spawning","ping":82},{"user_id":226,"name":"WhoIsFrosty","steam_id":76561198880588117,"connected_time":2770000000000,"state":"active","ping":69},{"user_id":232,"name":"Le0901","steam_id":76561198372891244,"connected_time":2312000000000,"state":"active","ping":64},{"user_id":257,"name":"zzZ","steam_id":76561198038486613,"connected_time":576000000000,"state":"active","ping":49},{"user_id":253,"name":"Magi","steam_id":76561198150790710,"connected_time":702000000000,"state":"active","ping":46},{"user_id":244,"name":"ITSDIVVY","steam_id":76561198879236561,"connected_time":955000000000,"state":"active","ping":71},{"user_id":254,"name":"Cryo_Dave","steam_id":76561198796748347,"connected_time":681000000000,"state":"active","ping":119}]},{"server_id":15,"name":"Uncletopia | New York City | 3 | Stopwatch Beta","name_short":"nyc-3","host":"nyc-1.us.uncletopia.com","port":27035,"enabled":true,"region":"us-east","cc":"us","latitude":40.73061,"longitude":-73.93524,"reserved":0,"last_update":"0001-01-01T00:00:00Z","name_a2s":"Uncletopia | New York City | 3 | Stopwatch Beta","protocol":17,"map":"koth_highpass","folder":"tf","game":"Team Fortress","app_id":440,"player_count":0,"max_players":24,"Bots":0,"server_type":"Dedicated","server_os":"Linux","password":true,"vac":true,"version":"7757534","steam_id":85568392924742820,"keywords":["cp","nocrits","nodmgspread","uncletopia"],"game_id":440,"stv_port":27036,"stv_name":"Uncletopia | New York City | 3 | Stopwatch Beta | STV","players":null},{"server_id":16,"name":"Uncletopia | New York City | 4 | Community","name_short":"nyc-4","host":"nyc-1.us.uncletopia.com","port":27045,"enabled":true,"region":"us-east","cc":"us","latitude":40.73061,"longitude":-73.93524,"reserved":0,"last_update":"0001-01-01T00:00:00Z","name_a2s":"Uncletopia | New York City | 4 | Community","protocol":17,"map":"workshop/koth_ashville_final.ugc2130459942","folder":"tf","game":"Team Fortress","app_id":440,"player_count":0,"max_players":24,"Bots":0,"server_type":"Dedicated","server_os":"Linux","password":true,"vac":true,"version":"7757534","steam_id":85568392924742821,"keywords":["cp","nocrits","nodmgspread","uncletopia"],"game_id":440,"stv_port":27046,"stv_name":"Uncletopia | New York City | 4 | Community | STV","players":null},{"server_id":142,"name":"Uncletopia | São Paulo | 1 | All Maps","name_short":"sao-1","host":"sao-1.br.uncletopia.com","port":27015,"enabled":true,"region":"sa","cc":"br","latitude":-23.533773,"longitude":-46.62529,"reserved":0,"last_update":"0001-01-01T00:00:00Z","name_a2s":"Uncletopia | São Paulo | 1 | All Maps","protocol":17,"map":"koth_cascade","folder":"tf","game":"Team Fortress","app_id":440,"player_count":2,"max_players":24,"Bots":0,"server_type":"Dedicated","server_os":"Linux","password":true,"vac":true,"version":"7757534","steam_id":85568392924469996,"keywords":["cp","nocrits","nodmgspread","uncletopia"],"game_id":440,"stv_port":27016,"stv_name":"Uncletopia | São Paulo | 1 | All Maps | STV","players":[{"user_id":14,"name":"guarda-chuva","steam_id":76561198078694330,"connected_time":1808000000000,"state":"active","ping":254},{"user_id":15,"name":"Tert_14","steam_id":76561198185952289,"connected_time":1793000000000,"state":"active","ping":71}]},{"server_id":143,"name":"Uncletopia | São Paulo | 2 | All Maps","name_short":"sao-2","host":"sao-2.br.uncletopia.com","port":27015,"enabled":true,"region":"sa","cc":"br","latitude":-23.533773,"longitude":-46.62529,"reserved":0,"last_update":"0001-01-01T00:00:00Z","name_a2s":"Uncletopia | São Paulo | 2 | All Maps","protocol":17,"map":"koth_highpass","folder":"tf","game":"Team Fortress","app_id":440,"player_count":1,"max_players":24,"Bots":0,"server_type":"Dedicated","server_os":"Linux","password":true,"vac":true,"version":"7757534","steam_id":85568392924485349,"keywords":["cp","nocrits","nodmgspread","uncletopia"],"game_id":440,"stv_port":27016,"stv_name":"Uncletopia | São Paulo | 2 | All Maps | STV","players":[{"user_id":26,"name":"O Grande Ratinho","steam_id":76561199082074514,"connected_time":758000000000,"state":"active","ping":54}]},{"server_id":7,"name":"Uncletopia | Seattle | 1 | All Maps","name_short":"sea-1","host":"sea-1.us.uncletopia.com","port":27015,"enabled":true,"region":"us-west","cc":"us","latitude":47.608013,"longitude":-122.33517,"reserved":0,"last_update":"0001-01-01T00:00:00Z","name_a2s":"Uncletopia | Seattle | 1 | All Maps","protocol":17,"map":"koth_highpass","folder":"tf","game":"Team Fortress","app_id":440,"player_count":25,"max_players":24,"Bots":0,"server_type":"Dedicated","server_os":"Linux","password":true,"vac":true,"version":"7757534","steam_id":85568392924469997,"keywords":["cp","nocrits","nodmgspread","uncletopia"],"game_id":440,"stv_port":27016,"stv_name":"Uncletopia | Seattle | 1 | All Maps | STV","players":[{"user_id":422,"name":"YahYeeterson","steam_id":76561198120480906,"connected_time":33000000000,"state":"spawning","ping":65},{"user_id":402,"name":"Villchip","steam_id":76561198198599982,"connected_time":1577000000000,"state":"active","ping":50},{"user_id":416,"name":"XMAN","steam_id":76561199229355018,"connected_time":724000000000,"state":"active","ping":43},{"user_id":407,"name":"cool guy (me)","steam_id":76561199125982967,"connected_time":1379000000000,"state":"active","ping":109},{"user_id":419,"name":"una.mov","steam_id":76561198079765273,"connected_time":496000000000,"state":"active","ping":108},{"user_id":415,"name":"M1ssile T0E","steam_id":76561199052865451,"connected_time":957000000000,"state":"active","ping":105},{"user_id":398,"name":"Cob","steam_id":76561198042518365,"connected_time":1795000000000,"state":"active","ping":63},{"user_id":380,"name":"grape","steam_id":76561198150447896,"connected_time":3026000000000,"state":"active","ping":76},{"user_id":395,"name":"matto1120","steam_id":76561198201321499,"connected_time":1948000000000,"state":"active","ping":88},{"user_id":327,"name":"[TrC] Dackstrus","steam_id":76561197973518509,"connected_time":7417000000000,"state":"active","ping":55},{"user_id":410,"name":"Loppert","steam_id":76561198027113524,"connected_time":1275000000000,"state":"active","ping":115},{"user_id":421,"name":"dddumb510","steam_id":76561198030793492,"connected_time":371000000000,"state":"active","ping":88},{"user_id":406,"name":"goldhed","steam_id":76561198051751133,"connected_time":1389000000000,"state":"active","ping":50},{"user_id":412,"name":"Pneumo.","steam_id":76561197987911883,"connected_time":1064000000000,"state":"active","ping":68},{"user_id":403,"name":"oil","steam_id":76561198099980149,"connected_time":1559000000000,"state":"active","ping":87},{"user_id":417,"name":"Swaggot","steam_id":76561199104492369,"connected_time":704000000000,"state":"active","ping":94},{"user_id":348,"name":"〣dust〣 -she/her-","steam_id":76561198045218909,"connected_time":6409000000000,"state":"active","ping":44},{"user_id":423,"name":"Themasterman75","steam_id":76561199385573293,"connected_time":9000000000,"state":"spawning","ping":55},{"user_id":404,"name":"Master Of Whales","steam_id":76561198349104889,"connected_time":1475000000000,"state":"active","ping":76},{"user_id":405,"name":"Yoyo-Wo","steam_id":76561198880520205,"connected_time":1470000000000,"state":"active","ping":86},{"user_id":396,"name":"mhmyeah_yeahmhm","steam_id":76561198341190679,"connected_time":1947000000000,"state":"active","ping":54},{"user_id":408,"name":"NéoGothique🕯","steam_id":76561198003467269,"connected_time":1356000000000,"state":"active","ping":104},{"user_id":355,"name":"[TrC] Nosy","steam_id":76561197978859310,"connected_time":6317000000000,"state":"active","ping":58},{"user_id":331,"name":"resting neutral face","steam_id":76561197999259502,"connected_time":7122000000000,"state":"active","ping":60},{"user_id":424,"name":"Cam(era)","steam_id":76561198285054047,"connected_time":8000000000,"state":"spawning","ping":77}]},{"server_id":119,"name":"Uncletopia | Seattle | 2 | All Maps","name_short":"sea-2","host":"sea-1.us.uncletopia.com","port":27025,"enabled":true,"region":"us-west","cc":"us","latitude":47.608013,"longitude":-122.33517,"reserved":0,"last_update":"0001-01-01T00:00:00Z","name_a2s":"Uncletopia | Seattle | 2 | All Maps","protocol":17,"map":"koth_nucleus","folder":"tf","game":"Team Fortress","app_id":440,"player_count":20,"max_players":24,"Bots":0,"server_type":"Dedicated","server_os":"Linux","password":true,"vac":true,"version":"7757534","steam_id":85568392924469998,"keywords":["cp","nocrits","nodmgspread","uncletopia"],"game_id":440,"stv_port":27026,"stv_name":"Uncletopia | Seattle | 2 | All Maps | STV","players":[{"user_id":195,"name":"Waddluigi","steam_id":76561198181328519,"connected_time":52000000000,"state":"spawning","ping":69},{"user_id":178,"name":"tfangy","steam_id":76561199470646981,"connected_time":1072000000000,"state":"active","ping":124},{"user_id":177,"name":"Miista","steam_id":76561198117357040,"connected_time":1089000000000,"state":"active","ping":31},{"user_id":170,"name":"lili.winters","steam_id":76561199391478575,"connected_time":1273000000000,"state":"active","ping":65},{"user_id":131,"name":"LX-24","steam_id":76561198016168993,"connected_time":4885000000000,"state":"active","ping":109},{"user_id":171,"name":"Lemon Luke","steam_id":76561199141696546,"connected_time":1198000000000,"state":"active","ping":113},{"user_id":180,"name":"Trans Femtress 2","steam_id":76561198272676760,"connected_time":938000000000,"state":"active","ping":68},{"user_id":181,"name":"Isaac","steam_id":76561198015727013,"connected_time":915000000000,"state":"active","ping":94},{"user_id":193,"name":"Nottawink","steam_id":76561198071248705,"connected_time":184000000000,"state":"active","ping":99},{"user_id":196,"name":"Klone","steam_id":76561198854485605,"connected_time":11000000000,"state":"active","ping":125},{"user_id":184,"name":"Jorge_dude_2008","steam_id":76561198870649125,"connected_time":717000000000,"state":"active","ping":76},{"user_id":186,"name":"EL NIÑO.","steam_id":76561198098149561,"connected_time":663000000000,"state":"active","ping":131},{"user_id":191,"name":"Firedust19","steam_id":76561198153238631,"connected_time":322000000000,"state":"active","ping":104},{"user_id":151,"name":"Hugh Mann","steam_id":76561198212049401,"connected_time":3347000000000,"state":"active","ping":102},{"user_id":188,"name":"Pooryoungfrog","steam_id":76561199174779667,"connected_time":635000000000,"state":"active","ping":105},{"user_id":152,"name":"Clagger","steam_id":76561198066701092,"connected_time":2993000000000,"state":"active","ping":44},{"user_id":160,"name":"enchilada9","steam_id":76561198043696755,"connected_time":2203000000000,"state":"active","ping":71},{"user_id":194,"name":"seats","steam_id":76561197998756039,"connected_time":171000000000,"state":"active","ping":75},{"user_id":166,"name":"Milkf porn","steam_id":76561198152601497,"connected_time":1838000000000,"state":"active","ping":87},{"user_id":162,"name":"DK360","steam_id":76561198796783094,"connected_time":2143000000000,"state":"active","ping":58}]},{"server_id":406,"name":"Uncletopia | Seattle | 3 | Stopwatch Beta","name_short":"sea-3","host":"sea-1.us.uncletopia.com","port":27035,"enabled":true,"region":"us-west","cc":"us","latitude":47.608013,"longitude":-122.33517,"reserved":0,"last_update":"0001-01-01T00:00:00Z","name_a2s":"Uncletopia | Seattle | 3 | Stopwatch Beta","protocol":17,"map":"pl_barnblitz","folder":"tf","game":"Team Fortress","app_id":440,"player_count":0,"max_players":24,"Bots":0,"server_type":"Dedicated","server_os":"Linux","password":true,"vac":true,"version":"7757534","steam_id":85568392924515217,"keywords":["nocrits","nodmgspread","payload","uncletopia"],"game_id":440,"stv_port":27036,"stv_name":"Uncletopia | Seattle | 3 | Stopwatch Beta | STV","players":null},{"server_id":17,"name":"Uncletopia | San Francisco | 1 | All Maps","name_short":"sfo-1","host":"sfo-1.us.uncletopia.com","port":27015,"enabled":true,"region":"us-west","cc":"us","latitude":37.77397,"longitude":-122.4313,"reserved":0,"last_update":"0001-01-01T00:00:00Z","name_a2s":"Uncletopia | San Francisco | 1 | All Maps","protocol":17,"map":"koth_harvest_final","folder":"tf","game":"Team Fortress","app_id":440,"player_count":16,"max_players":24,"Bots":0,"server_type":"Dedicated","server_os":"Linux","password":true,"vac":true,"version":"7757534","steam_id":85568392924469999,"keywords":["cp","nocrits","nodmgspread","uncletopia"],"game_id":440,"stv_port":27016,"stv_name":"Uncletopia | San Francisco | 1 | All Maps | STV","players":[{"user_id":85,"name":"bLoodBEARD","steam_id":76561198056338014,"connected_time":593000000000,"state":"active","ping":102},{"user_id":70,"name":"dude","steam_id":76561198253202693,"connected_time":2199000000000,"state":"active","ping":39},{"user_id":88,"name":"Bombat","steam_id":76561198083096946,"connected_time":258000000000,"state":"active","ping":70},{"user_id":67,"name":"Bing Soy","steam_id":76561199091381775,"connected_time":2235000000000,"state":"active","ping":66},{"user_id":79,"name":"Emails","steam_id":76561198836919458,"connected_time":1011000000000,"state":"active","ping":113},{"user_id":89,"name":"ebbaxter13","steam_id":76561198839647688,"connected_time":165000000000,"state":"active","ping":126},{"user_id":91,"name":"CptSkippy","steam_id":76561198127439343,"connected_time":72000000000,"state":"spawning","ping":75},{"user_id":32,"name":"Yamn Zaddy","steam_id":76561198074678001,"connected_time":3421000000000,"state":"active","ping":118},{"user_id":84,"name":"Keyhaha","steam_id":76561198075001658,"connected_time":612000000000,"state":"active","ping":103},{"user_id":92,"name":"granola","steam_id":76561198392844061,"connected_time":16000000000,"state":"spawning","ping":98},{"user_id":82,"name":"nerv","steam_id":76561198012678811,"connected_time":758000000000,"state":"active","ping":132},{"user_id":83,"name":"en.wikipedia.org/wiki/Nae_Nae","steam_id":76561198418288939,"connected_time":677000000000,"state":"active","ping":52},{"user_id":86,"name":"big fish","steam_id":76561198186479818,"connected_time":424000000000,"state":"active","ping":66},{"user_id":40,"name":"Gumba21","steam_id":76561199167640179,"connected_time":3185000000000,"state":"active","ping":107},{"user_id":87,"name":"zaza2k","steam_id":76561198393760567,"connected_time":412000000000,"state":"active","ping":59},{"user_id":43,"name":"Melon","steam_id":76561199228499932,"connected_time":3165000000000,"state":"active","ping":112}]},{"server_id":18,"name":"Uncletopia | San Francisco | 2 | All Maps","name_short":"sfo-2","host":"sfo-1.us.uncletopia.com","port":27025,"enabled":true,"region":"us-west","cc":"us","latitude":37.77397,"longitude":-122.4313,"reserved":0,"last_update":"0001-01-01T00:00:00Z","name_a2s":"Uncletopia | San Francisco | 2 | All Maps","protocol":17,"map":"cp_sunshine","folder":"tf","game":"Team Fortress","app_id":440,"player_count":0,"max_players":24,"Bots":0,"server_type":"Dedicated","server_os":"Linux","password":true,"vac":true,"version":"7757534","steam_id":85568392924470000,"keywords":["cp","nocrits","nodmgspread","uncletopia"],"game_id":440,"stv_port":27026,"stv_name":"Uncletopia | San Francisco | 2 | All Maps | STV","players":null},{"server_id":19,"name":"Uncletopia | San Francisco | 3 | Stopwatch Beta","name_short":"sfo-3","host":"sfo-1.us.uncletopia.com","port":27035,"enabled":true,"region":"us-west","cc":"us","latitude":37.77397,"longitude":-122.4313,"reserved":0,"last_update":"0001-01-01T00:00:00Z","name_a2s":"Uncletopia | San Francisco | 3 | Stopwatch Beta","protocol":17,"map":"pl_borneo","folder":"tf","game":"Team Fortress","app_id":440,"player_count":0,"max_players":24,"Bots":0,"server_type":"Dedicated","server_os":"Linux","password":true,"vac":true,"version":"7757534","steam_id":85568392924742824,"keywords":["nocrits","nodmgspread","payload","uncletopia"],"game_id":440,"stv_port":27036,"stv_name":"Uncletopia | San Francisco | 3 | Stopwatch Beta | STV","players":null},{"server_id":20,"name":"Uncletopia | San Francisco | 4 | Community","name_short":"sfo-4","host":"sfo-1.us.uncletopia.com","port":27045,"enabled":true,"region":"us-west","cc":"us","latitude":37.77397,"longitude":-122.4313,"reserved":0,"last_update":"0001-01-01T00:00:00Z","name_a2s":"Uncletopia | San Francisco | 4 | Community","protocol":17,"map":"koth_highpass","folder":"tf","game":"Team Fortress","app_id":440,"player_count":0,"max_players":24,"Bots":0,"server_type":"Dedicated","server_os":"Linux","password":true,"vac":true,"version":"7757534","steam_id":85568392924742826,"keywords":["cp","nocrits","nodmgspread","uncletopia"],"game_id":440,"stv_port":27046,"stv_name":"Uncletopia | San Francisco | 4 | Community | STV","players":null},{"server_id":141,"name":"Uncletopia | Sydney | 1 | All Maps","name_short":"syd-1","host":"syd-1.au.uncletopia.com","port":27015,"enabled":true,"region":"au","cc":"au","latitude":-33.865143,"longitude":151.2099,"reserved":0,"last_update":"0001-01-01T00:00:00Z","name_a2s":"Uncletopia | Sydney | 1 | All Maps","protocol":17,"map":"pl_swiftwater_final1","folder":"tf","game":"Team Fortress","app_id":440,"player_count":1,"max_players":24,"Bots":0,"server_type":"Dedicated","server_os":"Linux","password":true,"vac":true,"version":"7757534","steam_id":85568392924470001,"keywords":["nocrits","nodmgspread","payload","uncletopia"],"game_id":440,"stv_port":27016,"stv_name":"Uncletopia | Sydney | 1 | All Maps | STV","players":[{"user_id":19,"name":"Blazey 伊達 政宗","steam_id":76561197971082275,"connected_time":240000000000,"state":"active","ping":107}]},{"server_id":123,"name":"Uncletopia | Sydney | 2 | All Maps","name_short":"syd-2","host":"syd-1.au.uncletopia.com","port":27025,"enabled":true,"region":"au","cc":"au","latitude":-33.865143,"longitude":151.2099,"reserved":0,"last_update":"0001-01-01T00:00:00Z","name_a2s":"Uncletopia | Sydney | 2 | All Maps","protocol":17,"map":"koth_cascade","folder":"tf","game":"Team Fortress","app_id":440,"player_count":0,"max_players":24,"Bots":0,"server_type":"Dedicated","server_os":"Linux","password":true,"vac":true,"version":"7757534","steam_id":85568392924470002,"keywords":["cp","nocrits","nodmgspread","uncletopia"],"game_id":440,"stv_port":27026,"stv_name":"Uncletopia | Sydney | 2 | All Maps | STV","players":null},{"server_id":395,"name":"Uncletopia | Sydney | 3 | All Maps","name_short":"syd-3","host":"syd-1.au.uncletopia.com","port":27035,"enabled":true,"region":"au","cc":"au","latitude":-33.865143,"longitude":151.2099,"reserved":0,"last_update":"0001-01-01T00:00:00Z","name_a2s":"Uncletopia | Sydney | 3 | All Maps","protocol":17,"map":"pl_upward","folder":"tf","game":"Team Fortress","app_id":440,"player_count":0,"max_players":24,"Bots":0,"server_type":"Dedicated","server_os":"Linux","password":true,"vac":true,"version":"7757534","steam_id":85568392925194467,"keywords":["nocrits","nodmgspread","payload","uncletopia"],"game_id":440,"stv_port":27036,"stv_name":"Uncletopia | Sydney | 3 | All Maps | STV","players":null},{"server_id":396,"name":"Uncletopia | Sydney | 4 | All Maps","name_short":"syd-4","host":"syd-1.au.uncletopia.com","port":27045,"enabled":true,"region":"au","cc":"au","latitude":-33.865143,"longitude":151.2099,"reserved":0,"last_update":"0001-01-01T00:00:00Z","name_a2s":"Uncletopia | Sydney | 4 | All Maps","protocol":17,"map":"koth_lakeside_final","folder":"tf","game":"Team Fortress","app_id":440,"player_count":0,"max_players":24,"Bots":0,"server_type":"Dedicated","server_os":"Linux","password":true,"vac":true,"version":"7757534","steam_id":85568392925397958,"keywords":["cp","nocrits","nodmgspread","uncletopia"],"game_id":440,"stv_port":27046,"stv_name":"Uncletopia | Sydney | 4 | All Maps | STV","players":null},{"server_id":58,"name":"Uncletopia | Sydney | 5 | Stopwatch Beta","name_short":"syd-5","host":"syd-1.au.uncletopia.com","port":27055,"enabled":true,"region":"au","cc":"au","latitude":-33.865143,"longitude":151.2099,"reserved":0,"last_update":"0001-01-01T00:00:00Z","name_a2s":"Uncletopia | Sydney | 5 | Stopwatch Beta","protocol":17,"map":"koth_highpass","folder":"tf","game":"Team Fortress","app_id":440,"player_count":0,"max_players":24,"Bots":0,"server_type":"Dedicated","server_os":"Linux","password":true,"vac":true,"version":"7757534","steam_id":85568392925397959,"keywords":["cp","nocrits","nodmgspread","uncletopia"],"game_id":440,"stv_port":27056,"stv_name":"Uncletopia | Sydney | 5 | Stopwatch Beta | STV","players":null},{"server_id":59,"name":"Uncletopia | Sydney | 6 | Community","name_short":"syd-6","host":"syd-1.au.uncletopia.com","port":27065,"enabled":true,"region":"au","cc":"au","latitude":-33.865143,"longitude":151.2099,"reserved":0,"last_update":"0001-01-01T00:00:00Z","name_a2s":"Uncletopia | Sydney | 6 | Community","protocol":17,"map":"workshop/koth_slaughter_rc1.ugc1712845210","folder":"tf","game":"Team Fortress","app_id":440,"player_count":0,"max_players":24,"Bots":0,"server_type":"Dedicated","server_os":"Linux","password":true,"vac":true,"version":"7757534","steam_id":85568392925397960,"keywords":["cp","nocrits","nodmgspread","uncletopia"],"game_id":440,"stv_port":27066,"stv_name":"Uncletopia | Sydney | 6 | Community | STV","players":null},{"server_id":49,"name":"Uncletopia | Warsaw | 1 | All Maps","name_short":"waw-1","host":"waw-1.pl.uncletopia.com","port":27015,"enabled":true,"region":"eu","cc":"pl","latitude":52.2297,"longitude":21.017532,"reserved":0,"last_update":"0001-01-01T00:00:00Z","name_a2s":"","protocol":0,"map":"","folder":"","game":"","app_id":0,"player_count":0,"max_players":0,"Bots":0,"server_type":"","server_os":"","password":false,"vac":false,"version":"","steam_id":0,"keywords":null,"game_id":0,"stv_port":0,"stv_name":"","players":null},{"server_id":50,"name":"Uncletopia | Warsaw | 2 | All Maps","name_short":"waw-2","host":"waw-1.pl.uncletopia.com","port":27025,"enabled":true,"region":"eu","cc":"pl","latitude":52.2297,"longitude":21.017532,"reserved":0,"last_update":"0001-01-01T00:00:00Z","name_a2s":"Uncletopia | Warsaw | 2 | All Maps","protocol":17,"map":"koth_highpass","folder":"tf","game":"Team Fortress","app_id":440,"player_count":0,"max_players":24,"Bots":0,"server_type":"Dedicated","server_os":"Linux","password":true,"vac":true,"version":"7757534","steam_id":85568392925397851,"keywords":["cp","nocrits","nodmgspread","uncletopia"],"game_id":440,"stv_port":27026,"stv_name":"Uncletopia | Warsaw | 2 | All Maps | STV","players":null},{"server_id":51,"name":"Uncletopia | Warsaw | 3 | All Maps","name_short":"waw-3","host":"waw-1.pl.uncletopia.com","port":27035,"enabled":true,"region":"eu","cc":"pl","latitude":52.2297,"longitude":21.017532,"reserved":0,"last_update":"0001-01-01T00:00:00Z","name_a2s":"Uncletopia | Warsaw | 3 | All Maps","protocol":17,"map":"koth_cascade","folder":"tf","game":"Team Fortress","app_id":440,"player_count":0,"max_players":24,"Bots":0,"server_type":"Dedicated","server_os":"Linux","password":true,"vac":true,"version":"7757534","steam_id":85568392925397852,"keywords":["cp","nocrits","nodmgspread","uncletopia"],"game_id":440,"stv_port":27036,"stv_name":"Uncletopia | Warsaw | 3 | All Maps | STV","players":null},{"server_id":52,"name":"Uncletopia | Warsaw | 4 | All Maps","name_short":"waw-4","host":"waw-1.pl.uncletopia.com","port":27045,"enabled":true,"region":"eu","cc":"pl","latitude":52.2297,"longitude":21.017532,"reserved":0,"last_update":"0001-01-01T00:00:00Z","name_a2s":"Uncletopia | Warsaw | 4 | All Maps","protocol":17,"map":"koth_lakeside_final","folder":"tf","game":"Team Fortress","app_id":440,"player_count":0,"max_players":24,"Bots":0,"server_type":"Dedicated","server_os":"Linux","password":true,"vac":true,"version":"7757534","steam_id":85568392925397853,"keywords":["cp","nocrits","nodmgspread","uncletopia"],"game_id":440,"stv_port":27046,"stv_name":"Uncletopia | Warsaw | 4 | All Maps | STV","players":null},{"server_id":53,"name":"Uncletopia | Warsaw | 5 | Stopwatch Beta","name_short":"waw-5","host":"waw-1.pl.uncletopia.com","port":27055,"enabled":true,"region":"eu","cc":"pl","latitude":52.2297,"longitude":21.017532,"reserved":0,"last_update":"0001-01-01T00:00:00Z","name_a2s":"Uncletopia | Warsaw | 5 | Stopwatch Beta","protocol":17,"map":"pl_barnblitz","folder":"tf","game":"Team Fortress","app_id":440,"player_count":0,"max_players":24,"Bots":0,"server_type":"Dedicated","server_os":"Linux","password":true,"vac":true,"version":"7757534","steam_id":85568392925397854,"keywords":["nocrits","nodmgspread","payload","uncletopia"],"game_id":440,"stv_port":27056,"stv_name":"Uncletopia | Warsaw | 5 | Stopwatch Beta | STV","players":null},{"server_id":54,"name":"Uncletopia | Warsaw | 6 | Community","name_short":"waw-6","host":"waw-1.pl.uncletopia.com","port":27065,"enabled":true,"region":"eu","cc":"pl","latitude":52.2297,"longitude":21.017532,"reserved":0,"last_update":"0001-01-01T00:00:00Z","name_a2s":"Uncletopia | Warsaw | 6 | Community","protocol":17,"map":"workshop/rd_asteroid_redux_b1.ugc2154902912","folder":"tf","game":"Team Fortress","app_id":440,"player_count":0,"max_players":24,"Bots":0,"server_type":"Dedicated","server_os":"Linux","password":true,"vac":true,"version":"7757534","steam_id":85568392925397856,"keywords":["beta","nocrits","nodmgspread","rd","uncletopia"],"game_id":440,"stv_port":27066,"stv_name":"Uncletopia | Warsaw | 6 | Community | STV","players":null}]}