{"status":true,"message":"","result":[{"server_id":9,"name":"Uncletopia | Atlanta | 1 | All Maps","name_short":"atl-1","host":"atl-1.us.uncletopia.com","port":27015,"enabled":true,"region":"us-east","cc":"us","latitude":33.753746,"longitude":-84.38633,"reserved":0,"last_update":"0001-01-01T00:00:00Z","name_a2s":"Uncletopia | Atlanta | 1 | All Maps","protocol":17,"map":"pl_frontier_final","folder":"tf","game":"Team Fortress","app_id":440,"player_count":24,"max_players":24,"Bots":0,"server_type":"Dedicated","server_os":"Linux","password":true,"vac":true,"version":"7961495","steam_id":85568392924469982,"keywords":["nocrits","nodmgspread","payload","uncletopia"],"game_id":440,"stv_port":27016,"stv_name":"Uncletopia | Atlanta | 1 | All Maps | STV","players":[{"user_id":189,"name":"KillerGodzilla","steam_id":76561198049361161,"connected_time":257000000000,"state":"active","ping":62},{"user_id":112,"name":"Genetic Komodo (He/Him)","steam_id":76561198174806758,"connected_time":6138000000000,"state":"active","ping":58},{"user_id":141,"name":"Brown_Dream","steam_id":76561198975766145,"connected_time":3916000000000,"state":"active","ping":66},{"user_id":158,"name":"confield","steam_id":76561198004322265,"connected_time":2570000000000,"state":"active","ping":52},{"user_id":187,"name":"neeko gaming","steam_id":76561198180174734,"connected_time":429000000000,"state":"active","ping":78},{"user_id":178,"name":"icecxld","steam_id":76561198079018805,"connected_time":1140000000000,"state":"active","ping":75},{"user_id":184,"name":"metalfan666","steam_id":76561198386344068,"connected_time":472000000000,"state":"active","ping":75},{"user_id":183,"name":"Jango","steam_id":76561198084589742,"connected_time":556000000000,"state":"active","ping":57},{"user_id":188,"name":"trianamarco780","steam_id":76561199084319677,"connected_time":394000000000,"state":"active","ping":105},{"user_id":186,"name":"orphan slayer","steam_id":76561199476198856,"connected_time":464000000000,"state":"active","ping":160},{"user_id":148,"name":"white gilgamesh","steam_id":76561198046111695,"connected_time":3226000000000,"state":"active","ping":62},{"user_id":167,"name":"JakobTheCerealKiller","steam_id":76561198332121073,"connected_time":1689000000000,"state":"active","ping":120},{"user_id":129,"name":"lil hog","steam_id":76561199230929836,"connected_time":4454000000000,"state":"active","ping":89},{"user_id":175,"name":"melee me","steam_id":76561198880304614,"connected_time":1195000000000,"state":"active","ping":60},{"user_id":152,"name":"doug","steam_id":76561198020534493,"connected_time":3188000000000,"state":"active","ping":78},{"user_id":170,"name":"rat","steam_id":76561198272622003,"connected_time":1521000000000,"state":"active","ping":64},{"user_id":156,"name":"Stacks63bs","steam_id":76561198067797130,"connected_time":2966000000000,"state":"active","ping":59},{"user_id":182,"name":"30-50 feral hogs","steam_id":76561198073587145,"connected_time":837000000000,"state":"active","ping":95},{"user_id":163,"name":"PapaSmurf","steam_id":76561199201107408,"connected_time":1825000000000,"state":"active","ping":79},{"user_id":58,"name":"Obelisk","steam_id":76561198049416866,"connected_time":10753000000000,"state":"active","ping":53},{"user_id":160,"name":"An Engineer","steam_id":76561198110381643,"connected_time":2287000000000,"state":"active","ping":48},{"user_id":171,"name":"kite","steam_id":76561198346516392,"connected_time":1437000000000,"state":"active","ping":89},{"user_id":172,"name":"Micro","steam_id":76561198319239296,"connected_time":1419000000000,"state":"active","ping":78},{"user_id":176,"name":"Sunshine","steam_id":76561198885528098,"connected_time":1195000000000,"state":"active","ping":75}]},{"server_id":104,"name":"Uncletopia | Atlanta | 2 | All Maps","name_short":"atl-2","host":"atl-1.us.uncletopia.com","port":27025,"enabled":true,"region":"us-east","cc":"us","latitude":33.753746,"longitude":-84.38633,"reserved":0,"last_update":"0001-01-01T00:00:00Z","name_a2s":"Uncletopia | Atlanta | 2 | All Maps","protocol":17,"map":"cp_snakewater_final1","folder":"tf","game":"Team Fortress","app_id":440,"player_count":0,"max_players":24,"Bots":0,"server_type":"Dedicated","server_os":"Linux","password":true,"vac":true,"version":"7961495","steam_id":85568392924469983,"keywords":["cp","nocrits","nodmgspread","uncletopia"],"game_id":440,"stv_port":27026,"stv_name":"Uncletopia | Atlanta | 2 | All Maps | STV","players":null},{"server_id":400,"name":"Uncletopia | Atlanta | 3 | Stopwatch","name_short":"atl-3","host":"atl-1.us.uncletopia.com","port":27035,"enabled":true,"region":"us-east","cc":"us","latitude":33.753746,"longitude":-84.38633,"reserved":0,"last_update":"0001-01-01T00:00:00Z","name_a2s":"Uncletopia | Atlanta | 3 | Stopwatch","protocol":17,"map":"cp_metalworks","folder":"tf","game":"Team Fortress","app_id":440,"player_count":0,"max_players":24,"Bots":0,"server_type":"Dedicated","server_os":"Linux","password":true,"vac":true,"version":"7961495","steam_id":85568392924515187,"keywords":["cp","nocrits","nodmgspread","uncletopia"],"game_id":440,"stv_port":27036,"stv_name":"Uncletopia | Atlanta | 3 | Stopwatch | STV","players":null},{"server_id":401,"name":"Uncletopia | Atlanta | 4 | Community","name_short":"atl-4","host":"atl-1.us.uncletopia.com","port":27045,"enabled":true,"region":"us-east","cc":"us","latitude":33.753746,"longitude":-84.38633,"reserved":0,"last_update":"0001-01-01T00:00:00Z","name_a2s":"Uncletopia | Atlanta | 4 | Community","protocol":17,"map":"workshop/pl_badwater_pro_v12.ugc2142942074","folder":"tf","game":"Team Fortress","app_id":440,"player_count":0,"max_players":24,"Bots":0,"server_type":"Dedicated","server_os":"Linux","password":true,"vac":true,"version":"7961495","steam_id":85568392924515188,"keywords":["nocrits","nodmgspread","payload","uncletopia"],"game_id":440,"stv_port":27046,"stv_name":"Uncletopia | Atlanta | 4 | Community | STV","players":null},{"server_id":2,"name":"Uncletopia | Chicago | 1 | All Maps","name_short":"chi-1","host":"chi-1.us.uncletopia.com","port":27015,"enabled":true,"region":"us-central","cc":"us","latitude":41.881832,"longitude":-87.62318,"reserved":0,"last_update":"0001-01-01T00:00:00Z","name_a2s":"Uncletopia | Chicago | 1 | All Maps","protocol":17,"map":"cp_process_final","folder":"tf","game":"Team Fortress","app_id":440,"player_count":1,"max_players":24,"Bots":0,"server_type":"Dedicated","server_os":"Linux","password":true,"vac":true,"version":"7961495","steam_id":85568392924469984,"keywords":["cp","nocrits","nodmgspread","uncletopia"],"game_id":440,"stv_port":27016,"stv_name":"Uncletopia | Chicago | 1 | All Maps | STV","players":[{"user_id":15,"name":"swing and a miss slugger","steam_id":76561198248322524,"connected_time":24000000000,"state":"active","ping":38}]},{"server_id":106,"name":"Uncletopia | Chicago | 2 | All Maps","name_short":"chi-2","host":"chi-1.us.uncletopia.com","port":27025,"enabled":true,"region":"us-central","cc":"us","latitude":41.881832,"longitude":-87.62318,"reserved":0,"last_update":"0001-01-01T00:00:00Z","name_a2s":"Uncletopia | Chicago | 2 | All Maps","protocol":17,"map":"pl_snowycoast","folder":"tf","game":"Team Fortress","app_id":440,"player_count":24,"max_players":24,"Bots":0,"server_type":"Dedicated","server_os":"Linux","password":true,"vac":true,"version":"7961495","steam_id":85568392924469985,"keywords":["nocrits","nodmgspread","payload","uncletopia"],"game_id":440,"stv_port":27026,"stv_name":"Uncletopia | Chicago | 2 | All Maps | STV","players":[{"user_id":325,"name":"snoopie","steam_id":76561198316441887,"connected_time":408000000000,"state":"active","ping":75},{"user_id":322,"name":"Overduecat","steam_id":76561198092452824,"connected_time":470000000000,"state":"active","ping":60},{"user_id":316,"name":"The Idiot","steam_id":76561198049837377,"connected_time":951000000000,"state":"active","ping":49},{"user_id":60,"name":"tuz","steam_id":76561197979961213,"connected_time":20918000000000,"state":"active","ping":91},{"user_id":320,"name":"Pirus and Crips","steam_id":76561198395577807,"connected_time":543000000000,"state":"active","ping":75},{"user_id":328,"name":"Im High","steam_id":76561198049954886,"connected_time":164000000000,"state":"active","ping":72},{"user_id":250,"name":"Tony Slark","steam_id":76561198151256410,"connected_time":4839000000000,"state":"active","ping":140},{"user_id":329,"name":"Nefy","steam_id":76561198030017316,"connected_time":23000000000,"state":"active","ping":77},{"user_id":323,"name":"richard clock","steam_id":76561198048455671,"connected_time":418000000000,"state":"active","ping":60},{"user_id":326,"name":"frederick","steam_id":76561198037746805,"connected_time":385000000000,"state":"active","ping":74},{"user_id":309,"name":"ark","steam_id":76561198041066271,"connected_time":1543000000000,"state":"active","ping":75},{"user_id":296,"name":"Yam Jazzy Jim","steam_id":76561198000788950,"connected_time":2432000000000,"state":"active","ping":73},{"user_id":318,"name":"DrStarBucksCoffee","steam_id":76561198037372470,"connected_time":864000000000,"state":"active","ping":74},{"user_id":279,"name":"reis","steam_id":76561199232952016,"connected_time":3213000000000,"state":"active","ping":186},{"user_id":315,"name":"baver","steam_id":76561198135293142,"connected_time":1137000000000,"state":"active","ping":144},{"user_id":300,"name":"Chadmander","steam_id":76561197974136337,"connected_time":2182000000000,"state":"active","ping":44},{"user_id":324,"name":"opps fucked up his do","steam_id":76561198803704016,"connected_time":414000000000,"state":"active","ping":60},{"user_id":310,"name":"Cryo_Dave","steam_id":76561198796748347,"connected_time":1515000000000,"state":"active","ping":137},{"user_id":314,"name":"joe","steam_id":76561198133033006,"connected_time":1405000000000,"state":"active","ping":45},{"user_id":327,"name":"moe","steam_id":76561198929586245,"connected_time":362000000000,"state":"active","ping":97},{"user_id":319,"name":"gregor","steam_id":76561198057076267,"connected_time":861000000000,"state":"active","ping":80},{"user_id":272,"name":"Ranger","steam_id":76561198064096654,"connected_time":3660000000000,"state":"active","ping":53},{"user_id":294,"name":"Joshy","steam_id":76561198061405421,"connected_time":2476000000000,"state":"active","ping":90},{"user_id":281,"name":"The Doc","steam_id":76561198121604602,"connected_time":2766000000000,"state":"active","ping":86}]},{"server_id":402,"name":"Uncletopia | Chicago | 3 | All Maps","name_short":"chi-3","host":"chi-1.us.uncletopia.com","port":27035,"enabled":true,"region":"us-central","cc":"us","latitude":41.881832,"longitude":-87.62318,"reserved":0,"last_update":"0001-01-01T00:00:00Z","name_a2s":"Uncletopia | Chicago | 3 | All Maps","protocol":17,"map":"plr_pipeline","folder":"tf","game":"Team Fortress","app_id":440,"player_count":24,"max_players":24,"Bots":0,"server_type":"Dedicated","server_os":"Linux","password":true,"vac":true,"version":"7961495","steam_id":85568392924515191,"keywords":["nocrits","nodmgspread","payload","uncletopia"],"game_id":440,"stv_port":27036,"stv_name":"Uncletopia | Chicago | 3 | All Maps | STV","players":[{"user_id":16,"name":"The Soup","steam_id":76561198156746320,"connected_time":1286000000000,"state":"active","ping":43},{"user_id":46,"name":"Mr_MilkCheese","steam_id":76561198871981421,"connected_time":78000000000,"state":"active","ping":56},{"user_id":25,"name":"g","steam_id":76561198851814994,"connected_time":535000000000,"state":"active","ping":73},{"user_id":20,"name":"beans","steam_id":76561199082781884,"connected_time":633000000000,"state":"active","ping":54},{"user_id":21,"name":"h","steam_id":76561198880991847,"connected_time":599000000000,"state":"active","ping":60},{"user_id":22,"name":"Harry Spotter","steam_id":76561198115714484,"connected_time":564000000000,"state":"active","ping":120},{"user_id":47,"name":"Hidden Phantom","steam_id":76561198115531799,"connected_time":36000000000,"state":"spawning","ping":71},{"user_id":24,"name":"Alpha","steam_id":76561199482290132,"connected_time":548000000000,"state":"active","ping":71},{"user_id":26,"name":"GrantTheMedicYT","steam_id":76561199077176696,"connected_time":514000000000,"state":"active","ping":89},{"user_id":27,"name":"IHateThisMap","steam_id":76561197980597646,"connected_time":509000000000,"state":"active","ping":44},{"user_id":33,"name":"Sue√±o","steam_id":76561198866469952,"connected_time":385000000000,"state":"active","ping":79},{"user_id":29,"name":"Lennu","steam_id":76561198060730154,"connected_time":498000000000,"state":"active","ping":68},{"user_id":31,"name":"Bea","steam_id":76561198197928515,"connected_time":431000000000,"state":"active","ping":83},{"user_id":32,"name":"Kerpal","steam_id":76561198153340350,"connected_time":429000000000,"state":"active","ping":78},{"user_id":34,"name":"listerine","steam_id":76561198041104084,"connected_time":344000000000,"state":"active","ping":60},{"user_id":35,"name":"BonesJohnson","steam_id":76561198799169951,"connected_time":339000000000,"state":"active","ping":131},{"user_id":36,"name":"a bellhop","steam_id":76561198046797995,"connected_time":336000000000,"state":"active","ping":50},{"user_id":41,"name":"santa gaming","steam_id":76561198955035315,"connected_time":236000000000,"state":"active","ping":113},{"user_id":38,"name":"Wang of Wall St","steam_id":76561198047460598,"connected_time":266000000000,"state":"active","ping":65},{"user_id":40,"name":"Ball Juggler","steam_id":76561198031675881,"connected_time":247000000000,"state":"active","ping":42},{"user_id":42,"name":"Quark","steam_id":76561198328155605,"connected_time":234000000000,"state":"active","ping":48},{"user_id":43,"name":"Feet Bandit","steam_id":76561199152252878,"connected_time":211000000000,"state":"active","ping":70},{"user_id":44,"name":"lordstinkdemon666","steam_id":76561198073914311,"connected_time":187000000000,"state":"active","ping":102},{"user_id":45,"name":"TheOtherBrush","steam_id":76561199048222977,"connected_time":172000000000,"state":"active","ping":94}]},{"server_id":403,"name":"Uncletopia | Chicago | 4 | All Maps","name_short":"chi-4","host":"chi-1.us.uncletopia.com","port":27045,"enabled":true,"region":"us-central","cc":"us","latitude":41.881832,"longitude":-87.62318,"reserved":0,"last_update":"0001-01-01T00:00:00Z","name_a2s":"Uncletopia | Chicago | 4 | All Maps","protocol":17,"map":"pl_rumford_event","folder":"tf","game":"Team Fortress","app_id":440,"player_count":0,"max_players":24,"Bots":0,"server_type":"Dedicated","server_os":"Linux","password":true,"vac":true,"version":"7961495","steam_id":85568392924515193,"keywords":["nocrits","nodmgspread","payload","uncletopia"],"game_id":440,"stv_port":27046,"stv_name":"Uncletopia | Chicago | 4 | All Maps | STV","players":null},{"server_id":36,"name":"Uncletopia | Chicago | 5 | All Maps","name_short":"chi-5","host":"chi-2.us.uncletopia.com","port":27015,"enabled":true,"region":"us-central","cc":"us","latitude":41.881832,"longitude":-87.62318,"reserved":0,"last_update":"0001-01-01T00:00:00Z","name_a2s":"Uncletopia | Chicago | 5 | All Maps","protocol":17,"map":"cp_snakewater_final1","folder":"tf","game":"Team Fortress","app_id":440,"player_count":23,"max_players":24,"Bots":0,"server_type":"Dedicated","server_os":"Linux","password":true,"vac":true,"version":"7961495","steam_id":85568392924866362,"keywords":["cp","nocrits","nodmgspread","uncletopia"],"game_id":440,"stv_port":27016,"stv_name":"Uncletopia | Chicago | 5 | All Maps | STV","players":[{"user_id":314,"name":"the gaming gamer","steam_id":76561198347375071,"connected_time":1176000000000,"state":"active","ping":70},{"user_id":337,"name":"Skeleop","steam_id":76561198981106464,"connected_time":4000000000,"state":"spawning","ping":99},{"user_id":323,"name":"Sad Sapling","steam_id":76561198075612150,"connected_time":1058000000000,"state":"active","ping":102},{"user_id":316,"name":"Always Here for You","steam_id":76561198219252313,"connected_time":1167000000000,"state":"active","ping":63},{"user_id":324,"name":"Hater","steam_id":76561198124685704,"connected_time":888000000000,"state":"active","ping":75},{"user_id":309,"name":"th√ògamus","steam_id":76561198043610132,"connected_time":1501000000000,"state":"active","ping":75},{"user_id":253,"name":"peace dog","steam_id":76561198267988522,"connected_time":5810000000000,"state":"active","ping":63},{"user_id":269,"name":"‚ô•Katia‚ô•","steam_id":76561198977212642,"connected_time":3948000000000,"state":"active","ping":77},{"user_id":332,"name":"RandomRainbow","steam_id":76561199107573588,"connected_time":440000000000,"state":"active","ping":50},{"user_id":318,"name":"STEVE","steam_id":76561198063475894,"connected_time":1148000000000,"state":"active","ping":67},{"user_id":319,"name":"chickenenthusiast427","steam_id":76561198909415646,"connected_time":1129000000000,"state":"active","ping":77},{"user_id":336,"name":"Just a Festive TimeButt","steam_id":76561198074261742,"connected_time":88000000000,"state":"active","ping":61},{"user_id":331,"name":"cotton candy neco","steam_id":76561198058998371,"connected_time":628000000000,"state":"active","ping":60},{"user_id":274,"name":"Mr. Noodle","steam_id":76561198037803087,"connected_time":3889000000000,"state":"active","ping":72},{"user_id":320,"name":"H0wlr","steam_id":76561198012332824,"connected_time":1094000000000,"state":"active","ping":52},{"user_id":310,"name":"Brastion","steam_id":76561198257707303,"connected_time":1394000000000,"state":"active","ping":77},{"user_id":334,"name":"Vodka Slut","steam_id":76561198079594847,"connected_time":399000000000,"state":"active","ping":62},{"user_id":335,"name":"Cayenne","steam_id":76561198004614086,"connected_time":285000000000,"state":"active","ping":76},{"user_id":312,"name":"mkl","steam_id":76561197986401685,"connected_time":1259000000000,"state":"active","ping":76},{"user_id":303,"name":"King","steam_id":76561198039763676,"connected_time":2001000000000,"state":"active","ping":61},{"user_id":282,"name":"@ ‰∫∫ @","steam_id":76561198043684960,"connected_time":3747000000000,"state":"active","ping":61},{"user_id":326,"name":"dunk","steam_id":76561198132476501,"connected_time":810000000000,"state":"active","ping":59},{"user_id":328,"name":"certified boy lover","steam_id":76561199122281764,"connected_time":796000000000,"state":"active","ping":72}]},{"server_id":37,"name":"Uncletopia | Chicago | 6 | All Maps","name_short":"chi-6","host":"chi-2.us.uncletopia.com","port":27025,"enabled":true,"region":"us-central","cc":"us","latitude":41.881832,"longitude":-87.62318,"reserved":0,"last_update":"0001-01-01T00:00:00Z","name_a2s":"Uncletopia | Chicago | 6 | All Maps","protocol":17,"map":"pl_badwater","folder":"tf","game":"Team Fortress","app_id":440,"player_count":0,"max_players":24,"Bots":0,"server_type":"Dedicated","server_os":"Linux","password":true,"vac":true,"version":"7961495","steam_id":85568392924866363,"keywords":["nocrits","nodmgspread","payload","uncletopia"],"game_id":440,"stv_port":27026,"stv_name":"Uncletopia | Chicago | 6 | All Maps | STV","players":null},{"server_id":38,"name":"Uncletopia | Chicago | 7 | Stopwatch","name_short":"chi-7","host":"chi-2.us.uncletopia.com","port":27035,"enabled":true,"region":"us-central","cc":"us","latitude":41.881832,"longitude":-87.62318,"reserved":0,"last_update":"0001-01-01T00:00:00Z","name_a2s":"Uncletopia | Chicago | 7 | Stopwatch","protocol":17,"map":"cp_snakewater_final1","folder":"tf","game":"Team Fortress","app_id":440,"player_count":0,"max_players":24,"Bots":0,"server_type":"Dedicated","server_os":"Linux","password":true,"vac":true,"version":"7961495","steam_id":85568392924866364,"keywords":["cp","nocrits","nodmgspread","uncletopia"],"game_id":440,"stv_port":27036,"stv_name":"Uncletopia | Chicago | 7 | Stopwatch | STV","players":null},{"server_id":39,"name":"Uncletopia | Chicago | 8 | Community","name_short":"chi-8","host":"chi-2.us.uncletopia.com","port":27045,"enabled":true,"region":"us-central","cc":"us","latitude":41.881832,"longitude":-87.62318,"reserved":0,"last_update":"0001-01-01T00:00:00Z","name_a2s":"Uncletopia | Chicago | 8 | Community","protocol":17,"map":"workshop/koth_slaughter_rc1.ugc1712845210","folder":"tf","game":"Team Fortress","app_id":440,"player_count":0,"max_players":24,"Bots":0,"server_type":"Dedicated","server_os":"Linux","password":true,"vac":true,"version":"7961495","steam_id":85568392924866365,"keywords":["cp","nocrits","nodmgspread","uncletopia"],"game_id":440,"stv_port":27046,"stv_name":"Uncletopia | Chicago | 8 | Community | STV","players":null},{"server_id":8,"name":"Uncletopia | Dallas | 1 | All Maps","name_short":"dal-1","host":"dal-1.us.uncletopia.com","port":27015,"enabled":true,"region":"us-central","cc":"us","latitude":32.779167,"longitude":-96.80889,"reserved":0,"last_update":"0001-01-01T00:00:00Z","name_a2s":"Uncletopia | Dallas | 1 | All Maps","protocol":17,"map":"cp_gorge","folder":"tf","game":"Team Fortress","app_id":440,"player_count":0,"max_players":24,"Bots":0,"server_type":"Dedicated","server_os":"Linux","password":true,"vac":true,"version":"7961495","steam_id":85568392924469986,"keywords":["cp","nocrits","nodmgspread","uncletopia"],"game_id":440,"stv_port":27016,"stv_name":"Uncletopia | Dallas | 1 | All Maps | STV","players":null},{"server_id":108,"name":"Uncletopia | Dallas | 2 | All Maps","name_short":"dal-2","host":"dal-1.us.uncletopia.com","port":27025,"enabled":true,"region":"us-central","cc":"us","latitude":32.779167,"longitude":-96.80889,"reserved":0,"last_update":"0001-01-01T00:00:00Z","name_a2s":"Uncletopia | Dallas | 2 | All Maps","protocol":17,"map":"cp_mountainlab","folder":"tf","game":"Team Fortress","app_id":440,"player_count":0,"max_players":24,"Bots":0,"server_type":"Dedicated","server_os":"Linux","password":true,"vac":true,"version":"7961495","steam_id":85568392924469988,"keywords":["cp","nocrits","nodmgspread","uncletopia"],"game_id":440,"stv_port":27026,"stv_name":"Uncletopia | Dallas | 2 | All Maps | STV","players":null},{"server_id":404,"name":"Uncletopia | Dallas | 3 | All Maps","name_short":"dal-3","host":"dal-1.us.uncletopia.com","port":27035,"enabled":true,"region":"us-central","cc":"us","latitude":32.779167,"longitude":-96.80889,"reserved":0,"last_update":"0001-01-01T00:00:00Z","name_a2s":"Uncletopia | Dallas | 3 | All Maps","protocol":17,"map":"cp_coldfront","folder":"tf","game":"Team Fortress","app_id":440,"player_count":0,"max_players":24,"Bots":0,"server_type":"Dedicated","server_os":"Linux","password":true,"vac":true,"version":"7961495","steam_id":85568392924515219,"keywords":["cp","nocrits","nodmgspread","uncletopia"],"game_id":440,"stv_port":27036,"stv_name":"Uncletopia | Dallas | 3 | All Maps | STV","players":null},{"server_id":405,"name":"Uncletopia | Dallas | 4 | Community","name_short":"dal-4","host":"dal-1.us.uncletopia.com","port":27045,"enabled":true,"region":"us-central","cc":"us","latitude":32.779167,"longitude":-96.80889,"reserved":0,"last_update":"0001-01-01T00:00:00Z","name_a2s":"Uncletopia | Dallas | 4 | Community","protocol":17,"map":"workshop/pl_emerge_rc2.ugc888027758","folder":"tf","game":"Team Fortress","app_id":440,"player_count":2,"max_players":24,"Bots":0,"server_type":"Dedicated","server_os":"Linux","password":true,"vac":true,"version":"7961495","steam_id":85568392924515220,"keywords":["nocrits","nodmgspread","payload","uncletopia"],"game_id":440,"stv_port":27046,"stv_name":"Uncletopia | Dallas | 4 | Community | STV","players":[{"user_id":13,"name":"whyrood","steam_id":76561198310551934,"connected_time":252000000000,"state":"active","ping":62},{"user_id":6,"name":"Traitor of Xbox","steam_id":76561198385075678,"connected_time":2582000000000,"state":"active","ping":58}]},{"server_id":5,"name":"Uncletopia | Frankfurt | 1 | All Maps","name_short":"frk-1","host":"frk-1.de.uncletopia.com","port":27015,"enabled":true,"region":"eu","cc":"de","latitude":50.110924,"longitude":8.682127,"reserved":0,"last_update":"0001-01-01T00:00:00Z","name_a2s":"Uncletopia | Frankfurt | 1 | All Maps","protocol":17,"map":"koth_viaduct","folder":"tf","game":"Team Fortress","app_id":440,"player_count":0,"max_players":24,"Bots":0,"server_type":"Dedicated","server_os":"Linux","password":true,"vac":true,"version":"7961495","steam_id":85568392924469989,"keywords":["cp","nocrits","nodmgspread","uncletopia"],"game_id":440,"stv_port":27016,"stv_name":"Uncletopia | Frankfurt | 1 | All Maps | STV","players":null},{"server_id":110,"name":"Uncletopia | Frankfurt | 2 | All Maps","name_short":"frk-2","host":"frk-1.de.uncletopia.com","port":27025,"enabled":true,"region":"eu","cc":"de","latitude":50.110924,"longitude":8.682127,"reserved":0,"last_update":"0001-01-01T00:00:00Z","name_a2s":"Uncletopia | Frankfurt | 2 | All Maps","protocol":17,"map":"pl_frontier_final","folder":"tf","game":"Team Fortress","app_id":440,"player_count":24,"max_players":24,"Bots":0,"server_type":"Dedicated","server_os":"Linux","password":true,"vac":true,"version":"7961495","steam_id":85568392924469990,"keywords":["nocrits","nodmgspread","payload","uncletopia"],"game_id":440,"stv_port":27026,"stv_name":"Uncletopia | Frankfurt | 2 | All Maps | STV","players":[{"user_id":315,"name":"SomethingDeveloper","steam_id":76561198369567080,"connected_time":6145000000000,"state":"active","ping":60},{"user_id":381,"name":"Benzo Fury","steam_id":76561198025259336,"connected_time":1441000000000,"state":"active","ping":59},{"user_id":366,"name":"[1VS23] BAKELITE","steam_id":76561198190816499,"connected_time":2149000000000,"state":"active","ping":67},{"user_id":387,"name":"gŒ±–≤—î Œ∑œÉ√´‚Ñì","steam_id":76561198067342352,"connected_time":1236000000000,"state":"active","ping":65},{"user_id":386,"name":"sex haver","steam_id":76561198798892497,"connected_time":1389000000000,"state":"active","ping":83},{"user_id":390,"name":"1couver","steam_id":76561198168553215,"connected_time":761000000000,"state":"active","ping":153},{"user_id":393,"name":"Gregor","steam_id":76561198047882679,"connected_time":624000000000,"state":"active","ping":60},{"user_id":389,"name":"C√∂ffee","steam_id":76561198115131952,"connected_time":1174000000000,"state":"active","ping":103},{"user_id":394,"name":"kinimon","steam_id":76561198178453270,"connected_time":614000000000,"state":"active","ping":66},{"user_id":382,"name":"‡∂ûbominasus 2137  #SaveTF2","steam_id":76561198030062981,"connected_time":1439000000000,"state":"active","ping":53},{"user_id":395,"name":"Finn.","steam_id":76561199041640689,"connected_time":575000000000,"state":"active","ping":94},{"user_id":397,"name":"Krabs","steam_id":76561198161679477,"connected_time":464000000000,"state":"active","ping":57},{"user_id":396,"name":"Solymr ibn Wali Barad","steam_id":76561198044008976,"connected_time":570000000000,"state":"active","ping":72},{"user_id":364,"name":"After8","steam_id":76561198090750865,"connected_time":2210000000000,"state":"active","ping":62},{"user_id":338,"name":"Gordon Birdman","steam_id":76561198013382324,"connected_time":3846000000000,"state":"active","ping":75},{"user_id":378,"name":"birchy","steam_id":76561198166697295,"connected_time":1470000000000,"state":"active","ping":56},{"user_id":370,"name":"G√º√ßl√ºAYraNsAƒû","steam_id":76561199184988396,"connected_time":2096000000000,"state":"active","ping":83},{"user_id":314,"name":"Nick","steam_id":76561198036109469,"connected_time":6294000000000,"state":"active","ping":76},{"user_id":360,"name":"rodeybodey","steam_id":76561198165351355,"connected_time":2416000000000,"state":"active","ping":81},{"user_id":376,"name":"Waifuhaver69","steam_id":76561198130062962,"connected_time":1552000000000,"state":"active","ping":45},{"user_id":340,"name":"Phinton","steam_id":76561198014690842,"connected_time":3804000000000,"state":"active","ping":164},{"user_id":379,"name":"mesŒª","steam_id":76561198324582918,"connected_time":1464000000000,"state":"active","ping":101},{"user_id":384,"name":"Angcam420","steam_id":76561198019429936,"connected_time":1432000000000,"state":"active","ping":62},{"user_id":385,"name":"Alantheus","steam_id":76561197977408490,"connected_time":1432000000000,"state":"active","ping":67}]},{"server_id":308,"name":"Uncletopia | Frankfurt | 3 | All Maps","name_short":"frk-3","host":"frk-1.de.uncletopia.com","port":27035,"enabled":true,"region":"eu","cc":"de","latitude":50.110924,"longitude":8.682127,"reserved":0,"last_update":"0001-01-01T00:00:00Z","name_a2s":"Uncletopia | Frankfurt | 3 | All Maps","protocol":17,"map":"pl_thundermountain","folder":"tf","game":"Team Fortress","app_id":440,"player_count":24,"max_players":24,"Bots":0,"server_type":"Dedicated","server_os":"Linux","password":true,"vac":true,"version":"7961495","steam_id":85568392924504274,"keywords":["nocrits","nodmgspread","payload","uncletopia"],"game_id":440,"stv_port":27036,"stv_name":"Uncletopia | Frankfurt | 3 | All Maps | STV","players":[{"user_id":89,"name":"Andy","steam_id":76561198046918834,"connected_time":1940000000000,"state":"active","ping":50},{"user_id":98,"name":"squog","steam_id":76561198399996680,"connected_time":1140000000000,"state":"active","ping":68},{"user_id":86,"name":"Rabbit","steam_id":76561199466718294,"connected_time":1992000000000,"state":"active","ping":62},{"user_id":17,"name":"simeswipe","steam_id":76561198188471097,"connected_time":5299000000000,"state":"active","ping":60},{"user_id":110,"name":"Nurse=Leave","steam_id":76561198103323356,"connected_time":860000000000,"state":"active","ping":44},{"user_id":113,"name":"Ebling Mis","steam_id":76561198977948250,"connected_time":807000000000,"state":"active","ping":61},{"user_id":79,"name":"someone_dumb","steam_id":76561199211315606,"connected_time":2147000000000,"state":"active","ping":86},{"user_id":115,"name":"Qwertuss","steam_id":76561198026305366,"connected_time":345000000000,"state":"active","ping":46},{"user_id":117,"name":"dum","steam_id":76561198053386482,"connected_time":300000000000,"state":"active","ping":147},{"user_id":106,"name":"monocle chicken","steam_id":76561199020106029,"connected_time":919000000000,"state":"active","ping":80},{"user_id":108,"name":"Reihenhausbewohner","steam_id":76561198049820307,"connected_time":876000000000,"state":"active","ping":46},{"user_id":118,"name":"I like apple","steam_id":76561198108115790,"connected_time":300000000000,"state":"active","ping":53},{"user_id":122,"name":"marrutkis","steam_id":76561199226525404,"connected_time":246000000000,"state":"active","ping":67},{"user_id":114,"name":"aless","steam_id":76561198941165698,"connected_time":768000000000,"state":"active","ping":49},{"user_id":111,"name":"–ö–ò–†–ü–ò–ß","steam_id":76561198983093287,"connected_time":849000000000,"state":"active","ping":80},{"user_id":116,"name":"mud","steam_id":76561198141497461,"connected_time":314000000000,"state":"active","ping":57},{"user_id":123,"name":"silicon based life form","steam_id":76561199127121346,"connected_time":241000000000,"state":"active","ping":60},{"user_id":94,"name":"kelm","steam_id":76561198027166144,"connected_time":1577000000000,"state":"active","ping":84},{"user_id":83,"name":"Mr torque","steam_id":76561198148448716,"connected_time":2103000000000,"state":"active","ping":59},{"user_id":112,"name":"Amandus","steam_id":76561198036281079,"connected_time":835000000000,"state":"active","ping":61},{"user_id":39,"name":"Gay Truck","steam_id":76561198123648967,"connected_time":4281000000000,"state":"active","ping":77},{"user_id":47,"name":"Pikdy","steam_id":76561199492395972,"connected_time":4081000000000,"state":"active","ping":51},{"user_id":84,"name":"Berghopper","steam_id":76561198062599535,"connected_time":2096000000000,"state":"active","ping":72},{"user_id":104,"name":"Duktigafred","steam_id":76561199211222396,"connected_time":1020000000000,"state":"active","ping":58}]},{"server_id":309,"name":"Uncletopia | Frankfurt | 4 | All Maps","name_short":"frk-4","host":"frk-1.de.uncletopia.com","port":27045,"enabled":true,"region":"eu","cc":"de","latitude":50.110924,"longitude":8.682127,"reserved":0,"last_update":"0001-01-01T00:00:00Z","name_a2s":"Uncletopia | Frankfurt | 4 | All Maps","protocol":17,"map":"pl_barnblitz","folder":"tf","game":"Team Fortress","app_id":440,"player_count":24,"max_players":24,"Bots":0,"server_type":"Dedicated","server_os":"Linux","password":true,"vac":true,"version":"7961495","steam_id":85568392924504275,"keywords":["nocrits","nodmgspread","payload","uncletopia"],"game_id":440,"stv_port":27046,"stv_name":"Uncletopia | Frankfurt | 4 | All Maps | STV","players":[{"user_id":166,"name":"duckington duck","steam_id":76561199157117063,"connected_time":1977000000000,"state":"active","ping":50},{"user_id":188,"name":"joggfuzz","steam_id":76561198271820346,"connected_time":549000000000,"state":"active","ping":75},{"user_id":190,"name":"Kiogeki","steam_id":76561197996707843,"connected_time":519000000000,"state":"active","ping":62},{"user_id":191,"name":"Michael","steam_id":76561198003146906,"connected_time":507000000000,"state":"active","ping":55},{"user_id":204,"name":"Neeeiks","steam_id":76561198009156801,"connected_time":49000000000,"state":"active","ping":274},{"user_id":192,"name":"DOKTOR MEOW","steam_id":76561198226378616,"connected_time":491000000000,"state":"active","ping":65},{"user_id":180,"name":"Khaganfriend","steam_id":76561198998684199,"connected_time":1446000000000,"state":"active","ping":120},{"user_id":151,"name":"Domcxz","steam_id":76561198291703984,"connected_time":2861000000000,"state":"active","ping":60},{"user_id":146,"name":"Eggcracker","steam_id":76561199274850641,"connected_time":3212000000000,"state":"active","ping":68},{"user_id":193,"name":"Confused Pupper","steam_id":76561198893101955,"connected_time":487000000000,"state":"active","ping":70},{"user_id":203,"name":"Granata","steam_id":76561198378115240,"connected_time":60000000000,"state":"active","ping":73},{"user_id":132,"name":"Homosapien","steam_id":76561197972035953,"connected_time":4014000000000,"state":"active","ping":45},{"user_id":174,"name":"Waazard","steam_id":76561198383923159,"connected_time":1595000000000,"state":"active","ping":75},{"user_id":198,"name":"risc (back from the grave)","steam_id":76561198061208814,"connected_time":262000000000,"state":"active","ping":52},{"user_id":200,"name":"Theonetrueway","steam_id":76561198147696174,"connected_time":237000000000,"state":"active","ping":174},{"user_id":100,"name":"Carry Krypl","steam_id":76561198136938121,"connected_time":5808000000000,"state":"active","ping":46},{"user_id":195,"name":"Nejt","steam_id":76561199264515158,"connected_time":449000000000,"state":"active","ping":48},{"user_id":185,"name":"Vlad","steam_id":76561198048605526,"connected_time":758000000000,"state":"active","ping":65},{"user_id":167,"name":"_D4VID","steam_id":76561198163317060,"connected_time":1818000000000,"state":"active","ping":44},{"user_id":201,"name":"Danger_665","steam_id":76561199075064273,"connected_time":73000000000,"state":"spawning","ping":78},{"user_id":160,"name":"riaron","steam_id":76561198187637390,"connected_time":2277000000000,"state":"active","ping":71},{"user_id":199,"name":"cecko","steam_id":76561198798721254,"connected_time":257000000000,"state":"active","ping":64},{"user_id":196,"name":"[NL]Teunemans","steam_id":76561199064349967,"connected_time":442000000000,"state":"active","ping":82},{"user_id":197,"name":"Chen","steam_id":76561198440363619,"connected_time":425000000000,"state":"active","ping":56}]},{"server_id":310,"name":"Uncletopia | Frankfurt | 5 | All Maps","name_short":"frk-5","host":"frk-1.de.uncletopia.com","port":27055,"enabled":true,"region":"eu","cc":"de","latitude":50.110924,"longitude":8.682127,"reserved":0,"last_update":"0001-01-01T00:00:00Z","name_a2s":"Uncletopia | Frankfurt | 5 | All Maps","protocol":17,"map":"cp_mountainlab","folder":"tf","game":"Team Fortress","app_id":440,"player_count":23,"max_players":24,"Bots":0,"server_type":"Dedicated","server_os":"Linux","password":true,"vac":true,"version":"7961495","steam_id":85568392924504277,"keywords":["cp","nocrits","nodmgspread","uncletopia"],"game_id":440,"stv_port":27056,"stv_name":"Uncletopia | Frankfurt | 5 | All Maps | STV","players":[{"user_id":494,"name":"Sigma Gregory","steam_id":76561199040010283,"connected_time":2262000000000,"state":"active","ping":74},{"user_id":519,"name":"cremene \u0026 amnar","steam_id":76561198112130193,"connected_time":705000000000,"state":"active","ping":76},{"user_id":510,"name":"cockroach","steam_id":76561198841841656,"connected_time":1250000000000,"state":"active","ping":56},{"user_id":509,"name":"FoOzTV","steam_id":76561197998636728,"connected_time":1570000000000,"state":"active","ping":91},{"user_id":528,"name":"Dolcelatte","steam_id":76561198038501770,"connected_time":83000000000,"state":"active","ping":46},{"user_id":526,"name":"compact disc","steam_id":76561198154677956,"connected_time":235000000000,"state":"active","ping":59},{"user_id":499,"name":"Milca_11","steam_id":76561198848650365,"connected_time":2086000000000,"state":"active","ping":97},{"user_id":475,"name":"ÂÜ∑Âáç„Éï„É´„Éº„ÉÑ","steam_id":76561199149307190,"connected_time":3418000000000,"state":"active","ping":74},{"user_id":521,"name":"üóªüé¥Hadrian Maloneüé¥üóª","steam_id":76561198036151103,"connected_time":676000000000,"state":"active","ping":49},{"user_id":511,"name":"BigGreenButton","steam_id":76561198063604832,"connected_time":1215000000000,"state":"active","ping":56},{"user_id":399,"name":"OMG IS THAT SPY FROM TF2?","steam_id":76561199291684647,"connected_time":8967000000000,"state":"active","ping":59},{"user_id":501,"name":"MuggyCross","steam_id":76561198189573899,"connected_time":1957000000000,"state":"active","ping":74},{"user_id":477,"name":"Felwo3","steam_id":76561199217352978,"connected_time":3387000000000,"state":"active","ping":82},{"user_id":527,"name":"Lucky B.üèÜ","steam_id":76561198077571162,"connected_time":127000000000,"state":"active","ping":46},{"user_id":503,"name":"TheJubo","steam_id":76561198050223306,"connected_time":1912000000000,"state":"active","ping":57},{"user_id":478,"name":"Thundergodstonelate","steam_id":76561198040893623,"connected_time":3370000000000,"state":"active","ping":85},{"user_id":471,"name":"„ÉÑFreddY„ÉÑ","steam_id":76561198018780925,"connected_time":3639000000000,"state":"active","ping":55},{"user_id":516,"name":"Mr. Faptiful","steam_id":76561198085833195,"connected_time":1021000000000,"state":"active","ping":45},{"user_id":512,"name":"Kriofty","steam_id":76561198811696536,"connected_time":1191000000000,"state":"active","ping":77},{"user_id":529,"name":"marrella","steam_id":76561198262910410,"connected_time":13000000000,"state":"spawning","ping":78},{"user_id":524,"name":"warforge3","steam_id":76561199276024310,"connected_time":539000000000,"state":"active","ping":87},{"user_id":525,"name":"Kekeke","steam_id":76561198063672270,"connected_time":526000000000,"state":"active","ping":78},{"user_id":514,"name":"Twik","steam_id":76561198023835056,"connected_time":1071000000000,"state":"active","ping":48}]},{"server_id":311,"name":"Uncletopia | Frankfurt | 6 | All Maps","name_short":"frk-6","host":"frk-1.de.uncletopia.com","port":27065,"enabled":true,"region":"eu","cc":"de","latitude":50.110924,"longitude":8.682127,"reserved":0,"last_update":"0001-01-01T00:00:00Z","name_a2s":"Uncletopia | Frankfurt | 6 | All Maps","protocol":17,"map":"cp_dustbowl","folder":"tf","game":"Team Fortress","app_id":440,"player_count":24,"max_players":24,"Bots":0,"server_type":"Dedicated","server_os":"Linux","password":true,"vac":true,"version":"7961495","steam_id":85568392924504278,"keywords":["cp","nocrits","nodmgspread","uncletopia"],"game_id":440,"stv_port":27066,"stv_name":"Uncletopia | Frankfurt | 6 | All Maps | STV","players":[{"user_id":145,"name":"Piquesque","steam_id":76561198286763046,"connected_time":4899000000000,"state":"active","ping":84},{"user_id":203,"name":"JamesPepega","steam_id":76561198019156154,"connected_time":974000000000,"state":"active","ping":60},{"user_id":209,"name":"Monky","steam_id":76561198101083206,"connected_time":792000000000,"state":"active","ping":74},{"user_id":215,"name":"Zerfesh","steam_id":76561198117534358,"connected_time":568000000000,"state":"active","ping":83},{"user_id":196,"name":"papa Sloath","steam_id":76561198046382160,"connected_time":1686000000000,"state":"active","ping":63},{"user_id":214,"name":"Alpharen_22","steam_id":76561198803349451,"connected_time":637000000000,"state":"active","ping":87},{"user_id":157,"name":"Errordood","steam_id":76561198263263692,"connected_time":3962000000000,"state":"active","ping":66},{"user_id":208,"name":"ok","steam_id":76561198320042443,"connected_time":807000000000,"state":"active","ping":98},{"user_id":180,"name":"soder.","steam_id":76561199294336405,"connected_time":3542000000000,"state":"active","ping":47},{"user_id":202,"name":"romov","steam_id":76561199182288871,"connected_time":1126000000000,"state":"active","ping":81},{"user_id":162,"name":"The real 3 inch penis girl","steam_id":76561198267838767,"connected_time":3786000000000,"state":"active","ping":45},{"user_id":194,"name":"FUKAYOU","steam_id":76561198380484033,"connected_time":1965000000000,"state":"active","ping":53},{"user_id":186,"name":"Frazzles","steam_id":76561199228009586,"connected_time":2660000000000,"state":"active","ping":61},{"user_id":217,"name":"Supercoxylac","steam_id":76561198376300138,"connected_time":539000000000,"state":"active","ping":52},{"user_id":206,"name":"luma","steam_id":76561198081649669,"connected_time":865000000000,"state":"active","ping":60},{"user_id":210,"name":"TheNotoriousAdri","steam_id":76561198329981998,"connected_time":792000000000,"state":"active","ping":75},{"user_id":221,"name":"monky ‚ôø","steam_id":76561198064440542,"connected_time":10000000000,"state":"spawning","ping":44},{"user_id":169,"name":"MatarArg","steam_id":76561198280246498,"connected_time":3742000000000,"state":"active","ping":105},{"user_id":220,"name":"Oldworldjazz","steam_id":76561198184632645,"connected_time":166000000000,"state":"active","ping":92},{"user_id":190,"name":"TotallyRealRunarTv√•lfager‚Ñ¢","steam_id":76561198018228013,"connected_time":2552000000000,"state":"active","ping":62},{"user_id":178,"name":"the grongle","steam_id":76561198989398023,"connected_time":3599000000000,"state":"active","ping":95},{"user_id":173,"name":"Alyx","steam_id":76561198064654326,"connected_time":3644000000000,"state":"active","ping":53},{"user_id":213,"name":"Zulik92","steam_id":76561198152442373,"connected_time":760000000000,"state":"active","ping":45},{"user_id":205,"name":"I'm past the point of insanity","steam_id":76561198800954471,"connected_time":934000000000,"state":"active","ping":75}]},{"server_id":23,"name":"Uncletopia | Frankfurt | 7 | Stopwatch","name_short":"frk-7","host":"frk-1.de.uncletopia.com","port":27075,"enabled":true,"region":"eu","cc":"de","latitude":50.110924,"longitude":8.682127,"reserved":0,"last_update":"0001-01-01T00:00:00Z","name_a2s":"Uncletopia | Frankfurt | 7 | Stopwatch","protocol":17,"map":"cp_metalworks","folder":"tf","game":"Team Fortress","app_id":440,"player_count":0,"max_players":24,"Bots":0,"server_type":"Dedicated","server_os":"Linux","password":true,"vac":true,"version":"7961495","steam_id":85568392924742827,"keywords":["cp","nocrits","nodmgspread","uncletopia"],"game_id":440,"stv_port":27076,"stv_name":"Uncletopia | Frankfurt | 7 | Stopwatch | STV","players":null},{"server_id":24,"name":"Uncletopia | Frankfurt | 8 | Community","name_short":"frk-8","host":"frk-1.de.uncletopia.com","port":27085,"enabled":true,"region":"eu","cc":"de","latitude":50.110924,"longitude":8.682127,"reserved":0,"last_update":"0001-01-01T00:00:00Z","name_a2s":"Uncletopia | Frankfurt | 8 | Community","protocol":17,"map":"workshop/cp_reckoner_rc6.ugc674719999","folder":"tf","game":"Team Fortress","app_id":440,"player_count":0,"max_players":24,"Bots":0,"server_type":"Dedicated","server_os":"Linux","password":true,"vac":true,"version":"7961495","steam_id":85568392924742828,"keywords":["cp","nocrits","nodmgspread","uncletopia"],"game_id":440,"stv_port":27086,"stv_name":"Uncletopia | Frankfurt | 8 | Community | STV","players":null},{"server_id":202,"name":"Uncletopia | Hong Kong | 1 | All Maps","name_short":"hgk-1","host":"hgk-1.hk.uncletopia.com","port":27015,"enabled":true,"region":"asia","cc":"hk","latitude":22.302711,"longitude":114.177216,"reserved":0,"last_update":"0001-01-01T00:00:00Z","name_a2s":"Uncletopia | Hong Kong | 1 | All Maps","protocol":17,"map":"cp_sunshine","folder":"tf","game":"Team Fortress","app_id":440,"player_count":0,"max_players":24,"Bots":0,"server_type":"Dedicated","server_os":"Linux","password":true,"vac":true,"version":"7961495","steam_id":85568392924494504,"keywords":["cp","nocrits","nodmgspread","uncletopia"],"game_id":440,"stv_port":27016,"stv_name":"Uncletopia | Hong Kong | 1 | All Maps | STV","players":null},{"server_id":1,"name":"Uncletopia | Los Angeles | 1 | All Maps","name_short":"lax-1","host":"lax-1.us.uncletopia.com","port":27015,"enabled":true,"region":"us-west","cc":"us","latitude":33.94279,"longitude":-118.41004,"reserved":0,"last_update":"0001-01-01T00:00:00Z","name_a2s":"Uncletopia | Los Angeles | 1 | All Maps","protocol":17,"map":"pl_upward","folder":"tf","game":"Team Fortress","app_id":440,"player_count":0,"max_players":24,"Bots":0,"server_type":"Dedicated","server_os":"Linux","password":true,"vac":true,"version":"7961495","steam_id":85568392924469991,"keywords":["nocrits","nodmgspread","payload","uncletopia"],"game_id":440,"stv_port":27016,"stv_name":"Uncletopia | Los Angeles | 1 | All Maps | STV","players":null},{"server_id":112,"name":"Uncletopia | Los Angeles | 2 | All Maps","name_short":"lax-2","host":"lax-1.us.uncletopia.com","port":27025,"enabled":true,"region":"us-west","cc":"us","latitude":33.94279,"longitude":-118.41004,"reserved":0,"last_update":"0001-01-01T00:00:00Z","name_a2s":"Uncletopia | Los Angeles | 2 | All Maps","protocol":17,"map":"koth_cascade","folder":"tf","game":"Team Fortress","app_id":440,"player_count":0,"max_players":24,"Bots":0,"server_type":"Dedicated","server_os":"Linux","password":true,"vac":true,"version":"7961495","steam_id":85568392924469992,"keywords":["cp","nocrits","nodmgspread","uncletopia"],"game_id":440,"stv_port":27026,"stv_name":"Uncletopia | Los Angeles | 2 | All Maps | STV","players":null},{"server_id":324,"name":"Uncletopia | Los Angeles | 3 | All Maps","name_short":"lax-3","host":"lax-1.us.uncletopia.com","port":27035,"enabled":true,"region":"us-west","cc":"us","latitude":33.94279,"longitude":-118.41004,"reserved":0,"last_update":"0001-01-01T00:00:00Z","name_a2s":"Uncletopia | Los Angeles | 3 | All Maps","protocol":17,"map":"pl_hoodoo_final","folder":"tf","game":"Team Fortress","app_id":440,"player_count":0,"max_players":24,"Bots":0,"server_type":"Dedicated","server_os":"Linux","password":true,"vac":true,"version":"7961495","steam_id":85568392924510198,"keywords":["nocrits","nodmgspread","payload","uncletopia"],"game_id":440,"stv_port":27036,"stv_name":"Uncletopia | Los Angeles | 3 | All Maps | STV","players":null},{"server_id":25,"name":"Uncletopia | Los Angeles | 4 | Stopwatch","name_short":"lax-4","host":"lax-1.us.uncletopia.com","port":27045,"enabled":true,"region":"us-west","cc":"us","latitude":33.94279,"longitude":-118.41004,"reserved":0,"last_update":"0001-01-01T00:00:00Z","name_a2s":"Uncletopia | Los Angeles | 4 | Stopwatch","protocol":17,"map":"pl_upward","folder":"tf","game":"Team Fortress","app_id":440,"player_count":0,"max_players":24,"Bots":0,"server_type":"Dedicated","server_os":"Linux","password":true,"vac":true,"version":"7961495","steam_id":85568392924510199,"keywords":["nocrits","nodmgspread","payload","uncletopia"],"game_id":440,"stv_port":27046,"stv_name":"Uncletopia | Los Angeles | 4 | Stopwatch | STV","players":null},{"server_id":11,"name":"Uncletopia | London | 1 | All Maps","name_short":"lon-1","host":"lon-1.uk.uncletopia.com","port":27015,"enabled":true,"region":"eu","cc":"gb","latitude":51.509865,"longitude":-0.118092,"reserved":0,"last_update":"0001-01-01T00:00:00Z","name_a2s":"Uncletopia | London | 1 | All Maps","protocol":17,"map":"cp_steel","folder":"tf","game":"Team Fortress","app_id":440,"player_count":24,"max_players":24,"Bots":0,"server_type":"Dedicated","server_os":"Linux","password":true,"vac":true,"version":"7961495","steam_id":85568392924367362,"keywords":["cp","nocrits","nodmgspread","uncletopia"],"game_id":440,"stv_port":27016,"stv_name":"Uncletopia | London | 1 | All Maps | STV","players":[{"user_id":485,"name":"CiVillain","steam_id":76561198059617732,"connected_time":6430000000000,"state":"active","ping":60},{"user_id":543,"name":"NALA","steam_id":76561198039806469,"connected_time":2197000000000,"state":"active","ping":76},{"user_id":555,"name":"Aftersun","steam_id":76561198148359093,"connected_time":1230000000000,"state":"active","ping":33},{"user_id":564,"name":"Joe","steam_id":76561198061717026,"connected_time":86000000000,"state":"active","ping":46},{"user_id":553,"name":"Viewie","steam_id":76561198280108853,"connected_time":1246000000000,"state":"active","ping":126},{"user_id":537,"name":"Dr. Mike","steam_id":76561197991205793,"connected_time":3172000000000,"state":"active","ping":80},{"user_id":561,"name":"xD","steam_id":76561198210179771,"connected_time":592000000000,"state":"active","ping":69},{"user_id":532,"name":"yup that baby waahh waahh","steam_id":76561198043601838,"connected_time":3414000000000,"state":"active","ping":60},{"user_id":550,"name":"waahh im baby gugu gaga im cry","steam_id":76561198190583242,"connected_time":1425000000000,"state":"active","ping":90},{"user_id":515,"name":"Kahvi","steam_id":76561198723244199,"connected_time":4457000000000,"state":"active","ping":76},{"user_id":549,"name":"Ephix","steam_id":76561197977164055,"connected_time":1669000000000,"state":"active","ping":52},{"user_id":567,"name":"Ozzie","steam_id":76561197992915315,"connected_time":31000000000,"state":"active","ping":60},{"user_id":568,"name":"Pablo","steam_id":76561198087800030,"connected_time":30000000000,"state":"active","ping":30},{"user_id":557,"name":"Purps","steam_id":76561198053886680,"connected_time":1105000000000,"state":"active","ping":42},{"user_id":551,"name":"Archer","steam_id":76561197994239444,"connected_time":1300000000000,"state":"active","ping":106},{"user_id":558,"name":"YMIR","steam_id":76561198968979836,"connected_time":997000000000,"state":"active","ping":76},{"user_id":569,"name":"Alegz","steam_id":76561198287810139,"connected_time":20000000000,"state":"active","ping":90},{"user_id":554,"name":"Pineyüíô","steam_id":76561198050910939,"connected_time":1244000000000,"state":"active","ping":48},{"user_id":517,"name":"Slifer the Furry UwU","steam_id":76561198062255803,"connected_time":4414000000000,"state":"active","ping":80},{"user_id":542,"name":"SKY_","steam_id":76561198080980508,"connected_time":2240000000000,"state":"active","ping":60},{"user_id":524,"name":"KittyKate ‚ù§","steam_id":76561198116340817,"connected_time":4154000000000,"state":"active","ping":61},{"user_id":556,"name":"GunGuy","steam_id":76561198124510978,"connected_time":1226000000000,"state":"active","ping":32},{"user_id":560,"name":"Croy","steam_id":76561197972552579,"connected_time":770000000000,"state":"active","ping":45},{"user_id":566,"name":"Áã¨„Çä„ÄÅ‰∏Ä‰∫∫„Å™„ÅÑ","steam_id":76561199077022985,"connected_time":60000000000,"state":"active","ping":90}]},{"server_id":114,"name":"Uncletopia | London | 2 | All Maps","name_short":"lon-2","host":"lon-1.uk.uncletopia.com","port":27025,"enabled":true,"region":"eu","cc":"gb","latitude":51.509865,"longitude":-0.118092,"reserved":0,"last_update":"0001-01-01T00:00:00Z","name_a2s":"Uncletopia | London | 2 | All Maps","protocol":17,"map":"cp_mountainlab","folder":"tf","game":"Team Fortress","app_id":440,"player_count":24,"max_players":24,"Bots":0,"server_type":"Dedicated","server_os":"Linux","password":true,"vac":true,"version":"7961495","steam_id":85568392924470941,"keywords":["cp","nocrits","nodmgspread","uncletopia"],"game_id":440,"stv_port":27026,"stv_name":"Uncletopia | London | 2 | All Maps | STV","players":[{"user_id":273,"name":"Mousetail","steam_id":76561198269524918,"connected_time":191000000000,"state":"active","ping":43},{"user_id":239,"name":"john fortress","steam_id":76561198013237629,"connected_time":2746000000000,"state":"active","ping":108},{"user_id":274,"name":"Marty Pants","steam_id":76561198004449634,"connected_time":188000000000,"state":"active","ping":54},{"user_id":201,"name":"Ixsus\u003c3","steam_id":76561198094756869,"connected_time":6098000000000,"state":"active","ping":60},{"user_id":281,"name":"gamblin goblin","steam_id":76561198210482280,"connected_time":139000000000,"state":"active","ping":81},{"user_id":266,"name":"Picolas Cage","steam_id":76561199013233409,"connected_time":1443000000000,"state":"active","ping":52},{"user_id":283,"name":"fernandobmwm355555","steam_id":76561198086609447,"connected_time":71000000000,"state":"active","ping":61},{"user_id":228,"name":"cropping","steam_id":76561198026586456,"connected_time":3809000000000,"state":"active","ping":70},{"user_id":245,"name":"Eric Catman","steam_id":76561198802117294,"connected_time":2550000000000,"state":"active","ping":45},{"user_id":264,"name":"TheCruptedFarder","steam_id":76561198836187192,"connected_time":1787000000000,"state":"active","ping":43},{"user_id":277,"name":"Exe_Red","steam_id":76561198154952759,"connected_time":173000000000,"state":"active","ping":89},{"user_id":252,"name":"Lubrsi","steam_id":76561198040208195,"connected_time":2090000000000,"state":"active","ping":38},{"user_id":250,"name":"misterwondo","steam_id":76561198187934110,"connected_time":2137000000000,"state":"active","ping":65},{"user_id":269,"name":"cuddles","steam_id":76561198805181599,"connected_time":1312000000000,"state":"active","ping":48},{"user_id":270,"name":"Dzieciol","steam_id":76561198160237556,"connected_time":1142000000000,"state":"active","ping":75},{"user_id":224,"name":"LOBZIK","steam_id":76561198114830120,"connected_time":4493000000000,"state":"active","ping":81},{"user_id":227,"name":"Saken","steam_id":76561198049075295,"connected_time":4157000000000,"state":"active","ping":59},{"user_id":278,"name":"Shaunhan","steam_id":76561198386596938,"connected_time":156000000000,"state":"active","ping":120},{"user_id":272,"name":"E-Boy | Yetti","steam_id":76561198049582917,"connected_time":418000000000,"state":"active","ping":60},{"user_id":234,"name":"glue gunner","steam_id":76561198330025106,"connected_time":3007000000000,"state":"active","ping":37},{"user_id":279,"name":"Boki","steam_id":76561198044553351,"connected_time":155000000000,"state":"active","ping":75},{"user_id":249,"name":"AI | Davidoscki","steam_id":76561198129166046,"connected_time":2494000000000,"state":"active","ping":81},{"user_id":282,"name":"Diggity","steam_id":76561198297157085,"connected_time":137000000000,"state":"active","ping":42},{"user_id":232,"name":"lark","steam_id":76561198091724522,"connected_time":3022000000000,"state":"active","ping":50}]},{"server_id":320,"name":"Uncletopia | London | 3 | All Maps","name_short":"lon-3","host":"lon-1.uk.uncletopia.com","port":27035,"enabled":true,"region":"eu","cc":"gb","latitude":51.509865,"longitude":-0.118092,"reserved":0,"last_update":"0001-01-01T00:00:00Z","name_a2s":"Uncletopia | London | 3 | All Maps","protocol":17,"map":"koth_highpass","folder":"tf","game":"Team Fortress","app_id":440,"player_count":24,"max_players":24,"Bots":0,"server_type":"Dedicated","server_os":"Linux","password":true,"vac":true,"version":"7961495","steam_id":85568392924510192,"keywords":["cp","nocrits","nodmgspread","uncletopia"],"game_id":440,"stv_port":27036,"stv_name":"Uncletopia | London | 3 | All Maps | STV","players":[{"user_id":19,"name":"Chopperson_","steam_id":76561198873728497,"connected_time":3317000000000,"state":"active","ping":165},{"user_id":59,"name":"Hamm","steam_id":76561198844218403,"connected_time":1280000000000,"state":"active","ping":55},{"user_id":66,"name":"Plep","steam_id":76561198840259819,"connected_time":1049000000000,"state":"active","ping":58},{"user_id":55,"name":"Neko","steam_id":76561198075690128,"connected_time":1564000000000,"state":"active","ping":53},{"user_id":72,"name":"Rifle Mole","steam_id":76561198018571286,"connected_time":351000000000,"state":"active","ping":51},{"user_id":54,"name":"willus212","steam_id":76561199182615246,"connected_time":1610000000000,"state":"active","ping":71},{"user_id":77,"name":"bowchika wowa #SlavaUkraine","steam_id":76561198159564550,"connected_time":233000000000,"state":"active","ping":64},{"user_id":78,"name":"skorsch detf2pickup","steam_id":76561198044391172,"connected_time":167000000000,"state":"active","ping":73},{"user_id":79,"name":"Levis Saltator","steam_id":76561198035945247,"connected_time":128000000000,"state":"active","ping":54},{"user_id":31,"name":"BatemanPatrick","steam_id":76561198393691611,"connected_time":2539000000000,"state":"active","ping":46},{"user_id":48,"name":"Amoru","steam_id":76561198798161817,"connected_time":2073000000000,"state":"active","ping":89},{"user_id":82,"name":"YouR dad","steam_id":76561198044013623,"connected_time":111000000000,"state":"active","ping":116},{"user_id":56,"name":"Syd","steam_id":76561198020515027,"connected_time":1564000000000,"state":"active","ping":103},{"user_id":36,"name":"SalDro","steam_id":76561199218262945,"connected_time":2398000000000,"state":"active","ping":89},{"user_id":37,"name":"John Doe","steam_id":76561198369597903,"connected_time":2382000000000,"state":"active","ping":87},{"user_id":81,"name":"Vince","steam_id":76561199103000131,"connected_time":119000000000,"state":"active","ping":45},{"user_id":73,"name":"UnusedEngine","steam_id":76561199281868902,"connected_time":318000000000,"state":"active","ping":48},{"user_id":40,"name":"orange","steam_id":76561198153181940,"connected_time":2342000000000,"state":"active","ping":54},{"user_id":83,"name":"Punk","steam_id":76561198268369013,"connected_time":95000000000,"state":"active","ping":131},{"user_id":42,"name":"emeradik","steam_id":76561199195558370,"connected_time":2341000000000,"state":"active","ping":127},{"user_id":70,"name":"—Ç—É–∫–∫—É –∏—Ä–º–∞","steam_id":76561197998715016,"connected_time":660000000000,"state":"active","ping":60},{"user_id":44,"name":"FanFish","steam_id":76561199389558024,"connected_time":2292000000000,"state":"active","ping":65},{"user_id":71,"name":"sethlington14","steam_id":76561199438357690,"connected_time":628000000000,"state":"active","ping":48},{"user_id":84,"name":"System","steam_id":76561199442503973,"connected_time":65000000000,"state":"active","ping":60}]},{"server_id":321,"name":"Uncletopia | London | 4 | All Maps","name_short":"lon-4","host":"lon-1.uk.uncletopia.com","port":27045,"enabled":true,"region":"eu","cc":"gb","latitude":51.509865,"longitude":-0.118092,"reserved":0,"last_update":"0001-01-01T00:00:00Z","name_a2s":"Uncletopia | London | 4 | All Maps","protocol":17,"map":"pl_frontier_final","folder":"tf","game":"Team Fortress","app_id":440,"player_count":15,"max_players":24,"Bots":0,"server_type":"Dedicated","server_os":"Linux","password":true,"vac":true,"version":"7961495","steam_id":85568392924510193,"keywords":["nocrits","nodmgspread","payload","uncletopia"],"game_id":440,"stv_port":27046,"stv_name":"Uncletopia | London | 4 | All Maps | STV","players":[{"user_id":125,"name":"soney","steam_id":76561198121177512,"connected_time":2337000000000,"state":"active","ping":52},{"user_id":171,"name":"Jon","steam_id":76561199380849468,"connected_time":15000000000,"state":"active","ping":60},{"user_id":163,"name":"yipieeee :DDD","steam_id":76561198076219289,"connected_time":1192000000000,"state":"active","ping":46},{"user_id":161,"name":"yumyum","steam_id":76561198049405872,"connected_time":1292000000000,"state":"active","ping":59},{"user_id":169,"name":"HP Photosmart 5520 AiO Printer","steam_id":76561198010662796,"connected_time":47000000000,"state":"active","ping":45},{"user_id":92,"name":"jaipwgjkmasentpedoapinwhipkaw","steam_id":76561198046873337,"connected_time":3414000000000,"state":"active","ping":39},{"user_id":150,"name":"Avocado1262","steam_id":76561199077413016,"connected_time":1730000000000,"state":"active","ping":77},{"user_id":119,"name":"Bobirulez","steam_id":76561198009125458,"connected_time":2542000000000,"state":"active","ping":64},{"user_id":107,"name":"Personano","steam_id":76561198994355577,"connected_time":2835000000000,"state":"active","ping":44},{"user_id":151,"name":"Dan Dan the Furious","steam_id":76561198091032527,"connected_time":1720000000000,"state":"active","ping":30},{"user_id":164,"name":"Tomato","steam_id":76561199124472513,"connected_time":919000000000,"state":"active","ping":118},{"user_id":162,"name":"finbar","steam_id":76561198056812396,"connected_time":1262000000000,"state":"active","ping":123},{"user_id":136,"name":"bitkomet","steam_id":76561198058232147,"connected_time":2052000000000,"state":"active","ping":75},{"user_id":105,"name":"Sonnakai","steam_id":76561198051688749,"connected_time":2933000000000,"state":"active","ping":32},{"user_id":110,"name":"shlongy bongy","steam_id":76561198015876799,"connected_time":2668000000000,"state":"active","ping":62}]},{"server_id":21,"name":"Uncletopia | London | 5 | All Maps","name_short":"lon-5","host":"lon-1.uk.uncletopia.com","port":27055,"enabled":true,"region":"eu","cc":"gb","latitude":51.509865,"longitude":-0.118092,"reserved":0,"last_update":"0001-01-01T00:00:00Z","name_a2s":"Uncletopia | London | 5 | All Maps","protocol":17,"map":"pl_badwater","folder":"tf","game":"Team Fortress","app_id":440,"player_count":24,"max_players":24,"Bots":0,"server_type":"Dedicated","server_os":"Linux","password":true,"vac":true,"version":"7961495","steam_id":85568392924742829,"keywords":["nocrits","nodmgspread","payload","uncletopia"],"game_id":440,"stv_port":27056,"stv_name":"Uncletopia | London | 5 | All Maps | STV","players":[{"user_id":11,"name":"Mr.Cupcake","steam_id":76561198152711174,"connected_time":1947000000000,"state":"active","ping":62},{"user_id":12,"name":"yuno appreciator","steam_id":76561198083286511,"connected_time":1515000000000,"state":"active","ping":35},{"user_id":15,"name":"Gobo","steam_id":76561198102432842,"connected_time":1487000000000,"state":"active","ping":48},{"user_id":21,"name":"eevee","steam_id":76561198447072392,"connected_time":1161000000000,"state":"active","ping":89},{"user_id":18,"name":"child cruncher","steam_id":76561199376433147,"connected_time":1424000000000,"state":"active","ping":34},{"user_id":45,"name":"LEGEND FUMO.","steam_id":76561198061033903,"connected_time":96000000000,"state":"active","ping":52},{"user_id":23,"name":"Flavia ‚ô•","steam_id":76561198108360671,"connected_time":917000000000,"state":"active","ping":108},{"user_id":24,"name":"PandaSaysHi","steam_id":76561199223233297,"connected_time":877000000000,"state":"active","ping":59},{"user_id":47,"name":"Grumps","steam_id":76561198014384637,"connected_time":75000000000,"state":"active","ping":43},{"user_id":25,"name":"Cobalt","steam_id":76561198349228196,"connected_time":873000000000,"state":"active","ping":44},{"user_id":26,"name":"Average meme enjoyer","steam_id":76561199087566663,"connected_time":866000000000,"state":"active","ping":90},{"user_id":46,"name":"Tyren","steam_id":76561198993747516,"connected_time":90000000000,"state":"active","ping":45},{"user_id":28,"name":"R8N - Obismal","steam_id":76561198007482714,"connected_time":859000000000,"state":"active","ping":89},{"user_id":29,"name":"D_for_Dumbass","steam_id":76561198908993740,"connected_time":848000000000,"state":"active","ping":57},{"user_id":30,"name":"sv_MrGibbs","steam_id":76561198114071972,"connected_time":786000000000,"state":"active","ping":44},{"user_id":31,"name":"boxing heavy","steam_id":76561199166644202,"connected_time":729000000000,"state":"active","ping":81},{"user_id":32,"name":"Monsy","steam_id":76561198025735006,"connected_time":724000000000,"state":"active","ping":45},{"user_id":33,"name":"walter","steam_id":76561198021950957,"connected_time":721000000000,"state":"active","ping":71},{"user_id":48,"name":"Egor Pomidor","steam_id":76561199175688390,"connected_time":72000000000,"state":"active","ping":87},{"user_id":35,"name":"Caliban","steam_id":76561197999696839,"connected_time":691000000000,"state":"active","ping":93},{"user_id":40,"name":"southwest florida","steam_id":76561198049639319,"connected_time":531000000000,"state":"active","ping":70},{"user_id":43,"name":"SmugDug","steam_id":76561199493468769,"connected_time":370000000000,"state":"active","ping":74},{"user_id":42,"name":"The SPy","steam_id":76561198392505656,"connected_time":450000000000,"state":"active","ping":62},{"user_id":44,"name":"SiMau5","steam_id":76561197997011512,"connected_time":352000000000,"state":"active","ping":44}]},{"server_id":22,"name":"Uncletopia | London | 6 | All Maps","name_short":"lon-6","host":"lon-1.uk.uncletopia.com","port":27065,"enabled":true,"region":"eu","cc":"gb","latitude":51.509865,"longitude":-0.118092,"reserved":0,"last_update":"0001-01-01T00:00:00Z","name_a2s":"Uncletopia | London | 6 | All Maps","protocol":17,"map":"cp_process_final","folder":"tf","game":"Team Fortress","app_id":440,"player_count":0,"max_players":24,"Bots":0,"server_type":"Dedicated","server_os":"Linux","password":true,"vac":true,"version":"7961495","steam_id":85568392924742830,"keywords":["cp","nocrits","nodmgspread","uncletopia"],"game_id":440,"stv_port":27066,"stv_name":"Uncletopia | London | 6 | All Maps | STV","players":null},{"server_id":40,"name":"Uncletopia | London | 7 | Stopwatch","name_short":"lon-7","host":"lon-1.uk.uncletopia.com","port":27075,"enabled":true,"region":"eu","cc":"gb","latitude":51.509865,"longitude":-0.118092,"reserved":0,"last_update":"0001-01-01T00:00:00Z","name_a2s":"Uncletopia | London | 7 | Stopwatch","protocol":17,"map":"workshop/cp_reckoner_rc6.ugc674719999","folder":"tf","game":"Team Fortress","app_id":440,"player_count":0,"max_players":24,"Bots":0,"server_type":"Dedicated","server_os":"Linux","password":true,"vac":true,"version":"7961495","steam_id":85568392924964314,"keywords":["cp","nocrits","nodmgspread","uncletopia"],"game_id":440,"stv_port":27076,"stv_name":"Uncletopia | London | 7 | Stopwatch | STV","players":null},{"server_id":41,"name":"Uncletopia | London | 8 | Community","name_short":"lon-8","host":"lon-1.uk.uncletopia.com","port":27085,"enabled":true,"region":"eu","cc":"gb","latitude":51.509865,"longitude":-0.118092,"reserved":0,"last_update":"0001-01-01T00:00:00Z","name_a2s":"Uncletopia | London | 8 | Community","protocol":17,"map":"workshop/pl_highwood_b19.ugc1769496557","folder":"tf","game":"Team Fortress","app_id":440,"player_count":1,"max_players":24,"Bots":0,"server_type":"Dedicated","server_os":"Linux","password":true,"vac":true,"version":"7961495","steam_id":85568392924964315,"keywords":["nocrits","nodmgspread","payload","uncletopia"],"game_id":440,"stv_port":27086,"stv_name":"Uncletopia | London | 8 | Community | STV","players":[{"user_id":14,"name":"Ryan Gosling (Literally me)","steam_id":76561198438150893,"connected_time":120000000000,"state":"active","ping":98}]},{"server_id":300,"name":"Uncletopia | Montr√©al | 1 | One Thousand Uncles","name_short":"mtl-1","host":"mtl-1.ca.uncletopia.com","port":27015,"enabled":true,"region":"us-east","cc":"ca","latitude":45.50889,"longitude":-73.56167,"reserved":0,"last_update":"0001-01-01T00:00:00Z","name_a2s":"Uncletopia | Montr√©al | 1 | One Thousand Uncles","protocol":17,"map":"pl_upward","folder":"tf","game":"Team Fortress","app_id":440,"player_count":29,"max_players":32,"Bots":16,"server_type":"Dedicated","server_os":"Linux","password":true,"vac":true,"version":"7961495","steam_id":85568392924500087,"keywords":["alltalk","bots","danepve","increased_maxplayers","norespawntime","payload","uncletopia"],"game_id":440,"stv_port":0,"stv_name":"","players":[{"user_id":174,"name":"Captanbossgamer","steam_id":76561199073758460,"connected_time":245000000000,"state":"active","ping":51},{"user_id":157,"name":"adventurecraft","steam_id":76561198316521714,"connected_time":372000000000,"state":"active","ping":70},{"user_id":108,"name":"Cuttle's Fish","steam_id":76561198280483257,"connected_time":3329000000000,"state":"active","ping":76},{"user_id":179,"name":"Basil‚ô•","steam_id":76561199189794054,"connected_time":49000000000,"state":"active","ping":60},{"user_id":86,"name":"joachym","steam_id":76561198428579761,"connected_time":3695000000000,"state":"active","ping":143},{"user_id":122,"name":"Strange Diplomat","steam_id":76561198428191920,"connected_time":2209000000000,"state":"active","ping":59},{"user_id":106,"name":"CTHUWU","steam_id":76561198012388926,"connected_time":3423000000000,"state":"active","ping":58},{"user_id":140,"name":"Metal Socks","steam_id":76561198049854770,"connected_time":2032000000000,"state":"active","ping":59},{"user_id":150,"name":"super99coolman","steam_id":76561199249081889,"connected_time":978000000000,"state":"active","ping":101},{"user_id":112,"name":"chrisd149","steam_id":76561198018710480,"connected_time":2888000000000,"state":"active","ping":90},{"user_id":113,"name":"mark.simfi","steam_id":76561198966432244,"connected_time":2838000000000,"state":"active","ping":148},{"user_id":117,"name":"chiswola","steam_id":76561198046920142,"connected_time":2592000000000,"state":"active","ping":73},{"user_id":154,"name":"Battlehawk","steam_id":76561198011494076,"connected_time":703000000000,"state":"active","ping":121}]},{"server_id":301,"name":"Uncletopia | Montr√©al | 2 | One Thousand Uncles","name_short":"mtl-2","host":"mtl-1.ca.uncletopia.com","port":27025,"enabled":true,"region":"us-east","cc":"ca","latitude":45.50889,"longitude":-73.56167,"reserved":0,"last_update":"0001-01-01T00:00:00Z","name_a2s":"Uncletopia | Montr√©al | 2 | One Thousand Uncles","protocol":17,"map":"pl_chilly","folder":"tf","game":"Team Fortress","app_id":440,"player_count":0,"max_players":32,"Bots":0,"server_type":"Dedicated","server_os":"Linux","password":true,"vac":true,"version":"7961495","steam_id":85568392924500088,"keywords":["alltalk","danepve","increased_maxplayers","norespawntime","payload","uncletopia"],"game_id":440,"stv_port":0,"stv_name":"","players":null},{"server_id":302,"name":"Uncletopia | Montr√©al | 3 | One Thousand Uncles","name_short":"mtl-3","host":"mtl-1.ca.uncletopia.com","port":27035,"enabled":true,"region":"us-east","cc":"ca","latitude":45.50889,"longitude":-73.56167,"reserved":0,"last_update":"0001-01-01T00:00:00Z","name_a2s":"Uncletopia | Montr√©al | 3 | One Thousand Uncles","protocol":17,"map":"pl_upward","folder":"tf","game":"Team Fortress","app_id":440,"player_count":0,"max_players":32,"Bots":0,"server_type":"Dedicated","server_os":"Linux","password":true,"vac":true,"version":"7961495","steam_id":85568392924500089,"keywords":["alltalk","danepve","increased_maxplayers","norespawntime","payload","uncletopia"],"game_id":440,"stv_port":0,"stv_name":"","players":null},{"server_id":13,"name":"Uncletopia | New York City | 1 | All Maps","name_short":"nyc-1","host":"nyc-1.us.uncletopia.com","port":27015,"enabled":true,"region":"us-east","cc":"us","latitude":40.73061,"longitude":-73.93524,"reserved":0,"last_update":"0001-01-01T00:00:00Z","name_a2s":"Uncletopia | New York City | 1 | All Maps","protocol":17,"map":"koth_brazil","folder":"tf","game":"Team Fortress","app_id":440,"player_count":6,"max_players":24,"Bots":0,"server_type":"Dedicated","server_os":"Linux","password":true,"vac":true,"version":"7961495","steam_id":85568392924469993,"keywords":["cp","nocrits","nodmgspread","uncletopia"],"game_id":440,"stv_port":27016,"stv_name":"Uncletopia | New York City | 1 | All Maps | STV","players":[{"user_id":14,"name":"gatlinevan79","steam_id":76561199465817675,"connected_time":66000000000,"state":"active","ping":75},{"user_id":7,"name":"YupYup","steam_id":76561198126488086,"connected_time":1588000000000,"state":"active","ping":60},{"user_id":9,"name":"corviraptor (certified failgirl","steam_id":76561198058284392,"connected_time":564000000000,"state":"active","ping":80},{"user_id":10,"name":"zoeydotexe","steam_id":76561199019757026,"connected_time":516000000000,"state":"active","ping":132},{"user_id":11,"name":"Aves!","steam_id":76561198067542929,"connected_time":491000000000,"state":"active","ping":129},{"user_id":13,"name":"the pest","steam_id":76561198826298849,"connected_time":279000000000,"state":"active","ping":66}]},{"server_id":14,"name":"Uncletopia | New York City | 2 | All Maps","name_short":"nyc-2","host":"nyc-1.us.uncletopia.com","port":27025,"enabled":true,"region":"us-east","cc":"us","latitude":40.73061,"longitude":-73.93524,"reserved":0,"last_update":"0001-01-01T00:00:00Z","name_a2s":"Uncletopia | New York City | 2 | All Maps","protocol":17,"map":"pl_thundermountain","folder":"tf","game":"Team Fortress","app_id":440,"player_count":24,"max_players":24,"Bots":0,"server_type":"Dedicated","server_os":"Linux","password":true,"vac":true,"version":"7961495","steam_id":85568392924469994,"keywords":["nocrits","nodmgspread","payload","uncletopia"],"game_id":440,"stv_port":27026,"stv_name":"Uncletopia | New York City | 2 | All Maps | STV","players":[{"user_id":91,"name":"Petrivus","steam_id":76561198202152453,"connected_time":2479000000000,"state":"active","ping":106},{"user_id":105,"name":"V. G. Sunderland","steam_id":76561198161839980,"connected_time":1555000000000,"state":"active","ping":45},{"user_id":115,"name":"zzzz","steam_id":76561198310495200,"connected_time":699000000000,"state":"active","ping":64},{"user_id":97,"name":"1920","steam_id":76561198111669774,"connected_time":2053000000000,"state":"active","ping":71},{"user_id":107,"name":"cat(woof)","steam_id":76561198350946279,"connected_time":1485000000000,"state":"active","ping":42},{"user_id":102,"name":"noahdanarwhale","steam_id":76561198370260176,"connected_time":1821000000000,"state":"active","ping":75},{"user_id":59,"name":"Cooki","steam_id":76561198051705314,"connected_time":5141000000000,"state":"active","ping":72},{"user_id":109,"name":"MenacingMekhet","steam_id":76561198053165462,"connected_time":1273000000000,"state":"active","ping":62},{"user_id":15,"name":"loscemo","steam_id":76561197994884609,"connected_time":7013000000000,"state":"active","ping":60},{"user_id":67,"name":"HungryPenguin","steam_id":76561198039803880,"connected_time":4810000000000,"state":"active","ping":50},{"user_id":119,"name":"pyrotechnic","steam_id":76561198043558709,"connected_time":140000000000,"state":"active","ping":106},{"user_id":118,"name":"space_punkin","steam_id":76561198152270920,"connected_time":166000000000,"state":"active","ping":83},{"user_id":86,"name":"Cheeseboi","steam_id":76561198151598074,"connected_time":2881000000000,"state":"active","ping":59},{"user_id":116,"name":"CobaltNinja","steam_id":76561198116903731,"connected_time":649000000000,"state":"active","ping":67},{"user_id":65,"name":"Voodo133","steam_id":76561198042670351,"connected_time":5031000000000,"state":"active","ping":68},{"user_id":99,"name":"LegendaireNic","steam_id":76561198211753861,"connected_time":2041000000000,"state":"active","ping":53},{"user_id":103,"name":"ZariaGalaxy","steam_id":76561198089441300,"connected_time":1801000000000,"state":"active","ping":48},{"user_id":117,"name":"MintyMelonMike","steam_id":76561198134905831,"connected_time":422000000000,"state":"active","ping":46},{"user_id":108,"name":"Harry S. Truman","steam_id":76561197993339757,"connected_time":1328000000000,"state":"active","ping":58},{"user_id":92,"name":"Nostic","steam_id":76561199508767541,"connected_time":2476000000000,"state":"active","ping":89},{"user_id":93,"name":"Dwebus","steam_id":76561198086559045,"connected_time":2084000000000,"state":"active","ping":121},{"user_id":120,"name":"G00B–Ø","steam_id":76561199255283838,"connected_time":135000000000,"state":"active","ping":36},{"user_id":104,"name":"Oviraptor Supreme","steam_id":76561198044262534,"connected_time":1797000000000,"state":"active","ping":83},{"user_id":94,"name":"WaywardFinn","steam_id":76561198040391296,"connected_time":2084000000000,"state":"active","ping":60}]},{"server_id":15,"name":"Uncletopia | New York City | 3 | Stopwatch","name_short":"nyc-3","host":"nyc-1.us.uncletopia.com","port":27035,"enabled":true,"region":"us-east","cc":"us","latitude":40.73061,"longitude":-73.93524,"reserved":0,"last_update":"0001-01-01T00:00:00Z","name_a2s":"Uncletopia | New York City | 3 | Stopwatch","protocol":17,"map":"cp_gullywash_final1","folder":"tf","game":"Team Fortress","app_id":440,"player_count":0,"max_players":24,"Bots":0,"server_type":"Dedicated","server_os":"Linux","password":true,"vac":true,"version":"7961495","steam_id":85568392924742820,"keywords":["cp","nocrits","nodmgspread","uncletopia"],"game_id":440,"stv_port":27036,"stv_name":"Uncletopia | New York City | 3 | Stopwatch | STV","players":null},{"server_id":16,"name":"Uncletopia | New York City | 4 | Community","name_short":"nyc-4","host":"nyc-1.us.uncletopia.com","port":27045,"enabled":true,"region":"us-east","cc":"us","latitude":40.73061,"longitude":-73.93524,"reserved":0,"last_update":"0001-01-01T00:00:00Z","name_a2s":"Uncletopia | New York City | 4 | Community","protocol":17,"map":"workshop/cp_indulge.ugc528106646","folder":"tf","game":"Team Fortress","app_id":440,"player_count":0,"max_players":24,"Bots":0,"server_type":"Dedicated","server_os":"Linux","password":true,"vac":true,"version":"7961495","steam_id":85568392924742821,"keywords":["cp","nocrits","nodmgspread","uncletopia"],"game_id":440,"stv_port":27046,"stv_name":"Uncletopia | New York City | 4 | Community | STV","players":null},{"server_id":142,"name":"Uncletopia | S√£o Paulo | 1 | All Maps","name_short":"sao-1","host":"sao-1.br.uncletopia.com","port":27015,"enabled":true,"region":"sa","cc":"br","latitude":-23.533773,"longitude":-46.62529,"reserved":0,"last_update":"0001-01-01T00:00:00Z","name_a2s":"Uncletopia | S√£o Paulo | 1 | All Maps","protocol":17,"map":"koth_viaduct","folder":"tf","game":"Team Fortress","app_id":440,"player_count":0,"max_players":24,"Bots":0,"server_type":"Dedicated","server_os":"Linux","password":true,"vac":true,"version":"7961495","steam_id":85568392924469996,"keywords":["cp","nocrits","nodmgspread","uncletopia"],"game_id":440,"stv_port":27016,"stv_name":"Uncletopia | S√£o Paulo | 1 | All Maps | STV","players":null},{"server_id":143,"name":"Uncletopia | S√£o Paulo | 2 | Community","name_short":"sao-2","host":"sao-2.br.uncletopia.com","port":27015,"enabled":true,"region":"sa","cc":"br","latitude":-23.533773,"longitude":-46.62529,"reserved":0,"last_update":"0001-01-01T00:00:00Z","name_a2s":"Uncletopia | S√£o Paulo | 2 | Community","protocol":17,"map":"workshop/koth_product_final.ugc454272353","folder":"tf","game":"Team Fortress","app_id":440,"player_count":0,"max_players":24,"Bots":0,"server_type":"Dedicated","server_os":"Linux","password":true,"vac":true,"version":"7961495","steam_id":85568392924485349,"keywords":["cp","nocrits","nodmgspread","uncletopia"],"game_id":440,"stv_port":27016,"stv_name":"Uncletopia | S√£o Paulo | 2 | Community | STV","players":null},{"server_id":7,"name":"Uncletopia | Seattle | 1 | All Maps","name_short":"sea-1","host":"sea-1.us.uncletopia.com","port":27015,"enabled":true,"region":"us-west","cc":"us","latitude":47.608013,"longitude":-122.33517,"reserved":0,"last_update":"0001-01-01T00:00:00Z","name_a2s":"Uncletopia | Seattle | 1 | All Maps","protocol":17,"map":"cp_powerhouse","folder":"tf","game":"Team Fortress","app_id":440,"player_count":24,"max_players":24,"Bots":0,"server_type":"Dedicated","server_os":"Linux","password":true,"vac":true,"version":"7961495","steam_id":85568392924469997,"keywords":["cp","nocrits","nodmgspread","uncletopia"],"game_id":440,"stv_port":27016,"stv_name":"Uncletopia | Seattle | 1 | All Maps | STV","players":[{"user_id":163,"name":"bodie._.","steam_id":76561198079474904,"connected_time":285000000000,"state":"active","ping":59},{"user_id":159,"name":"Clagger","steam_id":76561198066701092,"connected_time":1068000000000,"state":"active","ping":42},{"user_id":100,"name":"Hazel The Maid Boy","steam_id":76561199247095754,"connected_time":5179000000000,"state":"active","ping":59},{"user_id":158,"name":"·µç ≥·µí·µç","steam_id":76561198071559789,"connected_time":1180000000000,"state":"active","ping":69},{"user_id":145,"name":"haileywestbrook123@gmail.com","steam_id":76561199169445769,"connected_time":2347000000000,"state":"active","ping":67},{"user_id":155,"name":"kirby7","steam_id":76561199167006749,"connected_time":1411000000000,"state":"active","ping":97},{"user_id":135,"name":"Flyingmeadow","steam_id":76561198144687723,"connected_time":3036000000000,"state":"active","ping":123},{"user_id":136,"name":"Soy King","steam_id":76561198263025614,"connected_time":3033000000000,"state":"active","ping":106},{"user_id":120,"name":"Sunny D+","steam_id":76561197999371052,"connected_time":3911000000000,"state":"active","ping":109},{"user_id":156,"name":"no vc no c","steam_id":76561197989503095,"connected_time":1401000000000,"state":"active","ping":152},{"user_id":148,"name":"Peppy","steam_id":76561198866629645,"connected_time":2072000000000,"state":"active","ping":60},{"user_id":124,"name":"JohnFMX","steam_id":76561198175608097,"connected_time":3725000000000,"state":"active","ping":109},{"user_id":164,"name":"Bowl of Cereal Gaming","steam_id":76561199042252292,"connected_time":273000000000,"state":"active","ping":119},{"user_id":137,"name":"Nibotshooter","steam_id":76561199284825579,"connected_time":2969000000000,"state":"active","ping":69},{"user_id":160,"name":"dust | it/she [no mic]","steam_id":76561198045218909,"connected_time":446000000000,"state":"active","ping":37},{"user_id":121,"name":"Supersonic","steam_id":76561198042167127,"connected_time":3909000000000,"state":"active","ping":60},{"user_id":111,"name":"Boxpipe","steam_id":76561197964501915,"connected_time":4695000000000,"state":"active","ping":75},{"user_id":153,"name":"lorient","steam_id":76561198150831438,"connected_time":1447000000000,"state":"active","ping":81},{"user_id":151,"name":"Scrux","steam_id":76561198129763115,"connected_time":1561000000000,"state":"active","ping":75},{"user_id":146,"name":"a chicken","steam_id":76561198313121580,"connected_time":2299000000000,"state":"active","ping":88},{"user_id":141,"name":"Sterling Nano","steam_id":76561198048580088,"connected_time":2830000000000,"state":"active","ping":73},{"user_id":157,"name":"reverie","steam_id":76561198168158637,"connected_time":1385000000000,"state":"active","ping":82},{"user_id":161,"name":"Eden","steam_id":76561198081284664,"connected_time":303000000000,"state":"active","ping":85},{"user_id":162,"name":"Silverman_Cam","steam_id":76561198936168937,"connected_time":303000000000,"state":"active","ping":84}]},{"server_id":119,"name":"Uncletopia | Seattle | 2 | All Maps","name_short":"sea-2","host":"sea-1.us.uncletopia.com","port":27025,"enabled":true,"region":"us-west","cc":"us","latitude":47.608013,"longitude":-122.33517,"reserved":0,"last_update":"0001-01-01T00:00:00Z","name_a2s":"Uncletopia | Seattle | 2 | All Maps","protocol":17,"map":"pl_barnblitz","folder":"tf","game":"Team Fortress","app_id":440,"player_count":0,"max_players":24,"Bots":0,"server_type":"Dedicated","server_os":"Linux","password":true,"vac":true,"version":"7961495","steam_id":85568392924469998,"keywords":["nocrits","nodmgspread","payload","uncletopia"],"game_id":440,"stv_port":27026,"stv_name":"Uncletopia | Seattle | 2 | All Maps | STV","players":null},{"server_id":406,"name":"Uncletopia | Seattle | 3 | Stopwatch","name_short":"sea-3","host":"sea-1.us.uncletopia.com","port":27035,"enabled":true,"region":"us-west","cc":"us","latitude":47.608013,"longitude":-122.33517,"reserved":0,"last_update":"0001-01-01T00:00:00Z","name_a2s":"Uncletopia | Seattle | 3 | Stopwatch","protocol":17,"map":"workshop/pl_summercoast_rc8e.ugc1761528829","folder":"tf","game":"Team Fortress","app_id":440,"player_count":0,"max_players":24,"Bots":0,"server_type":"Dedicated","server_os":"Linux","password":true,"vac":true,"version":"7961495","steam_id":85568392924515217,"keywords":["nocrits","nodmgspread","payload","uncletopia"],"game_id":440,"stv_port":27036,"stv_name":"Uncletopia | Seattle | 3 | Stopwatch | STV","players":null},{"server_id":17,"name":"Uncletopia | San Francisco | 1 | All Maps","name_short":"sfo-1","host":"sfo-1.us.uncletopia.com","port":27015,"enabled":true,"region":"us-west","cc":"us","latitude":37.77397,"longitude":-122.4313,"reserved":0,"last_update":"0001-01-01T00:00:00Z","name_a2s":"Uncletopia | San Francisco | 1 | All Maps","protocol":17,"map":"koth_highpass","folder":"tf","game":"Team Fortress","app_id":440,"player_count":0,"max_players":24,"Bots":0,"server_type":"Dedicated","server_os":"Linux","password":true,"vac":true,"version":"7961495","steam_id":85568392924469999,"keywords":["cp","nocrits","nodmgspread","uncletopia"],"game_id":440,"stv_port":27016,"stv_name":"Uncletopia | San Francisco | 1 | All Maps | STV","players":null},{"server_id":18,"name":"Uncletopia | San Francisco | 2 | All Maps","name_short":"sfo-2","host":"sfo-1.us.uncletopia.com","port":27025,"enabled":true,"region":"us-west","cc":"us","latitude":37.77397,"longitude":-122.4313,"reserved":0,"last_update":"0001-01-01T00:00:00Z","name_a2s":"Uncletopia | San Francisco | 2 | All Maps","protocol":17,"map":"cp_freight_final1","folder":"tf","game":"Team Fortress","app_id":440,"player_count":0,"max_players":24,"Bots":0,"server_type":"Dedicated","server_os":"Linux","password":true,"vac":true,"version":"7961495","steam_id":85568392924470000,"keywords":["cp","nocrits","nodmgspread","uncletopia"],"game_id":440,"stv_port":27026,"stv_name":"Uncletopia | San Francisco | 2 | All Maps | STV","players":null},{"server_id":19,"name":"Uncletopia | San Francisco | 3 | Stopwatch","name_short":"sfo-3","host":"sfo-1.us.uncletopia.com","port":27035,"enabled":true,"region":"us-west","cc":"us","latitude":37.77397,"longitude":-122.4313,"reserved":0,"last_update":"0001-01-01T00:00:00Z","name_a2s":"Uncletopia | San Francisco | 3 | Stopwatch","protocol":17,"map":"workshop/koth_jamram_rc1a.ugc2964065613","folder":"tf","game":"Team Fortress","app_id":440,"player_count":0,"max_players":24,"Bots":0,"server_type":"Dedicated","server_os":"Linux","password":true,"vac":true,"version":"7961495","steam_id":85568392924742824,"keywords":["cp","nocrits","nodmgspread","uncletopia"],"game_id":440,"stv_port":27036,"stv_name":"Uncletopia | San Francisco | 3 | Stopwatch | STV","players":null},{"server_id":20,"name":"Uncletopia | San Francisco | 4 | Community","name_short":"sfo-4","host":"sfo-1.us.uncletopia.com","port":27045,"enabled":true,"region":"us-west","cc":"us","latitude":37.77397,"longitude":-122.4313,"reserved":0,"last_update":"0001-01-01T00:00:00Z","name_a2s":"Uncletopia | San Francisco | 4 | Community","protocol":17,"map":"workshop/pl_cactuscanyon_redux_final2.ugc2579644293","folder":"tf","game":"Team Fortress","app_id":440,"player_count":0,"max_players":24,"Bots":0,"server_type":"Dedicated","server_os":"Linux","password":true,"vac":true,"version":"7961495","steam_id":85568392924742826,"keywords":["nocrits","nodmgspread","payload","uncletopia"],"game_id":440,"stv_port":27046,"stv_name":"Uncletopia | San Francisco | 4 | Community | STV","players":null},{"server_id":141,"name":"Uncletopia | Sydney | 1 | All Maps","name_short":"syd-1","host":"syd-1.au.uncletopia.com","port":27015,"enabled":true,"region":"au","cc":"au","latitude":-33.865143,"longitude":151.2099,"reserved":0,"last_update":"0001-01-01T00:00:00Z","name_a2s":"Uncletopia | Sydney | 1 | All Maps","protocol":17,"map":"koth_lakeside_final","folder":"tf","game":"Team Fortress","app_id":440,"player_count":0,"max_players":24,"Bots":0,"server_type":"Dedicated","server_os":"Linux","password":true,"vac":true,"version":"7961495","steam_id":85568392924470001,"keywords":["cp","nocrits","nodmgspread","uncletopia"],"game_id":440,"stv_port":27016,"stv_name":"Uncletopia | Sydney | 1 | All Maps | STV","players":null},{"server_id":123,"name":"Uncletopia | Sydney | 2 | All Maps","name_short":"syd-2","host":"syd-1.au.uncletopia.com","port":27025,"enabled":true,"region":"au","cc":"au","latitude":-33.865143,"longitude":151.2099,"reserved":0,"last_update":"0001-01-01T00:00:00Z","name_a2s":"Uncletopia | Sydney | 2 | All Maps","protocol":17,"map":"koth_viaduct","folder":"tf","game":"Team Fortress","app_id":440,"player_count":0,"max_players":24,"Bots":0,"server_type":"Dedicated","server_os":"Linux","password":true,"vac":true,"version":"7961495","steam_id":85568392924470002,"keywords":["cp","nocrits","nodmgspread","uncletopia"],"game_id":440,"stv_port":27026,"stv_name":"Uncletopia | Sydney | 2 | All Maps | STV","players":null},{"server_id":395,"name":"Uncletopia | Sydney | 3 | All Maps","name_short":"syd-3","host":"syd-1.au.uncletopia.com","port":27035,"enabled":true,"region":"au","cc":"au","latitude":-33.865143,"longitude":151.2099,"reserved":0,"last_update":"0001-01-01T00:00:00Z","name_a2s":"Uncletopia | Sydney | 3 | All Maps","protocol":17,"map":"pl_barnblitz","folder":"tf","game":"Team Fortress","app_id":440,"player_count":0,"max_players":24,"Bots":0,"server_type":"Dedicated","server_os":"Linux","password":true,"vac":true,"version":"7961495","steam_id":85568392925194467,"keywords":["nocrits","nodmgspread","payload","uncletopia"],"game_id":440,"stv_port":27036,"stv_name":"Uncletopia | Sydney | 3 | All Maps | STV","players":null},{"server_id":396,"name":"Uncletopia | Sydney | 4 | All Maps","name_short":"syd-4","host":"syd-1.au.uncletopia.com","port":27045,"enabled":true,"region":"au","cc":"au","latitude":-33.865143,"longitude":151.2099,"reserved":0,"last_update":"0001-01-01T00:00:00Z","name_a2s":"Uncletopia | Sydney | 4 | All Maps","protocol":17,"map":"cp_process_final","folder":"tf","game":"Team Fortress","app_id":440,"player_count":0,"max_players":24,"Bots":0,"server_type":"Dedicated","server_os":"Linux","password":true,"vac":true,"version":"7961495","steam_id":85568392925397958,"keywords":["cp","nocrits","nodmgspread","uncletopia"],"game_id":440,"stv_port":27046,"stv_name":"Uncletopia | Sydney | 4 | All Maps | STV","players":null},{"server_id":58,"name":"Uncletopia | Sydney | 5 | Stopwatch","name_short":"syd-5","host":"syd-1.au.uncletopia.com","port":27055,"enabled":true,"region":"au","cc":"au","latitude":-33.865143,"longitude":151.2099,"reserved":0,"last_update":"0001-01-01T00:00:00Z","name_a2s":"Uncletopia | Sydney | 5 | Stopwatch","protocol":17,"map":"workshop/koth_clearcut_b15.ugc2107050255","folder":"tf","game":"Team Fortress","app_id":440,"player_count":0,"max_players":24,"Bots":0,"server_type":"Dedicated","server_os":"Linux","password":true,"vac":true,"version":"7961495","steam_id":85568392925397959,"keywords":["cp","nocrits","nodmgspread","uncletopia"],"game_id":440,"stv_port":27056,"stv_name":"Uncletopia | Sydney | 5 | Stopwatch | STV","players":null},{"server_id":59,"name":"Uncletopia | Sydney | 6 | Community","name_short":"syd-6","host":"syd-1.au.uncletopia.com","port":27065,"enabled":true,"region":"au","cc":"au","latitude":-33.865143,"longitude":151.2099,"reserved":0,"last_update":"0001-01-01T00:00:00Z","name_a2s":"Uncletopia | Sydney | 6 | Community","protocol":17,"map":"workshop/koth_trenchfoot_ab1.ugc731436616","folder":"tf","game":"Team Fortress","app_id":440,"player_count":0,"max_players":24,"Bots":0,"server_type":"Dedicated","server_os":"Linux","password":true,"vac":true,"version":"7961495","steam_id":85568392925397960,"keywords":["cp","nocrits","nodmgspread","uncletopia"],"game_id":440,"stv_port":27066,"stv_name":"Uncletopia | Sydney | 6 | Community | STV","players":null},{"server_id":49,"name":"Uncletopia | Warsaw | 1 | One Thousand Uncles","name_short":"waw-1","host":"waw-1.pl.uncletopia.com","port":27015,"enabled":true,"region":"eu","cc":"pl","latitude":52.2297,"longitude":21.017532,"reserved":0,"last_update":"0001-01-01T00:00:00Z","name_a2s":"Uncletopia | Warsaw | 1 | One Thousand Uncles","protocol":17,"map":"cp_dustbowl","folder":"tf","game":"Team Fortress","app_id":440,"player_count":29,"max_players":32,"Bots":16,"server_type":"Dedicated","server_os":"Linux","password":true,"vac":true,"version":"7961495","steam_id":85568392925397850,"keywords":["alltalk","bots","cp","danepve","increased_maxplayers","norespawntime","uncletopia"],"game_id":440,"stv_port":0,"stv_name":"","players":[{"user_id":459,"name":"D4RKERX","steam_id":76561198060537403,"connected_time":6508000000000,"state":"active","ping":230},{"user_id":530,"name":"CHEK","steam_id":76561199474613865,"connected_time":260000000000,"state":"active","ping":71},{"user_id":529,"name":"Eldritch abomination","steam_id":76561198244108784,"connected_time":306000000000,"state":"active","ping":40},{"user_id":458,"name":"Jansku","steam_id":76561198321340149,"connected_time":6942000000000,"state":"active","ping":106},{"user_id":519,"name":"Tekor","steam_id":76561198088542862,"connected_time":1710000000000,"state":"active","ping":41},{"user_id":520,"name":"antagonist","steam_id":76561198045125796,"connected_time":1688000000000,"state":"active","ping":108},{"user_id":516,"name":"korea","steam_id":76561198120520111,"connected_time":2250000000000,"state":"active","ping":60},{"user_id":533,"name":"Young trunks","steam_id":76561198807869634,"connected_time":28000000000,"state":"spawning","ping":49},{"user_id":485,"name":"CurlyPaty - [YouTube]","steam_id":76561198125025171,"connected_time":4217000000000,"state":"active","ping":34},{"user_id":521,"name":"Cg Studios","steam_id":76561198286908002,"connected_time":1485000000000,"state":"active","ping":71},{"user_id":407,"name":"MrHenry","steam_id":76561199249662743,"connected_time":12114000000000,"state":"active","ping":164},{"user_id":490,"name":"[HK]Êàë‰øÇÈ¶ôÊ∏Ø‰∫∫","steam_id":76561198165376815,"connected_time":3870000000000,"state":"active","ping":78},{"user_id":523,"name":"kokosaky","steam_id":76561198827477147,"connected_time":1387000000000,"state":"active","ping":62}]},{"server_id":50,"name":"Uncletopia | Warsaw | 2 | One Thousand Uncles","name_short":"waw-2","host":"waw-1.pl.uncletopia.com","port":27025,"enabled":true,"region":"eu","cc":"pl","latitude":52.2297,"longitude":21.017532,"reserved":0,"last_update":"0001-01-01T00:00:00Z","name_a2s":"Uncletopia | Warsaw | 2 | One Thousand Uncles","protocol":17,"map":"pl_hoodoo_final","folder":"tf","game":"Team Fortress","app_id":440,"player_count":28,"max_players":32,"Bots":16,"server_type":"Dedicated","server_os":"Linux","password":true,"vac":true,"version":"7961495","steam_id":85568392925397851,"keywords":["alltalk","bots","danepve","increased_maxplayers","norespawntime","payload","uncletopia"],"game_id":440,"stv_port":0,"stv_name":"","players":[{"user_id":309,"name":"Norn30","steam_id":76561198136196465,"connected_time":342000000000,"state":"active","ping":38},{"user_id":232,"name":"Damin","steam_id":76561198204500297,"connected_time":7596000000000,"state":"active","ping":59},{"user_id":314,"name":"Bordt258","steam_id":76561199038280717,"connected_time":107000000000,"state":"active","ping":51},{"user_id":234,"name":"What?","steam_id":76561198121960984,"connected_time":7363000000000,"state":"active","ping":53},{"user_id":310,"name":"apajnap","steam_id":76561198805111676,"connected_time":338000000000,"state":"active","ping":129},{"user_id":307,"name":"kovajatkaolevinaan","steam_id":76561199471146687,"connected_time":670000000000,"state":"active","ping":83},{"user_id":226,"name":"Phisor","steam_id":76561198233450952,"connected_time":10571000000000,"state":"active","ping":68},{"user_id":311,"name":"Ralf","steam_id":76561199257514444,"connected_time":167000000000,"state":"active","ping":60},{"user_id":312,"name":"Palamaris plokamias","steam_id":76561198844867460,"connected_time":158000000000,"state":"active","ping":90},{"user_id":287,"name":"Lavi","steam_id":76561198000911853,"connected_time":1559000000000,"state":"active","ping":76},{"user_id":313,"name":"DkDosk","steam_id":76561198997635602,"connected_time":149000000000,"state":"active","ping":63},{"user_id":315,"name":"The Card","steam_id":76561198345150562,"connected_time":106000000000,"state":"active","ping":107}]},{"server_id":51,"name":"Uncletopia | Warsaw | 3 | All Maps","name_short":"waw-3","host":"waw-1.pl.uncletopia.com","port":27035,"enabled":true,"region":"eu","cc":"pl","latitude":52.2297,"longitude":21.017532,"reserved":0,"last_update":"0001-01-01T00:00:00Z","name_a2s":"Uncletopia | Warsaw | 3 | All Maps","protocol":17,"map":"cp_sunshine","folder":"tf","game":"Team Fortress","app_id":440,"player_count":0,"max_players":24,"Bots":0,"server_type":"Dedicated","server_os":"Linux","password":true,"vac":true,"version":"7961495","steam_id":85568392925397852,"keywords":["cp","nocrits","nodmgspread","uncletopia"],"game_id":440,"stv_port":27036,"stv_name":"Uncletopia | Warsaw | 3 | All Maps | STV","players":null},{"server_id":52,"name":"Uncletopia | Warsaw | 4 | All Maps","name_short":"waw-4","host":"waw-1.pl.uncletopia.com","port":27045,"enabled":true,"region":"eu","cc":"pl","latitude":52.2297,"longitude":21.017532,"reserved":0,"last_update":"0001-01-01T00:00:00Z","name_a2s":"Uncletopia | Warsaw | 4 | All Maps","protocol":17,"map":"cp_mountainlab","folder":"tf","game":"Team Fortress","app_id":440,"player_count":0,"max_players":24,"Bots":0,"server_type":"Dedicated","server_os":"Linux","password":true,"vac":true,"version":"7961495","steam_id":85568392925397853,"keywords":["cp","nocrits","nodmgspread","uncletopia"],"game_id":440,"stv_port":27046,"stv_name":"Uncletopia | Warsaw | 4 | All Maps | STV","players":null},{"server_id":53,"name":"Uncletopia | Warsaw | 5 | Stopwatch","name_short":"waw-5","host":"waw-1.pl.uncletopia.com","port":27055,"enabled":true,"region":"eu","cc":"pl","latitude":52.2297,"longitude":21.017532,"reserved":0,"last_update":"0001-01-01T00:00:00Z","name_a2s":"Uncletopia | Warsaw | 5 | Stopwatch","protocol":17,"map":"workshop/koth_product_final.ugc454272353","folder":"tf","game":"Team Fortress","app_id":440,"player_count":0,"max_players":24,"Bots":0,"server_type":"Dedicated","server_os":"Linux","password":true,"vac":true,"version":"7961495","steam_id":85568392925397854,"keywords":["cp","nocrits","nodmgspread","uncletopia"],"game_id":440,"stv_port":27056,"stv_name":"Uncletopia | Warsaw | 5 | Stopwatch | STV","players":null},{"server_id":54,"name":"Uncletopia | Warsaw | 6 | Community","name_short":"waw-6","host":"waw-1.pl.uncletopia.com","port":27065,"enabled":true,"region":"eu","cc":"pl","latitude":52.2297,"longitude":21.017532,"reserved":0,"last_update":"0001-01-01T00:00:00Z","name_a2s":"Uncletopia | Warsaw | 6 | Community","protocol":17,"map":"workshop/cp_fulgur_rc2a.ugc2068252300","folder":"tf","game":"Team Fortress","app_id":440,"player_count":0,"max_players":24,"Bots":0,"server_type":"Dedicated","server_os":"Linux","password":true,"vac":true,"version":"7961495","steam_id":85568392925397856,"keywords":["cp","nocrits","nodmgspread","uncletopia"],"game_id":440,"stv_port":27066,"stv_name":"Uncletopia | Warsaw | 6 | Community | STV","players":null}]}