{"status":true,"message":"","result":[{"server_id":9,"name":"Uncletopia | Atlanta | 1 | All Maps","name_short":"atl-1","host":"atl-1.us.uncletopia.com","port":27015,"enabled":true,"region":"us-east","cc":"us","latitude":33.753746,"longitude":-84.38633,"reserved":0,"last_update":"0001-01-01T00:00:00Z","name_a2s":"Uncletopia | Atlanta | 1 | All Maps","protocol":17,"map":"pl_upward","folder":"tf","game":"Team Fortress","app_id":440,"player_count":0,"max_players":24,"Bots":0,"server_type":"Dedicated","server_os":"Linux","password":true,"vac":true,"version":"7723704","steam_id":85568392924469982,"keywords":["nocrits","nodmgspread","payload","uncletopia"],"game_id":440,"stv_port":27016,"stv_name":"Uncletopia | Atlanta | 1 | All Maps | STV","players":null},{"server_id":400,"name":"Uncletopia | Atlanta | 3 | Stopwatch Beta","name_short":"atl-3","host":"atl-1.us.uncletopia.com","port":27035,"enabled":true,"region":"us-east","cc":"us","latitude":33.753746,"longitude":-84.38633,"reserved":0,"last_update":"0001-01-01T00:00:00Z","name_a2s":"Uncletopia | Atlanta | 3 | Stopwatch Beta","protocol":17,"map":"koth_cascade","folder":"tf","game":"Team Fortress","app_id":440,"player_count":0,"max_players":24,"Bots":0,"server_type":"Dedicated","server_os":"Linux","password":true,"vac":true,"version":"7723704","steam_id":85568392924515187,"keywords":["cp","nocrits","nodmgspread","uncletopia"],"game_id":440,"stv_port":27036,"stv_name":"Uncletopia | Atlanta | 3 | Stopwatch Beta | STV","players":null},{"server_id":401,"name":"Uncletopia | Atlanta | 4 | No Payload","name_short":"atl-4","host":"atl-1.us.uncletopia.com","port":27045,"enabled":true,"region":"us-east","cc":"us","latitude":33.753746,"longitude":-84.38633,"reserved":0,"last_update":"0001-01-01T00:00:00Z","name_a2s":"Uncletopia | Atlanta | 4 | No Payload","protocol":17,"map":"pl_pier","folder":"tf","game":"Team Fortress","app_id":440,"player_count":0,"max_players":24,"Bots":0,"server_type":"Dedicated","server_os":"Linux","password":true,"vac":true,"version":"7723704","steam_id":85568392924515188,"keywords":["nocrits","nodmgspread","payload","uncletopia"],"game_id":440,"stv_port":27046,"stv_name":"Uncletopia | Atlanta | 4 | No Payload | STV","players":null},{"server_id":2,"name":"Uncletopia | Chicago | 1 | All Maps","name_short":"chi-1","host":"chi-1.us.uncletopia.com","port":27015,"enabled":true,"region":"us-central","cc":"us","latitude":41.881832,"longitude":-87.62318,"reserved":0,"last_update":"0001-01-01T00:00:00Z","name_a2s":"Uncletopia | Chicago | 1 | All Maps","protocol":17,"map":"cp_steel","folder":"tf","game":"Team Fortress","app_id":440,"player_count":24,"max_players":24,"Bots":0,"server_type":"Dedicated","server_os":"Linux","password":true,"vac":true,"version":"7723704","steam_id":85568392924469984,"keywords":["cp","nocrits","nodmgspread","uncletopia"],"game_id":440,"stv_port":27016,"stv_name":"Uncletopia | Chicago | 1 | All Maps | STV","players":[{"user_id":56,"name":"bdkaine1","steam_id":76561198133545467,"connected_time":2378000000000,"state":"active","ping":61},{"user_id":86,"name":"Mouth Tea","steam_id":76561198285054047,"connected_time":162000000000,"state":"active","ping":75},{"user_id":88,"name":"Mythius","steam_id":76561198401392472,"connected_time":129000000000,"state":"active","ping":75},{"user_id":76,"name":"Bagaboned","steam_id":76561198043761335,"connected_time":725000000000,"state":"active","ping":85},{"user_id":85,"name":"noraneko","steam_id":76561198025418738,"connected_time":168000000000,"state":"active","ping":91},{"user_id":91,"name":"KeithStone","steam_id":76561197986083582,"connected_time":78000000000,"state":"spawning","ping":94},{"user_id":83,"name":"CheeseCake488","steam_id":76561199407617942,"connected_time":173000000000,"state":"active","ping":142},{"user_id":89,"name":"Fish Fear Me","steam_id":76561199118569153,"connected_time":116000000000,"state":"active","ping":59},{"user_id":23,"name":"Jonas Destark","steam_id":76561198030327441,"connected_time":4858000000000,"state":"active","ping":142},{"user_id":31,"name":"mireiaguitart3","steam_id":76561198880549961,"connected_time":4364000000000,"state":"active","ping":163},{"user_id":24,"name":"snake9544","steam_id":76561198083076205,"connected_time":4827000000000,"state":"active","ping":173},{"user_id":55,"name":"dosimeter","steam_id":76561198039608940,"connected_time":2470000000000,"state":"active","ping":105},{"user_id":77,"name":"cyclops","steam_id":76561197970370198,"connected_time":621000000000,"state":"active","ping":50},{"user_id":73,"name":"LividALX","steam_id":76561198145429015,"connected_time":871000000000,"state":"active","ping":69},{"user_id":65,"name":"About That Gift I Owed Ya","steam_id":76561198071506287,"connected_time":1482000000000,"state":"active","ping":99},{"user_id":67,"name":"Ghosty","steam_id":76561199229629421,"connected_time":1458000000000,"state":"active","ping":96},{"user_id":92,"name":"Poodle","steam_id":76561198015483504,"connected_time":73000000000,"state":"active","ping":144},{"user_id":59,"name":"Dude Named Bob","steam_id":76561198310448093,"connected_time":2088000000000,"state":"active","ping":45},{"user_id":70,"name":"PunishedJoe","steam_id":76561199105539011,"connected_time":1219000000000,"state":"active","ping":65},{"user_id":93,"name":"Gibby","steam_id":76561199336569123,"connected_time":50000000000,"state":"active","ping":123},{"user_id":54,"name":"New Memes","steam_id":76561198009656676,"connected_time":2716000000000,"state":"active","ping":67},{"user_id":71,"name":"Rail°","steam_id":76561197961160056,"connected_time":1217000000000,"state":"active","ping":66},{"user_id":84,"name":"Admiral Angry","steam_id":76561198058199206,"connected_time":173000000000,"state":"active","ping":60},{"user_id":75,"name":"shoes","steam_id":76561198044104086,"connected_time":752000000000,"state":"active","ping":89}]},{"server_id":106,"name":"Uncletopia | Chicago | 2 | All Maps","name_short":"chi-2","host":"chi-1.us.uncletopia.com","port":27025,"enabled":true,"region":"us-central","cc":"us","latitude":41.881832,"longitude":-87.62318,"reserved":0,"last_update":"0001-01-01T00:00:00Z","name_a2s":"Uncletopia | Chicago | 2 | All Maps","protocol":17,"map":"koth_highpass","folder":"tf","game":"Team Fortress","app_id":440,"player_count":0,"max_players":24,"Bots":0,"server_type":"Dedicated","server_os":"Linux","password":true,"vac":true,"version":"7723704","steam_id":85568392924469985,"keywords":["cp","nocrits","nodmgspread","uncletopia"],"game_id":440,"stv_port":27026,"stv_name":"Uncletopia | Chicago | 2 | All Maps | STV","players":null},{"server_id":402,"name":"Uncletopia | Chicago | 3 | All Maps","name_short":"chi-3","host":"chi-1.us.uncletopia.com","port":27035,"enabled":true,"region":"us-central","cc":"us","latitude":41.881832,"longitude":-87.62318,"reserved":0,"last_update":"0001-01-01T00:00:00Z","name_a2s":"Uncletopia | Chicago | 3 | All Maps","protocol":17,"map":"pl_frontier_final","folder":"tf","game":"Team Fortress","app_id":440,"player_count":0,"max_players":24,"Bots":0,"server_type":"Dedicated","server_os":"Linux","password":true,"vac":true,"version":"7723704","steam_id":85568392924515191,"keywords":["nocrits","nodmgspread","payload","uncletopia"],"game_id":440,"stv_port":27036,"stv_name":"Uncletopia | Chicago | 3 | All Maps | STV","players":null},{"server_id":403,"name":"Uncletopia | Chicago | 4 | All Maps","name_short":"chi-4","host":"chi-1.us.uncletopia.com","port":27045,"enabled":true,"region":"us-central","cc":"us","latitude":41.881832,"longitude":-87.62318,"reserved":0,"last_update":"0001-01-01T00:00:00Z","name_a2s":"Uncletopia | Chicago | 4 | All Maps","protocol":17,"map":"pl_pier","folder":"tf","game":"Team Fortress","app_id":440,"player_count":0,"max_players":24,"Bots":0,"server_type":"Dedicated","server_os":"Linux","password":true,"vac":true,"version":"7723704","steam_id":85568392924515193,"keywords":["nocrits","nodmgspread","payload","uncletopia"],"game_id":440,"stv_port":27046,"stv_name":"Uncletopia | Chicago | 4 | All Maps | STV","players":null},{"server_id":36,"name":"Uncletopia | Chicago | 5 | All Maps","name_short":"chi-5","host":"chi-2.us.uncletopia.com","port":27015,"enabled":true,"region":"us-central","cc":"us","latitude":41.881832,"longitude":-87.62318,"reserved":0,"last_update":"0001-01-01T00:00:00Z","name_a2s":"Uncletopia | Chicago | 5 | All Maps","protocol":17,"map":"cp_altitude","folder":"tf","game":"Team Fortress","app_id":440,"player_count":0,"max_players":24,"Bots":0,"server_type":"Dedicated","server_os":"Linux","password":true,"vac":true,"version":"7723704","steam_id":85568392924866362,"keywords":["cp","nocrits","nodmgspread","uncletopia"],"game_id":440,"stv_port":27016,"stv_name":"Uncletopia | Chicago | 5 | All Maps | STV","players":null},{"server_id":37,"name":"Uncletopia | Chicago | 6 | All Maps","name_short":"chi-6","host":"chi-2.us.uncletopia.com","port":27025,"enabled":true,"region":"us-central","cc":"us","latitude":41.881832,"longitude":-87.62318,"reserved":0,"last_update":"0001-01-01T00:00:00Z","name_a2s":"Uncletopia | Chicago | 6 | All Maps","protocol":17,"map":"pl_swiftwater_final1","folder":"tf","game":"Team Fortress","app_id":440,"player_count":0,"max_players":24,"Bots":0,"server_type":"Dedicated","server_os":"Linux","password":true,"vac":true,"version":"7723704","steam_id":85568392924866363,"keywords":["nocrits","nodmgspread","payload","uncletopia"],"game_id":440,"stv_port":27026,"stv_name":"Uncletopia | Chicago | 6 | All Maps | STV","players":null},{"server_id":38,"name":"Uncletopia | Chicago | 7 | Stopwatch Beta","name_short":"chi-7","host":"chi-2.us.uncletopia.com","port":27035,"enabled":true,"region":"us-central","cc":"us","latitude":41.881832,"longitude":-87.62318,"reserved":0,"last_update":"0001-01-01T00:00:00Z","name_a2s":"Uncletopia | Chicago | 7 | Stopwatch Beta","protocol":17,"map":"pl_upward","folder":"tf","game":"Team Fortress","app_id":440,"player_count":0,"max_players":24,"Bots":0,"server_type":"Dedicated","server_os":"Linux","password":true,"vac":true,"version":"7723704","steam_id":85568392924866364,"keywords":["nocrits","nodmgspread","payload","uncletopia"],"game_id":440,"stv_port":27036,"stv_name":"Uncletopia | Chicago | 7 | Stopwatch Beta | STV","players":null},{"server_id":39,"name":"Uncletopia | Chicago | 8 | Community","name_short":"chi-8","host":"chi-2.us.uncletopia.com","port":27045,"enabled":true,"region":"us-central","cc":"us","latitude":41.881832,"longitude":-87.62318,"reserved":0,"last_update":"0001-01-01T00:00:00Z","name_a2s":"Uncletopia | Chicago | 8 | Community","protocol":17,"map":"pl_frontier_final","folder":"tf","game":"Team Fortress","app_id":440,"player_count":0,"max_players":24,"Bots":0,"server_type":"Dedicated","server_os":"Linux","password":true,"vac":true,"version":"7723704","steam_id":85568392924866365,"keywords":["nocrits","nodmgspread","payload","uncletopia"],"game_id":440,"stv_port":27046,"stv_name":"Uncletopia | Chicago | 8 | Community | STV","players":null},{"server_id":8,"name":"Uncletopia | Dallas | 1 | All Maps","name_short":"dal-1","host":"dal-1.us.uncletopia.com","port":27015,"enabled":true,"region":"us-central","cc":"us","latitude":32.779167,"longitude":-96.80889,"reserved":0,"last_update":"0001-01-01T00:00:00Z","name_a2s":"Uncletopia | Dallas | 1 | All Maps","protocol":17,"map":"pl_frontier_final","folder":"tf","game":"Team Fortress","app_id":440,"player_count":0,"max_players":24,"Bots":0,"server_type":"Dedicated","server_os":"Linux","password":true,"vac":true,"version":"7723704","steam_id":85568392924469986,"keywords":["nocrits","nodmgspread","payload","uncletopia"],"game_id":440,"stv_port":27016,"stv_name":"Uncletopia | Dallas | 1 | All Maps | STV","players":null},{"server_id":108,"name":"Uncletopia | Dallas | 2 | All Maps","name_short":"dal-2","host":"dal-1.us.uncletopia.com","port":27025,"enabled":true,"region":"us-central","cc":"us","latitude":32.779167,"longitude":-96.80889,"reserved":0,"last_update":"0001-01-01T00:00:00Z","name_a2s":"Uncletopia | Dallas | 2 | All Maps","protocol":17,"map":"pl_borneo","folder":"tf","game":"Team Fortress","app_id":440,"player_count":0,"max_players":24,"Bots":0,"server_type":"Dedicated","server_os":"Linux","password":true,"vac":true,"version":"7723704","steam_id":85568392924469988,"keywords":["nocrits","nodmgspread","payload","uncletopia"],"game_id":440,"stv_port":27026,"stv_name":"Uncletopia | Dallas | 2 | All Maps | STV","players":null},{"server_id":5,"name":"Uncletopia | Frankfurt | 1 | All Maps","name_short":"frk-1","host":"frk-1.de.uncletopia.com","port":27015,"enabled":true,"region":"eu","cc":"de","latitude":50.110924,"longitude":8.682127,"reserved":0,"last_update":"0001-01-01T00:00:00Z","name_a2s":"Uncletopia | Frankfurt | 1 | All Maps","protocol":17,"map":"koth_suijin","folder":"tf","game":"Team Fortress","app_id":440,"player_count":24,"max_players":24,"Bots":0,"server_type":"Dedicated","server_os":"Linux","password":true,"vac":true,"version":"7723704","steam_id":85568392924469989,"keywords":["cp","nocrits","nodmgspread","uncletopia"],"game_id":440,"stv_port":27016,"stv_name":"Uncletopia | Frankfurt | 1 | All Maps | STV","players":[{"user_id":79,"name":"Leeroy Jenkins","steam_id":76561198137210227,"connected_time":1481000000000,"state":"active","ping":65},{"user_id":87,"name":"North Vietnamese Medic","steam_id":76561199152530722,"connected_time":1075000000000,"state":"active","ping":83},{"user_id":67,"name":"supermariogrows","steam_id":76561198200238915,"connected_time":1736000000000,"state":"active","ping":58},{"user_id":129,"name":"Milosz52","steam_id":76561199060940204,"connected_time":145000000000,"state":"active","ping":73},{"user_id":22,"name":"NNikolaiii","steam_id":76561198277293255,"connected_time":3858000000000,"state":"active","ping":83},{"user_id":23,"name":"Doctor.G","steam_id":76561198166786908,"connected_time":3850000000000,"state":"active","ping":50},{"user_id":108,"name":"Adam Sandler","steam_id":76561198310408309,"connected_time":555000000000,"state":"active","ping":62},{"user_id":130,"name":"nox","steam_id":76561198287360892,"connected_time":122000000000,"state":"active","ping":52},{"user_id":85,"name":"енот raccoon","steam_id":76561198203802855,"connected_time":1117000000000,"state":"active","ping":76},{"user_id":104,"name":"soopeli","steam_id":76561198003350251,"connected_time":712000000000,"state":"active","ping":68},{"user_id":91,"name":"Dr. WAH","steam_id":76561198297778149,"connected_time":1040000000000,"state":"active","ping":79},{"user_id":110,"name":"PONCHO 90","steam_id":76561198412197820,"connected_time":539000000000,"state":"active","ping":76},{"user_id":63,"name":"Andreus","steam_id":76561199403926001,"connected_time":2225000000000,"state":"active","ping":69},{"user_id":134,"name":"Slimeby","steam_id":76561198353438688,"connected_time":30000000000,"state":"active","ping":79},{"user_id":54,"name":"Cippo95","steam_id":76561198255311582,"connected_time":2654000000000,"state":"active","ping":75},{"user_id":111,"name":"sjef kef","steam_id":76561198131951354,"connected_time":513000000000,"state":"active","ping":69},{"user_id":57,"name":"Leto","steam_id":76561198419429742,"connected_time":2539000000000,"state":"active","ping":62},{"user_id":103,"name":"JP3","steam_id":76561197970963576,"connected_time":810000000000,"state":"active","ping":60},{"user_id":98,"name":"'_'","steam_id":76561198120264459,"connected_time":942000000000,"state":"active","ping":52},{"user_id":106,"name":"Jet","steam_id":76561198061518477,"connected_time":680000000000,"state":"active","ping":58},{"user_id":120,"name":"HanhiGaming","steam_id":76561198877007477,"connected_time":303000000000,"state":"active","ping":93},{"user_id":78,"name":"Bounter","steam_id":76561198072614188,"connected_time":1485000000000,"state":"active","ping":84},{"user_id":99,"name":"next gen f7ool","steam_id":76561198279952779,"connected_time":925000000000,"state":"active","ping":152},{"user_id":96,"name":"her racecar ;3","steam_id":76561199013457963,"connected_time":968000000000,"state":"active","ping":70}]},{"server_id":110,"name":"Uncletopia | Frankfurt | 2 | All Maps","name_short":"frk-2","host":"frk-1.de.uncletopia.com","port":27025,"enabled":true,"region":"eu","cc":"de","latitude":50.110924,"longitude":8.682127,"reserved":0,"last_update":"0001-01-01T00:00:00Z","name_a2s":"Uncletopia | Frankfurt | 2 | All Maps","protocol":17,"map":"pl_coal_event","folder":"tf","game":"Team Fortress","app_id":440,"player_count":24,"max_players":24,"Bots":0,"server_type":"Dedicated","server_os":"Linux","password":true,"vac":true,"version":"7723704","steam_id":85568392924469990,"keywords":["nocrits","nodmgspread","payload","uncletopia"],"game_id":440,"stv_port":27026,"stv_name":"Uncletopia | Frankfurt | 2 | All Maps | STV","players":[{"user_id":203,"name":"Ultimo","steam_id":76561198061802565,"connected_time":1142000000000,"state":"active","ping":107},{"user_id":192,"name":"Well","steam_id":76561198411337640,"connected_time":2206000000000,"state":"active","ping":101},{"user_id":214,"name":"r06u3","steam_id":76561198254099253,"connected_time":838000000000,"state":"active","ping":179},{"user_id":139,"name":"generic alias","steam_id":76561198271607226,"connected_time":6330000000000,"state":"active","ping":88},{"user_id":222,"name":"Инспектор Атас","steam_id":76561199175688390,"connected_time":710000000000,"state":"active","ping":79},{"user_id":175,"name":"Lena ^^","steam_id":76561199435586696,"connected_time":3744000000000,"state":"active","ping":93},{"user_id":226,"name":"Cranjis McBasketball","steam_id":76561198051290193,"connected_time":329000000000,"state":"active","ping":60},{"user_id":225,"name":"PixelHyde","steam_id":76561198040878617,"connected_time":371000000000,"state":"active","ping":72},{"user_id":144,"name":"Gordon Birdman","steam_id":76561198013382324,"connected_time":5809000000000,"state":"active","ping":75},{"user_id":204,"name":"zaleek69","steam_id":76561198058877595,"connected_time":990000000000,"state":"active","ping":61},{"user_id":213,"name":"im with stupid ^","steam_id":76561198031573426,"connected_time":845000000000,"state":"active","ping":62},{"user_id":211,"name":"Duda","steam_id":76561198306177608,"connected_time":870000000000,"state":"active","ping":72},{"user_id":207,"name":"Koli","steam_id":76561197992428783,"connected_time":942000000000,"state":"active","ping":49},{"user_id":188,"name":"Jin","steam_id":76561198248878364,"connected_time":2407000000000,"state":"active","ping":48},{"user_id":167,"name":":/","steam_id":76561199382587543,"connected_time":4262000000000,"state":"active","ping":57},{"user_id":166,"name":"ToniGAM3S","steam_id":76561198128605351,"connected_time":4487000000000,"state":"active","ping":58},{"user_id":215,"name":"After8","steam_id":76561198090750865,"connected_time":828000000000,"state":"active","ping":65},{"user_id":193,"name":"Narvhalø","steam_id":76561198147495474,"connected_time":2065000000000,"state":"active","ping":45},{"user_id":216,"name":"Andy","steam_id":76561198046918834,"connected_time":820000000000,"state":"active","ping":64},{"user_id":217,"name":"Plop_","steam_id":76561198112567921,"connected_time":811000000000,"state":"active","ping":46},{"user_id":224,"name":"The Bayrisch Brezel","steam_id":76561198061912743,"connected_time":417000000000,"state":"active","ping":57},{"user_id":227,"name":"I wuv you \u003c3","steam_id":76561199436238409,"connected_time":247000000000,"state":"active","ping":75},{"user_id":155,"name":"Taewinzer","steam_id":76561198261820803,"connected_time":5325000000000,"state":"active","ping":70},{"user_id":221,"name":"desu","steam_id":76561198052878585,"connected_time":778000000000,"state":"active","ping":136}]},{"server_id":308,"name":"Uncletopia | Frankfurt | 3 | All Maps","name_short":"frk-3","host":"frk-1.de.uncletopia.com","port":27035,"enabled":true,"region":"eu","cc":"de","latitude":50.110924,"longitude":8.682127,"reserved":0,"last_update":"0001-01-01T00:00:00Z","name_a2s":"Uncletopia | Frankfurt | 3 | All Maps","protocol":17,"map":"pl_pier","folder":"tf","game":"Team Fortress","app_id":440,"player_count":24,"max_players":24,"Bots":0,"server_type":"Dedicated","server_os":"Linux","password":true,"vac":true,"version":"7723704","steam_id":85568392924504274,"keywords":["nocrits","nodmgspread","payload","uncletopia"],"game_id":440,"stv_port":27036,"stv_name":"Uncletopia | Frankfurt | 3 | All Maps | STV","players":[{"user_id":249,"name":"Iru","steam_id":76561198077602040,"connected_time":2061000000000,"state":"active","ping":62},{"user_id":241,"name":"Crazedspicy","steam_id":76561199004590962,"connected_time":2731000000000,"state":"active","ping":60},{"user_id":259,"name":"1_M_W","steam_id":76561199091749430,"connected_time":1146000000000,"state":"active","ping":83},{"user_id":264,"name":"Reeeeeeeeee80","steam_id":76561199438276394,"connected_time":266000000000,"state":"active","ping":82},{"user_id":260,"name":"Nyx","steam_id":76561199234201775,"connected_time":1068000000000,"state":"active","ping":71},{"user_id":222,"name":"naleksi","steam_id":76561198018391055,"connected_time":3723000000000,"state":"active","ping":96},{"user_id":236,"name":"Иванов","steam_id":76561198817596606,"connected_time":2891000000000,"state":"active","ping":50},{"user_id":240,"name":"prosto crabic","steam_id":76561198294473783,"connected_time":2756000000000,"state":"active","ping":110},{"user_id":244,"name":"VIN WEASEL","steam_id":76561198014387066,"connected_time":2638000000000,"state":"active","ping":49},{"user_id":219,"name":"PLUTO","steam_id":76561198312436128,"connected_time":3751000000000,"state":"active","ping":120},{"user_id":248,"name":"Maerk","steam_id":76561199119121016,"connected_time":2077000000000,"state":"active","ping":84},{"user_id":255,"name":"bola typu święta","steam_id":76561199145943588,"connected_time":1405000000000,"state":"active","ping":99},{"user_id":238,"name":"Nick","steam_id":76561198036109469,"connected_time":2822000000000,"state":"active","ping":98},{"user_id":262,"name":"Piox","steam_id":76561198125689157,"connected_time":483000000000,"state":"active","ping":75},{"user_id":243,"name":"imperia400","steam_id":76561199036095993,"connected_time":2721000000000,"state":"active","ping":78},{"user_id":204,"name":"SugipuLaur","steam_id":76561199138556623,"connected_time":4251000000000,"state":"active","ping":87},{"user_id":261,"name":"Exo.","steam_id":76561199091395919,"connected_time":486000000000,"state":"active","ping":54},{"user_id":258,"name":"drew","steam_id":76561198012304706,"connected_time":1384000000000,"state":"active","ping":102},{"user_id":257,"name":"Seeker","steam_id":76561198873052772,"connected_time":1389000000000,"state":"active","ping":66},{"user_id":208,"name":"0______0","steam_id":76561198118695421,"connected_time":4158000000000,"state":"active","ping":74},{"user_id":226,"name":"Chang supremacy","steam_id":76561198179324075,"connected_time":3693000000000,"state":"active","ping":75},{"user_id":251,"name":"E","steam_id":76561198166340115,"connected_time":2017000000000,"state":"active","ping":73},{"user_id":254,"name":"ayuumi","steam_id":76561198796327257,"connected_time":1428000000000,"state":"active","ping":45},{"user_id":263,"name":"Pabs :D","steam_id":76561198000016962,"connected_time":483000000000,"state":"active","ping":57}]},{"server_id":309,"name":"Uncletopia | Frankfurt | 4 | All Maps","name_short":"frk-4","host":"frk-1.de.uncletopia.com","port":27045,"enabled":true,"region":"eu","cc":"de","latitude":50.110924,"longitude":8.682127,"reserved":0,"last_update":"0001-01-01T00:00:00Z","name_a2s":"Uncletopia | Frankfurt | 4 | All Maps","protocol":17,"map":"ctf_2fort","folder":"tf","game":"Team Fortress","app_id":440,"player_count":12,"max_players":24,"Bots":0,"server_type":"Dedicated","server_os":"Linux","password":true,"vac":true,"version":"7723704","steam_id":85568392924504275,"keywords":["ctf","nocrits","nodmgspread","uncletopia"],"game_id":440,"stv_port":27046,"stv_name":"Uncletopia | Frankfurt | 4 | All Maps | STV","players":[{"user_id":14,"name":"Kili","steam_id":76561198138456346,"connected_time":2003000000000,"state":"active","ping":65},{"user_id":15,"name":"I have no idea","steam_id":76561199387825419,"connected_time":1572000000000,"state":"active","ping":115},{"user_id":27,"name":"Wojo #savetf2","steam_id":76561199167781869,"connected_time":51000000000,"state":"active","ping":60},{"user_id":18,"name":"Cota (IS BACK IN TOWN)","steam_id":76561198213417613,"connected_time":825000000000,"state":"active","ping":84},{"user_id":20,"name":"Vertically Challenged","steam_id":76561198257158275,"connected_time":432000000000,"state":"active","ping":139},{"user_id":21,"name":"Arizona Pootis","steam_id":76561198982674420,"connected_time":263000000000,"state":"active","ping":61},{"user_id":22,"name":"GigaGuenther","steam_id":76561198257633868,"connected_time":259000000000,"state":"active","ping":55},{"user_id":23,"name":"Was_Wolf","steam_id":76561199153210310,"connected_time":255000000000,"state":"active","ping":64},{"user_id":24,"name":"FreeZ","steam_id":76561199070093469,"connected_time":204000000000,"state":"active","ping":66},{"user_id":25,"name":"nos narco","steam_id":76561198194327061,"connected_time":130000000000,"state":"active","ping":52},{"user_id":26,"name":"Gebagemid","steam_id":76561198003684717,"connected_time":126000000000,"state":"active","ping":60},{"user_id":28,"name":"Krauserik7","steam_id":76561198263204577,"connected_time":48000000000,"state":"active","ping":67}]},{"server_id":310,"name":"Uncletopia | Frankfurt | 5 | All Maps","name_short":"frk-5","host":"frk-1.de.uncletopia.com","port":27055,"enabled":true,"region":"eu","cc":"de","latitude":50.110924,"longitude":8.682127,"reserved":0,"last_update":"0001-01-01T00:00:00Z","name_a2s":"Uncletopia | Frankfurt | 5 | All Maps","protocol":17,"map":"pl_frontier_final","folder":"tf","game":"Team Fortress","app_id":440,"player_count":24,"max_players":24,"Bots":0,"server_type":"Dedicated","server_os":"Linux","password":true,"vac":true,"version":"7723704","steam_id":85568392924504277,"keywords":["nocrits","nodmgspread","payload","uncletopia"],"game_id":440,"stv_port":27056,"stv_name":"Uncletopia | Frankfurt | 5 | All Maps | STV","players":[{"user_id":191,"name":"Pyromana","steam_id":76561198088421655,"connected_time":3035000000000,"state":"active","ping":51},{"user_id":206,"name":"Soap","steam_id":76561198325800211,"connected_time":2144000000000,"state":"active","ping":64},{"user_id":201,"name":"linkinparkfan123","steam_id":76561199033782005,"connected_time":2422000000000,"state":"active","ping":82},{"user_id":133,"name":"Passionatly Drunk Irishman","steam_id":76561198372536459,"connected_time":6693000000000,"state":"active","ping":61},{"user_id":157,"name":"Goliath","steam_id":76561198088583638,"connected_time":4685000000000,"state":"active","ping":48},{"user_id":223,"name":"ImABush","steam_id":76561198304471896,"connected_time":233000000000,"state":"active","ping":45},{"user_id":215,"name":"delta man","steam_id":76561198204491245,"connected_time":1492000000000,"state":"active","ping":135},{"user_id":217,"name":"Svilar","steam_id":76561198828348612,"connected_time":1474000000000,"state":"active","ping":56},{"user_id":180,"name":"Itai","steam_id":76561198804555329,"connected_time":3232000000000,"state":"active","ping":107},{"user_id":203,"name":"thekoolest88","steam_id":76561199022415672,"connected_time":2379000000000,"state":"active","ping":141},{"user_id":216,"name":"Joejee","steam_id":76561199122423976,"connected_time":1489000000000,"state":"active","ping":74},{"user_id":211,"name":"banrab","steam_id":76561198083615367,"connected_time":1978000000000,"state":"active","ping":56},{"user_id":198,"name":"XPullaHiiri","steam_id":76561198031652375,"connected_time":2528000000000,"state":"active","ping":87},{"user_id":192,"name":"Light601","steam_id":76561198134998492,"connected_time":3015000000000,"state":"active","ping":93},{"user_id":200,"name":"galaxy","steam_id":76561198164819022,"connected_time":2515000000000,"state":"active","ping":59},{"user_id":214,"name":"luma","steam_id":76561198081649669,"connected_time":1586000000000,"state":"active","ping":67},{"user_id":220,"name":"КТО УБИЛ МАРКА?","steam_id":76561198400043154,"connected_time":1168000000000,"state":"active","ping":86},{"user_id":193,"name":"DSL","steam_id":76561198186770547,"connected_time":2998000000000,"state":"active","ping":95},{"user_id":219,"name":"Breadcrab","steam_id":76561198015924039,"connected_time":1252000000000,"state":"active","ping":72},{"user_id":202,"name":"KFC Enjoyer","steam_id":76561198840259819,"connected_time":2411000000000,"state":"active","ping":45},{"user_id":222,"name":"rawvez","steam_id":76561199445594860,"connected_time":329000000000,"state":"active","ping":101},{"user_id":218,"name":"big chungus fanboy","steam_id":76561198069708453,"connected_time":1286000000000,"state":"active","ping":71},{"user_id":167,"name":"videogames1000","steam_id":76561198086976963,"connected_time":3965000000000,"state":"active","ping":88},{"user_id":194,"name":"Löysä Masa","steam_id":76561198343396172,"connected_time":2940000000000,"state":"active","ping":90}]},{"server_id":311,"name":"Uncletopia | Frankfurt | 6 | All Maps","name_short":"frk-6","host":"frk-1.de.uncletopia.com","port":27065,"enabled":true,"region":"eu","cc":"de","latitude":50.110924,"longitude":8.682127,"reserved":0,"last_update":"0001-01-01T00:00:00Z","name_a2s":"Uncletopia | Frankfurt | 6 | All Maps","protocol":17,"map":"koth_cascade","folder":"tf","game":"Team Fortress","app_id":440,"player_count":0,"max_players":24,"Bots":0,"server_type":"Dedicated","server_os":"Linux","password":true,"vac":true,"version":"7723704","steam_id":85568392924504278,"keywords":["cp","nocrits","nodmgspread","uncletopia"],"game_id":440,"stv_port":27066,"stv_name":"Uncletopia | Frankfurt | 6 | All Maps | STV","players":null},{"server_id":23,"name":"Uncletopia | Frankfurt | 7 | Stopwatch Beta","name_short":"frk-7","host":"frk-1.de.uncletopia.com","port":27075,"enabled":true,"region":"eu","cc":"de","latitude":50.110924,"longitude":8.682127,"reserved":0,"last_update":"0001-01-01T00:00:00Z","name_a2s":"Uncletopia | Frankfurt | 7 | Stopwatch Beta","protocol":17,"map":"pl_swiftwater_final1","folder":"tf","game":"Team Fortress","app_id":440,"player_count":24,"max_players":24,"Bots":0,"server_type":"Dedicated","server_os":"Linux","password":true,"vac":true,"version":"7723704","steam_id":85568392924742827,"keywords":["nocrits","nodmgspread","payload","uncletopia"],"game_id":440,"stv_port":27076,"stv_name":"Uncletopia | Frankfurt | 7 | Stopwatch Beta | STV","players":[{"user_id":98,"name":"dusty","steam_id":76561199011977567,"connected_time":596000000000,"state":"active","ping":58},{"user_id":37,"name":"ronnie","steam_id":76561198377533237,"connected_time":2343000000000,"state":"active","ping":580},{"user_id":101,"name":"I-I","steam_id":76561198267969436,"connected_time":453000000000,"state":"active","ping":64},{"user_id":96,"name":"little gamer","steam_id":76561198129693991,"connected_time":789000000000,"state":"active","ping":108},{"user_id":14,"name":"Malik794","steam_id":76561198967164437,"connected_time":2953000000000,"state":"active","ping":102},{"user_id":117,"name":"K.V. #RemoveRandomCrits","steam_id":76561197994832993,"connected_time":45000000000,"state":"active","ping":70},{"user_id":100,"name":"roblan11","steam_id":76561198066839258,"connected_time":528000000000,"state":"active","ping":53},{"user_id":102,"name":"JohnnyRakieta","steam_id":76561198855789287,"connected_time":385000000000,"state":"active","ping":71},{"user_id":112,"name":"Brains1649","steam_id":76561198224068728,"connected_time":163000000000,"state":"active","ping":87},{"user_id":77,"name":"stupid dumbass","steam_id":76561198425642596,"connected_time":1384000000000,"state":"active","ping":68},{"user_id":113,"name":"Ged","steam_id":76561198079288943,"connected_time":148000000000,"state":"active","ping":108},{"user_id":22,"name":"NZN_pro","steam_id":76561198862334903,"connected_time":2720000000000,"state":"active","ping":147},{"user_id":90,"name":"Bob Salami","steam_id":76561198150681340,"connected_time":955000000000,"state":"active","ping":82},{"user_id":104,"name":"eazyteazer","steam_id":76561198970822998,"connected_time":380000000000,"state":"active","ping":86},{"user_id":116,"name":"uranium.muncher.235","steam_id":76561198352926998,"connected_time":67000000000,"state":"active","ping":103},{"user_id":105,"name":"gamer man","steam_id":76561198436817109,"connected_time":376000000000,"state":"active","ping":69},{"user_id":63,"name":"kret","steam_id":76561198435353837,"connected_time":1670000000000,"state":"active","ping":49},{"user_id":106,"name":"Batman2908","steam_id":76561198855401335,"connected_time":364000000000,"state":"active","ping":68},{"user_id":107,"name":"krzysby","steam_id":76561198340229275,"connected_time":343000000000,"state":"active","ping":374},{"user_id":86,"name":"Uncle Lame","steam_id":76561198089003514,"connected_time":1082000000000,"state":"active","ping":45},{"user_id":108,"name":"TG morlo^","steam_id":76561198249301650,"connected_time":336000000000,"state":"active","ping":44},{"user_id":73,"name":"Michael","steam_id":76561198003146906,"connected_time":1429000000000,"state":"active","ping":60},{"user_id":110,"name":"FatalRyhme","steam_id":76561198018713483,"connected_time":264000000000,"state":"active","ping":87},{"user_id":111,"name":"eggslut","steam_id":76561198010752241,"connected_time":253000000000,"state":"active","ping":71}]},{"server_id":24,"name":"Uncletopia | Frankfurt | 8 | Community","name_short":"frk-8","host":"frk-1.de.uncletopia.com","port":27085,"enabled":true,"region":"eu","cc":"de","latitude":50.110924,"longitude":8.682127,"reserved":0,"last_update":"0001-01-01T00:00:00Z","name_a2s":"Uncletopia | Frankfurt | 8 | Community","protocol":17,"map":"pl_frontier_final","folder":"tf","game":"Team Fortress","app_id":440,"player_count":0,"max_players":24,"Bots":0,"server_type":"Dedicated","server_os":"Linux","password":true,"vac":true,"version":"7723704","steam_id":85568392924742828,"keywords":["nocrits","nodmgspread","payload","uncletopia"],"game_id":440,"stv_port":27086,"stv_name":"Uncletopia | Frankfurt | 8 | Community | STV","players":null},{"server_id":202,"name":"Uncletopia | Hong Kong | 1 | All Maps","name_short":"hgk-1","host":"hgk-1.hk.uncletopia.com","port":27015,"enabled":true,"region":"asia","cc":"hk","latitude":22.302711,"longitude":114.177216,"reserved":0,"last_update":"0001-01-01T00:00:00Z","name_a2s":"Uncletopia | Hong Kong | 1 | All Maps","protocol":17,"map":"pl_snowycoast","folder":"tf","game":"Team Fortress","app_id":440,"player_count":24,"max_players":24,"Bots":0,"server_type":"Dedicated","server_os":"Linux","password":true,"vac":true,"version":"7723704","steam_id":85568392924494504,"keywords":["nocrits","nodmgspread","payload","uncletopia"],"game_id":440,"stv_port":27016,"stv_name":"Uncletopia | Hong Kong | 1 | All Maps | STV","players":[{"user_id":307,"name":"bistek","steam_id":76561198230213828,"connected_time":2979000000000,"state":"active","ping":67},{"user_id":314,"name":"Buttman","steam_id":76561198044693388,"connected_time":2435000000000,"state":"active","ping":34},{"user_id":254,"name":"brizzard","steam_id":76561198048438653,"connected_time":6391000000000,"state":"active","ping":46},{"user_id":291,"name":"Corhix","steam_id":76561198968706355,"connected_time":4513000000000,"state":"active","ping":43},{"user_id":260,"name":"Pillboi","steam_id":76561198011172886,"connected_time":6178000000000,"state":"active","ping":41},{"user_id":303,"name":"killman47","steam_id":76561198348487408,"connected_time":3596000000000,"state":"active","ping":39},{"user_id":320,"name":"cellum95","steam_id":76561198172146871,"connected_time":2215000000000,"state":"active","ping":54},{"user_id":346,"name":"ZeniaPY (Playing on Wacom)","steam_id":76561198404352831,"connected_time":523000000000,"state":"active","ping":58},{"user_id":321,"name":"Noyour","steam_id":76561198323259830,"connected_time":2139000000000,"state":"active","ping":112},{"user_id":322,"name":"Gemini Rights By Steve Lacy","steam_id":76561198400698408,"connected_time":1981000000000,"state":"active","ping":89},{"user_id":161,"name":"Bertengkar","steam_id":76561198213031155,"connected_time":13387000000000,"state":"active","ping":96},{"user_id":194,"name":"screaming sniper","steam_id":76561199085568674,"connected_time":11571000000000,"state":"active","ping":61},{"user_id":333,"name":"Steve","steam_id":76561198429235506,"connected_time":1508000000000,"state":"active","ping":76},{"user_id":288,"name":"Lúd","steam_id":76561198828840546,"connected_time":4641000000000,"state":"active","ping":85},{"user_id":340,"name":"QWQ","steam_id":76561198886731650,"connected_time":1082000000000,"state":"active","ping":100},{"user_id":328,"name":"silversol","steam_id":76561198004570036,"connected_time":1888000000000,"state":"active","ping":98},{"user_id":311,"name":"Cheesey","steam_id":76561198975684137,"connected_time":2659000000000,"state":"active","ping":101},{"user_id":327,"name":"j_rex","steam_id":76561198132473926,"connected_time":1898000000000,"state":"active","ping":63},{"user_id":299,"name":"+W+","steam_id":76561197997220367,"connected_time":3883000000000,"state":"active","ping":40},{"user_id":337,"name":"17","steam_id":76561198241530712,"connected_time":1099000000000,"state":"active","ping":60},{"user_id":324,"name":"Momoxhien","steam_id":76561198414997429,"connected_time":1981000000000,"state":"active","ping":61},{"user_id":338,"name":"rachel","steam_id":76561198057200043,"connected_time":1099000000000,"state":"active","ping":81},{"user_id":348,"name":"Wakiiiz","steam_id":76561198850134590,"connected_time":408000000000,"state":"active","ping":53},{"user_id":313,"name":"hpeed","steam_id":76561198808595586,"connected_time":2658000000000,"state":"active","ping":128}]},{"server_id":1,"name":"Uncletopia | Los Angeles | 1 | All Maps","name_short":"lax-1","host":"lax-1.us.uncletopia.com","port":27015,"enabled":true,"region":"us-west","cc":"us","latitude":33.94279,"longitude":-118.41004,"reserved":0,"last_update":"0001-01-01T00:00:00Z","name_a2s":"Uncletopia | Los Angeles | 1 | All Maps","protocol":17,"map":"pl_snowycoast","folder":"tf","game":"Team Fortress","app_id":440,"player_count":0,"max_players":24,"Bots":0,"server_type":"Dedicated","server_os":"Linux","password":true,"vac":true,"version":"7723704","steam_id":85568392924469991,"keywords":["nocrits","nodmgspread","payload","uncletopia"],"game_id":440,"stv_port":27016,"stv_name":"Uncletopia | Los Angeles | 1 | All Maps | STV","players":null},{"server_id":112,"name":"Uncletopia | Los Angeles | 2 | All Maps","name_short":"lax-2","host":"lax-1.us.uncletopia.com","port":27025,"enabled":true,"region":"us-west","cc":"us","latitude":33.94279,"longitude":-118.41004,"reserved":0,"last_update":"0001-01-01T00:00:00Z","name_a2s":"Uncletopia | Los Angeles | 2 | All Maps","protocol":17,"map":"koth_viaduct","folder":"tf","game":"Team Fortress","app_id":440,"player_count":0,"max_players":24,"Bots":0,"server_type":"Dedicated","server_os":"Linux","password":true,"vac":true,"version":"7723704","steam_id":85568392924469992,"keywords":["cp","nocrits","nodmgspread","uncletopia"],"game_id":440,"stv_port":27026,"stv_name":"Uncletopia | Los Angeles | 2 | All Maps | STV","players":null},{"server_id":324,"name":"Uncletopia | Los Angeles | 3 | All Maps","name_short":"lax-3","host":"lax-1.us.uncletopia.com","port":27035,"enabled":true,"region":"us-west","cc":"us","latitude":33.94279,"longitude":-118.41004,"reserved":0,"last_update":"0001-01-01T00:00:00Z","name_a2s":"Uncletopia | Los Angeles | 3 | All Maps","protocol":17,"map":"koth_viaduct","folder":"tf","game":"Team Fortress","app_id":440,"player_count":0,"max_players":24,"Bots":0,"server_type":"Dedicated","server_os":"Linux","password":true,"vac":true,"version":"7723704","steam_id":85568392924510198,"keywords":["cp","nocrits","nodmgspread","uncletopia"],"game_id":440,"stv_port":27036,"stv_name":"Uncletopia | Los Angeles | 3 | All Maps | STV","players":null},{"server_id":25,"name":"Uncletopia | Los Angeles | 4 | Stopwatch Beta","name_short":"lax-4","host":"lax-1.us.uncletopia.com","port":27045,"enabled":true,"region":"us-west","cc":"us","latitude":33.94279,"longitude":-118.41004,"reserved":0,"last_update":"0001-01-01T00:00:00Z","name_a2s":"Uncletopia | Los Angeles | 4 | Stopwatch Beta","protocol":17,"map":"cp_sunshine","folder":"tf","game":"Team Fortress","app_id":440,"player_count":0,"max_players":24,"Bots":0,"server_type":"Dedicated","server_os":"Linux","password":true,"vac":true,"version":"7723704","steam_id":85568392924510199,"keywords":["cp","nocrits","nodmgspread","uncletopia"],"game_id":440,"stv_port":27046,"stv_name":"Uncletopia | Los Angeles | 4 | Stopwatch Beta | STV","players":null},{"server_id":11,"name":"Uncletopia | London | 1 | All Maps","name_short":"lon-1","host":"lon-1.uk.uncletopia.com","port":27015,"enabled":true,"region":"eu","cc":"gb","latitude":51.509865,"longitude":-0.118092,"reserved":0,"last_update":"0001-01-01T00:00:00Z","name_a2s":"Uncletopia | London | 1 | All Maps","protocol":17,"map":"pl_swiftwater_final1","folder":"tf","game":"Team Fortress","app_id":440,"player_count":24,"max_players":24,"Bots":0,"server_type":"Dedicated","server_os":"Linux","password":true,"vac":true,"version":"7723704","steam_id":85568392924367362,"keywords":["nocrits","nodmgspread","payload","uncletopia"],"game_id":440,"stv_port":27016,"stv_name":"Uncletopia | London | 1 | All Maps | STV","players":[{"user_id":144,"name":"Comfy Monkey","steam_id":76561197998434936,"connected_time":182000000000,"state":"active","ping":115},{"user_id":147,"name":"kbbq","steam_id":76561198346638308,"connected_time":150000000000,"state":"active","ping":55},{"user_id":133,"name":"Qwerty","steam_id":76561198023525894,"connected_time":457000000000,"state":"active","ping":81},{"user_id":155,"name":"Celtins","steam_id":76561198839837475,"connected_time":25000000000,"state":"spawning","ping":59},{"user_id":106,"name":"Thesis","steam_id":76561199308784371,"connected_time":1956000000000,"state":"active","ping":53},{"user_id":105,"name":"Astrya","steam_id":76561198091242337,"connected_time":1997000000000,"state":"active","ping":44},{"user_id":99,"name":"mh3","steam_id":76561198192204191,"connected_time":2622000000000,"state":"active","ping":66},{"user_id":142,"name":"SCRAMMMBLED","steam_id":76561197998307746,"connected_time":189000000000,"state":"active","ping":74},{"user_id":143,"name":"43291842381","steam_id":76561198038160325,"connected_time":188000000000,"state":"active","ping":91},{"user_id":145,"name":"F1-M","steam_id":76561198198409875,"connected_time":180000000000,"state":"active","ping":119},{"user_id":80,"name":"Bait","steam_id":76561198335188568,"connected_time":3573000000000,"state":"active","ping":34},{"user_id":148,"name":"Wrabchev* Just_Smile","steam_id":76561198040645344,"connected_time":147000000000,"state":"active","ping":80},{"user_id":149,"name":"Jamie Hyneman","steam_id":76561198364121077,"connected_time":143000000000,"state":"active","ping":97},{"user_id":70,"name":"goofy goober","steam_id":76561198013237629,"connected_time":3761000000000,"state":"active","ping":99},{"user_id":117,"name":"Circular","steam_id":76561198001536710,"connected_time":1302000000000,"state":"active","ping":45},{"user_id":139,"name":"JugoTopia","steam_id":76561197996067209,"connected_time":209000000000,"state":"active","ping":123},{"user_id":114,"name":"lupe.-","steam_id":76561198079813788,"connected_time":1556000000000,"state":"active","ping":61},{"user_id":121,"name":"NoNutZ \u003c3","steam_id":76561198092500604,"connected_time":1150000000000,"state":"active","ping":60},{"user_id":150,"name":"TheBeardedM1G","steam_id":76561198040208946,"connected_time":143000000000,"state":"active","ping":50},{"user_id":153,"name":"cat on my lap","steam_id":76561198101292843,"connected_time":83000000000,"state":"active","ping":49},{"user_id":154,"name":"Chocofrolik","steam_id":76561198454779847,"connected_time":83000000000,"state":"active","ping":58},{"user_id":93,"name":"Suomenjuusto","steam_id":76561198991491758,"connected_time":3204000000000,"state":"active","ping":85},{"user_id":95,"name":"Lapa Mato","steam_id":76561199052049475,"connected_time":3114000000000,"state":"active","ping":89},{"user_id":123,"name":"Bouncing Bullet","steam_id":76561197973653171,"connected_time":782000000000,"state":"active","ping":48}]},{"server_id":114,"name":"Uncletopia | London | 2 | All Maps","name_short":"lon-2","host":"lon-1.uk.uncletopia.com","port":27025,"enabled":true,"region":"eu","cc":"gb","latitude":51.509865,"longitude":-0.118092,"reserved":0,"last_update":"0001-01-01T00:00:00Z","name_a2s":"Uncletopia | London | 2 | All Maps","protocol":17,"map":"koth_lakeside_final","folder":"tf","game":"Team Fortress","app_id":440,"player_count":0,"max_players":24,"Bots":0,"server_type":"Dedicated","server_os":"Linux","password":true,"vac":true,"version":"7723704","steam_id":85568392924470941,"keywords":["cp","nocrits","nodmgspread","uncletopia"],"game_id":440,"stv_port":27026,"stv_name":"Uncletopia | London | 2 | All Maps | STV","players":null},{"server_id":320,"name":"Uncletopia | London | 3 | All Maps","name_short":"lon-3","host":"lon-1.uk.uncletopia.com","port":27035,"enabled":true,"region":"eu","cc":"gb","latitude":51.509865,"longitude":-0.118092,"reserved":0,"last_update":"0001-01-01T00:00:00Z","name_a2s":"Uncletopia | London | 3 | All Maps","protocol":17,"map":"pl_rumford_event","folder":"tf","game":"Team Fortress","app_id":440,"player_count":20,"max_players":24,"Bots":0,"server_type":"Dedicated","server_os":"Linux","password":true,"vac":true,"version":"7723704","steam_id":85568392924510192,"keywords":["nocrits","nodmgspread","payload","uncletopia"],"game_id":440,"stv_port":27036,"stv_name":"Uncletopia | London | 3 | All Maps | STV","players":[{"user_id":314,"name":"s’il vous plaît","steam_id":76561197960467762,"connected_time":722000000000,"state":"connecting","ping":112},{"user_id":326,"name":"GodOfGobboz","steam_id":76561198154677956,"connected_time":14000000000,"state":"connecting","ping":60},{"user_id":301,"name":"dotdotdot","steam_id":76561198057628751,"connected_time":1931000000000,"state":"connecting","ping":85},{"user_id":327,"name":"Ginger","steam_id":76561198427885745,"connected_time":9000000000,"state":"connecting","ping":121},{"user_id":328,"name":"soil.dirt.earth","steam_id":76561198014377623,"connected_time":6000000000,"state":"connecting","ping":59},{"user_id":264,"name":"►hAppser◄","steam_id":76561198255221005,"connected_time":4818000000000,"state":"connecting","ping":109},{"user_id":310,"name":"willo","steam_id":76561198034442999,"connected_time":1367000000000,"state":"connecting","ping":68},{"user_id":256,"name":"LAMC","steam_id":76561199066888917,"connected_time":5704000000000,"state":"connecting","ping":83},{"user_id":298,"name":"TEN YEARS IN THE JOINT","steam_id":76561198393528841,"connected_time":2056000000000,"state":"connecting","ping":105},{"user_id":313,"name":"Zero","steam_id":76561199383267408,"connected_time":1030000000000,"state":"connecting","ping":157},{"user_id":306,"name":"Squash Banana","steam_id":76561198055480280,"connected_time":1420000000000,"state":"connecting","ping":109},{"user_id":316,"name":"XX PRO SPY GAMING XX","steam_id":76561198146180114,"connected_time":697000000000,"state":"connecting","ping":99},{"user_id":293,"name":"Wir suchen dich!","steam_id":76561198307613521,"connected_time":2443000000000,"state":"spawning","ping":66},{"user_id":321,"name":"R!not","steam_id":76561197986328786,"connected_time":210000000000,"state":"connecting","ping":55},{"user_id":285,"name":"The Fighting Doll","steam_id":76561197990347787,"connected_time":3074000000000,"state":"spawning","ping":59},{"user_id":320,"name":"Xayir","steam_id":76561198079566786,"connected_time":519000000000,"state":"connecting","ping":94},{"user_id":325,"name":"OhMyGrosch","steam_id":76561198361193051,"connected_time":23000000000,"state":"connecting","ping":142},{"user_id":283,"name":"tristan","steam_id":76561198096097448,"connected_time":3443000000000,"state":"connecting","ping":67},{"user_id":317,"name":"Cap'n Scurvy Swine","steam_id":76561199013058420,"connected_time":657000000000,"state":"connecting","ping":87},{"user_id":309,"name":"Joffe Pistol","steam_id":76561197993849325,"connected_time":1409000000000,"state":"connecting","ping":71}]},{"server_id":321,"name":"Uncletopia | London | 4 | All Maps","name_short":"lon-4","host":"lon-1.uk.uncletopia.com","port":27045,"enabled":true,"region":"eu","cc":"gb","latitude":51.509865,"longitude":-0.118092,"reserved":0,"last_update":"0001-01-01T00:00:00Z","name_a2s":"Uncletopia | London | 4 | All Maps","protocol":17,"map":"koth_lakeside_final","folder":"tf","game":"Team Fortress","app_id":440,"player_count":0,"max_players":24,"Bots":0,"server_type":"Dedicated","server_os":"Linux","password":true,"vac":true,"version":"7723704","steam_id":85568392924510193,"keywords":["cp","nocrits","nodmgspread","uncletopia"],"game_id":440,"stv_port":27046,"stv_name":"Uncletopia | London | 4 | All Maps | STV","players":null},{"server_id":21,"name":"Uncletopia | London | 5 | All Maps","name_short":"lon-5","host":"lon-1.uk.uncletopia.com","port":27055,"enabled":true,"region":"eu","cc":"gb","latitude":51.509865,"longitude":-0.118092,"reserved":0,"last_update":"0001-01-01T00:00:00Z","name_a2s":"Uncletopia | London | 5 | All Maps","protocol":17,"map":"koth_viaduct","folder":"tf","game":"Team Fortress","app_id":440,"player_count":0,"max_players":24,"Bots":0,"server_type":"Dedicated","server_os":"Linux","password":true,"vac":true,"version":"7723704","steam_id":85568392924742829,"keywords":["cp","nocrits","nodmgspread","uncletopia"],"game_id":440,"stv_port":27056,"stv_name":"Uncletopia | London | 5 | All Maps | STV","players":null},{"server_id":22,"name":"Uncletopia | London | 6 | All Maps","name_short":"lon-6","host":"lon-1.uk.uncletopia.com","port":27065,"enabled":true,"region":"eu","cc":"gb","latitude":51.509865,"longitude":-0.118092,"reserved":0,"last_update":"0001-01-01T00:00:00Z","name_a2s":"Uncletopia | London | 6 | All Maps","protocol":17,"map":"pl_upward","folder":"tf","game":"Team Fortress","app_id":440,"player_count":24,"max_players":24,"Bots":0,"server_type":"Dedicated","server_os":"Linux","password":true,"vac":true,"version":"7723704","steam_id":85568392924742830,"keywords":["nocrits","nodmgspread","payload","uncletopia"],"game_id":440,"stv_port":27066,"stv_name":"Uncletopia | London | 6 | All Maps | STV","players":[{"user_id":8,"name":"A Cat","steam_id":76561198221549132,"connected_time":1929000000000,"state":"active","ping":39},{"user_id":9,"name":"miku","steam_id":76561198167675482,"connected_time":1843000000000,"state":"active","ping":84},{"user_id":10,"name":"festive shr4pnel","steam_id":76561198105056513,"connected_time":1777000000000,"state":"active","ping":34},{"user_id":11,"name":"water bottle","steam_id":76561199141538535,"connected_time":1713000000000,"state":"active","ping":32},{"user_id":45,"name":"compus","steam_id":76561199134152606,"connected_time":95000000000,"state":"active","ping":55},{"user_id":17,"name":"jankomit","steam_id":76561198043024857,"connected_time":1221000000000,"state":"active","ping":77},{"user_id":18,"name":"Kahvi","steam_id":76561198723244199,"connected_time":1004000000000,"state":"active","ping":72},{"user_id":19,"name":"Nika","steam_id":76561198355965587,"connected_time":992000000000,"state":"active","ping":66},{"user_id":20,"name":"SynthBox3","steam_id":76561199094075745,"connected_time":957000000000,"state":"active","ping":112},{"user_id":21,"name":"Gardvord","steam_id":76561198120715753,"connected_time":955000000000,"state":"active","ping":66},{"user_id":22,"name":"Maya #transrights","steam_id":76561198290614621,"connected_time":929000000000,"state":"active","ping":50},{"user_id":36,"name":"lordwiadron420","steam_id":76561198073309557,"connected_time":577000000000,"state":"active","ping":72},{"user_id":24,"name":"Нікітрон","steam_id":76561198044401080,"connected_time":783000000000,"state":"active","ping":69},{"user_id":25,"name":"Oak (trying native)","steam_id":76561198248567360,"connected_time":770000000000,"state":"active","ping":38},{"user_id":30,"name":"quack","steam_id":76561198121003465,"connected_time":672000000000,"state":"active","ping":56},{"user_id":27,"name":"Jayco","steam_id":76561198122497262,"connected_time":725000000000,"state":"active","ping":57},{"user_id":28,"name":"miro","steam_id":76561198014660873,"connected_time":720000000000,"state":"active","ping":82},{"user_id":29,"name":"TMC","steam_id":76561198077956157,"connected_time":718000000000,"state":"active","ping":41},{"user_id":31,"name":"LegoKatt","steam_id":76561198064536870,"connected_time":671000000000,"state":"active","ping":89},{"user_id":43,"name":"Kralian","steam_id":76561198826960955,"connected_time":202000000000,"state":"active","ping":72},{"user_id":39,"name":"spillr-.-","steam_id":76561198031330889,"connected_time":543000000000,"state":"active","ping":67},{"user_id":34,"name":"Dog World","steam_id":76561199233979726,"connected_time":650000000000,"state":"active","ping":97},{"user_id":42,"name":"Love And Tolerance","steam_id":76561197969381880,"connected_time":319000000000,"state":"active","ping":78},{"user_id":41,"name":"Windows Vista Cruiser","steam_id":76561198064102233,"connected_time":492000000000,"state":"active","ping":65}]},{"server_id":40,"name":"Uncletopia | London | 7 | No Payload","name_short":"lon-7","host":"lon-1.uk.uncletopia.com","port":27075,"enabled":true,"region":"eu","cc":"gb","latitude":51.509865,"longitude":-0.118092,"reserved":0,"last_update":"0001-01-01T00:00:00Z","name_a2s":"Uncletopia | London | 7 | No Payload","protocol":17,"map":"koth_viaduct","folder":"tf","game":"Team Fortress","app_id":440,"player_count":0,"max_players":24,"Bots":0,"server_type":"Dedicated","server_os":"Linux","password":true,"vac":true,"version":"7723704","steam_id":85568392924964314,"keywords":["cp","nocrits","nodmgspread","uncletopia"],"game_id":440,"stv_port":27076,"stv_name":"Uncletopia | London | 7 | No Payload | STV","players":null},{"server_id":41,"name":"Uncletopia | London | 8 | Community","name_short":"lon-8","host":"lon-1.uk.uncletopia.com","port":27085,"enabled":true,"region":"eu","cc":"gb","latitude":51.509865,"longitude":-0.118092,"reserved":0,"last_update":"0001-01-01T00:00:00Z","name_a2s":"Uncletopia | London | 8 | Community","protocol":17,"map":"koth_highpass","folder":"tf","game":"Team Fortress","app_id":440,"player_count":0,"max_players":24,"Bots":0,"server_type":"Dedicated","server_os":"Linux","password":true,"vac":true,"version":"7723704","steam_id":85568392924964315,"keywords":["cp","nocrits","nodmgspread","uncletopia"],"game_id":440,"stv_port":27086,"stv_name":"Uncletopia | London | 8 | Community | STV","players":null},{"server_id":300,"name":"Uncletopia | Montréal | 1 | All Maps","name_short":"mtl-1","host":"mtl-1.ca.uncletopia.com","port":27015,"enabled":true,"region":"us-east","cc":"ca","latitude":45.50889,"longitude":-73.56167,"reserved":0,"last_update":"0001-01-01T00:00:00Z","name_a2s":"Uncletopia | Montréal | 1 | All Maps","protocol":17,"map":"pl_snowycoast","folder":"tf","game":"Team Fortress","app_id":440,"player_count":0,"max_players":24,"Bots":0,"server_type":"Dedicated","server_os":"Linux","password":true,"vac":true,"version":"7723704","steam_id":85568392924500087,"keywords":["nocrits","nodmgspread","payload","uncletopia"],"game_id":440,"stv_port":27016,"stv_name":"Uncletopia | Montréal | 1 | All Maps | STV","players":null},{"server_id":301,"name":"Uncletopia | Montréal | 2 | All Maps","name_short":"mtl-2","host":"mtl-1.ca.uncletopia.com","port":27025,"enabled":true,"region":"us-east","cc":"ca","latitude":45.50889,"longitude":-73.56167,"reserved":0,"last_update":"0001-01-01T00:00:00Z","name_a2s":"Uncletopia | Montréal | 2 | All Maps","protocol":17,"map":"cp_process_final","folder":"tf","game":"Team Fortress","app_id":440,"player_count":0,"max_players":24,"Bots":0,"server_type":"Dedicated","server_os":"Linux","password":true,"vac":true,"version":"7723704","steam_id":85568392924500088,"keywords":["cp","nocrits","nodmgspread","uncletopia"],"game_id":440,"stv_port":27026,"stv_name":"Uncletopia | Montréal | 2 | All Maps | STV","players":null},{"server_id":302,"name":"Uncletopia | Montréal | 3 | All Maps","name_short":"mtl-3","host":"mtl-1.ca.uncletopia.com","port":27035,"enabled":true,"region":"us-east","cc":"ca","latitude":45.50889,"longitude":-73.56167,"reserved":0,"last_update":"0001-01-01T00:00:00Z","name_a2s":"Uncletopia | Montréal | 3 | All Maps","protocol":17,"map":"pl_barnblitz","folder":"tf","game":"Team Fortress","app_id":440,"player_count":0,"max_players":24,"Bots":0,"server_type":"Dedicated","server_os":"Linux","password":true,"vac":true,"version":"7723704","steam_id":85568392924500089,"keywords":["nocrits","nodmgspread","payload","uncletopia"],"game_id":440,"stv_port":27036,"stv_name":"Uncletopia | Montréal | 3 | All Maps | STV","players":null},{"server_id":303,"name":"Uncletopia | Montréal | 4 | No Payload","name_short":"mtl-4","host":"mtl-1.ca.uncletopia.com","port":27045,"enabled":true,"region":"us-east","cc":"ca","latitude":45.50889,"longitude":-73.56167,"reserved":0,"last_update":"0001-01-01T00:00:00Z","name_a2s":"Uncletopia | Montréal | 4 | No Payload","protocol":17,"map":"koth_cascade","folder":"tf","game":"Team Fortress","app_id":440,"player_count":0,"max_players":24,"Bots":0,"server_type":"Dedicated","server_os":"Linux","password":true,"vac":true,"version":"7723704","steam_id":85568392924500090,"keywords":["cp","nocrits","nodmgspread","uncletopia"],"game_id":440,"stv_port":27046,"stv_name":"Uncletopia | Montréal | 4 | No Payload | STV","players":null},{"server_id":13,"name":"Uncletopia | New York City | 1 | All Maps","name_short":"nyc-1","host":"nyc-1.us.uncletopia.com","port":27015,"enabled":true,"region":"us-east","cc":"us","latitude":40.73061,"longitude":-73.93524,"reserved":0,"last_update":"0001-01-01T00:00:00Z","name_a2s":"Uncletopia | New York City | 1 | All Maps","protocol":17,"map":"cp_sunshine","folder":"tf","game":"Team Fortress","app_id":440,"player_count":7,"max_players":24,"Bots":0,"server_type":"Dedicated","server_os":"Linux","password":true,"vac":true,"version":"7723704","steam_id":85568392924469993,"keywords":["cp","nocrits","nodmgspread","uncletopia"],"game_id":440,"stv_port":27016,"stv_name":"Uncletopia | New York City | 1 | All Maps | STV","players":[{"user_id":22,"name":"Feleeg","steam_id":76561198452866612,"connected_time":291000000000,"state":"active","ping":45},{"user_id":17,"name":"Griffin","steam_id":76561198159339442,"connected_time":657000000000,"state":"active","ping":116},{"user_id":6,"name":"Barbatruc","steam_id":76561198119019916,"connected_time":2283000000000,"state":"active","ping":135},{"user_id":10,"name":"Samus","steam_id":76561198121933439,"connected_time":2026000000000,"state":"active","ping":51},{"user_id":19,"name":"OrangeBanana","steam_id":76561199230233875,"connected_time":467000000000,"state":"active","ping":116},{"user_id":20,"name":"Hot bunny women in your area","steam_id":76561198329460312,"connected_time":452000000000,"state":"active","ping":67},{"user_id":21,"name":"y40GHAI","steam_id":76561198990823135,"connected_time":363000000000,"state":"active","ping":173}]},{"server_id":14,"name":"Uncletopia | New York City | 2 | All Maps","name_short":"nyc-2","host":"nyc-1.us.uncletopia.com","port":27025,"enabled":true,"region":"us-east","cc":"us","latitude":40.73061,"longitude":-73.93524,"reserved":0,"last_update":"0001-01-01T00:00:00Z","name_a2s":"Uncletopia | New York City | 2 | All Maps","protocol":17,"map":"pl_barnblitz","folder":"tf","game":"Team Fortress","app_id":440,"player_count":0,"max_players":24,"Bots":0,"server_type":"Dedicated","server_os":"Linux","password":true,"vac":true,"version":"7723704","steam_id":85568392924469994,"keywords":["nocrits","nodmgspread","payload","uncletopia"],"game_id":440,"stv_port":27026,"stv_name":"Uncletopia | New York City | 2 | All Maps | STV","players":null},{"server_id":15,"name":"Uncletopia | New York City | 3 | Stopwatch Beta","name_short":"nyc-3","host":"nyc-1.us.uncletopia.com","port":27035,"enabled":true,"region":"us-east","cc":"us","latitude":40.73061,"longitude":-73.93524,"reserved":0,"last_update":"0001-01-01T00:00:00Z","name_a2s":"Uncletopia | New York City | 3 | Stopwatch Beta","protocol":17,"map":"cp_sunshine","folder":"tf","game":"Team Fortress","app_id":440,"player_count":0,"max_players":24,"Bots":0,"server_type":"Dedicated","server_os":"Linux","password":true,"vac":true,"version":"7723704","steam_id":85568392924742820,"keywords":["cp","nocrits","nodmgspread","uncletopia"],"game_id":440,"stv_port":27036,"stv_name":"Uncletopia | New York City | 3 | Stopwatch Beta | STV","players":null},{"server_id":16,"name":"Uncletopia | New York City | 4 | Community","name_short":"nyc-4","host":"nyc-1.us.uncletopia.com","port":27045,"enabled":true,"region":"us-east","cc":"us","latitude":40.73061,"longitude":-73.93524,"reserved":0,"last_update":"0001-01-01T00:00:00Z","name_a2s":"Uncletopia | New York City | 4 | Community","protocol":17,"map":"pl_frontier_final","folder":"tf","game":"Team Fortress","app_id":440,"player_count":0,"max_players":24,"Bots":0,"server_type":"Dedicated","server_os":"Linux","password":true,"vac":true,"version":"7723704","steam_id":85568392924742821,"keywords":["nocrits","nodmgspread","payload","uncletopia"],"game_id":440,"stv_port":27046,"stv_name":"Uncletopia | New York City | 4 | Community | STV","players":null},{"server_id":142,"name":"Uncletopia | São Paulo | 1 | All Maps","name_short":"sao-1","host":"sao-1.br.uncletopia.com","port":27015,"enabled":true,"region":"sa","cc":"br","latitude":-23.533773,"longitude":-46.62529,"reserved":0,"last_update":"0001-01-01T00:00:00Z","name_a2s":"Uncletopia | São Paulo | 1 | All Maps","protocol":17,"map":"pl_badwater","folder":"tf","game":"Team Fortress","app_id":440,"player_count":0,"max_players":24,"Bots":0,"server_type":"Dedicated","server_os":"Linux","password":true,"vac":true,"version":"7723704","steam_id":85568392924469996,"keywords":["nocrits","nodmgspread","payload","uncletopia"],"game_id":440,"stv_port":27016,"stv_name":"Uncletopia | São Paulo | 1 | All Maps | STV","players":null},{"server_id":143,"name":"Uncletopia | São Paulo | 2 | All Maps","name_short":"sao-2","host":"sao-2.br.uncletopia.com","port":27015,"enabled":true,"region":"sa","cc":"br","latitude":-23.533773,"longitude":-46.62529,"reserved":0,"last_update":"0001-01-01T00:00:00Z","name_a2s":"Uncletopia | São Paulo | 2 | All Maps","protocol":17,"map":"pl_frontier_final","folder":"tf","game":"Team Fortress","app_id":440,"player_count":0,"max_players":24,"Bots":0,"server_type":"Dedicated","server_os":"Linux","password":true,"vac":true,"version":"7723704","steam_id":85568392924485349,"keywords":["nocrits","nodmgspread","payload","uncletopia"],"game_id":440,"stv_port":27016,"stv_name":"Uncletopia | São Paulo | 2 | All Maps | STV","players":null},{"server_id":7,"name":"Uncletopia | Seattle | 1 | All Maps","name_short":"sea-1","host":"sea-1.us.uncletopia.com","port":27015,"enabled":true,"region":"us-west","cc":"us","latitude":47.608013,"longitude":-122.33517,"reserved":0,"last_update":"0001-01-01T00:00:00Z","name_a2s":"Uncletopia | Seattle | 1 | All Maps","protocol":17,"map":"koth_highpass","folder":"tf","game":"Team Fortress","app_id":440,"player_count":0,"max_players":24,"Bots":0,"server_type":"Dedicated","server_os":"Linux","password":true,"vac":true,"version":"7723704","steam_id":85568392924469997,"keywords":["cp","nocrits","nodmgspread","uncletopia"],"game_id":440,"stv_port":27016,"stv_name":"Uncletopia | Seattle | 1 | All Maps | STV","players":null},{"server_id":119,"name":"Uncletopia | Seattle | 2 | All Maps","name_short":"sea-2","host":"sea-1.us.uncletopia.com","port":27025,"enabled":true,"region":"us-west","cc":"us","latitude":47.608013,"longitude":-122.33517,"reserved":0,"last_update":"0001-01-01T00:00:00Z","name_a2s":"Uncletopia | Seattle | 2 | All Maps","protocol":17,"map":"koth_viaduct","folder":"tf","game":"Team Fortress","app_id":440,"player_count":0,"max_players":24,"Bots":0,"server_type":"Dedicated","server_os":"Linux","password":true,"vac":true,"version":"7723704","steam_id":85568392924469998,"keywords":["cp","nocrits","nodmgspread","uncletopia"],"game_id":440,"stv_port":27026,"stv_name":"Uncletopia | Seattle | 2 | All Maps | STV","players":null},{"server_id":406,"name":"Uncletopia | Seattle | 3 | Stopwatch Beta","name_short":"sea-3","host":"sea-1.us.uncletopia.com","port":27035,"enabled":true,"region":"us-west","cc":"us","latitude":47.608013,"longitude":-122.33517,"reserved":0,"last_update":"0001-01-01T00:00:00Z","name_a2s":"Uncletopia | Seattle | 3 | Stopwatch Beta","protocol":17,"map":"cp_altitude","folder":"tf","game":"Team Fortress","app_id":440,"player_count":0,"max_players":24,"Bots":0,"server_type":"Dedicated","server_os":"Linux","password":true,"vac":false,"version":"7723704","steam_id":0,"keywords":["cp","nocrits","nodmgspread","uncletopia"],"game_id":440,"stv_port":27036,"stv_name":"Uncletopia | Seattle | 3 | Stopwatch Beta | STV","players":null},{"server_id":17,"name":"Uncletopia | San Francisco | 1 | All Maps","name_short":"sfo-1","host":"sfo-1.us.uncletopia.com","port":27015,"enabled":true,"region":"us-west","cc":"us","latitude":37.77397,"longitude":-122.4313,"reserved":0,"last_update":"0001-01-01T00:00:00Z","name_a2s":"Uncletopia | San Francisco | 1 | All Maps","protocol":17,"map":"pl_borneo","folder":"tf","game":"Team Fortress","app_id":440,"player_count":0,"max_players":24,"Bots":0,"server_type":"Dedicated","server_os":"Linux","password":true,"vac":true,"version":"7723704","steam_id":85568392924469999,"keywords":["nocrits","nodmgspread","payload","uncletopia"],"game_id":440,"stv_port":27016,"stv_name":"Uncletopia | San Francisco | 1 | All Maps | STV","players":null},{"server_id":18,"name":"Uncletopia | San Francisco | 2 | All Maps","name_short":"sfo-2","host":"sfo-1.us.uncletopia.com","port":27025,"enabled":true,"region":"us-west","cc":"us","latitude":37.77397,"longitude":-122.4313,"reserved":0,"last_update":"0001-01-01T00:00:00Z","name_a2s":"Uncletopia | San Francisco | 2 | All Maps","protocol":17,"map":"pl_borneo","folder":"tf","game":"Team Fortress","app_id":440,"player_count":0,"max_players":24,"Bots":0,"server_type":"Dedicated","server_os":"Linux","password":true,"vac":true,"version":"7723704","steam_id":85568392924470000,"keywords":["nocrits","nodmgspread","payload","uncletopia"],"game_id":440,"stv_port":27026,"stv_name":"Uncletopia | San Francisco | 2 | All Maps | STV","players":null},{"server_id":19,"name":"Uncletopia | San Francisco | 3 | Stopwatch Beta","name_short":"sfo-3","host":"sfo-1.us.uncletopia.com","port":27035,"enabled":true,"region":"us-west","cc":"us","latitude":37.77397,"longitude":-122.4313,"reserved":0,"last_update":"0001-01-01T00:00:00Z","name_a2s":"Uncletopia | San Francisco | 3 | Stopwatch Beta","protocol":17,"map":"cp_gullywash_final1","folder":"tf","game":"Team Fortress","app_id":440,"player_count":0,"max_players":24,"Bots":0,"server_type":"Dedicated","server_os":"Linux","password":true,"vac":true,"version":"7723704","steam_id":85568392924742824,"keywords":["cp","nocrits","nodmgspread","uncletopia"],"game_id":440,"stv_port":27036,"stv_name":"Uncletopia | San Francisco | 3 | Stopwatch Beta | STV","players":null},{"server_id":20,"name":"Uncletopia | San Francisco | 4 | Community","name_short":"sfo-4","host":"sfo-1.us.uncletopia.com","port":27045,"enabled":true,"region":"us-west","cc":"us","latitude":37.77397,"longitude":-122.4313,"reserved":0,"last_update":"0001-01-01T00:00:00Z","name_a2s":"Uncletopia | San Francisco | 4 | Community","protocol":17,"map":"koth_cascade","folder":"tf","game":"Team Fortress","app_id":440,"player_count":0,"max_players":24,"Bots":0,"server_type":"Dedicated","server_os":"Linux","password":true,"vac":true,"version":"7723704","steam_id":85568392924742826,"keywords":["cp","nocrits","nodmgspread","uncletopia"],"game_id":440,"stv_port":27046,"stv_name":"Uncletopia | San Francisco | 4 | Community | STV","players":null},{"server_id":141,"name":"Uncletopia | Sydney | 1 | All Maps","name_short":"syd-1","host":"syd-1.au.uncletopia.com","port":27015,"enabled":true,"region":"au","cc":"au","latitude":-33.865143,"longitude":151.2099,"reserved":0,"last_update":"0001-01-01T00:00:00Z","name_a2s":"Uncletopia | Sydney | 1 | All Maps","protocol":17,"map":"pl_pier","folder":"tf","game":"Team Fortress","app_id":440,"player_count":0,"max_players":24,"Bots":0,"server_type":"Dedicated","server_os":"Linux","password":true,"vac":true,"version":"7723704","steam_id":85568392924470001,"keywords":["nocrits","nodmgspread","payload","uncletopia"],"game_id":440,"stv_port":27016,"stv_name":"Uncletopia | Sydney | 1 | All Maps | STV","players":null},{"server_id":123,"name":"Uncletopia | Sydney | 2 | All Maps","name_short":"syd-2","host":"syd-1.au.uncletopia.com","port":27025,"enabled":true,"region":"au","cc":"au","latitude":-33.865143,"longitude":151.2099,"reserved":0,"last_update":"0001-01-01T00:00:00Z","name_a2s":"Uncletopia | Sydney | 2 | All Maps","protocol":17,"map":"pl_pier","folder":"tf","game":"Team Fortress","app_id":440,"player_count":18,"max_players":24,"Bots":0,"server_type":"Dedicated","server_os":"Linux","password":true,"vac":true,"version":"7723704","steam_id":85568392924470002,"keywords":["nocrits","nodmgspread","payload","uncletopia"],"game_id":440,"stv_port":27026,"stv_name":"Uncletopia | Sydney | 2 | All Maps | STV","players":[{"user_id":362,"name":"el [?!]","steam_id":76561198077802034,"connected_time":291000000000,"state":"active","ping":71},{"user_id":292,"name":"April","steam_id":76561198848287180,"connected_time":5944000000000,"state":"active","ping":45},{"user_id":352,"name":"floppinv2","steam_id":76561198213566569,"connected_time":855000000000,"state":"active","ping":90},{"user_id":363,"name":"Dr Rags","steam_id":76561198179481430,"connected_time":156000000000,"state":"active","ping":95},{"user_id":357,"name":"yons","steam_id":76561198083920784,"connected_time":701000000000,"state":"active","ping":60},{"user_id":337,"name":"Pissbaby","steam_id":76561198360222919,"connected_time":1674000000000,"state":"active","ping":56},{"user_id":279,"name":"LightningBlock","steam_id":76561198289997742,"connected_time":6620000000000,"state":"active","ping":34},{"user_id":312,"name":"Grecko","steam_id":76561198032976002,"connected_time":3478000000000,"state":"active","ping":56},{"user_id":356,"name":"SWAG DRAGON","steam_id":76561197960279341,"connected_time":706000000000,"state":"active","ping":44},{"user_id":351,"name":"Jiffy360","steam_id":76561198149550772,"connected_time":879000000000,"state":"active","ping":90},{"user_id":334,"name":"bluey","steam_id":76561198355125370,"connected_time":1859000000000,"state":"active","ping":44},{"user_id":319,"name":"Priince","steam_id":76561198057802660,"connected_time":3128000000000,"state":"active","ping":89},{"user_id":311,"name":"gave my love to a shooting star","steam_id":76561197990537324,"connected_time":3645000000000,"state":"active","ping":107},{"user_id":358,"name":"merkier","steam_id":76561198006943216,"connected_time":695000000000,"state":"active","ping":69},{"user_id":359,"name":"toast","steam_id":76561198045163288,"connected_time":691000000000,"state":"active","ping":63},{"user_id":343,"name":"enemy gamer","steam_id":76561198127848228,"connected_time":1439000000000,"state":"active","ping":64},{"user_id":327,"name":"Soru","steam_id":76561198010844786,"connected_time":2327000000000,"state":"active","ping":66},{"user_id":329,"name":"『 eunity 』","steam_id":76561198058929004,"connected_time":2303000000000,"state":"active","ping":104}]},{"server_id":395,"name":"Uncletopia | Sydney | 3 | All Maps","name_short":"syd-3","host":"syd-1.au.uncletopia.com","port":27035,"enabled":true,"region":"au","cc":"au","latitude":-33.865143,"longitude":151.2099,"reserved":0,"last_update":"0001-01-01T00:00:00Z","name_a2s":"Uncletopia | Sydney | 3 | All Maps","protocol":17,"map":"cp_altitude","folder":"tf","game":"Team Fortress","app_id":440,"player_count":0,"max_players":24,"Bots":0,"server_type":"Dedicated","server_os":"Linux","password":true,"vac":true,"version":"7723704","steam_id":85568392925194467,"keywords":["cp","nocrits","nodmgspread","uncletopia"],"game_id":440,"stv_port":27036,"stv_name":"Uncletopia | Sydney | 3 | All Maps | STV","players":null},{"server_id":396,"name":"Uncletopia | Sydney | 4 | All Maps","name_short":"syd-4","host":"syd-1.au.uncletopia.com","port":27045,"enabled":true,"region":"au","cc":"au","latitude":-33.865143,"longitude":151.2099,"reserved":0,"last_update":"0001-01-01T00:00:00Z","name_a2s":"Uncletopia | Sydney | 4 | All Maps","protocol":17,"map":"koth_cascade","folder":"tf","game":"Team Fortress","app_id":440,"player_count":0,"max_players":24,"Bots":0,"server_type":"Dedicated","server_os":"Linux","password":true,"vac":true,"version":"7723704","steam_id":85568392925397958,"keywords":["cp","nocrits","nodmgspread","uncletopia"],"game_id":440,"stv_port":27046,"stv_name":"Uncletopia | Sydney | 4 | All Maps | STV","players":null},{"server_id":58,"name":"Uncletopia | Sydney | 5 | Stopwatch Beta","name_short":"syd-5","host":"syd-1.au.uncletopia.com","port":27055,"enabled":true,"region":"au","cc":"au","latitude":-33.865143,"longitude":151.2099,"reserved":0,"last_update":"0001-01-01T00:00:00Z","name_a2s":"Uncletopia | Sydney | 5 | Stopwatch Beta","protocol":17,"map":"cp_altitude","folder":"tf","game":"Team Fortress","app_id":440,"player_count":0,"max_players":24,"Bots":0,"server_type":"Dedicated","server_os":"Linux","password":true,"vac":true,"version":"7723704","steam_id":85568392925397959,"keywords":["cp","nocrits","nodmgspread","uncletopia"],"game_id":440,"stv_port":27056,"stv_name":"Uncletopia | Sydney | 5 | Stopwatch Beta | STV","players":null},{"server_id":59,"name":"Uncletopia | Sydney | 6 | Community","name_short":"syd-6","host":"syd-1.au.uncletopia.com","port":27065,"enabled":true,"region":"au","cc":"au","latitude":-33.865143,"longitude":151.2099,"reserved":0,"last_update":"0001-01-01T00:00:00Z","name_a2s":"Uncletopia | Sydney | 6 | Community","protocol":17,"map":"workshop/pl_eruption_b8c.ugc2865677281","folder":"tf","game":"Team Fortress","app_id":440,"player_count":0,"max_players":24,"Bots":0,"server_type":"Dedicated","server_os":"Linux","password":true,"vac":true,"version":"7723704","steam_id":85568392925397960,"keywords":["nocrits","nodmgspread","payload","uncletopia"],"game_id":440,"stv_port":27066,"stv_name":"Uncletopia | Sydney | 6 | Community | STV","players":null},{"server_id":49,"name":"Uncletopia | Warsaw | 1 | All Maps","name_short":"waw-1","host":"waw-1.pl.uncletopia.com","port":27015,"enabled":true,"region":"eu","cc":"pl","latitude":52.2297,"longitude":21.017532,"reserved":0,"last_update":"0001-01-01T00:00:00Z","name_a2s":"Uncletopia | Warsaw | 1 | All Maps","protocol":17,"map":"cp_dustbowl","folder":"tf","game":"Team Fortress","app_id":440,"player_count":0,"max_players":24,"Bots":0,"server_type":"Dedicated","server_os":"Linux","password":true,"vac":true,"version":"7723704","steam_id":85568392925397850,"keywords":["cp","nocrits","nodmgspread","uncletopia"],"game_id":440,"stv_port":27016,"stv_name":"Uncletopia | Warsaw | 1 | All Maps | STV","players":null},{"server_id":50,"name":"Uncletopia | Warsaw | 2 | All Maps","name_short":"waw-2","host":"waw-1.pl.uncletopia.com","port":27025,"enabled":true,"region":"eu","cc":"pl","latitude":52.2297,"longitude":21.017532,"reserved":0,"last_update":"0001-01-01T00:00:00Z","name_a2s":"Uncletopia | Warsaw | 2 | All Maps","protocol":17,"map":"pl_barnblitz","folder":"tf","game":"Team Fortress","app_id":440,"player_count":0,"max_players":24,"Bots":0,"server_type":"Dedicated","server_os":"Linux","password":true,"vac":true,"version":"7723704","steam_id":85568392925397851,"keywords":["nocrits","nodmgspread","payload","uncletopia"],"game_id":440,"stv_port":27026,"stv_name":"Uncletopia | Warsaw | 2 | All Maps | STV","players":null},{"server_id":51,"name":"Uncletopia | Warsaw | 3 | All Maps","name_short":"waw-3","host":"waw-1.pl.uncletopia.com","port":27035,"enabled":true,"region":"eu","cc":"pl","latitude":52.2297,"longitude":21.017532,"reserved":0,"last_update":"0001-01-01T00:00:00Z","name_a2s":"Uncletopia | Warsaw | 3 | All Maps","protocol":17,"map":"pl_barnblitz","folder":"tf","game":"Team Fortress","app_id":440,"player_count":0,"max_players":24,"Bots":0,"server_type":"Dedicated","server_os":"Linux","password":true,"vac":true,"version":"7723704","steam_id":85568392925397852,"keywords":["nocrits","nodmgspread","payload","uncletopia"],"game_id":440,"stv_port":27036,"stv_name":"Uncletopia | Warsaw | 3 | All Maps | STV","players":null},{"server_id":52,"name":"Uncletopia | Warsaw | 4 | All Maps","name_short":"waw-4","host":"waw-1.pl.uncletopia.com","port":27045,"enabled":true,"region":"eu","cc":"pl","latitude":52.2297,"longitude":21.017532,"reserved":0,"last_update":"0001-01-01T00:00:00Z","name_a2s":"Uncletopia | Warsaw | 4 | All Maps","protocol":17,"map":"koth_viaduct","folder":"tf","game":"Team Fortress","app_id":440,"player_count":0,"max_players":24,"Bots":0,"server_type":"Dedicated","server_os":"Linux","password":true,"vac":true,"version":"7723704","steam_id":85568392925397853,"keywords":["cp","nocrits","nodmgspread","uncletopia"],"game_id":440,"stv_port":27046,"stv_name":"Uncletopia | Warsaw | 4 | All Maps | STV","players":null},{"server_id":53,"name":"Uncletopia | Warsaw | 5 | Stopwatch Beta","name_short":"waw-5","host":"waw-1.pl.uncletopia.com","port":27055,"enabled":true,"region":"eu","cc":"pl","latitude":52.2297,"longitude":21.017532,"reserved":0,"last_update":"0001-01-01T00:00:00Z","name_a2s":"Uncletopia | Warsaw | 5 | Stopwatch Beta","protocol":17,"map":"cp_sunshine","folder":"tf","game":"Team Fortress","app_id":440,"player_count":0,"max_players":24,"Bots":0,"server_type":"Dedicated","server_os":"Linux","password":true,"vac":true,"version":"7723704","steam_id":85568392925397854,"keywords":["cp","nocrits","nodmgspread","uncletopia"],"game_id":440,"stv_port":27056,"stv_name":"Uncletopia | Warsaw | 5 | Stopwatch Beta | STV","players":null},{"server_id":54,"name":"Uncletopia | Warsaw | 6 | Community","name_short":"waw-6","host":"waw-1.pl.uncletopia.com","port":27065,"enabled":true,"region":"eu","cc":"pl","latitude":52.2297,"longitude":21.017532,"reserved":0,"last_update":"0001-01-01T00:00:00Z","name_a2s":"Uncletopia | Warsaw | 6 | Community","protocol":17,"map":"pl_snowycoast","folder":"tf","game":"Team Fortress","app_id":440,"player_count":0,"max_players":24,"Bots":0,"server_type":"Dedicated","server_os":"Linux","password":true,"vac":true,"version":"7723704","steam_id":85568392925397856,"keywords":["nocrits","nodmgspread","payload","uncletopia"],"game_id":440,"stv_port":27066,"stv_name":"Uncletopia | Warsaw | 6 | Community | STV","players":null}]}