{"status":true,"message":"","result":[{"server_id":9,"name":"Uncletopia | Atlanta | 1 | All Maps","name_short":"atl-1","host":"atl-1.us.uncletopia.com","port":27015,"enabled":true,"region":"us-east","cc":"us","latitude":33.753746,"longitude":-84.38633,"reserved":0,"last_update":"0001-01-01T00:00:00Z","name_a2s":"Uncletopia | Atlanta | 1 | All Maps","protocol":17,"map":"cp_process_final","folder":"tf","game":"Team Fortress","app_id":440,"player_count":24,"max_players":24,"Bots":0,"server_type":"Dedicated","server_os":"Linux","password":true,"vac":true,"version":"7961495","steam_id":85568392924469982,"keywords":["cp","nocrits","nodmgspread","uncletopia"],"game_id":440,"stv_port":27016,"stv_name":"Uncletopia | Atlanta | 1 | All Maps | STV","players":[{"user_id":276,"name":"Kirby","steam_id":76561199161858008,"connected_time":5031000000000,"state":"active","ping":66},{"user_id":309,"name":"Neptune˖⁺｡˚⋆˙♥","steam_id":76561199054203198,"connected_time":2704000000000,"state":"active","ping":77},{"user_id":357,"name":"Kiss Master","steam_id":76561198289572271,"connected_time":806000000000,"state":"active","ping":69},{"user_id":300,"name":"b4nny sewer spot on process","steam_id":76561198982810452,"connected_time":3566000000000,"state":"active","ping":79},{"user_id":264,"name":"Lilith","steam_id":76561198125102885,"connected_time":6174000000000,"state":"active","ping":72},{"user_id":308,"name":"BLOW UP NEW JERSEY","steam_id":76561198364439575,"connected_time":2723000000000,"state":"active","ping":63},{"user_id":319,"name":"Sagoogoo","steam_id":76561198176061614,"connected_time":1756000000000,"state":"active","ping":82},{"user_id":314,"name":"GlingGlop95","steam_id":76561198386865528,"connected_time":2083000000000,"state":"active","ping":69},{"user_id":364,"name":"WBALL exer","steam_id":76561197973093864,"connected_time":516000000000,"state":"active","ping":75},{"user_id":317,"name":"Spare(8)Ball","steam_id":76561197982432995,"connected_time":1780000000000,"state":"active","ping":111},{"user_id":301,"name":"femboy birb","steam_id":76561199198726572,"connected_time":3557000000000,"state":"active","ping":70},{"user_id":365,"name":"Nyle","steam_id":76561198045652639,"connected_time":413000000000,"state":"active","ping":105},{"user_id":260,"name":"Cat Eyed Lin","steam_id":76561198887593337,"connected_time":6356000000000,"state":"active","ping":66},{"user_id":331,"name":"Heathcliff","steam_id":76561198044288534,"connected_time":1297000000000,"state":"active","ping":82},{"user_id":366,"name":"PewPew","steam_id":76561198011299099,"connected_time":232000000000,"state":"active","ping":63},{"user_id":328,"name":"Mirelas","steam_id":76561198839360212,"connected_time":1538000000000,"state":"active","ping":89},{"user_id":361,"name":"Spiceitwithred","steam_id":76561198313150295,"connected_time":569000000000,"state":"active","ping":118},{"user_id":367,"name":"Techno Priest","steam_id":76561198129254533,"connected_time":208000000000,"state":"active","ping":76},{"user_id":324,"name":"Mr_Frosty","steam_id":76561199380389079,"connected_time":1721000000000,"state":"active","ping":81},{"user_id":356,"name":"freyja","steam_id":76561198249206656,"connected_time":842000000000,"state":"active","ping":85},{"user_id":325,"name":"BoxPox7147","steam_id":76561199230349840,"connected_time":1701000000000,"state":"active","ping":72},{"user_id":297,"name":"joe","steam_id":76561198045781320,"connected_time":3806000000000,"state":"active","ping":61},{"user_id":362,"name":"BaconLol","steam_id":76561199125317999,"connected_time":569000000000,"state":"active","ping":171},{"user_id":363,"name":"chexo4","steam_id":76561198150532531,"connected_time":569000000000,"state":"active","ping":51}]},{"server_id":104,"name":"Uncletopia | Atlanta | 2 | All Maps","name_short":"atl-2","host":"atl-1.us.uncletopia.com","port":27025,"enabled":true,"region":"us-east","cc":"us","latitude":33.753746,"longitude":-84.38633,"reserved":0,"last_update":"0001-01-01T00:00:00Z","name_a2s":"Uncletopia | Atlanta | 2 | All Maps","protocol":17,"map":"pl_thundermountain","folder":"tf","game":"Team Fortress","app_id":440,"player_count":24,"max_players":24,"Bots":0,"server_type":"Dedicated","server_os":"Linux","password":true,"vac":true,"version":"7961495","steam_id":85568392924469983,"keywords":["nocrits","nodmgspread","payload","uncletopia"],"game_id":440,"stv_port":27026,"stv_name":"Uncletopia | Atlanta | 2 | All Maps | STV","players":[{"user_id":223,"name":"JohnsBriefcase","steam_id":76561198117657002,"connected_time":470000000000,"state":"active","ping":68},{"user_id":156,"name":"Gooper Blooper","steam_id":76561198067174070,"connected_time":3946000000000,"state":"active","ping":108},{"user_id":208,"name":"Mediocre Gaming","steam_id":76561199230467980,"connected_time":1808000000000,"state":"active","ping":81},{"user_id":132,"name":"Kzjytsugn","steam_id":76561198130241974,"connected_time":6054000000000,"state":"active","ping":105},{"user_id":191,"name":"Mask","steam_id":76561198877649728,"connected_time":2209000000000,"state":"active","ping":126},{"user_id":220,"name":"simply","steam_id":76561198215728721,"connected_time":737000000000,"state":"active","ping":56},{"user_id":212,"name":"Oopsie Daisy ❋","steam_id":76561198042144492,"connected_time":1654000000000,"state":"active","ping":63},{"user_id":224,"name":"Blade","steam_id":76561198385077836,"connected_time":468000000000,"state":"active","ping":61},{"user_id":169,"name":"Brown_Dream","steam_id":76561198975766145,"connected_time":2712000000000,"state":"active","ping":83},{"user_id":228,"name":"eNIGma","steam_id":76561198879961615,"connected_time":372000000000,"state":"active","ping":83},{"user_id":171,"name":"\u003c blank \u003e","steam_id":76561199383789041,"connected_time":2684000000000,"state":"active","ping":179},{"user_id":114,"name":"rf","steam_id":76561198195359229,"connected_time":7918000000000,"state":"active","ping":120},{"user_id":222,"name":"21","steam_id":76561199184578185,"connected_time":550000000000,"state":"active","ping":160},{"user_id":219,"name":"solar_dude","steam_id":76561198086429076,"connected_time":1187000000000,"state":"active","ping":58},{"user_id":195,"name":"Oversharing Gaming","steam_id":76561198069735882,"connected_time":2116000000000,"state":"active","ping":52},{"user_id":196,"name":"mrbeast109385079350229083479082","steam_id":76561198370687830,"connected_time":2099000000000,"state":"active","ping":76},{"user_id":165,"name":"Sus:/","steam_id":76561199232156472,"connected_time":3330000000000,"state":"active","ping":93},{"user_id":229,"name":"Cerise","steam_id":76561198332526383,"connected_time":369000000000,"state":"active","ping":110},{"user_id":226,"name":"PileBunkerA4","steam_id":76561198798201486,"connected_time":440000000000,"state":"active","ping":86},{"user_id":213,"name":"Duncan","steam_id":76561198042148095,"connected_time":1590000000000,"state":"active","ping":67},{"user_id":217,"name":"Cybutter","steam_id":76561197985914609,"connected_time":1219000000000,"state":"active","ping":78},{"user_id":221,"name":"Feathercrown","steam_id":76561198397221488,"connected_time":593000000000,"state":"active","ping":86},{"user_id":173,"name":"bookreader","steam_id":76561198978568007,"connected_time":2677000000000,"state":"active","ping":58},{"user_id":187,"name":"D(b) Hell","steam_id":76561198067869016,"connected_time":2282000000000,"state":"active","ping":64}]},{"server_id":400,"name":"Uncletopia | Atlanta | 3 | Stopwatch","name_short":"atl-3","host":"atl-1.us.uncletopia.com","port":27035,"enabled":true,"region":"us-east","cc":"us","latitude":33.753746,"longitude":-84.38633,"reserved":0,"last_update":"0001-01-01T00:00:00Z","name_a2s":"Uncletopia | Atlanta | 3 | Stopwatch","protocol":17,"map":"pl_swiftwater_final1","folder":"tf","game":"Team Fortress","app_id":440,"player_count":0,"max_players":24,"Bots":0,"server_type":"Dedicated","server_os":"Linux","password":true,"vac":true,"version":"7961495","steam_id":85568392924515187,"keywords":["nocrits","nodmgspread","payload","uncletopia"],"game_id":440,"stv_port":27036,"stv_name":"Uncletopia | Atlanta | 3 | Stopwatch | STV","players":null},{"server_id":401,"name":"Uncletopia | Atlanta | 4 | Community","name_short":"atl-4","host":"atl-1.us.uncletopia.com","port":27045,"enabled":true,"region":"us-east","cc":"us","latitude":33.753746,"longitude":-84.38633,"reserved":0,"last_update":"0001-01-01T00:00:00Z","name_a2s":"Uncletopia | Atlanta | 4 | Community","protocol":17,"map":"workshop/cp_snowbase_b21.ugc2081770490","folder":"tf","game":"Team Fortress","app_id":440,"player_count":0,"max_players":24,"Bots":0,"server_type":"Dedicated","server_os":"Linux","password":true,"vac":true,"version":"7961495","steam_id":85568392924515188,"keywords":["cp","nocrits","nodmgspread","uncletopia"],"game_id":440,"stv_port":27046,"stv_name":"Uncletopia | Atlanta | 4 | Community | STV","players":null},{"server_id":2,"name":"Uncletopia | Chicago | 1 | All Maps","name_short":"chi-1","host":"chi-1.us.uncletopia.com","port":27015,"enabled":true,"region":"us-central","cc":"us","latitude":41.881832,"longitude":-87.62318,"reserved":0,"last_update":"0001-01-01T00:00:00Z","name_a2s":"Uncletopia | Chicago | 1 | All Maps","protocol":17,"map":"cp_dustbowl","folder":"tf","game":"Team Fortress","app_id":440,"player_count":24,"max_players":24,"Bots":0,"server_type":"Dedicated","server_os":"Linux","password":true,"vac":true,"version":"7961495","steam_id":85568392924469984,"keywords":["cp","nocrits","nodmgspread","uncletopia"],"game_id":440,"stv_port":27016,"stv_name":"Uncletopia | Chicago | 1 | All Maps | STV","players":[{"user_id":395,"name":"Praise_to_the_Flashlight!","steam_id":76561199001728789,"connected_time":2512000000000,"state":"active","ping":61},{"user_id":369,"name":"You hate kissing boys,Don't you","steam_id":76561198996218460,"connected_time":4847000000000,"state":"active","ping":80},{"user_id":387,"name":"Window Licker #pride","steam_id":76561198386717007,"connected_time":3945000000000,"state":"active","ping":51},{"user_id":350,"name":"KSupes","steam_id":76561199131995067,"connected_time":6229000000000,"state":"active","ping":45},{"user_id":396,"name":"ุ","steam_id":76561198170624701,"connected_time":2315000000000,"state":"active","ping":70},{"user_id":351,"name":"mo ge - ko","steam_id":76561198056432756,"connected_time":6210000000000,"state":"active","ping":75},{"user_id":400,"name":"yELLow","steam_id":76561198178488195,"connected_time":1879000000000,"state":"active","ping":70},{"user_id":388,"name":"Space","steam_id":76561198350489754,"connected_time":3795000000000,"state":"active","ping":55},{"user_id":352,"name":"LofiWhore","steam_id":76561198126686695,"connected_time":6183000000000,"state":"active","ping":74},{"user_id":404,"name":"richard clock","steam_id":76561198048455671,"connected_time":978000000000,"state":"active","ping":59},{"user_id":397,"name":"Mellow Yellow","steam_id":76561198406276981,"connected_time":2258000000000,"state":"active","ping":57},{"user_id":405,"name":"joseph stalin","steam_id":76561199230441293,"connected_time":968000000000,"state":"active","ping":78},{"user_id":402,"name":"Kid named download","steam_id":76561199192074448,"connected_time":1518000000000,"state":"active","ping":78},{"user_id":407,"name":"Astoriae!","steam_id":76561199090168858,"connected_time":726000000000,"state":"active","ping":68},{"user_id":374,"name":"MrKokonut","steam_id":76561198879575825,"connected_time":4477000000000,"state":"active","ping":60},{"user_id":371,"name":"MaineGameBoy","steam_id":76561198278698726,"connected_time":4834000000000,"state":"active","ping":93},{"user_id":377,"name":"Milkmur","steam_id":76561198210043821,"connected_time":4199000000000,"state":"active","ping":69},{"user_id":376,"name":"Sonic Mania 2 [100 Real Leaked","steam_id":76561198062764039,"connected_time":4322000000000,"state":"active","ping":59},{"user_id":403,"name":"Yezman","steam_id":76561198138857306,"connected_time":1234000000000,"state":"active","ping":66},{"user_id":398,"name":"Stacks63bs","steam_id":76561198067797130,"connected_time":2240000000000,"state":"active","ping":84},{"user_id":252,"name":"Clean Lines","steam_id":76561197960691518,"connected_time":12594000000000,"state":"active","ping":56},{"user_id":373,"name":"WALKING GOPRO","steam_id":76561198186928885,"connected_time":4485000000000,"state":"active","ping":81},{"user_id":394,"name":"Mikhaila (She/Her)","steam_id":76561198065005979,"connected_time":2544000000000,"state":"active","ping":92},{"user_id":399,"name":"♥ Eve ♥","steam_id":76561199091329276,"connected_time":2239000000000,"state":"active","ping":60}]},{"server_id":106,"name":"Uncletopia | Chicago | 2 | All Maps","name_short":"chi-2","host":"chi-1.us.uncletopia.com","port":27025,"enabled":true,"region":"us-central","cc":"us","latitude":41.881832,"longitude":-87.62318,"reserved":0,"last_update":"0001-01-01T00:00:00Z","name_a2s":"Uncletopia | Chicago | 2 | All Maps","protocol":17,"map":"pl_frontier_final","folder":"tf","game":"Team Fortress","app_id":440,"player_count":24,"max_players":24,"Bots":0,"server_type":"Dedicated","server_os":"Linux","password":true,"vac":true,"version":"7961495","steam_id":85568392924469985,"keywords":["nocrits","nodmgspread","payload","uncletopia"],"game_id":440,"stv_port":27026,"stv_name":"Uncletopia | Chicago | 2 | All Maps | STV","players":[{"user_id":521,"name":"Kyle","steam_id":76561198150061073,"connected_time":5685000000000,"state":"active","ping":54},{"user_id":597,"name":"Ssefseff","steam_id":76561198110495978,"connected_time":298000000000,"state":"active","ping":63},{"user_id":588,"name":"Gotta Move That Gear Up","steam_id":76561197993467034,"connected_time":638000000000,"state":"active","ping":53},{"user_id":569,"name":"I have no idea what I am doing?","steam_id":76561198093152207,"connected_time":1788000000000,"state":"active","ping":59},{"user_id":504,"name":"dak","steam_id":76561198076596506,"connected_time":6348000000000,"state":"active","ping":59},{"user_id":528,"name":"Qui-Bong Jinn","steam_id":76561198077264112,"connected_time":4822000000000,"state":"active","ping":61},{"user_id":585,"name":"fish (2:3)","steam_id":76561198134331073,"connected_time":675000000000,"state":"active","ping":106},{"user_id":594,"name":"Comic","steam_id":76561198391882145,"connected_time":500000000000,"state":"active","ping":38},{"user_id":584,"name":"Rachi","steam_id":76561198083826053,"connected_time":707000000000,"state":"active","ping":59},{"user_id":554,"name":"Ajax","steam_id":76561197962240140,"connected_time":3205000000000,"state":"active","ping":58},{"user_id":596,"name":"masterchiefvinesaucedoomguy985","steam_id":76561198339008585,"connected_time":320000000000,"state":"active","ping":61},{"user_id":557,"name":"Dr.BendyBones","steam_id":76561198048846641,"connected_time":2947000000000,"state":"active","ping":71},{"user_id":515,"name":"Vadenair","steam_id":76561198277100433,"connected_time":6115000000000,"state":"active","ping":93},{"user_id":591,"name":"c64guy","steam_id":76561198023022744,"connected_time":620000000000,"state":"active","ping":61},{"user_id":581,"name":"KittySophie","steam_id":76561198072947773,"connected_time":909000000000,"state":"active","ping":57},{"user_id":592,"name":"my name jeff","steam_id":76561198179816898,"connected_time":619000000000,"state":"active","ping":75},{"user_id":579,"name":"TheTerribleGamer","steam_id":76561198980895488,"connected_time":1158000000000,"state":"active","ping":124},{"user_id":595,"name":"Drapph","steam_id":76561199384213314,"connected_time":415000000000,"state":"active","ping":59},{"user_id":593,"name":"Shoes [Gaming]","steam_id":76561198836436110,"connected_time":616000000000,"state":"active","ping":70},{"user_id":583,"name":"Gravity Bomb","steam_id":76561198190417719,"connected_time":747000000000,"state":"active","ping":38},{"user_id":547,"name":"BackToSchoolAds","steam_id":76561198870281128,"connected_time":3714000000000,"state":"active","ping":80},{"user_id":551,"name":"Pels","steam_id":76561198039580161,"connected_time":3636000000000,"state":"active","ping":123},{"user_id":542,"name":"fresco","steam_id":76561199101199477,"connected_time":4242000000000,"state":"active","ping":64},{"user_id":556,"name":"the zoo","steam_id":76561198013732450,"connected_time":3186000000000,"state":"active","ping":57}]},{"server_id":402,"name":"Uncletopia | Chicago | 3 | All Maps","name_short":"chi-3","host":"chi-1.us.uncletopia.com","port":27035,"enabled":true,"region":"us-central","cc":"us","latitude":41.881832,"longitude":-87.62318,"reserved":0,"last_update":"0001-01-01T00:00:00Z","name_a2s":"Uncletopia | Chicago | 3 | All Maps","protocol":17,"map":"cp_mountainlab","folder":"tf","game":"Team Fortress","app_id":440,"player_count":24,"max_players":24,"Bots":0,"server_type":"Dedicated","server_os":"Linux","password":true,"vac":true,"version":"7961495","steam_id":85568392924515191,"keywords":["cp","nocrits","nodmgspread","uncletopia"],"game_id":440,"stv_port":27036,"stv_name":"Uncletopia | Chicago | 3 | All Maps | STV","players":[{"user_id":389,"name":"vanta","steam_id":76561198084317504,"connected_time":140000000000,"state":"active","ping":50},{"user_id":369,"name":"Panic Opossum","steam_id":76561198043838227,"connected_time":1473000000000,"state":"active","ping":38},{"user_id":362,"name":"DeckofDragons","steam_id":76561198057398213,"connected_time":2394000000000,"state":"active","ping":73},{"user_id":383,"name":"chunk","steam_id":76561198134775401,"connected_time":973000000000,"state":"active","ping":53},{"user_id":387,"name":"joyride","steam_id":76561198376720540,"connected_time":206000000000,"state":"active","ping":91},{"user_id":370,"name":"I shovel mayonnaise in mouth","steam_id":76561199123118241,"connected_time":1441000000000,"state":"active","ping":108},{"user_id":316,"name":"munch","steam_id":76561198820480684,"connected_time":5804000000000,"state":"active","ping":59},{"user_id":363,"name":"Menachem","steam_id":76561198041226420,"connected_time":2383000000000,"state":"active","ping":46},{"user_id":386,"name":"Decapitation Station","steam_id":76561198201796098,"connected_time":529000000000,"state":"active","ping":86},{"user_id":373,"name":"Peepster","steam_id":76561198297854733,"connected_time":1335000000000,"state":"active","ping":71},{"user_id":392,"name":"Nortel Network Telephone T7316","steam_id":76561198399261089,"connected_time":41000000000,"state":"active","ping":76},{"user_id":341,"name":"thecal","steam_id":76561198307893384,"connected_time":4955000000000,"state":"active","ping":61},{"user_id":384,"name":"y0","steam_id":76561198143894333,"connected_time":964000000000,"state":"active","ping":49},{"user_id":390,"name":"com lag","steam_id":76561198019019392,"connected_time":139000000000,"state":"active","ping":50},{"user_id":376,"name":"rickyrickyricky","steam_id":76561198041765918,"connected_time":1291000000000,"state":"active","ping":76},{"user_id":391,"name":"xLeoparrd","steam_id":76561198940657194,"connected_time":112000000000,"state":"active","ping":89},{"user_id":357,"name":"A/funny/dream","steam_id":76561198354481597,"connected_time":3180000000000,"state":"active","ping":90},{"user_id":378,"name":"bird who can't aim","steam_id":76561198062360755,"connected_time":1153000000000,"state":"active","ping":52},{"user_id":388,"name":"zen","steam_id":76561198066485047,"connected_time":166000000000,"state":"active","ping":73},{"user_id":348,"name":"A Puppy","steam_id":76561198828184456,"connected_time":4464000000000,"state":"active","ping":60},{"user_id":385,"name":"lolosaur","steam_id":76561199186671167,"connected_time":934000000000,"state":"active","ping":108},{"user_id":379,"name":"chuck","steam_id":76561198102300433,"connected_time":1151000000000,"state":"active","ping":75},{"user_id":368,"name":"Predicta","steam_id":76561198017630616,"connected_time":1614000000000,"state":"active","ping":46},{"user_id":381,"name":"Dubious Adubio","steam_id":76561198442369067,"connected_time":1127000000000,"state":"active","ping":70}]},{"server_id":403,"name":"Uncletopia | Chicago | 4 | All Maps","name_short":"chi-4","host":"chi-1.us.uncletopia.com","port":27045,"enabled":true,"region":"us-central","cc":"us","latitude":41.881832,"longitude":-87.62318,"reserved":0,"last_update":"0001-01-01T00:00:00Z","name_a2s":"Uncletopia | Chicago | 4 | All Maps","protocol":17,"map":"pl_snowycoast","folder":"tf","game":"Team Fortress","app_id":440,"player_count":24,"max_players":24,"Bots":0,"server_type":"Dedicated","server_os":"Linux","password":true,"vac":true,"version":"7961495","steam_id":85568392924515193,"keywords":["nocrits","nodmgspread","payload","uncletopia"],"game_id":440,"stv_port":27046,"stv_name":"Uncletopia | Chicago | 4 | All Maps | STV","players":[{"user_id":174,"name":"OaPG","steam_id":76561198213307033,"connected_time":1598000000000,"state":"active","ping":152},{"user_id":180,"name":"bird feeder enthusiast","steam_id":76561199134895220,"connected_time":1061000000000,"state":"active","ping":77},{"user_id":170,"name":"Haveltherock27","steam_id":76561199219844391,"connected_time":1686000000000,"state":"active","ping":86},{"user_id":195,"name":"Nephi","steam_id":76561198031525122,"connected_time":131000000000,"state":"active","ping":80},{"user_id":187,"name":"Cap-Coop","steam_id":76561198030901126,"connected_time":810000000000,"state":"active","ping":49},{"user_id":191,"name":"Gorky Gaming","steam_id":76561198438511115,"connected_time":456000000000,"state":"active","ping":74},{"user_id":172,"name":"hyaz, +rep.","steam_id":76561199100342013,"connected_time":1657000000000,"state":"active","ping":91},{"user_id":189,"name":"SafetyInstructor","steam_id":76561199195205705,"connected_time":577000000000,"state":"active","ping":81},{"user_id":182,"name":"Chronos","steam_id":76561198126625623,"connected_time":931000000000,"state":"active","ping":70},{"user_id":179,"name":"Your Dad","steam_id":76561198060281192,"connected_time":1177000000000,"state":"active","ping":97},{"user_id":162,"name":"Wiener Hole Paper Cut","steam_id":76561198000808203,"connected_time":1931000000000,"state":"active","ping":77},{"user_id":147,"name":"Sylvain","steam_id":76561198113385271,"connected_time":2893000000000,"state":"active","ping":69},{"user_id":144,"name":"BoyWithTheBeanie","steam_id":76561199435079308,"connected_time":3187000000000,"state":"active","ping":160},{"user_id":196,"name":"the_pugz","steam_id":76561199179432329,"connected_time":125000000000,"state":"active","ping":84},{"user_id":177,"name":"The Chimp","steam_id":76561199013458732,"connected_time":1426000000000,"state":"active","ping":61},{"user_id":186,"name":"JACK BRUNO","steam_id":76561198027957690,"connected_time":907000000000,"state":"active","ping":111},{"user_id":173,"name":"Rukks","steam_id":76561197993918954,"connected_time":1632000000000,"state":"active","ping":88},{"user_id":197,"name":"dave :3","steam_id":76561198135961731,"connected_time":96000000000,"state":"spawning","ping":75},{"user_id":145,"name":"harold of rock salt kingdom","steam_id":76561199016285746,"connected_time":3185000000000,"state":"active","ping":86},{"user_id":198,"name":"mkl","steam_id":76561197986401685,"connected_time":56000000000,"state":"active","ping":82},{"user_id":192,"name":"Fish Lambert","steam_id":76561198098279668,"connected_time":297000000000,"state":"active","ping":89},{"user_id":194,"name":"a","steam_id":76561198131245396,"connected_time":211000000000,"state":"active","ping":65},{"user_id":168,"name":"Sexterminator","steam_id":76561199018767956,"connected_time":1838000000000,"state":"active","ping":51},{"user_id":185,"name":"echo","steam_id":76561198042511636,"connected_time":911000000000,"state":"active","ping":75}]},{"server_id":36,"name":"Uncletopia | Chicago | 5 | All Maps","name_short":"chi-5","host":"chi-2.us.uncletopia.com","port":27015,"enabled":true,"region":"us-central","cc":"us","latitude":41.881832,"longitude":-87.62318,"reserved":0,"last_update":"0001-01-01T00:00:00Z","name_a2s":"Uncletopia | Chicago | 5 | All Maps","protocol":17,"map":"pl_barnblitz","folder":"tf","game":"Team Fortress","app_id":440,"player_count":23,"max_players":24,"Bots":0,"server_type":"Dedicated","server_os":"Linux","password":true,"vac":true,"version":"7961495","steam_id":85568392924866362,"keywords":["nocrits","nodmgspread","payload","uncletopia"],"game_id":440,"stv_port":27016,"stv_name":"Uncletopia | Chicago | 5 | All Maps | STV","players":[{"user_id":236,"name":"Johnny Lawrence #JohnnyMaxxing","steam_id":76561199367141671,"connected_time":511000000000,"state":"active","ping":69},{"user_id":219,"name":"DrCoeloCephalo","steam_id":76561198102666293,"connected_time":1774000000000,"state":"active","ping":67},{"user_id":200,"name":"filthy white trash","steam_id":76561198154176367,"connected_time":3078000000000,"state":"active","ping":72},{"user_id":174,"name":"DerpyNate","steam_id":76561198100249037,"connected_time":5907000000000,"state":"active","ping":46},{"user_id":235,"name":"ThatBillson","steam_id":76561198192564846,"connected_time":533000000000,"state":"active","ping":74},{"user_id":214,"name":"Randumb","steam_id":76561199083286636,"connected_time":1838000000000,"state":"active","ping":59},{"user_id":110,"name":"Beebo, Son of Beebo","steam_id":76561198055948497,"connected_time":12200000000000,"state":"active","ping":53},{"user_id":196,"name":"totoro","steam_id":76561198210420871,"connected_time":3270000000000,"state":"active","ping":45},{"user_id":220,"name":"-Avh-","steam_id":76561198087593160,"connected_time":1624000000000,"state":"active","ping":73},{"user_id":210,"name":"Amari","steam_id":76561198272446730,"connected_time":2589000000000,"state":"active","ping":83},{"user_id":233,"name":"Weerk","steam_id":76561199209543551,"connected_time":748000000000,"state":"active","ping":75},{"user_id":230,"name":"Gamering_funy","steam_id":76561199006503777,"connected_time":1380000000000,"state":"active","ping":61},{"user_id":240,"name":"Capzlockz3","steam_id":76561198310863739,"connected_time":59000000000,"state":"spawning","ping":60},{"user_id":169,"name":"Hazeyboi","steam_id":76561198130687838,"connected_time":6395000000000,"state":"active","ping":45},{"user_id":215,"name":"Lullaby","steam_id":76561198061103166,"connected_time":1812000000000,"state":"active","ping":59},{"user_id":231,"name":"hammythegreat #SaveTF2","steam_id":76561198079526946,"connected_time":1337000000000,"state":"active","ping":97},{"user_id":206,"name":"HumFreY","steam_id":76561198076639682,"connected_time":2912000000000,"state":"active","ping":78},{"user_id":238,"name":"AssSniffer","steam_id":76561198306370494,"connected_time":186000000000,"state":"active","ping":157},{"user_id":175,"name":"Maximum Flame","steam_id":76561198073682529,"connected_time":5837000000000,"state":"active","ping":45},{"user_id":217,"name":"Freak","steam_id":76561198066585785,"connected_time":1799000000000,"state":"active","ping":78},{"user_id":201,"name":"MONKEY | videogamer1002","steam_id":76561198157110599,"connected_time":3049000000000,"state":"active","ping":116},{"user_id":218,"name":"Kumatora","steam_id":76561198137748378,"connected_time":1798000000000,"state":"active","ping":55},{"user_id":202,"name":"moosein","steam_id":76561198354272434,"connected_time":3044000000000,"state":"active","ping":99}]},{"server_id":37,"name":"Uncletopia | Chicago | 6 | All Maps","name_short":"chi-6","host":"chi-2.us.uncletopia.com","port":27025,"enabled":true,"region":"us-central","cc":"us","latitude":41.881832,"longitude":-87.62318,"reserved":0,"last_update":"0001-01-01T00:00:00Z","name_a2s":"Uncletopia | Chicago | 6 | All Maps","protocol":17,"map":"pl_borneo","folder":"tf","game":"Team Fortress","app_id":440,"player_count":21,"max_players":24,"Bots":0,"server_type":"Dedicated","server_os":"Linux","password":true,"vac":true,"version":"7961495","steam_id":85568392924866363,"keywords":["nocrits","nodmgspread","payload","uncletopia"],"game_id":440,"stv_port":27026,"stv_name":"Uncletopia | Chicago | 6 | All Maps | STV","players":[{"user_id":107,"name":"kicks","steam_id":76561199228854923,"connected_time":403000000000,"state":"active","ping":61},{"user_id":38,"name":"idiotloser","steam_id":76561198054390505,"connected_time":4259000000000,"state":"active","ping":52},{"user_id":110,"name":"kitaro","steam_id":76561198304476009,"connected_time":27000000000,"state":"spawning","ping":138},{"user_id":43,"name":"Kdash","steam_id":76561198043829155,"connected_time":3819000000000,"state":"active","ping":78},{"user_id":86,"name":"Killerkarate","steam_id":76561198067533929,"connected_time":1544000000000,"state":"active","ping":51},{"user_id":94,"name":"SAUSAGE SLAPPER","steam_id":76561198030627003,"connected_time":1115000000000,"state":"active","ping":60},{"user_id":71,"name":"Gaming","steam_id":76561198107080532,"connected_time":3031000000000,"state":"active","ping":64},{"user_id":79,"name":"Dark Lord","steam_id":76561198044199150,"connected_time":2201000000000,"state":"active","ping":80},{"user_id":88,"name":"Jpxfred","steam_id":76561199414783749,"connected_time":1519000000000,"state":"active","ping":97},{"user_id":109,"name":"PK","steam_id":76561198368722500,"connected_time":61000000000,"state":"active","ping":79},{"user_id":111,"name":"[P-CAN] ttv/cccilytf2","steam_id":76561198322125595,"connected_time":21000000000,"state":"spawning","ping":300},{"user_id":50,"name":"Psycho Raptor","steam_id":76561198325853767,"connected_time":3606000000000,"state":"active","ping":108},{"user_id":96,"name":"Dan","steam_id":76561199236719411,"connected_time":1027000000000,"state":"active","ping":69},{"user_id":106,"name":"GreenApples","steam_id":76561198120559543,"connected_time":660000000000,"state":"active","ping":91},{"user_id":55,"name":"brisky","steam_id":76561198869675719,"connected_time":3527000000000,"state":"active","ping":74},{"user_id":77,"name":"Rornir","steam_id":76561198081829615,"connected_time":2530000000000,"state":"active","ping":41},{"user_id":85,"name":"crispylego_","steam_id":76561199453679719,"connected_time":1586000000000,"state":"active","ping":124},{"user_id":92,"name":"Scoot the Burbs","steam_id":76561198079507179,"connected_time":1369000000000,"state":"active","ping":71},{"user_id":108,"name":"Unfancy","steam_id":76561198367663877,"connected_time":392000000000,"state":"active","ping":81},{"user_id":93,"name":"purple diesel","steam_id":76561197976548449,"connected_time":1257000000000,"state":"active","ping":87},{"user_id":103,"name":"Skrubs","steam_id":76561198214165563,"connected_time":844000000000,"state":"active","ping":81}]},{"server_id":38,"name":"Uncletopia | Chicago | 7 | Stopwatch","name_short":"chi-7","host":"chi-2.us.uncletopia.com","port":27035,"enabled":true,"region":"us-central","cc":"us","latitude":41.881832,"longitude":-87.62318,"reserved":0,"last_update":"0001-01-01T00:00:00Z","name_a2s":"Uncletopia | Chicago | 7 | Stopwatch","protocol":17,"map":"koth_highpass","folder":"tf","game":"Team Fortress","app_id":440,"player_count":0,"max_players":24,"Bots":0,"server_type":"Dedicated","server_os":"Linux","password":true,"vac":true,"version":"7961495","steam_id":85568392924866364,"keywords":["cp","nocrits","nodmgspread","uncletopia"],"game_id":440,"stv_port":27036,"stv_name":"Uncletopia | Chicago | 7 | Stopwatch | STV","players":null},{"server_id":39,"name":"Uncletopia | Chicago | 8 | Community","name_short":"chi-8","host":"chi-2.us.uncletopia.com","port":27045,"enabled":true,"region":"us-central","cc":"us","latitude":41.881832,"longitude":-87.62318,"reserved":0,"last_update":"0001-01-01T00:00:00Z","name_a2s":"Uncletopia | Chicago | 8 | Community","protocol":17,"map":"workshop/pl_shoreleave_rc2.ugc1238849347","folder":"tf","game":"Team Fortress","app_id":440,"player_count":0,"max_players":24,"Bots":0,"server_type":"Dedicated","server_os":"Linux","password":true,"vac":true,"version":"7961495","steam_id":85568392924866365,"keywords":["nocrits","nodmgspread","payload","uncletopia"],"game_id":440,"stv_port":27046,"stv_name":"Uncletopia | Chicago | 8 | Community | STV","players":null},{"server_id":8,"name":"Uncletopia | Dallas | 1 | All Maps","name_short":"dal-1","host":"dal-1.us.uncletopia.com","port":27015,"enabled":true,"region":"us-central","cc":"us","latitude":32.779167,"longitude":-96.80889,"reserved":0,"last_update":"0001-01-01T00:00:00Z","name_a2s":"Uncletopia | Dallas | 1 | All Maps","protocol":17,"map":"pl_thundermountain","folder":"tf","game":"Team Fortress","app_id":440,"player_count":24,"max_players":24,"Bots":0,"server_type":"Dedicated","server_os":"Linux","password":true,"vac":true,"version":"7961495","steam_id":85568392924469986,"keywords":["nocrits","nodmgspread","payload","uncletopia"],"game_id":440,"stv_port":27016,"stv_name":"Uncletopia | Dallas | 1 | All Maps | STV","players":[{"user_id":214,"name":"( ͡° ͜ʖ ͡°)","steam_id":76561198982415497,"connected_time":2620000000000,"state":"active","ping":94},{"user_id":235,"name":"(TPT) Ghost","steam_id":76561198123262873,"connected_time":1126000000000,"state":"active","ping":88},{"user_id":239,"name":"Snivy64","steam_id":76561198423445376,"connected_time":168000000000,"state":"active","ping":71},{"user_id":240,"name":"Suburban Wolf Dad","steam_id":76561198069234954,"connected_time":86000000000,"state":"active","ping":76},{"user_id":232,"name":"Comrade","steam_id":76561199056721863,"connected_time":1223000000000,"state":"active","ping":80},{"user_id":199,"name":"Kaestal","steam_id":76561198033174157,"connected_time":4047000000000,"state":"active","ping":56},{"user_id":207,"name":"Average","steam_id":76561199133007007,"connected_time":3615000000000,"state":"active","ping":65},{"user_id":217,"name":"Burny Sanders","steam_id":76561197961879048,"connected_time":2587000000000,"state":"active","ping":45},{"user_id":238,"name":"big ol' buford","steam_id":76561198290675957,"connected_time":445000000000,"state":"active","ping":37},{"user_id":128,"name":"Elias","steam_id":76561198106431732,"connected_time":8840000000000,"state":"active","ping":60},{"user_id":137,"name":"bashdzy","steam_id":76561199006087600,"connected_time":7615000000000,"state":"active","ping":62},{"user_id":228,"name":"Rhutebeer","steam_id":76561198018302761,"connected_time":2214000000000,"state":"active","ping":81},{"user_id":220,"name":"Darling","steam_id":76561198127525888,"connected_time":2567000000000,"state":"active","ping":47},{"user_id":148,"name":"Tako","steam_id":76561199264073138,"connected_time":6780000000000,"state":"active","ping":63},{"user_id":227,"name":"Imrgrim","steam_id":76561198135866481,"connected_time":2244000000000,"state":"active","ping":61},{"user_id":224,"name":"Amtyk","steam_id":76561197979130554,"connected_time":2389000000000,"state":"active","ping":82},{"user_id":226,"name":"SD","steam_id":76561198217410988,"connected_time":2269000000000,"state":"active","ping":79},{"user_id":229,"name":"TechnoBear2099","steam_id":76561198238863596,"connected_time":2187000000000,"state":"active","ping":49},{"user_id":222,"name":"[DATS➡] Sugar Meowth","steam_id":76561197995251793,"connected_time":2530000000000,"state":"active","ping":91},{"user_id":236,"name":"sockman","steam_id":76561198306826566,"connected_time":690000000000,"state":"active","ping":81},{"user_id":221,"name":"Crombun","steam_id":76561198031559642,"connected_time":2562000000000,"state":"active","ping":76},{"user_id":166,"name":"Addicted2TheShindig","steam_id":76561198062459671,"connected_time":5454000000000,"state":"active","ping":88},{"user_id":237,"name":"iluvtoust","steam_id":76561198869269207,"connected_time":553000000000,"state":"active","ping":50},{"user_id":231,"name":"THRONGLER","steam_id":76561198198563466,"connected_time":1736000000000,"state":"active","ping":40}]},{"server_id":108,"name":"Uncletopia | Dallas | 2 | All Maps","name_short":"dal-2","host":"dal-1.us.uncletopia.com","port":27025,"enabled":true,"region":"us-central","cc":"us","latitude":32.779167,"longitude":-96.80889,"reserved":0,"last_update":"0001-01-01T00:00:00Z","name_a2s":"Uncletopia | Dallas | 2 | All Maps","protocol":17,"map":"pl_badwater","folder":"tf","game":"Team Fortress","app_id":440,"player_count":24,"max_players":24,"Bots":0,"server_type":"Dedicated","server_os":"Linux","password":true,"vac":true,"version":"7961495","steam_id":85568392924469988,"keywords":["nocrits","nodmgspread","payload","uncletopia"],"game_id":440,"stv_port":27026,"stv_name":"Uncletopia | Dallas | 2 | All Maps | STV","players":[{"user_id":125,"name":"Crescent","steam_id":76561198095124633,"connected_time":2465000000000,"state":"active","ping":72},{"user_id":165,"name":"OliverOyl","steam_id":76561198273781861,"connected_time":331000000000,"state":"active","ping":58},{"user_id":116,"name":"allahsdroptop (Bag/Chaser)","steam_id":76561198133195238,"connected_time":3312000000000,"state":"active","ping":97},{"user_id":156,"name":"KiWii","steam_id":76561199013608864,"connected_time":975000000000,"state":"active","ping":56},{"user_id":166,"name":"Malevo","steam_id":76561198148606522,"connected_time":322000000000,"state":"active","ping":56},{"user_id":140,"name":":)","steam_id":76561198079892116,"connected_time":1416000000000,"state":"active","ping":62},{"user_id":167,"name":"Penis the Kid","steam_id":76561198094844403,"connected_time":303000000000,"state":"active","ping":99},{"user_id":168,"name":"Phosu","steam_id":76561198180162801,"connected_time":14000000000,"state":"spawning","ping":57},{"user_id":162,"name":"cupsovietxeno","steam_id":76561198997539399,"connected_time":687000000000,"state":"active","ping":93},{"user_id":120,"name":"Krissy","steam_id":76561197960848174,"connected_time":2931000000000,"state":"active","ping":87},{"user_id":152,"name":"shrigma","steam_id":76561198101301195,"connected_time":1239000000000,"state":"active","ping":78},{"user_id":153,"name":"rico \"tristen\" suave","steam_id":76561198093252989,"connected_time":1164000000000,"state":"active","ping":61},{"user_id":155,"name":"K2f","steam_id":76561198049600563,"connected_time":1079000000000,"state":"active","ping":78},{"user_id":146,"name":"Ccpop123a","steam_id":76561198883889729,"connected_time":1365000000000,"state":"active","ping":64},{"user_id":147,"name":"Gargathor the Entity Catcher","steam_id":76561198189429665,"connected_time":1356000000000,"state":"active","ping":75},{"user_id":148,"name":"turnip","steam_id":76561197999375941,"connected_time":1352000000000,"state":"active","ping":59},{"user_id":82,"name":"djjones1999","steam_id":76561199121937746,"connected_time":6534000000000,"state":"active","ping":81},{"user_id":157,"name":"fluffythemessiah","steam_id":76561199013202758,"connected_time":968000000000,"state":"active","ping":71},{"user_id":149,"name":"Transfem Bumblebee","steam_id":76561198119393205,"connected_time":1345000000000,"state":"active","ping":60},{"user_id":123,"name":"shellaa","steam_id":76561198044124102,"connected_time":2804000000000,"state":"active","ping":45},{"user_id":150,"name":"Makowako","steam_id":76561199016565502,"connected_time":1331000000000,"state":"active","ping":102},{"user_id":134,"name":"guy","steam_id":76561198163306561,"connected_time":1988000000000,"state":"active","ping":76},{"user_id":151,"name":"California Police Department","steam_id":76561199071151136,"connected_time":1327000000000,"state":"active","ping":75},{"user_id":158,"name":"TrashPanda (she/her)","steam_id":76561198447864095,"connected_time":968000000000,"state":"active","ping":60}]},{"server_id":404,"name":"Uncletopia | Dallas | 3 | All Maps","name_short":"dal-3","host":"dal-1.us.uncletopia.com","port":27035,"enabled":true,"region":"us-central","cc":"us","latitude":32.779167,"longitude":-96.80889,"reserved":0,"last_update":"0001-01-01T00:00:00Z","name_a2s":"Uncletopia | Dallas | 3 | All Maps","protocol":17,"map":"koth_cascade","folder":"tf","game":"Team Fortress","app_id":440,"player_count":0,"max_players":24,"Bots":0,"server_type":"Dedicated","server_os":"Linux","password":true,"vac":true,"version":"7961495","steam_id":85568392924515219,"keywords":["cp","nocrits","nodmgspread","uncletopia"],"game_id":440,"stv_port":27036,"stv_name":"Uncletopia | Dallas | 3 | All Maps | STV","players":null},{"server_id":405,"name":"Uncletopia | Dallas | 4 | Community","name_short":"dal-4","host":"dal-1.us.uncletopia.com","port":27045,"enabled":true,"region":"us-central","cc":"us","latitude":32.779167,"longitude":-96.80889,"reserved":0,"last_update":"0001-01-01T00:00:00Z","name_a2s":"Uncletopia | Dallas | 4 | Community","protocol":17,"map":"workshop/koth_slaughter_rc1.ugc1712845210","folder":"tf","game":"Team Fortress","app_id":440,"player_count":0,"max_players":24,"Bots":0,"server_type":"Dedicated","server_os":"Linux","password":true,"vac":true,"version":"7961495","steam_id":85568392924515220,"keywords":["cp","nocrits","nodmgspread","uncletopia"],"game_id":440,"stv_port":27046,"stv_name":"Uncletopia | Dallas | 4 | Community | STV","players":null},{"server_id":5,"name":"Uncletopia | Frankfurt | 1 | All Maps","name_short":"frk-1","host":"frk-1.de.uncletopia.com","port":27015,"enabled":true,"region":"eu","cc":"de","latitude":50.110924,"longitude":8.682127,"reserved":0,"last_update":"0001-01-01T00:00:00Z","name_a2s":"Uncletopia | Frankfurt | 1 | All Maps","protocol":17,"map":"koth_highpass","folder":"tf","game":"Team Fortress","app_id":440,"player_count":0,"max_players":24,"Bots":0,"server_type":"Dedicated","server_os":"Linux","password":true,"vac":true,"version":"7961495","steam_id":85568392924469989,"keywords":["cp","nocrits","nodmgspread","uncletopia"],"game_id":440,"stv_port":27016,"stv_name":"Uncletopia | Frankfurt | 1 | All Maps | STV","players":null},{"server_id":110,"name":"Uncletopia | Frankfurt | 2 | All Maps","name_short":"frk-2","host":"frk-1.de.uncletopia.com","port":27025,"enabled":true,"region":"eu","cc":"de","latitude":50.110924,"longitude":8.682127,"reserved":0,"last_update":"0001-01-01T00:00:00Z","name_a2s":"Uncletopia | Frankfurt | 2 | All Maps","protocol":17,"map":"pl_frontier_final","folder":"tf","game":"Team Fortress","app_id":440,"player_count":6,"max_players":24,"Bots":0,"server_type":"Dedicated","server_os":"Linux","password":true,"vac":true,"version":"7961495","steam_id":85568392924469990,"keywords":["nocrits","nodmgspread","payload","uncletopia"],"game_id":440,"stv_port":27026,"stv_name":"Uncletopia | Frankfurt | 2 | All Maps | STV","players":[{"user_id":696,"name":"ashley","steam_id":76561198448551449,"connected_time":103000000000,"state":"active","ping":46},{"user_id":694,"name":"Jussukka","steam_id":76561198122894683,"connected_time":229000000000,"state":"active","ping":98},{"user_id":692,"name":"Kenny Savage","steam_id":76561199049383900,"connected_time":418000000000,"state":"active","ping":67},{"user_id":664,"name":"MitraIDK","steam_id":76561198355718965,"connected_time":2572000000000,"state":"active","ping":74},{"user_id":617,"name":"woop","steam_id":76561198985105074,"connected_time":4802000000000,"state":"active","ping":127},{"user_id":666,"name":"C++ Enjoyer","steam_id":76561198277310442,"connected_time":2352000000000,"state":"active","ping":57}]},{"server_id":308,"name":"Uncletopia | Frankfurt | 3 | All Maps","name_short":"frk-3","host":"frk-1.de.uncletopia.com","port":27035,"enabled":true,"region":"eu","cc":"de","latitude":50.110924,"longitude":8.682127,"reserved":0,"last_update":"0001-01-01T00:00:00Z","name_a2s":"Uncletopia | Frankfurt | 3 | All Maps","protocol":17,"map":"cp_snakewater_final1","folder":"tf","game":"Team Fortress","app_id":440,"player_count":17,"max_players":24,"Bots":0,"server_type":"Dedicated","server_os":"Linux","password":true,"vac":true,"version":"7961495","steam_id":85568392924504274,"keywords":["cp","nocrits","nodmgspread","uncletopia"],"game_id":440,"stv_port":27036,"stv_name":"Uncletopia | Frankfurt | 3 | All Maps | STV","players":[{"user_id":435,"name":"Alpaca","steam_id":76561198029839079,"connected_time":21000000000,"state":"active","ping":48},{"user_id":414,"name":"Piellino","steam_id":76561198156873276,"connected_time":1699000000000,"state":"active","ping":90},{"user_id":411,"name":"Proto-arc","steam_id":76561198012776747,"connected_time":1876000000000,"state":"active","ping":58},{"user_id":433,"name":"Amandus","steam_id":76561198036281079,"connected_time":84000000000,"state":"active","ping":60},{"user_id":345,"name":"I am real human","steam_id":76561199036865103,"connected_time":6947000000000,"state":"active","ping":90},{"user_id":398,"name":"mini-sentry","steam_id":76561198884712155,"connected_time":3641000000000,"state":"active","ping":180},{"user_id":434,"name":"Crimson","steam_id":76561197987552332,"connected_time":76000000000,"state":"active","ping":44},{"user_id":416,"name":"Lyncurion","steam_id":76561199260022725,"connected_time":1423000000000,"state":"active","ping":69},{"user_id":425,"name":"Khvicha Kvaraskhelia","steam_id":76561198985309519,"connected_time":1015000000000,"state":"active","ping":70},{"user_id":418,"name":"you","steam_id":76561198327672875,"connected_time":1323000000000,"state":"active","ping":59},{"user_id":396,"name":"PUNK RECORDS","steam_id":76561197999954766,"connected_time":3754000000000,"state":"active","ping":44},{"user_id":428,"name":"grandpa gaming","steam_id":76561199094592508,"connected_time":572000000000,"state":"active","ping":58},{"user_id":379,"name":"etc","steam_id":76561197998394797,"connected_time":4745000000000,"state":"active","ping":48},{"user_id":403,"name":"Groucho","steam_id":76561198042888918,"connected_time":3378000000000,"state":"active","ping":53},{"user_id":361,"name":"Raymus","steam_id":76561198021330407,"connected_time":5818000000000,"state":"active","ping":40},{"user_id":386,"name":"Sprottel","steam_id":76561198362958293,"connected_time":4169000000000,"state":"active","ping":37},{"user_id":429,"name":"MarJar","steam_id":76561198177339194,"connected_time":422000000000,"state":"active","ping":48}]},{"server_id":309,"name":"Uncletopia | Frankfurt | 4 | All Maps","name_short":"frk-4","host":"frk-1.de.uncletopia.com","port":27045,"enabled":true,"region":"eu","cc":"de","latitude":50.110924,"longitude":8.682127,"reserved":0,"last_update":"0001-01-01T00:00:00Z","name_a2s":"Uncletopia | Frankfurt | 4 | All Maps","protocol":17,"map":"pl_frontier_final","folder":"tf","game":"Team Fortress","app_id":440,"player_count":0,"max_players":24,"Bots":0,"server_type":"Dedicated","server_os":"Linux","password":true,"vac":true,"version":"7961495","steam_id":85568392924504275,"keywords":["nocrits","nodmgspread","payload","uncletopia"],"game_id":440,"stv_port":27046,"stv_name":"Uncletopia | Frankfurt | 4 | All Maps | STV","players":null},{"server_id":310,"name":"Uncletopia | Frankfurt | 5 | All Maps","name_short":"frk-5","host":"frk-1.de.uncletopia.com","port":27055,"enabled":true,"region":"eu","cc":"de","latitude":50.110924,"longitude":8.682127,"reserved":0,"last_update":"0001-01-01T00:00:00Z","name_a2s":"Uncletopia | Frankfurt | 5 | All Maps","protocol":17,"map":"cp_snakewater_final1","folder":"tf","game":"Team Fortress","app_id":440,"player_count":24,"max_players":24,"Bots":0,"server_type":"Dedicated","server_os":"Linux","password":true,"vac":true,"version":"7961495","steam_id":85568392924504277,"keywords":["cp","nocrits","nodmgspread","uncletopia"],"game_id":440,"stv_port":27056,"stv_name":"Uncletopia | Frankfurt | 5 | All Maps | STV","players":[{"user_id":661,"name":"Isak","steam_id":76561198085959762,"connected_time":197000000000,"state":"active","ping":68},{"user_id":623,"name":"Vershal Smershal","steam_id":76561198116223995,"connected_time":4695000000000,"state":"active","ping":58},{"user_id":624,"name":"crit hit!","steam_id":76561198112693639,"connected_time":4656000000000,"state":"active","ping":68},{"user_id":551,"name":"Just Navlis","steam_id":76561198090479609,"connected_time":10953000000000,"state":"active","ping":45},{"user_id":637,"name":"goop","steam_id":76561198190073005,"connected_time":3457000000000,"state":"active","ping":56},{"user_id":647,"name":"debil boywife","steam_id":76561198160047415,"connected_time":2091000000000,"state":"active","ping":89},{"user_id":574,"name":"agent youppii","steam_id":76561198055264447,"connected_time":8732000000000,"state":"active","ping":74},{"user_id":664,"name":"Wildeshammer","steam_id":76561198132133702,"connected_time":140000000000,"state":"active","ping":35},{"user_id":648,"name":"glyph","steam_id":76561197980736364,"connected_time":2072000000000,"state":"active","ping":75},{"user_id":660,"name":"Rebeliondog","steam_id":76561198056815609,"connected_time":228000000000,"state":"active","ping":67},{"user_id":662,"name":"kúkalabbi","steam_id":76561198071217539,"connected_time":195000000000,"state":"active","ping":90},{"user_id":655,"name":"sHIFTINGvORTEX","steam_id":76561198231648332,"connected_time":1147000000000,"state":"active","ping":74},{"user_id":665,"name":"plunj","steam_id":76561198056790920,"connected_time":121000000000,"state":"active","ping":63},{"user_id":649,"name":"corben","steam_id":76561198057360549,"connected_time":2037000000000,"state":"active","ping":62},{"user_id":629,"name":"wes","steam_id":76561198067000117,"connected_time":4450000000000,"state":"active","ping":64},{"user_id":663,"name":"clcraven","steam_id":76561198004637699,"connected_time":181000000000,"state":"active","ping":70},{"user_id":666,"name":"else1","steam_id":76561197996558319,"connected_time":118000000000,"state":"active","ping":77},{"user_id":652,"name":"John Noob","steam_id":76561197999170026,"connected_time":1454000000000,"state":"active","ping":85},{"user_id":653,"name":"Icarus300","steam_id":76561198015125766,"connected_time":1356000000000,"state":"active","ping":75},{"user_id":667,"name":"say gex","steam_id":76561198265479349,"connected_time":43000000000,"state":"active","ping":52},{"user_id":631,"name":"nezolif","steam_id":76561198102030382,"connected_time":4440000000000,"state":"active","ping":64},{"user_id":668,"name":"R8N - Obismal","steam_id":76561198007482714,"connected_time":23000000000,"state":"active","ping":69},{"user_id":632,"name":"dia","steam_id":76561198033281405,"connected_time":4433000000000,"state":"active","ping":84},{"user_id":539,"name":"hananamanna","steam_id":76561198006570285,"connected_time":12118000000000,"state":"active","ping":112}]},{"server_id":311,"name":"Uncletopia | Frankfurt | 6 | All Maps","name_short":"frk-6","host":"frk-1.de.uncletopia.com","port":27065,"enabled":true,"region":"eu","cc":"de","latitude":50.110924,"longitude":8.682127,"reserved":0,"last_update":"0001-01-01T00:00:00Z","name_a2s":"Uncletopia | Frankfurt | 6 | All Maps","protocol":17,"map":"cp_snakewater_final1","folder":"tf","game":"Team Fortress","app_id":440,"player_count":9,"max_players":24,"Bots":0,"server_type":"Dedicated","server_os":"Linux","password":true,"vac":true,"version":"7961495","steam_id":85568392924504278,"keywords":["cp","nocrits","nodmgspread","uncletopia"],"game_id":440,"stv_port":27066,"stv_name":"Uncletopia | Frankfurt | 6 | All Maps | STV","players":[{"user_id":642,"name":"Em","steam_id":76561198057911246,"connected_time":1391000000000,"state":"active","ping":72},{"user_id":643,"name":"disabled chimp","steam_id":76561198132062857,"connected_time":1389000000000,"state":"active","ping":59},{"user_id":658,"name":"fawn","steam_id":76561198440195402,"connected_time":699000000000,"state":"active","ping":55},{"user_id":663,"name":"f0x","steam_id":76561198072921704,"connected_time":303000000000,"state":"active","ping":46},{"user_id":644,"name":"elf;.","steam_id":76561198042830349,"connected_time":1389000000000,"state":"active","ping":111},{"user_id":645,"name":"torrent","steam_id":76561197982581690,"connected_time":1386000000000,"state":"active","ping":53},{"user_id":646,"name":"rgb4","steam_id":76561198267916695,"connected_time":1384000000000,"state":"active","ping":49},{"user_id":648,"name":"Gangwolf","steam_id":76561198043868575,"connected_time":1117000000000,"state":"active","ping":50},{"user_id":651,"name":"in space the raccoons liquify","steam_id":76561198031498341,"connected_time":1049000000000,"state":"active","ping":65}]},{"server_id":23,"name":"Uncletopia | Frankfurt | 7 | Stopwatch","name_short":"frk-7","host":"frk-1.de.uncletopia.com","port":27075,"enabled":true,"region":"eu","cc":"de","latitude":50.110924,"longitude":8.682127,"reserved":0,"last_update":"0001-01-01T00:00:00Z","name_a2s":"Uncletopia | Frankfurt | 7 | Stopwatch","protocol":17,"map":"workshop/pl_badwater_pro_v12.ugc2142942074","folder":"tf","game":"Team Fortress","app_id":440,"player_count":0,"max_players":24,"Bots":0,"server_type":"Dedicated","server_os":"Linux","password":true,"vac":true,"version":"7961495","steam_id":85568392924742827,"keywords":["nocrits","nodmgspread","payload","uncletopia"],"game_id":440,"stv_port":27076,"stv_name":"Uncletopia | Frankfurt | 7 | Stopwatch | STV","players":null},{"server_id":24,"name":"Uncletopia | Frankfurt | 8 | Community","name_short":"frk-8","host":"frk-1.de.uncletopia.com","port":27085,"enabled":true,"region":"eu","cc":"de","latitude":50.110924,"longitude":8.682127,"reserved":0,"last_update":"0001-01-01T00:00:00Z","name_a2s":"Uncletopia | Frankfurt | 8 | Community","protocol":17,"map":"workshop/cp_alloy_rc3.ugc592805587","folder":"tf","game":"Team Fortress","app_id":440,"player_count":0,"max_players":24,"Bots":0,"server_type":"Dedicated","server_os":"Linux","password":true,"vac":true,"version":"7961495","steam_id":85568392924742828,"keywords":["cp","nocrits","nodmgspread","uncletopia"],"game_id":440,"stv_port":27086,"stv_name":"Uncletopia | Frankfurt | 8 | Community | STV","players":null},{"server_id":202,"name":"Uncletopia | Hong Kong | 1 | All Maps","name_short":"hgk-1","host":"hgk-1.hk.uncletopia.com","port":27015,"enabled":true,"region":"asia","cc":"hk","latitude":22.302711,"longitude":114.177216,"reserved":0,"last_update":"0001-01-01T00:00:00Z","name_a2s":"Uncletopia | Hong Kong | 1 | All Maps","protocol":17,"map":"pl_frontier_final","folder":"tf","game":"Team Fortress","app_id":440,"player_count":0,"max_players":24,"Bots":0,"server_type":"Dedicated","server_os":"Linux","password":true,"vac":true,"version":"7961495","steam_id":85568392924494504,"keywords":["nocrits","nodmgspread","payload","uncletopia"],"game_id":440,"stv_port":27016,"stv_name":"Uncletopia | Hong Kong | 1 | All Maps | STV","players":null},{"server_id":1,"name":"Uncletopia | Los Angeles | 1 | All Maps","name_short":"lax-1","host":"lax-1.us.uncletopia.com","port":27015,"enabled":true,"region":"us-west","cc":"us","latitude":33.94279,"longitude":-118.41004,"reserved":0,"last_update":"0001-01-01T00:00:00Z","name_a2s":"Uncletopia | Los Angeles | 1 | All Maps","protocol":17,"map":"cp_powerhouse","folder":"tf","game":"Team Fortress","app_id":440,"player_count":23,"max_players":24,"Bots":0,"server_type":"Dedicated","server_os":"Linux","password":true,"vac":true,"version":"7961495","steam_id":85568392924469991,"keywords":["cp","nocrits","nodmgspread","uncletopia"],"game_id":440,"stv_port":27016,"stv_name":"Uncletopia | Los Angeles | 1 | All Maps | STV","players":[{"user_id":265,"name":"Jazpy","steam_id":76561198036872545,"connected_time":308000000000,"state":"active","ping":78},{"user_id":242,"name":"BlazedBunny","steam_id":76561198243610560,"connected_time":1215000000000,"state":"active","ping":114},{"user_id":267,"name":"Astro","steam_id":76561198035676106,"connected_time":276000000000,"state":"active","ping":88},{"user_id":264,"name":"lil uzi squirt","steam_id":76561198045926594,"connected_time":318000000000,"state":"active","ping":66},{"user_id":241,"name":"cielael","steam_id":76561198043971956,"connected_time":1588000000000,"state":"active","ping":52},{"user_id":224,"name":"rilby","steam_id":76561198132755619,"connected_time":3768000000000,"state":"active","ping":42},{"user_id":228,"name":"Gumpy","steam_id":76561198144747235,"connected_time":3263000000000,"state":"active","ping":76},{"user_id":266,"name":"D.T. Katze","steam_id":76561198002280813,"connected_time":296000000000,"state":"active","ping":111},{"user_id":219,"name":"HumbDoe","steam_id":76561198065556553,"connected_time":4047000000000,"state":"active","ping":55},{"user_id":268,"name":"TheSecretNewbie","steam_id":76561198194671218,"connected_time":275000000000,"state":"active","ping":88},{"user_id":215,"name":"thekraken630","steam_id":76561199088410868,"connected_time":4392000000000,"state":"active","ping":60},{"user_id":269,"name":"nnoxx","steam_id":76561198809475851,"connected_time":265000000000,"state":"active","ping":60},{"user_id":270,"name":"TheBrocklobster","steam_id":76561198039682984,"connected_time":104000000000,"state":"active","ping":60},{"user_id":263,"name":"reem","steam_id":76561198050767193,"connected_time":332000000000,"state":"active","ping":45},{"user_id":246,"name":"Zenire","steam_id":76561199087298510,"connected_time":920000000000,"state":"active","ping":86},{"user_id":189,"name":"HopeTheNeko","steam_id":76561199159285465,"connected_time":6414000000000,"state":"active","ping":62},{"user_id":238,"name":"Mocha Josie","steam_id":76561198066452726,"connected_time":1809000000000,"state":"active","ping":88},{"user_id":161,"name":"triph","steam_id":76561198067196509,"connected_time":9213000000000,"state":"active","ping":36},{"user_id":229,"name":"Tmiracle","steam_id":76561198052375275,"connected_time":3250000000000,"state":"active","ping":50},{"user_id":258,"name":"scringo","steam_id":76561198169969030,"connected_time":494000000000,"state":"active","ping":59},{"user_id":240,"name":"nzippy","steam_id":76561199048618678,"connected_time":1750000000000,"state":"active","ping":74},{"user_id":63,"name":"rat","steam_id":76561198130412963,"connected_time":17342000000000,"state":"active","ping":80},{"user_id":244,"name":"BiggestHistoryNerd","steam_id":76561198027677672,"connected_time":1103000000000,"state":"active","ping":46}]},{"server_id":112,"name":"Uncletopia | Los Angeles | 2 | All Maps","name_short":"lax-2","host":"lax-1.us.uncletopia.com","port":27025,"enabled":true,"region":"us-west","cc":"us","latitude":33.94279,"longitude":-118.41004,"reserved":0,"last_update":"0001-01-01T00:00:00Z","name_a2s":"Uncletopia | Los Angeles | 2 | All Maps","protocol":17,"map":"cp_process_final","folder":"tf","game":"Team Fortress","app_id":440,"player_count":0,"max_players":24,"Bots":0,"server_type":"Dedicated","server_os":"Linux","password":true,"vac":true,"version":"7961495","steam_id":85568392924469992,"keywords":["cp","nocrits","nodmgspread","uncletopia"],"game_id":440,"stv_port":27026,"stv_name":"Uncletopia | Los Angeles | 2 | All Maps | STV","players":null},{"server_id":324,"name":"Uncletopia | Los Angeles | 3 | All Maps","name_short":"lax-3","host":"lax-1.us.uncletopia.com","port":27035,"enabled":true,"region":"us-west","cc":"us","latitude":33.94279,"longitude":-118.41004,"reserved":0,"last_update":"0001-01-01T00:00:00Z","name_a2s":"Uncletopia | Los Angeles | 3 | All Maps","protocol":17,"map":"cp_altitude","folder":"tf","game":"Team Fortress","app_id":440,"player_count":0,"max_players":24,"Bots":0,"server_type":"Dedicated","server_os":"Linux","password":true,"vac":true,"version":"7961495","steam_id":85568392924510198,"keywords":["cp","nocrits","nodmgspread","uncletopia"],"game_id":440,"stv_port":27036,"stv_name":"Uncletopia | Los Angeles | 3 | All Maps | STV","players":null},{"server_id":25,"name":"Uncletopia | Los Angeles | 4 | Stopwatch","name_short":"lax-4","host":"lax-1.us.uncletopia.com","port":27045,"enabled":true,"region":"us-west","cc":"us","latitude":33.94279,"longitude":-118.41004,"reserved":0,"last_update":"0001-01-01T00:00:00Z","name_a2s":"Uncletopia | Los Angeles | 4 | Stopwatch","protocol":17,"map":"pl_barnblitz","folder":"tf","game":"Team Fortress","app_id":440,"player_count":0,"max_players":24,"Bots":0,"server_type":"Dedicated","server_os":"Linux","password":true,"vac":true,"version":"7961495","steam_id":85568392924510199,"keywords":["nocrits","nodmgspread","payload","uncletopia"],"game_id":440,"stv_port":27046,"stv_name":"Uncletopia | Los Angeles | 4 | Stopwatch | STV","players":null},{"server_id":11,"name":"Uncletopia | London | 1 | All Maps","name_short":"lon-1","host":"lon-1.uk.uncletopia.com","port":27015,"enabled":true,"region":"eu","cc":"gb","latitude":51.509865,"longitude":-0.118092,"reserved":0,"last_update":"0001-01-01T00:00:00Z","name_a2s":"Uncletopia | London | 1 | All Maps","protocol":17,"map":"plr_hightower","folder":"tf","game":"Team Fortress","app_id":440,"player_count":24,"max_players":24,"Bots":0,"server_type":"Dedicated","server_os":"Linux","password":true,"vac":true,"version":"7961495","steam_id":85568392924367362,"keywords":["nocrits","nodmgspread","payload","uncletopia"],"game_id":440,"stv_port":27016,"stv_name":"Uncletopia | London | 1 | All Maps | STV","players":[{"user_id":812,"name":"Minimi","steam_id":76561198873850443,"connected_time":2556000000000,"state":"active","ping":44},{"user_id":806,"name":"BreadBubbles","steam_id":76561198174332826,"connected_time":3688000000000,"state":"active","ping":58},{"user_id":658,"name":"KnugenIV","steam_id":76561198127091993,"connected_time":9330000000000,"state":"active","ping":55},{"user_id":597,"name":"Yelowchy","steam_id":76561198199416121,"connected_time":14935000000000,"state":"active","ping":68},{"user_id":821,"name":"so valid queen slay","steam_id":76561198190583242,"connected_time":334000000000,"state":"active","ping":80},{"user_id":782,"name":"fluffy gurl :3","steam_id":76561198139632682,"connected_time":5940000000000,"state":"active","ping":89},{"user_id":820,"name":"Dale ❤","steam_id":76561197995189004,"connected_time":438000000000,"state":"active","ping":61},{"user_id":813,"name":"dec","steam_id":76561198009660168,"connected_time":2554000000000,"state":"active","ping":56},{"user_id":794,"name":"SOPHIIAA (DRINKING GAME PLAYER)","steam_id":76561198443798981,"connected_time":3952000000000,"state":"active","ping":103},{"user_id":566,"name":"whimsy.","steam_id":76561198878171763,"connected_time":18128000000000,"state":"active","ping":51},{"user_id":633,"name":"ein","steam_id":76561198152162834,"connected_time":12013000000000,"state":"active","ping":92},{"user_id":802,"name":"rigel_","steam_id":76561198148640847,"connected_time":3866000000000,"state":"active","ping":89},{"user_id":550,"name":"shooer!","steam_id":76561198110531281,"connected_time":19294000000000,"state":"active","ping":70},{"user_id":805,"name":"Black Tom","steam_id":76561198335730273,"connected_time":3833000000000,"state":"active","ping":55},{"user_id":735,"name":"⸸aura⸸","steam_id":76561198066258544,"connected_time":8131000000000,"state":"active","ping":61},{"user_id":816,"name":"beebo","steam_id":76561199120277007,"connected_time":1602000000000,"state":"active","ping":40},{"user_id":779,"name":"gibb (official)","steam_id":76561198074097655,"connected_time":7376000000000,"state":"active","ping":62},{"user_id":810,"name":"Mei","steam_id":76561198363464483,"connected_time":3159000000000,"state":"active","ping":75},{"user_id":804,"name":"Chase","steam_id":76561198123487596,"connected_time":3858000000000,"state":"active","ping":81},{"user_id":653,"name":"sora","steam_id":76561198096547662,"connected_time":9361000000000,"state":"active","ping":54},{"user_id":814,"name":"Lyra","steam_id":76561198043601838,"connected_time":2053000000000,"state":"active","ping":60},{"user_id":661,"name":"Cabbch","steam_id":76561198045955679,"connected_time":8983000000000,"state":"active","ping":46},{"user_id":818,"name":"Dot","steam_id":76561198047299145,"connected_time":844000000000,"state":"active","ping":85},{"user_id":811,"name":"Kphi(i)","steam_id":76561198970587061,"connected_time":2567000000000,"state":"active","ping":62}]},{"server_id":114,"name":"Uncletopia | London | 2 | All Maps","name_short":"lon-2","host":"lon-1.uk.uncletopia.com","port":27025,"enabled":true,"region":"eu","cc":"gb","latitude":51.509865,"longitude":-0.118092,"reserved":0,"last_update":"0001-01-01T00:00:00Z","name_a2s":"Uncletopia | London | 2 | All Maps","protocol":17,"map":"cp_sunshine","folder":"tf","game":"Team Fortress","app_id":440,"player_count":0,"max_players":24,"Bots":0,"server_type":"Dedicated","server_os":"Linux","password":true,"vac":true,"version":"7961495","steam_id":85568392924470941,"keywords":["cp","nocrits","nodmgspread","uncletopia"],"game_id":440,"stv_port":27026,"stv_name":"Uncletopia | London | 2 | All Maps | STV","players":null},{"server_id":320,"name":"Uncletopia | London | 3 | All Maps","name_short":"lon-3","host":"lon-1.uk.uncletopia.com","port":27035,"enabled":true,"region":"eu","cc":"gb","latitude":51.509865,"longitude":-0.118092,"reserved":0,"last_update":"0001-01-01T00:00:00Z","name_a2s":"Uncletopia | London | 3 | All Maps","protocol":17,"map":"koth_viaduct","folder":"tf","game":"Team Fortress","app_id":440,"player_count":0,"max_players":24,"Bots":0,"server_type":"Dedicated","server_os":"Linux","password":true,"vac":true,"version":"7961495","steam_id":85568392924510192,"keywords":["cp","nocrits","nodmgspread","uncletopia"],"game_id":440,"stv_port":27036,"stv_name":"Uncletopia | London | 3 | All Maps | STV","players":null},{"server_id":321,"name":"Uncletopia | London | 4 | All Maps","name_short":"lon-4","host":"lon-1.uk.uncletopia.com","port":27045,"enabled":true,"region":"eu","cc":"gb","latitude":51.509865,"longitude":-0.118092,"reserved":0,"last_update":"0001-01-01T00:00:00Z","name_a2s":"Uncletopia | London | 4 | All Maps","protocol":17,"map":"pl_barnblitz","folder":"tf","game":"Team Fortress","app_id":440,"player_count":24,"max_players":24,"Bots":0,"server_type":"Dedicated","server_os":"Linux","password":true,"vac":true,"version":"7961495","steam_id":85568392924510193,"keywords":["nocrits","nodmgspread","payload","uncletopia"],"game_id":440,"stv_port":27046,"stv_name":"Uncletopia | London | 4 | All Maps | STV","players":[{"user_id":777,"name":"Mystic8ball","steam_id":76561197996950301,"connected_time":411000000000,"state":"active","ping":58},{"user_id":723,"name":"mary","steam_id":76561198014828037,"connected_time":4024000000000,"state":"active","ping":52},{"user_id":779,"name":"Axio","steam_id":76561198046826031,"connected_time":160000000000,"state":"active","ping":75},{"user_id":763,"name":"rollergirl","steam_id":76561199233979726,"connected_time":622000000000,"state":"active","ping":89},{"user_id":758,"name":"Feels Good","steam_id":76561198058030054,"connected_time":894000000000,"state":"active","ping":125},{"user_id":740,"name":"Arthur","steam_id":76561198066109166,"connected_time":2315000000000,"state":"active","ping":78},{"user_id":768,"name":"syms","steam_id":76561198066679812,"connected_time":553000000000,"state":"active","ping":78},{"user_id":769,"name":"pavyonspor","steam_id":76561198116530769,"connected_time":545000000000,"state":"active","ping":91},{"user_id":771,"name":"H-say","steam_id":76561198177400362,"connected_time":526000000000,"state":"active","ping":101},{"user_id":764,"name":"frosty","steam_id":76561198094560834,"connected_time":586000000000,"state":"active","ping":51},{"user_id":750,"name":"randem_","steam_id":76561198338793755,"connected_time":1225000000000,"state":"active","ping":42},{"user_id":749,"name":"bowchika wowa #SlavaUkraine","steam_id":76561198159564550,"connected_time":1276000000000,"state":"active","ping":72},{"user_id":772,"name":"permed ball hair gaming","steam_id":76561198294857933,"connected_time":508000000000,"state":"active","ping":60},{"user_id":778,"name":"Shadow","steam_id":76561199015586999,"connected_time":215000000000,"state":"active","ping":56},{"user_id":755,"name":"a succulent chinese meal","steam_id":76561198075539799,"connected_time":1002000000000,"state":"active","ping":46},{"user_id":773,"name":"why hello there","steam_id":76561198047271252,"connected_time":505000000000,"state":"active","ping":74},{"user_id":756,"name":"DysphoricTrashPanda","steam_id":76561198377142897,"connected_time":987000000000,"state":"active","ping":30},{"user_id":759,"name":"moseley519","steam_id":76561198045485374,"connected_time":861000000000,"state":"active","ping":46},{"user_id":774,"name":"SQWOZ_Women","steam_id":76561199488111227,"connected_time":502000000000,"state":"active","ping":110},{"user_id":760,"name":"noot","steam_id":76561198148074472,"connected_time":848000000000,"state":"active","ping":46},{"user_id":765,"name":"Bill Carr","steam_id":76561198110033943,"connected_time":581000000000,"state":"active","ping":38},{"user_id":775,"name":"Lithe","steam_id":76561198097130024,"connected_time":498000000000,"state":"active","ping":52},{"user_id":767,"name":"Nincom Poop","steam_id":76561198212368827,"connected_time":569000000000,"state":"active","ping":114},{"user_id":776,"name":"Skiper","steam_id":76561198255911945,"connected_time":483000000000,"state":"active","ping":66}]},{"server_id":21,"name":"Uncletopia | London | 5 | All Maps","name_short":"lon-5","host":"lon-1.uk.uncletopia.com","port":27055,"enabled":true,"region":"eu","cc":"gb","latitude":51.509865,"longitude":-0.118092,"reserved":0,"last_update":"0001-01-01T00:00:00Z","name_a2s":"Uncletopia | London | 5 | All Maps","protocol":17,"map":"pl_snowycoast","folder":"tf","game":"Team Fortress","app_id":440,"player_count":24,"max_players":24,"Bots":0,"server_type":"Dedicated","server_os":"Linux","password":true,"vac":true,"version":"7961495","steam_id":85568392924742829,"keywords":["nocrits","nodmgspread","payload","uncletopia"],"game_id":440,"stv_port":27056,"stv_name":"Uncletopia | London | 5 | All Maps | STV","players":[{"user_id":560,"name":"UnaSimpleBatata","steam_id":76561199008490451,"connected_time":1154000000000,"state":"active","ping":98},{"user_id":548,"name":"ROX","steam_id":76561198272289320,"connected_time":1651000000000,"state":"active","ping":55},{"user_id":552,"name":"Level 1 Noob","steam_id":76561198088586340,"connected_time":1470000000000,"state":"active","ping":61},{"user_id":550,"name":"turbo shart","steam_id":76561198012351808,"connected_time":1637000000000,"state":"active","ping":54},{"user_id":567,"name":"Tornado","steam_id":76561198025684320,"connected_time":89000000000,"state":"active","ping":38},{"user_id":518,"name":"Mr. Squiddles","steam_id":76561198079385023,"connected_time":3975000000000,"state":"active","ping":63},{"user_id":554,"name":"Weegee","steam_id":76561198150308523,"connected_time":1379000000000,"state":"active","ping":51},{"user_id":538,"name":"gαвє ησëℓ","steam_id":76561198067342352,"connected_time":2554000000000,"state":"active","ping":60},{"user_id":566,"name":"Kiogeki","steam_id":76561197996707843,"connected_time":142000000000,"state":"active","ping":39},{"user_id":564,"name":"A Horny Walrus","steam_id":76561198000150351,"connected_time":605000000000,"state":"active","ping":62},{"user_id":559,"name":"Gugu gaga","steam_id":76561198161822358,"connected_time":1175000000000,"state":"active","ping":74},{"user_id":466,"name":"joachym","steam_id":76561198428579761,"connected_time":6294000000000,"state":"active","ping":69},{"user_id":520,"name":"the fucking rat","steam_id":76561198112115972,"connected_time":3946000000000,"state":"active","ping":70},{"user_id":513,"name":"Mr_Pulse_","steam_id":76561198095001602,"connected_time":4073000000000,"state":"active","ping":101},{"user_id":561,"name":"JujuBalu","steam_id":76561198207253071,"connected_time":971000000000,"state":"active","ping":26},{"user_id":542,"name":"Raccoon","steam_id":76561199189494190,"connected_time":2239000000000,"state":"active","ping":142},{"user_id":509,"name":"yuno appreciator","steam_id":76561198083286511,"connected_time":4207000000000,"state":"active","ping":42},{"user_id":556,"name":"osvaldo","steam_id":76561198088600319,"connected_time":1237000000000,"state":"active","ping":41},{"user_id":557,"name":"horrors within my comprehension","steam_id":76561198363841749,"connected_time":1236000000000,"state":"active","ping":85},{"user_id":511,"name":"dodge","steam_id":76561198085296668,"connected_time":4162000000000,"state":"active","ping":43},{"user_id":565,"name":"CUMDEMON","steam_id":76561198170939887,"connected_time":205000000000,"state":"active","ping":65},{"user_id":534,"name":"Germanium_Ge","steam_id":76561198130561775,"connected_time":2855000000000,"state":"active","ping":54},{"user_id":535,"name":"azzy","steam_id":76561198061293740,"connected_time":2851000000000,"state":"active","ping":79},{"user_id":563,"name":"Cranbury","steam_id":76561198079170457,"connected_time":644000000000,"state":"active","ping":46}]},{"server_id":22,"name":"Uncletopia | London | 6 | All Maps","name_short":"lon-6","host":"lon-1.uk.uncletopia.com","port":27065,"enabled":true,"region":"eu","cc":"gb","latitude":51.509865,"longitude":-0.118092,"reserved":0,"last_update":"0001-01-01T00:00:00Z","name_a2s":"Uncletopia | London | 6 | All Maps","protocol":17,"map":"cp_sunshine","folder":"tf","game":"Team Fortress","app_id":440,"player_count":0,"max_players":24,"Bots":0,"server_type":"Dedicated","server_os":"Linux","password":true,"vac":true,"version":"7961495","steam_id":85568392924742830,"keywords":["cp","nocrits","nodmgspread","uncletopia"],"game_id":440,"stv_port":27066,"stv_name":"Uncletopia | London | 6 | All Maps | STV","players":null},{"server_id":40,"name":"Uncletopia | London | 7 | Stopwatch","name_short":"lon-7","host":"lon-1.uk.uncletopia.com","port":27075,"enabled":true,"region":"eu","cc":"gb","latitude":51.509865,"longitude":-0.118092,"reserved":0,"last_update":"0001-01-01T00:00:00Z","name_a2s":"Uncletopia | London | 7 | Stopwatch","protocol":17,"map":"koth_highpass","folder":"tf","game":"Team Fortress","app_id":440,"player_count":0,"max_players":24,"Bots":0,"server_type":"Dedicated","server_os":"Linux","password":true,"vac":true,"version":"7961495","steam_id":85568392924964314,"keywords":["cp","nocrits","nodmgspread","uncletopia"],"game_id":440,"stv_port":27076,"stv_name":"Uncletopia | London | 7 | Stopwatch | STV","players":null},{"server_id":41,"name":"Uncletopia | London | 8 | Community","name_short":"lon-8","host":"lon-1.uk.uncletopia.com","port":27085,"enabled":true,"region":"eu","cc":"gb","latitude":51.509865,"longitude":-0.118092,"reserved":0,"last_update":"0001-01-01T00:00:00Z","name_a2s":"Uncletopia | London | 8 | Community","protocol":17,"map":"workshop/koth_slaughter_rc1.ugc1712845210","folder":"tf","game":"Team Fortress","app_id":440,"player_count":0,"max_players":24,"Bots":0,"server_type":"Dedicated","server_os":"Linux","password":true,"vac":true,"version":"7961495","steam_id":85568392924964315,"keywords":["cp","nocrits","nodmgspread","uncletopia"],"game_id":440,"stv_port":27086,"stv_name":"Uncletopia | London | 8 | Community | STV","players":null},{"server_id":300,"name":"Uncletopia | Montréal | 1 | One Thousand Uncles","name_short":"mtl-1","host":"mtl-1.ca.uncletopia.com","port":27015,"enabled":true,"region":"us-east","cc":"ca","latitude":45.50889,"longitude":-73.56167,"reserved":0,"last_update":"0001-01-01T00:00:00Z","name_a2s":"","protocol":0,"map":"","folder":"","game":"","app_id":0,"player_count":3,"max_players":0,"Bots":0,"server_type":"","server_os":"","password":false,"vac":false,"version":"","steam_id":0,"keywords":null,"game_id":0,"stv_port":0,"stv_name":"","players":[{"user_id":197,"name":"doamgeo468","steam_id":76561199485287045,"connected_time":1106000000000,"state":"active","ping":51},{"user_id":214,"name":"cpg","steam_id":76561198853515541,"connected_time":967000000000,"state":"active","ping":66},{"user_id":215,"name":"JACOB","steam_id":76561198211874895,"connected_time":904000000000,"state":"active","ping":58}]},{"server_id":301,"name":"Uncletopia | Montréal | 2 | One Thousand Uncles","name_short":"mtl-2","host":"mtl-1.ca.uncletopia.com","port":27025,"enabled":true,"region":"us-east","cc":"ca","latitude":45.50889,"longitude":-73.56167,"reserved":0,"last_update":"0001-01-01T00:00:00Z","name_a2s":"","protocol":0,"map":"","folder":"","game":"","app_id":0,"player_count":4,"max_players":0,"Bots":0,"server_type":"","server_os":"","password":false,"vac":false,"version":"","steam_id":0,"keywords":null,"game_id":0,"stv_port":0,"stv_name":"","players":[{"user_id":93,"name":"tfkillr","steam_id":76561199308986695,"connected_time":4342000000000,"state":"active","ping":74},{"user_id":111,"name":"Featherless Biped","steam_id":76561198034171721,"connected_time":3062000000000,"state":"active","ping":83},{"user_id":113,"name":"Flare Grylls","steam_id":76561199059253395,"connected_time":2311000000000,"state":"active","ping":68},{"user_id":114,"name":"gravid baby","steam_id":76561198318646867,"connected_time":2091000000000,"state":"active","ping":43}]},{"server_id":302,"name":"Uncletopia | Montréal | 3 | One Thousand Uncles","name_short":"mtl-3","host":"mtl-1.ca.uncletopia.com","port":27035,"enabled":true,"region":"us-east","cc":"ca","latitude":45.50889,"longitude":-73.56167,"reserved":0,"last_update":"0001-01-01T00:00:00Z","name_a2s":"","protocol":0,"map":"","folder":"","game":"","app_id":0,"player_count":0,"max_players":0,"Bots":0,"server_type":"","server_os":"","password":false,"vac":false,"version":"","steam_id":0,"keywords":null,"game_id":0,"stv_port":0,"stv_name":"","players":null},{"server_id":13,"name":"Uncletopia | New York City | 1 | All Maps","name_short":"nyc-1","host":"nyc-1.us.uncletopia.com","port":27015,"enabled":true,"region":"us-east","cc":"us","latitude":40.73061,"longitude":-73.93524,"reserved":0,"last_update":"0001-01-01T00:00:00Z","name_a2s":"Uncletopia | New York City | 1 | All Maps","protocol":17,"map":"cp_dustbowl","folder":"tf","game":"Team Fortress","app_id":440,"player_count":24,"max_players":24,"Bots":0,"server_type":"Dedicated","server_os":"Linux","password":true,"vac":true,"version":"7961495","steam_id":85568392924469993,"keywords":["cp","nocrits","nodmgspread","uncletopia"],"game_id":440,"stv_port":27016,"stv_name":"Uncletopia | New York City | 1 | All Maps | STV","players":[{"user_id":500,"name":"antoniov00gaming","steam_id":76561198364632073,"connected_time":568000000000,"state":"active","ping":85},{"user_id":464,"name":"Brawns","steam_id":76561198045190199,"connected_time":2177000000000,"state":"active","ping":70},{"user_id":501,"name":"woman respecter","steam_id":76561198083225542,"connected_time":507000000000,"state":"active","ping":60},{"user_id":458,"name":"Sickduck Mcgee","steam_id":76561198028577159,"connected_time":3687000000000,"state":"active","ping":62},{"user_id":461,"name":"ndvr","steam_id":76561199379200102,"connected_time":3295000000000,"state":"active","ping":49},{"user_id":492,"name":"ArcticRescue","steam_id":76561198055362404,"connected_time":934000000000,"state":"active","ping":45},{"user_id":482,"name":"Cat_Gaben","steam_id":76561198308094558,"connected_time":1281000000000,"state":"active","ping":67},{"user_id":498,"name":"What's My Age Again?","steam_id":76561198035304483,"connected_time":812000000000,"state":"active","ping":65},{"user_id":505,"name":"Tsnkka","steam_id":76561198070168971,"connected_time":24000000000,"state":"active","ping":83},{"user_id":459,"name":"David Blaine","steam_id":76561198980560578,"connected_time":3684000000000,"state":"active","ping":66},{"user_id":467,"name":"Churro Man","steam_id":76561198166868875,"connected_time":2108000000000,"state":"active","ping":46},{"user_id":488,"name":":3","steam_id":76561198083607304,"connected_time":960000000000,"state":"active","ping":59},{"user_id":489,"name":"Quixzy","steam_id":76561199351529514,"connected_time":958000000000,"state":"active","ping":66},{"user_id":490,"name":"Rang Reveiws","steam_id":76561198968587541,"connected_time":957000000000,"state":"active","ping":56},{"user_id":444,"name":"HAT-WEARING™ Maggot Gamer Cat","steam_id":76561197973992705,"connected_time":4007000000000,"state":"active","ping":123},{"user_id":462,"name":"taigaxx","steam_id":76561198202669250,"connected_time":2472000000000,"state":"active","ping":69},{"user_id":491,"name":"Fatal","steam_id":76561198061407587,"connected_time":950000000000,"state":"active","ping":92},{"user_id":504,"name":"princess fern \u003c3333","steam_id":76561198881792140,"connected_time":417000000000,"state":"active","ping":61},{"user_id":499,"name":"Fishandfish","steam_id":76561198298483804,"connected_time":792000000000,"state":"active","ping":112},{"user_id":494,"name":"Rumble","steam_id":76561199170926322,"connected_time":923000000000,"state":"active","ping":80},{"user_id":484,"name":"Horse","steam_id":76561198332887086,"connected_time":1003000000000,"state":"active","ping":33},{"user_id":495,"name":"dorian.","steam_id":76561198047979957,"connected_time":914000000000,"state":"active","ping":61},{"user_id":503,"name":"BeerPowder","steam_id":76561198058129400,"connected_time":422000000000,"state":"active","ping":55},{"user_id":450,"name":"epsilene","steam_id":76561198027468624,"connected_time":3792000000000,"state":"active","ping":45}]},{"server_id":14,"name":"Uncletopia | New York City | 2 | All Maps","name_short":"nyc-2","host":"nyc-1.us.uncletopia.com","port":27025,"enabled":true,"region":"us-east","cc":"us","latitude":40.73061,"longitude":-73.93524,"reserved":0,"last_update":"0001-01-01T00:00:00Z","name_a2s":"Uncletopia | New York City | 2 | All Maps","protocol":17,"map":"cp_process_final","folder":"tf","game":"Team Fortress","app_id":440,"player_count":23,"max_players":24,"Bots":0,"server_type":"Dedicated","server_os":"Linux","password":true,"vac":true,"version":"7961495","steam_id":85568392924469994,"keywords":["cp","nocrits","nodmgspread","uncletopia"],"game_id":440,"stv_port":27026,"stv_name":"Uncletopia | New York City | 2 | All Maps | STV","players":[{"user_id":308,"name":"Blade Racer","steam_id":76561198155896703,"connected_time":1204000000000,"state":"active","ping":117},{"user_id":301,"name":"Vordt","steam_id":76561198040942866,"connected_time":1297000000000,"state":"active","ping":44},{"user_id":314,"name":"KarmaKid","steam_id":76561198079580094,"connected_time":487000000000,"state":"active","ping":49},{"user_id":293,"name":"yitz","steam_id":76561198375575841,"connected_time":2035000000000,"state":"active","ping":72},{"user_id":319,"name":"Juicemelon","steam_id":76561199123714017,"connected_time":138000000000,"state":"active","ping":65},{"user_id":322,"name":"caberknight tf2  (f2p-ish)","steam_id":76561199273882768,"connected_time":29000000000,"state":"active","ping":57},{"user_id":303,"name":"TTVPlumSmug","steam_id":76561198103960265,"connected_time":1262000000000,"state":"active","ping":70},{"user_id":318,"name":"Pyro Jay","steam_id":76561198082331364,"connected_time":165000000000,"state":"active","ping":46},{"user_id":298,"name":"Sputnuts","steam_id":76561198236857310,"connected_time":1399000000000,"state":"active","ping":45},{"user_id":281,"name":"gregoryhens","steam_id":76561199434318315,"connected_time":2505000000000,"state":"active","ping":170},{"user_id":260,"name":"Scum Knight | T.I.D.K.","steam_id":76561198282444763,"connected_time":3105000000000,"state":"active","ping":51},{"user_id":310,"name":"Dr. peppino spaghetti","steam_id":76561199121285443,"connected_time":1040000000000,"state":"active","ping":33},{"user_id":320,"name":"Пвт Динго","steam_id":76561198119683217,"connected_time":130000000000,"state":"active","ping":159},{"user_id":288,"name":"yalu","steam_id":76561198224811504,"connected_time":2324000000000,"state":"active","ping":61},{"user_id":274,"name":"black tar estrogen","steam_id":76561198043911582,"connected_time":2760000000000,"state":"active","ping":45},{"user_id":305,"name":"Impressive, very nice","steam_id":76561198046775352,"connected_time":1216000000000,"state":"active","ping":117},{"user_id":283,"name":"Big Bill Haywood","steam_id":76561198142290733,"connected_time":2417000000000,"state":"active","ping":56},{"user_id":317,"name":"Sicko Mode (Chris Pratt Cover)","steam_id":76561198315786174,"connected_time":366000000000,"state":"active","ping":58},{"user_id":306,"name":"Miner2495","steam_id":76561198445904523,"connected_time":1214000000000,"state":"active","ping":78},{"user_id":268,"name":"Danitom","steam_id":76561198000717813,"connected_time":2852000000000,"state":"active","ping":88},{"user_id":311,"name":"b^uma","steam_id":76561198856016840,"connected_time":997000000000,"state":"active","ping":51},{"user_id":323,"name":"YummerBummer","steam_id":76561198094773987,"connected_time":11000000000,"state":"spawning","ping":65},{"user_id":321,"name":"Gentoo Linux Gaming","steam_id":76561197999657118,"connected_time":126000000000,"state":"active","ping":66}]},{"server_id":15,"name":"Uncletopia | New York City | 3 | Stopwatch","name_short":"nyc-3","host":"nyc-1.us.uncletopia.com","port":27035,"enabled":true,"region":"us-east","cc":"us","latitude":40.73061,"longitude":-73.93524,"reserved":0,"last_update":"0001-01-01T00:00:00Z","name_a2s":"Uncletopia | New York City | 3 | Stopwatch","protocol":17,"map":"workshop/koth_ashville_final.ugc2130459942","folder":"tf","game":"Team Fortress","app_id":440,"player_count":0,"max_players":24,"Bots":0,"server_type":"Dedicated","server_os":"Linux","password":true,"vac":true,"version":"7961495","steam_id":85568392924742820,"keywords":["cp","nocrits","nodmgspread","uncletopia"],"game_id":440,"stv_port":27036,"stv_name":"Uncletopia | New York City | 3 | Stopwatch | STV","players":null},{"server_id":16,"name":"Uncletopia | New York City | 4 | Community","name_short":"nyc-4","host":"nyc-1.us.uncletopia.com","port":27045,"enabled":true,"region":"us-east","cc":"us","latitude":40.73061,"longitude":-73.93524,"reserved":0,"last_update":"0001-01-01T00:00:00Z","name_a2s":"Uncletopia | New York City | 4 | Community","protocol":17,"map":"workshop/koth_kemptown_rc1.ugc767410655","folder":"tf","game":"Team Fortress","app_id":440,"player_count":6,"max_players":24,"Bots":0,"server_type":"Dedicated","server_os":"Linux","password":true,"vac":true,"version":"7961495","steam_id":85568392924742821,"keywords":["cp","nocrits","nodmgspread","uncletopia"],"game_id":440,"stv_port":27046,"stv_name":"Uncletopia | New York City | 4 | Community | STV","players":[{"user_id":7,"name":"Requinou14","steam_id":76561199094836913,"connected_time":1474000000000,"state":"active","ping":58},{"user_id":8,"name":"superbug3003","steam_id":76561198311447642,"connected_time":1460000000000,"state":"active","ping":70},{"user_id":9,"name":"stivanaker","steam_id":76561198346276579,"connected_time":1418000000000,"state":"active","ping":84},{"user_id":10,"name":"Jack Meehoff","steam_id":76561199246237446,"connected_time":730000000000,"state":"active","ping":79},{"user_id":11,"name":"terragell","steam_id":76561199220456037,"connected_time":599000000000,"state":"active","ping":68},{"user_id":13,"name":"city dweller","steam_id":76561198251848252,"connected_time":396000000000,"state":"active","ping":63}]},{"server_id":142,"name":"Uncletopia | São Paulo | 1 | All Maps","name_short":"sao-1","host":"sao-1.br.uncletopia.com","port":27015,"enabled":true,"region":"sa","cc":"br","latitude":-23.533773,"longitude":-46.62529,"reserved":0,"last_update":"0001-01-01T00:00:00Z","name_a2s":"Uncletopia | São Paulo | 1 | All Maps","protocol":17,"map":"cp_sunshine","folder":"tf","game":"Team Fortress","app_id":440,"player_count":0,"max_players":24,"Bots":0,"server_type":"Dedicated","server_os":"Linux","password":true,"vac":true,"version":"7961495","steam_id":85568392924469996,"keywords":["cp","nocrits","nodmgspread","uncletopia"],"game_id":440,"stv_port":27016,"stv_name":"Uncletopia | São Paulo | 1 | All Maps | STV","players":null},{"server_id":143,"name":"Uncletopia | São Paulo | 2 | Community","name_short":"sao-2","host":"sao-2.br.uncletopia.com","port":27015,"enabled":true,"region":"sa","cc":"br","latitude":-23.533773,"longitude":-46.62529,"reserved":0,"last_update":"0001-01-01T00:00:00Z","name_a2s":"Uncletopia | São Paulo | 2 | Community","protocol":17,"map":"workshop/koth_trenchfoot_ab1.ugc731436616","folder":"tf","game":"Team Fortress","app_id":440,"player_count":0,"max_players":24,"Bots":0,"server_type":"Dedicated","server_os":"Linux","password":true,"vac":true,"version":"7961495","steam_id":85568392924485349,"keywords":["cp","nocrits","nodmgspread","uncletopia"],"game_id":440,"stv_port":27016,"stv_name":"Uncletopia | São Paulo | 2 | Community | STV","players":null},{"server_id":7,"name":"Uncletopia | Seattle | 1 | All Maps","name_short":"sea-1","host":"sea-1.us.uncletopia.com","port":27015,"enabled":true,"region":"us-west","cc":"us","latitude":47.608013,"longitude":-122.33517,"reserved":0,"last_update":"0001-01-01T00:00:00Z","name_a2s":"Uncletopia | Seattle | 1 | All Maps","protocol":17,"map":"pl_pier","folder":"tf","game":"Team Fortress","app_id":440,"player_count":24,"max_players":24,"Bots":0,"server_type":"Dedicated","server_os":"Linux","password":true,"vac":true,"version":"7961495","steam_id":85568392924469997,"keywords":["nocrits","nodmgspread","payload","uncletopia"],"game_id":440,"stv_port":27016,"stv_name":"Uncletopia | Seattle | 1 | All Maps | STV","players":[{"user_id":465,"name":"Fh","steam_id":76561198000903511,"connected_time":1685000000000,"state":"active","ping":69},{"user_id":454,"name":"CraftOfDoom","steam_id":76561198856919544,"connected_time":2802000000000,"state":"active","ping":58},{"user_id":442,"name":"Whimsy!","steam_id":76561197989578836,"connected_time":3742000000000,"state":"active","ping":60},{"user_id":427,"name":"greenpeace","steam_id":76561197983221708,"connected_time":5780000000000,"state":"active","ping":54},{"user_id":470,"name":"Spam The Alien","steam_id":76561199122290968,"connected_time":492000000000,"state":"active","ping":76},{"user_id":443,"name":"Petey0712","steam_id":76561199401008981,"connected_time":3741000000000,"state":"active","ping":64},{"user_id":426,"name":"purple hatsune miku","steam_id":76561198108844158,"connected_time":5825000000000,"state":"active","ping":86},{"user_id":436,"name":"lukamine","steam_id":76561198166827208,"connected_time":4872000000000,"state":"active","ping":45},{"user_id":467,"name":"Greskrendtregk","steam_id":76561197969553142,"connected_time":1207000000000,"state":"active","ping":55},{"user_id":466,"name":"Salazar9","steam_id":76561198049903973,"connected_time":1254000000000,"state":"active","ping":54},{"user_id":464,"name":"Zetta","steam_id":76561198045710113,"connected_time":1738000000000,"state":"active","ping":89},{"user_id":472,"name":"Ginnunga","steam_id":76561198000320083,"connected_time":456000000000,"state":"active","ping":102},{"user_id":471,"name":"NEBULA","steam_id":76561198086878595,"connected_time":475000000000,"state":"active","ping":73},{"user_id":459,"name":"BolognaWithOlives","steam_id":76561198101262668,"connected_time":2782000000000,"state":"active","ping":100},{"user_id":435,"name":"Dongus","steam_id":76561197979056451,"connected_time":5079000000000,"state":"active","ping":58},{"user_id":468,"name":"ATHEIST TIL I REALIZED I AM GOD","steam_id":76561199190800520,"connected_time":869000000000,"state":"active","ping":40},{"user_id":440,"name":"tophawkyy","steam_id":76561199075934685,"connected_time":4447000000000,"state":"active","ping":79},{"user_id":437,"name":"Neco Arc","steam_id":76561198836051950,"connected_time":4612000000000,"state":"active","ping":120},{"user_id":453,"name":"*forges your documents* :3","steam_id":76561198134309750,"connected_time":2809000000000,"state":"active","ping":103},{"user_id":447,"name":"John Calibur","steam_id":76561197999986606,"connected_time":3418000000000,"state":"active","ping":68},{"user_id":446,"name":"Squids023","steam_id":76561199013031576,"connected_time":3646000000000,"state":"active","ping":74},{"user_id":451,"name":"Baltimore CA-68","steam_id":76561198313517179,"connected_time":2989000000000,"state":"active","ping":98},{"user_id":456,"name":"lfk thunderous prophet","steam_id":76561198131166135,"connected_time":2799000000000,"state":"active","ping":41},{"user_id":382,"name":"rat gets the cheese","steam_id":76561198031234032,"connected_time":11037000000000,"state":"active","ping":99}]},{"server_id":119,"name":"Uncletopia | Seattle | 2 | All Maps","name_short":"sea-2","host":"sea-1.us.uncletopia.com","port":27025,"enabled":true,"region":"us-west","cc":"us","latitude":47.608013,"longitude":-122.33517,"reserved":0,"last_update":"0001-01-01T00:00:00Z","name_a2s":"Uncletopia | Seattle | 2 | All Maps","protocol":17,"map":"pl_borneo","folder":"tf","game":"Team Fortress","app_id":440,"player_count":22,"max_players":24,"Bots":0,"server_type":"Dedicated","server_os":"Linux","password":true,"vac":true,"version":"7961495","steam_id":85568392924469998,"keywords":["nocrits","nodmgspread","payload","uncletopia"],"game_id":440,"stv_port":27026,"stv_name":"Uncletopia | Seattle | 2 | All Maps | STV","players":[{"user_id":18,"name":"Useless","steam_id":76561198116079299,"connected_time":2029000000000,"state":"active","ping":45},{"user_id":25,"name":"*The* Wardoug41","steam_id":76561198255780869,"connected_time":1220000000000,"state":"active","ping":108},{"user_id":35,"name":"Lily Thorn","steam_id":76561198305488625,"connected_time":627000000000,"state":"active","ping":57},{"user_id":38,"name":"ihavetapeworms","steam_id":76561198357040313,"connected_time":348000000000,"state":"active","ping":49},{"user_id":26,"name":"Rude Dog","steam_id":76561197980385816,"connected_time":1142000000000,"state":"active","ping":50},{"user_id":27,"name":"Fentanyl phyl","steam_id":76561198271995672,"connected_time":1120000000000,"state":"active","ping":44},{"user_id":39,"name":"Gardangle","steam_id":76561198394173831,"connected_time":323000000000,"state":"active","ping":72},{"user_id":36,"name":"Mengle","steam_id":76561198001953684,"connected_time":612000000000,"state":"active","ping":115},{"user_id":34,"name":"Vincent Van Bro","steam_id":76561197966919802,"connected_time":732000000000,"state":"active","ping":45},{"user_id":32,"name":"Moisty Boi","steam_id":76561198032440248,"connected_time":942000000000,"state":"active","ping":51},{"user_id":37,"name":"Verily","steam_id":76561198200558318,"connected_time":601000000000,"state":"active","ping":106},{"user_id":51,"name":"A UsedNom","steam_id":76561198402832756,"connected_time":12000000000,"state":"spawning","ping":59},{"user_id":48,"name":"golia","steam_id":76561198000264266,"connected_time":135000000000,"state":"active","ping":58},{"user_id":42,"name":"TommyBoi","steam_id":76561198025528637,"connected_time":199000000000,"state":"active","ping":36},{"user_id":44,"name":"Gamekiller839","steam_id":76561199475400469,"connected_time":185000000000,"state":"active","ping":30},{"user_id":45,"name":"Nick","steam_id":76561197967225668,"connected_time":180000000000,"state":"active","ping":46},{"user_id":46,"name":"oog","steam_id":76561199089730744,"connected_time":153000000000,"state":"active","ping":75},{"user_id":47,"name":"Skip Hop Doo Bop","steam_id":76561199161571849,"connected_time":146000000000,"state":"active","ping":65},{"user_id":49,"name":"Moumen_Gun","steam_id":76561199040993465,"connected_time":121000000000,"state":"active","ping":66},{"user_id":50,"name":"FELXIUFEL","steam_id":76561198352095947,"connected_time":84000000000,"state":"active","ping":59},{"user_id":52,"name":"011sra","steam_id":76561199489542125,"connected_time":7000000000,"state":"spawning","ping":45},{"user_id":53,"name":"Maid 'n' China","steam_id":76561198423392976,"connected_time":6000000000,"state":"spawning","ping":59}]},{"server_id":406,"name":"Uncletopia | Seattle | 3 | Stopwatch","name_short":"sea-3","host":"sea-1.us.uncletopia.com","port":27035,"enabled":true,"region":"us-west","cc":"us","latitude":47.608013,"longitude":-122.33517,"reserved":0,"last_update":"0001-01-01T00:00:00Z","name_a2s":"Uncletopia | Seattle | 3 | Stopwatch","protocol":17,"map":"workshop/pl_badwater_pro_v12.ugc2142942074","folder":"tf","game":"Team Fortress","app_id":440,"player_count":1,"max_players":24,"Bots":0,"server_type":"Dedicated","server_os":"Linux","password":true,"vac":true,"version":"7961495","steam_id":85568392924515217,"keywords":["nocrits","nodmgspread","payload","uncletopia"],"game_id":440,"stv_port":27036,"stv_name":"Uncletopia | Seattle | 3 | Stopwatch | STV","players":[{"user_id":7,"name":"TiltedBehr","steam_id":76561198332081163,"connected_time":3000000000,"state":"spawning","ping":76}]},{"server_id":17,"name":"Uncletopia | San Francisco | 1 | All Maps","name_short":"sfo-1","host":"sfo-1.us.uncletopia.com","port":27015,"enabled":true,"region":"us-west","cc":"us","latitude":37.77397,"longitude":-122.4313,"reserved":0,"last_update":"0001-01-01T00:00:00Z","name_a2s":"Uncletopia | San Francisco | 1 | All Maps","protocol":17,"map":"koth_viaduct","folder":"tf","game":"Team Fortress","app_id":440,"player_count":24,"max_players":24,"Bots":0,"server_type":"Dedicated","server_os":"Linux","password":true,"vac":true,"version":"7961495","steam_id":85568392924469999,"keywords":["cp","nocrits","nodmgspread","uncletopia"],"game_id":440,"stv_port":27016,"stv_name":"Uncletopia | San Francisco | 1 | All Maps | STV","players":[{"user_id":48,"name":"Ket","steam_id":76561198241951244,"connected_time":1007000000000,"state":"active","ping":86},{"user_id":61,"name":"eryn 🗺","steam_id":76561198004433070,"connected_time":619000000000,"state":"active","ping":93},{"user_id":15,"name":"Schmupp","steam_id":76561198150928115,"connected_time":2960000000000,"state":"active","ping":48},{"user_id":56,"name":"walrooos","steam_id":76561198024521839,"connected_time":810000000000,"state":"active","ping":46},{"user_id":17,"name":"Swimps","steam_id":76561199095494639,"connected_time":2915000000000,"state":"active","ping":130},{"user_id":46,"name":"hitscam yes sir","steam_id":76561198170381402,"connected_time":1074000000000,"state":"active","ping":104},{"user_id":20,"name":"proud_asian","steam_id":76561198977973083,"connected_time":2693000000000,"state":"active","ping":92},{"user_id":23,"name":"mafia is mafia","steam_id":76561198042574722,"connected_time":2435000000000,"state":"active","ping":65},{"user_id":63,"name":"Seshreb","steam_id":76561198846614634,"connected_time":203000000000,"state":"active","ping":87},{"user_id":49,"name":"celestia ludenberg","steam_id":76561199196437823,"connected_time":971000000000,"state":"active","ping":72},{"user_id":26,"name":"Crusade","steam_id":76561199192979051,"connected_time":2003000000000,"state":"active","ping":132},{"user_id":62,"name":"green bean","steam_id":76561198113099204,"connected_time":228000000000,"state":"active","ping":40},{"user_id":47,"name":"Wso1123","steam_id":76561198048040111,"connected_time":1065000000000,"state":"active","ping":69},{"user_id":64,"name":"neet","steam_id":76561197968115168,"connected_time":93000000000,"state":"active","ping":99},{"user_id":42,"name":"Chafn","steam_id":76561197969386702,"connected_time":1198000000000,"state":"active","ping":91},{"user_id":43,"name":"Type Three Dabeetus","steam_id":76561198062710038,"connected_time":1170000000000,"state":"active","ping":57},{"user_id":45,"name":"Shampoodle","steam_id":76561199050344218,"connected_time":1114000000000,"state":"active","ping":53},{"user_id":51,"name":"Spider_god","steam_id":76561199097791017,"connected_time":946000000000,"state":"active","ping":98},{"user_id":52,"name":"Randle of John","steam_id":76561198328210524,"connected_time":932000000000,"state":"active","ping":52},{"user_id":53,"name":"8BitWyatt","steam_id":76561198453336518,"connected_time":919000000000,"state":"active","ping":77},{"user_id":65,"name":"Breach","steam_id":76561198045060392,"connected_time":31000000000,"state":"active","ping":92},{"user_id":55,"name":"Tyth","steam_id":76561198062543298,"connected_time":858000000000,"state":"active","ping":60},{"user_id":58,"name":"Grilled Jizo","steam_id":76561199250875340,"connected_time":793000000000,"state":"active","ping":87},{"user_id":60,"name":"THE man is EPIC","steam_id":76561198085410777,"connected_time":667000000000,"state":"active","ping":106}]},{"server_id":18,"name":"Uncletopia | San Francisco | 2 | All Maps","name_short":"sfo-2","host":"sfo-1.us.uncletopia.com","port":27025,"enabled":true,"region":"us-west","cc":"us","latitude":37.77397,"longitude":-122.4313,"reserved":0,"last_update":"0001-01-01T00:00:00Z","name_a2s":"Uncletopia | San Francisco | 2 | All Maps","protocol":17,"map":"pl_frontier_final","folder":"tf","game":"Team Fortress","app_id":440,"player_count":2,"max_players":24,"Bots":0,"server_type":"Dedicated","server_os":"Linux","password":true,"vac":true,"version":"7961495","steam_id":85568392924470000,"keywords":["nocrits","nodmgspread","payload","uncletopia"],"game_id":440,"stv_port":27026,"stv_name":"Uncletopia | San Francisco | 2 | All Maps | STV","players":[{"user_id":7,"name":"Blake","steam_id":76561198884871311,"connected_time":557000000000,"state":"active","ping":81},{"user_id":8,"name":"NotAToaster","steam_id":76561198349938357,"connected_time":527000000000,"state":"active","ping":100}]},{"server_id":19,"name":"Uncletopia | San Francisco | 3 | Stopwatch","name_short":"sfo-3","host":"sfo-1.us.uncletopia.com","port":27035,"enabled":true,"region":"us-west","cc":"us","latitude":37.77397,"longitude":-122.4313,"reserved":0,"last_update":"0001-01-01T00:00:00Z","name_a2s":"Uncletopia | San Francisco | 3 | Stopwatch","protocol":17,"map":"workshop/koth_product_final.ugc454272353","folder":"tf","game":"Team Fortress","app_id":440,"player_count":6,"max_players":24,"Bots":0,"server_type":"Dedicated","server_os":"Linux","password":true,"vac":true,"version":"7961495","steam_id":85568392924742824,"keywords":["cp","nocrits","nodmgspread","uncletopia"],"game_id":440,"stv_port":27036,"stv_name":"Uncletopia | San Francisco | 3 | Stopwatch | STV","players":[{"user_id":17,"name":"Mom","steam_id":76561198207936000,"connected_time":276000000000,"state":"active","ping":40},{"user_id":18,"name":"Laggy Engineer","steam_id":76561198078317925,"connected_time":238000000000,"state":"active","ping":67},{"user_id":13,"name":"hoOmIN","steam_id":76561198334947079,"connected_time":654000000000,"state":"active","ping":46},{"user_id":14,"name":"Buswolley","steam_id":76561197995205571,"connected_time":638000000000,"state":"active","ping":44},{"user_id":15,"name":"Pyrolimited","steam_id":76561198195455657,"connected_time":626000000000,"state":"active","ping":63},{"user_id":16,"name":"Filthy Hobo","steam_id":76561198174373015,"connected_time":561000000000,"state":"active","ping":150}]},{"server_id":20,"name":"Uncletopia | San Francisco | 4 | Community","name_short":"sfo-4","host":"sfo-1.us.uncletopia.com","port":27045,"enabled":true,"region":"us-west","cc":"us","latitude":37.77397,"longitude":-122.4313,"reserved":0,"last_update":"0001-01-01T00:00:00Z","name_a2s":"Uncletopia | San Francisco | 4 | Community","protocol":17,"map":"workshop/pl_badwater_pro_v12.ugc2142942074","folder":"tf","game":"Team Fortress","app_id":440,"player_count":0,"max_players":24,"Bots":0,"server_type":"Dedicated","server_os":"Linux","password":true,"vac":true,"version":"7961495","steam_id":85568392924742826,"keywords":["nocrits","nodmgspread","payload","uncletopia"],"game_id":440,"stv_port":27046,"stv_name":"Uncletopia | San Francisco | 4 | Community | STV","players":null},{"server_id":141,"name":"Uncletopia | Sydney | 1 | All Maps","name_short":"syd-1","host":"syd-1.au.uncletopia.com","port":27015,"enabled":true,"region":"au","cc":"au","latitude":-33.865143,"longitude":151.2099,"reserved":0,"last_update":"0001-01-01T00:00:00Z","name_a2s":"Uncletopia | Sydney | 1 | All Maps","protocol":17,"map":"koth_viaduct","folder":"tf","game":"Team Fortress","app_id":440,"player_count":0,"max_players":24,"Bots":0,"server_type":"Dedicated","server_os":"Linux","password":true,"vac":true,"version":"7961495","steam_id":85568392924470001,"keywords":["cp","nocrits","nodmgspread","uncletopia"],"game_id":440,"stv_port":27016,"stv_name":"Uncletopia | Sydney | 1 | All Maps | STV","players":null},{"server_id":123,"name":"Uncletopia | Sydney | 2 | All Maps","name_short":"syd-2","host":"syd-1.au.uncletopia.com","port":27025,"enabled":true,"region":"au","cc":"au","latitude":-33.865143,"longitude":151.2099,"reserved":0,"last_update":"0001-01-01T00:00:00Z","name_a2s":"Uncletopia | Sydney | 2 | All Maps","protocol":17,"map":"koth_lakeside_final","folder":"tf","game":"Team Fortress","app_id":440,"player_count":0,"max_players":24,"Bots":0,"server_type":"Dedicated","server_os":"Linux","password":true,"vac":true,"version":"7961495","steam_id":85568392924470002,"keywords":["cp","nocrits","nodmgspread","uncletopia"],"game_id":440,"stv_port":27026,"stv_name":"Uncletopia | Sydney | 2 | All Maps | STV","players":null},{"server_id":395,"name":"Uncletopia | Sydney | 3 | All Maps","name_short":"syd-3","host":"syd-1.au.uncletopia.com","port":27035,"enabled":true,"region":"au","cc":"au","latitude":-33.865143,"longitude":151.2099,"reserved":0,"last_update":"0001-01-01T00:00:00Z","name_a2s":"Uncletopia | Sydney | 3 | All Maps","protocol":17,"map":"pl_frontier_final","folder":"tf","game":"Team Fortress","app_id":440,"player_count":0,"max_players":24,"Bots":0,"server_type":"Dedicated","server_os":"Linux","password":true,"vac":true,"version":"7961495","steam_id":85568392925194467,"keywords":["nocrits","nodmgspread","payload","uncletopia"],"game_id":440,"stv_port":27036,"stv_name":"Uncletopia | Sydney | 3 | All Maps | STV","players":null},{"server_id":396,"name":"Uncletopia | Sydney | 4 | All Maps","name_short":"syd-4","host":"syd-1.au.uncletopia.com","port":27045,"enabled":true,"region":"au","cc":"au","latitude":-33.865143,"longitude":151.2099,"reserved":0,"last_update":"0001-01-01T00:00:00Z","name_a2s":"Uncletopia | Sydney | 4 | All Maps","protocol":17,"map":"cp_process_final","folder":"tf","game":"Team Fortress","app_id":440,"player_count":0,"max_players":24,"Bots":0,"server_type":"Dedicated","server_os":"Linux","password":true,"vac":true,"version":"7961495","steam_id":85568392925397958,"keywords":["cp","nocrits","nodmgspread","uncletopia"],"game_id":440,"stv_port":27046,"stv_name":"Uncletopia | Sydney | 4 | All Maps | STV","players":null},{"server_id":58,"name":"Uncletopia | Sydney | 5 | Stopwatch","name_short":"syd-5","host":"syd-1.au.uncletopia.com","port":27055,"enabled":true,"region":"au","cc":"au","latitude":-33.865143,"longitude":151.2099,"reserved":0,"last_update":"0001-01-01T00:00:00Z","name_a2s":"Uncletopia | Sydney | 5 | Stopwatch","protocol":17,"map":"pl_frontier_final","folder":"tf","game":"Team Fortress","app_id":440,"player_count":0,"max_players":24,"Bots":0,"server_type":"Dedicated","server_os":"Linux","password":true,"vac":true,"version":"7961495","steam_id":85568392925397959,"keywords":["nocrits","nodmgspread","payload","uncletopia"],"game_id":440,"stv_port":27056,"stv_name":"Uncletopia | Sydney | 5 | Stopwatch | STV","players":null},{"server_id":59,"name":"Uncletopia | Sydney | 6 | Community","name_short":"syd-6","host":"syd-1.au.uncletopia.com","port":27065,"enabled":true,"region":"au","cc":"au","latitude":-33.865143,"longitude":151.2099,"reserved":0,"last_update":"0001-01-01T00:00:00Z","name_a2s":"Uncletopia | Sydney | 6 | Community","protocol":17,"map":"cp_sunshine","folder":"tf","game":"Team Fortress","app_id":440,"player_count":0,"max_players":24,"Bots":0,"server_type":"Dedicated","server_os":"Linux","password":true,"vac":true,"version":"7961495","steam_id":85568392925397960,"keywords":["cp","nocrits","nodmgspread","uncletopia"],"game_id":440,"stv_port":27066,"stv_name":"Uncletopia | Sydney | 6 | Community | STV","players":null},{"server_id":49,"name":"Uncletopia | Warsaw | 1 | One Thousand Uncles","name_short":"waw-1","host":"waw-1.pl.uncletopia.com","port":27015,"enabled":true,"region":"eu","cc":"pl","latitude":52.2297,"longitude":21.017532,"reserved":0,"last_update":"0001-01-01T00:00:00Z","name_a2s":"Uncletopia | Warsaw | 1 | One Thousand Uncles","protocol":17,"map":"cp_egypt_final","folder":"tf","game":"Team Fortress","app_id":440,"player_count":21,"max_players":32,"Bots":16,"server_type":"Dedicated","server_os":"Linux","password":true,"vac":true,"version":"7961495","steam_id":85568392925397850,"keywords":["alltalk","bots","cp","danepve","increased_maxplayers","nocrits","norespawntime","uncletopia"],"game_id":440,"stv_port":0,"stv_name":"","players":[{"user_id":633,"name":"Tispy","steam_id":76561199207410049,"connected_time":470000000000,"state":"active","ping":110},{"user_id":632,"name":"Argdy","steam_id":76561198879906416,"connected_time":611000000000,"state":"active","ping":62},{"user_id":631,"name":"hgvgdwa","steam_id":76561198156499356,"connected_time":714000000000,"state":"active","ping":44},{"user_id":618,"name":"duck_fetish","steam_id":76561199015909776,"connected_time":2249000000000,"state":"active","ping":89},{"user_id":621,"name":"git bash -er","steam_id":76561198072586494,"connected_time":1710000000000,"state":"active","ping":71}]},{"server_id":50,"name":"Uncletopia | Warsaw | 2 | One Thousand Uncles","name_short":"waw-2","host":"waw-1.pl.uncletopia.com","port":27025,"enabled":true,"region":"eu","cc":"pl","latitude":52.2297,"longitude":21.017532,"reserved":0,"last_update":"0001-01-01T00:00:00Z","name_a2s":"Uncletopia | Warsaw | 2 | One Thousand Uncles","protocol":17,"map":"cp_dustbowl","folder":"tf","game":"Team Fortress","app_id":440,"player_count":0,"max_players":32,"Bots":0,"server_type":"Dedicated","server_os":"Linux","password":true,"vac":true,"version":"7961495","steam_id":85568392925397851,"keywords":["alltalk","cp","danepve","increased_maxplayers","nocrits","norespawntime","uncletopia"],"game_id":440,"stv_port":0,"stv_name":"","players":null},{"server_id":51,"name":"Uncletopia | Warsaw | 3 | All Maps","name_short":"waw-3","host":"waw-1.pl.uncletopia.com","port":27035,"enabled":true,"region":"eu","cc":"pl","latitude":52.2297,"longitude":21.017532,"reserved":0,"last_update":"0001-01-01T00:00:00Z","name_a2s":"Uncletopia | Warsaw | 3 | All Maps","protocol":17,"map":"cp_gorge","folder":"tf","game":"Team Fortress","app_id":440,"player_count":0,"max_players":24,"Bots":0,"server_type":"Dedicated","server_os":"Linux","password":true,"vac":true,"version":"7961495","steam_id":85568392925397852,"keywords":["cp","nocrits","nodmgspread","uncletopia"],"game_id":440,"stv_port":27036,"stv_name":"Uncletopia | Warsaw | 3 | All Maps | STV","players":null},{"server_id":52,"name":"Uncletopia | Warsaw | 4 | All Maps","name_short":"waw-4","host":"waw-1.pl.uncletopia.com","port":27045,"enabled":true,"region":"eu","cc":"pl","latitude":52.2297,"longitude":21.017532,"reserved":0,"last_update":"0001-01-01T00:00:00Z","name_a2s":"Uncletopia | Warsaw | 4 | All Maps","protocol":17,"map":"cp_dustbowl","folder":"tf","game":"Team Fortress","app_id":440,"player_count":0,"max_players":24,"Bots":0,"server_type":"Dedicated","server_os":"Linux","password":true,"vac":true,"version":"7961495","steam_id":85568392925397853,"keywords":["cp","nocrits","nodmgspread","uncletopia"],"game_id":440,"stv_port":27046,"stv_name":"Uncletopia | Warsaw | 4 | All Maps | STV","players":null},{"server_id":53,"name":"Uncletopia | Warsaw | 5 | Stopwatch","name_short":"waw-5","host":"waw-1.pl.uncletopia.com","port":27055,"enabled":true,"region":"eu","cc":"pl","latitude":52.2297,"longitude":21.017532,"reserved":0,"last_update":"0001-01-01T00:00:00Z","name_a2s":"Uncletopia | Warsaw | 5 | Stopwatch","protocol":17,"map":"workshop/pl_vigil_rc10.ugc1266210012","folder":"tf","game":"Team Fortress","app_id":440,"player_count":0,"max_players":24,"Bots":0,"server_type":"Dedicated","server_os":"Linux","password":true,"vac":true,"version":"7961495","steam_id":85568392925397854,"keywords":["nocrits","nodmgspread","payload","uncletopia"],"game_id":440,"stv_port":27056,"stv_name":"Uncletopia | Warsaw | 5 | Stopwatch | STV","players":null},{"server_id":54,"name":"Uncletopia | Warsaw | 6 | Community","name_short":"waw-6","host":"waw-1.pl.uncletopia.com","port":27065,"enabled":true,"region":"eu","cc":"pl","latitude":52.2297,"longitude":21.017532,"reserved":0,"last_update":"0001-01-01T00:00:00Z","name_a2s":"Uncletopia | Warsaw | 6 | Community","protocol":17,"map":"workshop/koth_ramjam_rc1.ugc459778887","folder":"tf","game":"Team Fortress","app_id":440,"player_count":0,"max_players":24,"Bots":0,"server_type":"Dedicated","server_os":"Linux","password":true,"vac":true,"version":"7961495","steam_id":85568392925397856,"keywords":["cp","nocrits","nodmgspread","uncletopia"],"game_id":440,"stv_port":27066,"stv_name":"Uncletopia | Warsaw | 6 | Community | STV","players":null}]}