{"status":true,"message":"","result":[{"server_id":9,"name":"Uncletopia | Atlanta | 1 | All Maps","name_short":"atl-1","host":"atl-1.us.uncletopia.com","port":27015,"enabled":true,"region":"us-east","cc":"us","latitude":33.753746,"longitude":-84.38633,"reserved":0,"last_update":"0001-01-01T00:00:00Z","name_a2s":"Uncletopia | Atlanta | 1 | All Maps","protocol":17,"map":"cp_process_final","folder":"tf","game":"Team Fortress","app_id":440,"player_count":24,"max_players":24,"Bots":0,"server_type":"Dedicated","server_os":"Linux","password":true,"vac":true,"version":"7757534","steam_id":85568392924469982,"keywords":["cp","nocrits","nodmgspread","uncletopia"],"game_id":440,"stv_port":27016,"stv_name":"Uncletopia | Atlanta | 1 | All Maps | STV","players":[{"user_id":174,"name":"melancholy","steam_id":76561198024301465,"connected_time":2428000000000,"state":"active","ping":45},{"user_id":217,"name":"troll","steam_id":76561198040890252,"connected_time":600000000000,"state":"active","ping":48},{"user_id":222,"name":"Spy_Is_Pye","steam_id":76561199439622967,"connected_time":144000000000,"state":"active","ping":70},{"user_id":205,"name":"Borgir","steam_id":76561198325390265,"connected_time":1450000000000,"state":"active","ping":97},{"user_id":212,"name":"Zho Biden","steam_id":76561198079224101,"connected_time":668000000000,"state":"active","ping":43},{"user_id":209,"name":"SHLIKBOBY","steam_id":76561198018237442,"connected_time":722000000000,"state":"active","ping":69},{"user_id":122,"name":"ItsThatBear","steam_id":76561198169617659,"connected_time":6919000000000,"state":"active","ping":70},{"user_id":214,"name":"Transfem Furry \u003c3","steam_id":76561198288036403,"connected_time":658000000000,"state":"active","ping":105},{"user_id":215,"name":"Gummie","steam_id":76561198807069433,"connected_time":644000000000,"state":"active","ping":86},{"user_id":182,"name":"Walmart Employee","steam_id":76561198840373909,"connected_time":2379000000000,"state":"active","ping":78},{"user_id":166,"name":"gmail perc","steam_id":76561198192543689,"connected_time":3468000000000,"state":"active","ping":90},{"user_id":223,"name":"Mcfighter2","steam_id":76561198168073956,"connected_time":128000000000,"state":"active","ping":72},{"user_id":216,"name":"Decolour","steam_id":76561199045608372,"connected_time":639000000000,"state":"active","ping":78},{"user_id":224,"name":"Mr. Call You Back","steam_id":76561198025172811,"connected_time":109000000000,"state":"active","ping":62},{"user_id":219,"name":"lost in spaaaaace","steam_id":76561199085974120,"connected_time":525000000000,"state":"active","ping":66},{"user_id":203,"name":"YOU CAN LIVE AT THE MALL","steam_id":76561198880969627,"connected_time":1789000000000,"state":"active","ping":59},{"user_id":151,"name":"Mango","steam_id":76561199209533440,"connected_time":4915000000000,"state":"active","ping":75},{"user_id":204,"name":"GPLv2","steam_id":76561198113096772,"connected_time":1580000000000,"state":"active","ping":104},{"user_id":109,"name":"RED1 | ma0re","steam_id":76561199231971506,"connected_time":8124000000000,"state":"active","ping":60},{"user_id":206,"name":"fi_ji","steam_id":76561198126087725,"connected_time":1132000000000,"state":"active","ping":64},{"user_id":213,"name":"RED1 | p4ka","steam_id":76561198315291317,"connected_time":666000000000,"state":"active","ping":77},{"user_id":220,"name":"Legit_Jaxer","steam_id":76561198172234053,"connected_time":512000000000,"state":"active","ping":107},{"user_id":171,"name":"com lag","steam_id":76561198019019392,"connected_time":2513000000000,"state":"active","ping":67},{"user_id":181,"name":"firethunder","steam_id":76561198006112530,"connected_time":2395000000000,"state":"active","ping":95}]},{"server_id":400,"name":"Uncletopia | Atlanta | 3 | Community","name_short":"atl-3","host":"atl-1.us.uncletopia.com","port":27035,"enabled":true,"region":"us-east","cc":"us","latitude":33.753746,"longitude":-84.38633,"reserved":0,"last_update":"0001-01-01T00:00:00Z","name_a2s":"Uncletopia | Atlanta | 3 | Community","protocol":17,"map":"workshop/cp_propaganda_b18.ugc1603743849","folder":"tf","game":"Team Fortress","app_id":440,"player_count":0,"max_players":32,"Bots":0,"server_type":"Dedicated","server_os":"Linux","password":true,"vac":true,"version":"7757534","steam_id":85568392924515187,"keywords":["cp","increased_maxplayers","nocrits","nodmgspread","uncletopia"],"game_id":440,"stv_port":27036,"stv_name":"Uncletopia | Atlanta | 3 | Community | STV","players":null},{"server_id":401,"name":"Uncletopia | Atlanta | 4 | No Payload","name_short":"atl-4","host":"atl-1.us.uncletopia.com","port":27045,"enabled":true,"region":"us-east","cc":"us","latitude":33.753746,"longitude":-84.38633,"reserved":0,"last_update":"0001-01-01T00:00:00Z","name_a2s":"","protocol":0,"map":"","folder":"","game":"","app_id":0,"player_count":0,"max_players":0,"Bots":0,"server_type":"","server_os":"","password":false,"vac":false,"version":"","steam_id":0,"keywords":null,"game_id":0,"stv_port":0,"stv_name":"","players":null},{"server_id":2,"name":"Uncletopia | Chicago | 1 | All Maps","name_short":"chi-1","host":"chi-1.us.uncletopia.com","port":27015,"enabled":true,"region":"us-central","cc":"us","latitude":41.881832,"longitude":-87.62318,"reserved":0,"last_update":"0001-01-01T00:00:00Z","name_a2s":"Uncletopia | Chicago | 1 | All Maps","protocol":17,"map":"pl_borneo","folder":"tf","game":"Team Fortress","app_id":440,"player_count":24,"max_players":24,"Bots":0,"server_type":"Dedicated","server_os":"Linux","password":true,"vac":true,"version":"7757534","steam_id":85568392924469984,"keywords":["nocrits","nodmgspread","payload","uncletopia"],"game_id":440,"stv_port":27016,"stv_name":"Uncletopia | Chicago | 1 | All Maps | STV","players":[{"user_id":191,"name":"chloe","steam_id":76561198369849908,"connected_time":7033000000000,"state":"active","ping":69},{"user_id":253,"name":"Skullypoo","steam_id":76561198067912022,"connected_time":1362000000000,"state":"active","ping":61},{"user_id":257,"name":"Apollite","steam_id":76561198071669801,"connected_time":736000000000,"state":"active","ping":70},{"user_id":245,"name":"Local","steam_id":76561199042686473,"connected_time":2231000000000,"state":"active","ping":46},{"user_id":255,"name":"Stock Medic","steam_id":76561198065479730,"connected_time":1207000000000,"state":"active","ping":43},{"user_id":237,"name":"Not_Douglas","steam_id":76561199024184136,"connected_time":2764000000000,"state":"active","ping":63},{"user_id":262,"name":"KING GEEDORAH - Fazer . . .","steam_id":76561198294013916,"connected_time":526000000000,"state":"active","ping":65},{"user_id":256,"name":"Souperdude83","steam_id":76561198119727829,"connected_time":741000000000,"state":"active","ping":70},{"user_id":198,"name":"jori","steam_id":76561199094011458,"connected_time":6053000000000,"state":"active","ping":89},{"user_id":223,"name":"loscemo","steam_id":76561197994884609,"connected_time":3886000000000,"state":"active","ping":67},{"user_id":222,"name":"Furry Saul Goodman","steam_id":76561198069580305,"connected_time":3902000000000,"state":"active","ping":47},{"user_id":236,"name":"Johnny Lawrence #JohnnyMaxxing","steam_id":76561199367141671,"connected_time":2816000000000,"state":"active","ping":59},{"user_id":251,"name":"The Land Admiral","steam_id":76561198159356609,"connected_time":1680000000000,"state":"active","ping":73},{"user_id":259,"name":"Unofficial","steam_id":76561198370071152,"connected_time":717000000000,"state":"active","ping":115},{"user_id":203,"name":"Tito McMan","steam_id":76561198068901630,"connected_time":5795000000000,"state":"active","ping":99},{"user_id":263,"name":"Strike Force Lightning","steam_id":76561198271519776,"connected_time":142000000000,"state":"active","ping":73},{"user_id":240,"name":"yitz","steam_id":76561198375575841,"connected_time":2717000000000,"state":"active","ping":48},{"user_id":234,"name":"Romo","steam_id":76561198243101572,"connected_time":2892000000000,"state":"active","ping":85},{"user_id":225,"name":"Sir Galahad","steam_id":76561198195999859,"connected_time":3660000000000,"state":"active","ping":111},{"user_id":173,"name":"noot noot","steam_id":76561198318446417,"connected_time":8179000000000,"state":"active","ping":81},{"user_id":241,"name":"jorjor wells","steam_id":76561199073429082,"connected_time":2698000000000,"state":"active","ping":64},{"user_id":224,"name":"*SHIKI 志貴","steam_id":76561198009208968,"connected_time":3886000000000,"state":"active","ping":37},{"user_id":265,"name":"Fantastibad","steam_id":76561199087329262,"connected_time":26000000000,"state":"active","ping":73},{"user_id":264,"name":"rlty","steam_id":76561198009395055,"connected_time":35000000000,"state":"active","ping":62}]},{"server_id":106,"name":"Uncletopia | Chicago | 2 | All Maps","name_short":"chi-2","host":"chi-1.us.uncletopia.com","port":27025,"enabled":true,"region":"us-central","cc":"us","latitude":41.881832,"longitude":-87.62318,"reserved":0,"last_update":"0001-01-01T00:00:00Z","name_a2s":"Uncletopia | Chicago | 2 | All Maps","protocol":17,"map":"pl_badwater","folder":"tf","game":"Team Fortress","app_id":440,"player_count":24,"max_players":24,"Bots":0,"server_type":"Dedicated","server_os":"Linux","password":true,"vac":true,"version":"7757534","steam_id":85568392924469985,"keywords":["nocrits","nodmgspread","payload","uncletopia"],"game_id":440,"stv_port":27026,"stv_name":"Uncletopia | Chicago | 2 | All Maps | STV","players":[{"user_id":138,"name":"*","steam_id":76561198173047169,"connected_time":159000000000,"state":"active","ping":55},{"user_id":117,"name":"Mythical Lag","steam_id":76561198347031281,"connected_time":1833000000000,"state":"active","ping":75},{"user_id":101,"name":"brick","steam_id":76561198381123094,"connected_time":2494000000000,"state":"active","ping":63},{"user_id":128,"name":"caption cool","steam_id":76561197990612056,"connected_time":935000000000,"state":"active","ping":44},{"user_id":129,"name":"SSBM Pelican","steam_id":76561198040697907,"connected_time":837000000000,"state":"active","ping":70},{"user_id":141,"name":"bbbbbbbbbbbbbbbbbbbbbbbbbbbbbbb","steam_id":76561198339644583,"connected_time":22000000000,"state":"active","ping":63},{"user_id":142,"name":"DefenderOfChodes","steam_id":76561198018803214,"connected_time":8000000000,"state":"spawning","ping":76},{"user_id":96,"name":"Walkiing","steam_id":76561198074473413,"connected_time":2686000000000,"state":"active","ping":45},{"user_id":136,"name":"Peri","steam_id":76561198255311543,"connected_time":383000000000,"state":"active","ping":66},{"user_id":97,"name":"nao","steam_id":76561199067925855,"connected_time":2682000000000,"state":"active","ping":56},{"user_id":65,"name":"SuperFresh","steam_id":76561198200723198,"connected_time":4862000000000,"state":"active","ping":41},{"user_id":130,"name":"AjProductions","steam_id":76561198217950125,"connected_time":803000000000,"state":"active","ping":129},{"user_id":135,"name":"Rein","steam_id":76561198300340427,"connected_time":391000000000,"state":"active","ping":59},{"user_id":121,"name":"Ghost","steam_id":76561198110914180,"connected_time":1532000000000,"state":"active","ping":174},{"user_id":58,"name":"Dyson","steam_id":76561199081837220,"connected_time":5571000000000,"state":"active","ping":79},{"user_id":134,"name":"Funny Street Legend","steam_id":76561198275625984,"connected_time":648000000000,"state":"active","ping":75},{"user_id":99,"name":"bary","steam_id":76561197988317087,"connected_time":2651000000000,"state":"active","ping":57},{"user_id":70,"name":"Looking","steam_id":76561198111513794,"connected_time":4787000000000,"state":"active","ping":91},{"user_id":133,"name":"Delacroix","steam_id":76561198842964669,"connected_time":762000000000,"state":"active","ping":57},{"user_id":48,"name":"Le Peña","steam_id":76561198864220668,"connected_time":6100000000000,"state":"active","ping":89},{"user_id":76,"name":"H C N","steam_id":76561198106290021,"connected_time":3571000000000,"state":"active","ping":58},{"user_id":126,"name":"Candy Sparkles","steam_id":76561198126871264,"connected_time":1370000000000,"state":"active","ping":82},{"user_id":137,"name":"Robin","steam_id":76561198121165149,"connected_time":366000000000,"state":"active","ping":31},{"user_id":140,"name":"pelicAn","steam_id":76561197963422599,"connected_time":124000000000,"state":"active","ping":70}]},{"server_id":402,"name":"Uncletopia | Chicago | 3 | All Maps","name_short":"chi-3","host":"chi-1.us.uncletopia.com","port":27035,"enabled":true,"region":"us-central","cc":"us","latitude":41.881832,"longitude":-87.62318,"reserved":0,"last_update":"0001-01-01T00:00:00Z","name_a2s":"Uncletopia | Chicago | 3 | All Maps","protocol":17,"map":"ctf_2fort","folder":"tf","game":"Team Fortress","app_id":440,"player_count":23,"max_players":24,"Bots":0,"server_type":"Dedicated","server_os":"Linux","password":true,"vac":true,"version":"7757534","steam_id":85568392924515191,"keywords":["ctf","nocrits","nodmgspread","uncletopia"],"game_id":440,"stv_port":27036,"stv_name":"Uncletopia | Chicago | 3 | All Maps | STV","players":[{"user_id":151,"name":"paolobuts","steam_id":76561199047108638,"connected_time":1153000000000,"state":"active","ping":92},{"user_id":183,"name":"pathways","steam_id":76561198054832333,"connected_time":218000000000,"state":"active","ping":45},{"user_id":139,"name":"CyberZayne","steam_id":76561198002351356,"connected_time":2525000000000,"state":"active","ping":83},{"user_id":142,"name":"Poison Ivy","steam_id":76561198072384574,"connected_time":2199000000000,"state":"active","ping":54},{"user_id":150,"name":"shmilk man","steam_id":76561199415811716,"connected_time":1221000000000,"state":"active","ping":71},{"user_id":135,"name":"Galacta","steam_id":76561198079541880,"connected_time":3088000000000,"state":"active","ping":74},{"user_id":166,"name":"A Wizard Who Is Late","steam_id":76561198232459056,"connected_time":850000000000,"state":"active","ping":91},{"user_id":94,"name":"人 ØАААØ人","steam_id":76561198944032480,"connected_time":4759000000000,"state":"active","ping":168},{"user_id":177,"name":"DiscoTraveler","steam_id":76561199240168088,"connected_time":435000000000,"state":"active","ping":60},{"user_id":153,"name":"Crafty","steam_id":76561199217624073,"connected_time":1091000000000,"state":"active","ping":91},{"user_id":180,"name":"CanadianScoot","steam_id":76561198847107866,"connected_time":300000000000,"state":"active","ping":48},{"user_id":169,"name":"trinqette","steam_id":76561198119543621,"connected_time":696000000000,"state":"active","ping":60},{"user_id":168,"name":"NUt","steam_id":76561198031007966,"connected_time":829000000000,"state":"active","ping":65},{"user_id":175,"name":"Koi","steam_id":76561198064411172,"connected_time":522000000000,"state":"active","ping":60},{"user_id":184,"name":"box","steam_id":76561198985635309,"connected_time":176000000000,"state":"active","ping":87},{"user_id":92,"name":"magickxanadu","steam_id":76561199117360103,"connected_time":4783000000000,"state":"active","ping":81},{"user_id":160,"name":"Yam Jazzy Jim","steam_id":76561198000788950,"connected_time":921000000000,"state":"active","ping":66},{"user_id":172,"name":"M4 Sherman","steam_id":76561198126990820,"connected_time":613000000000,"state":"active","ping":88},{"user_id":174,"name":"Cecil","steam_id":76561199309028776,"connected_time":600000000000,"state":"active","ping":64},{"user_id":181,"name":"slice'o'pizza","steam_id":76561198239215802,"connected_time":284000000000,"state":"active","ping":69},{"user_id":165,"name":"Your new boyfriend","steam_id":76561198166026932,"connected_time":853000000000,"state":"active","ping":44},{"user_id":167,"name":"Locked in the bathroom","steam_id":76561198206394503,"connected_time":843000000000,"state":"active","ping":54},{"user_id":186,"name":"pigeoncup","steam_id":76561198964926838,"connected_time":161000000000,"state":"active","ping":57}]},{"server_id":403,"name":"Uncletopia | Chicago | 4 | All Maps","name_short":"chi-4","host":"chi-1.us.uncletopia.com","port":27045,"enabled":true,"region":"us-central","cc":"us","latitude":41.881832,"longitude":-87.62318,"reserved":0,"last_update":"0001-01-01T00:00:00Z","name_a2s":"Uncletopia | Chicago | 4 | All Maps","protocol":17,"map":"koth_highpass","folder":"tf","game":"Team Fortress","app_id":440,"player_count":0,"max_players":24,"Bots":0,"server_type":"Dedicated","server_os":"Linux","password":true,"vac":true,"version":"7757534","steam_id":85568392924515193,"keywords":["cp","nocrits","nodmgspread","uncletopia"],"game_id":440,"stv_port":27046,"stv_name":"Uncletopia | Chicago | 4 | All Maps | STV","players":null},{"server_id":36,"name":"Uncletopia | Chicago | 5 | All Maps","name_short":"chi-5","host":"chi-2.us.uncletopia.com","port":27015,"enabled":true,"region":"us-central","cc":"us","latitude":41.881832,"longitude":-87.62318,"reserved":0,"last_update":"0001-01-01T00:00:00Z","name_a2s":"Uncletopia | Chicago | 5 | All Maps","protocol":17,"map":"pl_upward","folder":"tf","game":"Team Fortress","app_id":440,"player_count":1,"max_players":24,"Bots":0,"server_type":"Dedicated","server_os":"Linux","password":true,"vac":true,"version":"7757534","steam_id":85568392924866362,"keywords":["nocrits","nodmgspread","payload","uncletopia"],"game_id":440,"stv_port":27016,"stv_name":"Uncletopia | Chicago | 5 | All Maps | STV","players":[{"user_id":7,"name":"Mr. Hankey","steam_id":76561198872852200,"connected_time":209000000000,"state":"active","ping":138}]},{"server_id":37,"name":"Uncletopia | Chicago | 6 | All Maps","name_short":"chi-6","host":"chi-2.us.uncletopia.com","port":27025,"enabled":true,"region":"us-central","cc":"us","latitude":41.881832,"longitude":-87.62318,"reserved":0,"last_update":"0001-01-01T00:00:00Z","name_a2s":"Uncletopia | Chicago | 6 | All Maps","protocol":17,"map":"koth_cascade","folder":"tf","game":"Team Fortress","app_id":440,"player_count":0,"max_players":24,"Bots":0,"server_type":"Dedicated","server_os":"Linux","password":true,"vac":true,"version":"7757534","steam_id":85568392924866363,"keywords":["cp","nocrits","nodmgspread","uncletopia"],"game_id":440,"stv_port":27026,"stv_name":"Uncletopia | Chicago | 6 | All Maps | STV","players":null},{"server_id":38,"name":"Uncletopia | Chicago | 7 | Stopwatch Beta","name_short":"chi-7","host":"chi-2.us.uncletopia.com","port":27035,"enabled":true,"region":"us-central","cc":"us","latitude":41.881832,"longitude":-87.62318,"reserved":0,"last_update":"0001-01-01T00:00:00Z","name_a2s":"Uncletopia | Chicago | 7 | Stopwatch Beta","protocol":17,"map":"pl_upward","folder":"tf","game":"Team Fortress","app_id":440,"player_count":0,"max_players":24,"Bots":0,"server_type":"Dedicated","server_os":"Linux","password":true,"vac":true,"version":"7757534","steam_id":85568392924866364,"keywords":["nocrits","nodmgspread","payload","uncletopia"],"game_id":440,"stv_port":27036,"stv_name":"Uncletopia | Chicago | 7 | Stopwatch Beta | STV","players":null},{"server_id":39,"name":"Uncletopia | Chicago | 8 | Community","name_short":"chi-8","host":"chi-2.us.uncletopia.com","port":27045,"enabled":true,"region":"us-central","cc":"us","latitude":41.881832,"longitude":-87.62318,"reserved":0,"last_update":"0001-01-01T00:00:00Z","name_a2s":"Uncletopia | Chicago | 8 | Community","protocol":17,"map":"pl_barnblitz","folder":"tf","game":"Team Fortress","app_id":440,"player_count":0,"max_players":24,"Bots":0,"server_type":"Dedicated","server_os":"Linux","password":true,"vac":true,"version":"7757534","steam_id":85568392924866365,"keywords":["nocrits","nodmgspread","payload","uncletopia"],"game_id":440,"stv_port":27046,"stv_name":"Uncletopia | Chicago | 8 | Community | STV","players":null},{"server_id":8,"name":"Uncletopia | Dallas | 1 | All Maps","name_short":"dal-1","host":"dal-1.us.uncletopia.com","port":27015,"enabled":true,"region":"us-central","cc":"us","latitude":32.779167,"longitude":-96.80889,"reserved":0,"last_update":"0001-01-01T00:00:00Z","name_a2s":"Uncletopia | Dallas | 1 | All Maps","protocol":17,"map":"koth_cascade","folder":"tf","game":"Team Fortress","app_id":440,"player_count":0,"max_players":24,"Bots":0,"server_type":"Dedicated","server_os":"Linux","password":true,"vac":true,"version":"7757534","steam_id":85568392924469986,"keywords":["cp","nocrits","nodmgspread","uncletopia"],"game_id":440,"stv_port":27016,"stv_name":"Uncletopia | Dallas | 1 | All Maps | STV","players":null},{"server_id":108,"name":"Uncletopia | Dallas | 2 | All Maps","name_short":"dal-2","host":"dal-1.us.uncletopia.com","port":27025,"enabled":true,"region":"us-central","cc":"us","latitude":32.779167,"longitude":-96.80889,"reserved":0,"last_update":"0001-01-01T00:00:00Z","name_a2s":"Uncletopia | Dallas | 2 | All Maps","protocol":17,"map":"cp_process_final","folder":"tf","game":"Team Fortress","app_id":440,"player_count":24,"max_players":24,"Bots":0,"server_type":"Dedicated","server_os":"Linux","password":true,"vac":true,"version":"7757534","steam_id":85568392924469988,"keywords":["cp","nocrits","nodmgspread","uncletopia"],"game_id":440,"stv_port":27026,"stv_name":"Uncletopia | Dallas | 2 | All Maps | STV","players":[{"user_id":160,"name":"Sartupial","steam_id":76561198443169940,"connected_time":230000000000,"state":"active","ping":47},{"user_id":130,"name":"themankeys","steam_id":76561198149339536,"connected_time":2137000000000,"state":"active","ping":86},{"user_id":145,"name":"shady lurker","steam_id":76561197983585579,"connected_time":1263000000000,"state":"active","ping":74},{"user_id":94,"name":"Speedy","steam_id":76561198080761661,"connected_time":5524000000000,"state":"active","ping":98},{"user_id":27,"name":"bolainassr0","steam_id":76561199079078845,"connected_time":10296000000000,"state":"active","ping":101},{"user_id":89,"name":"ohms","steam_id":76561198868600487,"connected_time":6232000000000,"state":"active","ping":143},{"user_id":126,"name":"PingableUsername","steam_id":76561198138760165,"connected_time":2701000000000,"state":"active","ping":71},{"user_id":149,"name":"Danger Daniel","steam_id":76561199085838474,"connected_time":572000000000,"state":"active","ping":76},{"user_id":150,"name":"Gas Can","steam_id":76561198162853003,"connected_time":572000000000,"state":"active","ping":88},{"user_id":138,"name":"☼Barracuda☼","steam_id":76561198013022083,"connected_time":1521000000000,"state":"active","ping":56},{"user_id":144,"name":"Riske","steam_id":76561198115840568,"connected_time":1292000000000,"state":"active","ping":91},{"user_id":151,"name":"oisincristoir","steam_id":76561198864818817,"connected_time":535000000000,"state":"active","ping":172},{"user_id":129,"name":"fuckterry","steam_id":76561198271957738,"connected_time":2146000000000,"state":"active","ping":64},{"user_id":133,"name":"uzr","steam_id":76561198799343084,"connected_time":1729000000000,"state":"active","ping":77},{"user_id":157,"name":"Quark","steam_id":76561198846915822,"connected_time":430000000000,"state":"active","ping":131},{"user_id":153,"name":"Memphis (♂)","steam_id":76561198045039038,"connected_time":473000000000,"state":"active","ping":184},{"user_id":154,"name":"ShitTaker","steam_id":76561198052088053,"connected_time":462000000000,"state":"active","ping":165},{"user_id":127,"name":"P. Sebs","steam_id":76561198112354627,"connected_time":2615000000000,"state":"active","ping":45},{"user_id":146,"name":"DocLucky","steam_id":76561199093899249,"connected_time":607000000000,"state":"active","ping":168},{"user_id":161,"name":"Paco","steam_id":76561198023504958,"connected_time":30000000000,"state":"active","ping":63},{"user_id":122,"name":"holy fucking bingle!!","steam_id":76561198112388117,"connected_time":2945000000000,"state":"active","ping":80},{"user_id":92,"name":"[TF2Apples] Intense Green Apple","steam_id":76561198803561622,"connected_time":5939000000000,"state":"active","ping":102},{"user_id":159,"name":"TheTruthOfTheCessationOfDukkha","steam_id":76561198214370515,"connected_time":350000000000,"state":"active","ping":74},{"user_id":141,"name":"giveit5","steam_id":76561198030815437,"connected_time":1455000000000,"state":"active","ping":74}]},{"server_id":5,"name":"Uncletopia | Frankfurt | 1 | All Maps","name_short":"frk-1","host":"frk-1.de.uncletopia.com","port":27015,"enabled":true,"region":"eu","cc":"de","latitude":50.110924,"longitude":8.682127,"reserved":0,"last_update":"0001-01-01T00:00:00Z","name_a2s":"Uncletopia | Frankfurt | 1 | All Maps","protocol":17,"map":"cp_process_final","folder":"tf","game":"Team Fortress","app_id":440,"player_count":24,"max_players":24,"Bots":0,"server_type":"Dedicated","server_os":"Linux","password":true,"vac":true,"version":"7757534","steam_id":85568392924469989,"keywords":["cp","nocrits","nodmgspread","uncletopia"],"game_id":440,"stv_port":27016,"stv_name":"Uncletopia | Frankfurt | 1 | All Maps | STV","players":[{"user_id":579,"name":"Fran","steam_id":76561199070516960,"connected_time":368000000000,"state":"active","ping":60},{"user_id":578,"name":"Michael","steam_id":76561198003146906,"connected_time":376000000000,"state":"active","ping":67},{"user_id":580,"name":"av x","steam_id":76561198062699350,"connected_time":362000000000,"state":"active","ping":46},{"user_id":589,"name":"Lux","steam_id":76561198060417740,"connected_time":88000000000,"state":"active","ping":50},{"user_id":514,"name":"Daniele Antox","steam_id":76561198323879930,"connected_time":4933000000000,"state":"active","ping":58},{"user_id":544,"name":"CumbustiblePunda","steam_id":76561197974274677,"connected_time":2611000000000,"state":"active","ping":54},{"user_id":560,"name":"eron","steam_id":76561198063634841,"connected_time":1952000000000,"state":"active","ping":59},{"user_id":575,"name":"cinny","steam_id":76561198832112629,"connected_time":448000000000,"state":"active","ping":80},{"user_id":545,"name":"multiflex","steam_id":76561198049639319,"connected_time":2608000000000,"state":"active","ping":74},{"user_id":573,"name":"crx3","steam_id":76561198064490510,"connected_time":465000000000,"state":"active","ping":58},{"user_id":547,"name":"Peetcraft","steam_id":76561198836283848,"connected_time":2582000000000,"state":"active","ping":72},{"user_id":586,"name":"lobzade","steam_id":76561198195685370,"connected_time":204000000000,"state":"active","ping":58},{"user_id":534,"name":"Arcader","steam_id":76561198109860110,"connected_time":4170000000000,"state":"active","ping":103},{"user_id":576,"name":"Martyna nie malina","steam_id":76561198242085644,"connected_time":432000000000,"state":"active","ping":65},{"user_id":581,"name":"wepon","steam_id":76561198097789669,"connected_time":361000000000,"state":"active","ping":60},{"user_id":582,"name":"Big Mac Gaming","steam_id":76561198158209651,"connected_time":310000000000,"state":"active","ping":75},{"user_id":587,"name":"Darkmaen","steam_id":76561198060543390,"connected_time":195000000000,"state":"active","ping":46},{"user_id":584,"name":"\u003eSix in swedish + y","steam_id":76561198372971096,"connected_time":244000000000,"state":"active","ping":84},{"user_id":551,"name":"shoras","steam_id":76561198019680159,"connected_time":2510000000000,"state":"active","ping":86},{"user_id":590,"name":"Merciz","steam_id":76561197971808715,"connected_time":64000000000,"state":"active","ping":88},{"user_id":585,"name":"JIT SLID ON ME","steam_id":76561198048250715,"connected_time":237000000000,"state":"active","ping":47},{"user_id":588,"name":"Himmelsstürmer","steam_id":76561198012699793,"connected_time":180000000000,"state":"active","ping":86},{"user_id":557,"name":"giclure :;","steam_id":76561197986362828,"connected_time":2452000000000,"state":"active","ping":61},{"user_id":495,"name":"Adrenaline","steam_id":76561197970852048,"connected_time":6745000000000,"state":"active","ping":60}]},{"server_id":110,"name":"Uncletopia | Frankfurt | 2 | All Maps","name_short":"frk-2","host":"frk-1.de.uncletopia.com","port":27025,"enabled":true,"region":"eu","cc":"de","latitude":50.110924,"longitude":8.682127,"reserved":0,"last_update":"0001-01-01T00:00:00Z","name_a2s":"Uncletopia | Frankfurt | 2 | All Maps","protocol":17,"map":"pl_snowycoast","folder":"tf","game":"Team Fortress","app_id":440,"player_count":24,"max_players":24,"Bots":0,"server_type":"Dedicated","server_os":"Linux","password":true,"vac":true,"version":"7757534","steam_id":85568392924469990,"keywords":["nocrits","nodmgspread","payload","uncletopia"],"game_id":440,"stv_port":27026,"stv_name":"Uncletopia | Frankfurt | 2 | All Maps | STV","players":[{"user_id":455,"name":"big hoops","steam_id":76561198004703799,"connected_time":1275000000000,"state":"active","ping":46},{"user_id":454,"name":"---","steam_id":76561198027463207,"connected_time":1303000000000,"state":"active","ping":61},{"user_id":436,"name":"Omnospy","steam_id":76561198046937102,"connected_time":1997000000000,"state":"active","ping":54},{"user_id":419,"name":"Ablativus","steam_id":76561198025698470,"connected_time":2668000000000,"state":"active","ping":63},{"user_id":440,"name":"s0v","steam_id":76561198099194129,"connected_time":1722000000000,"state":"active","ping":89},{"user_id":433,"name":"Mr.Schnittlauch","steam_id":76561198295868113,"connected_time":2043000000000,"state":"active","ping":61},{"user_id":466,"name":"bobek","steam_id":76561198092312720,"connected_time":637000000000,"state":"active","ping":60},{"user_id":443,"name":"tiia (cold hends)","steam_id":76561198046196005,"connected_time":1647000000000,"state":"active","ping":45},{"user_id":401,"name":"SisuUkko","steam_id":76561198321850428,"connected_time":3474000000000,"state":"active","ping":88},{"user_id":460,"name":"ikeaworst","steam_id":76561198936990378,"connected_time":1139000000000,"state":"active","ping":71},{"user_id":463,"name":"Mussolini","steam_id":76561198218384865,"connected_time":915000000000,"state":"active","ping":95},{"user_id":414,"name":"Samplee","steam_id":76561198063406140,"connected_time":2828000000000,"state":"active","ping":79},{"user_id":456,"name":"Kati","steam_id":76561198007231088,"connected_time":1241000000000,"state":"active","ping":63},{"user_id":426,"name":"Masquerade queen","steam_id":76561198218299273,"connected_time":2614000000000,"state":"active","ping":100},{"user_id":397,"name":"mumbler","steam_id":76561197970641239,"connected_time":3601000000000,"state":"active","ping":45},{"user_id":465,"name":"poopcorn","steam_id":76561198435246575,"connected_time":801000000000,"state":"active","ping":62},{"user_id":464,"name":"Average","steam_id":76561198158411479,"connected_time":897000000000,"state":"active","ping":87},{"user_id":467,"name":"Smilez","steam_id":76561197999353870,"connected_time":188000000000,"state":"active","ping":60},{"user_id":406,"name":"soda","steam_id":76561198202990635,"connected_time":3308000000000,"state":"active","ping":61},{"user_id":447,"name":"D3m0no","steam_id":76561198183267067,"connected_time":1586000000000,"state":"active","ping":52},{"user_id":450,"name":"your sister","steam_id":76561198154734428,"connected_time":1503000000000,"state":"active","ping":101},{"user_id":407,"name":"Senator Armstrong","steam_id":76561198984346408,"connected_time":3297000000000,"state":"active","ping":72},{"user_id":449,"name":"pringles can dan","steam_id":76561198057961506,"connected_time":1579000000000,"state":"active","ping":72},{"user_id":452,"name":"the gamer","steam_id":76561198445810164,"connected_time":1387000000000,"state":"active","ping":73}]},{"server_id":308,"name":"Uncletopia | Frankfurt | 3 | All Maps","name_short":"frk-3","host":"frk-1.de.uncletopia.com","port":27035,"enabled":true,"region":"eu","cc":"de","latitude":50.110924,"longitude":8.682127,"reserved":0,"last_update":"0001-01-01T00:00:00Z","name_a2s":"Uncletopia | Frankfurt | 3 | All Maps","protocol":17,"map":"cp_altitude","folder":"tf","game":"Team Fortress","app_id":440,"player_count":24,"max_players":24,"Bots":0,"server_type":"Dedicated","server_os":"Linux","password":true,"vac":true,"version":"7757534","steam_id":85568392924504274,"keywords":["cp","nocrits","nodmgspread","uncletopia"],"game_id":440,"stv_port":27036,"stv_name":"Uncletopia | Frankfurt | 3 | All Maps | STV","players":[{"user_id":139,"name":"Mayor Wank from Wanker Town","steam_id":76561197998253588,"connected_time":203000000000,"state":"active","ping":45},{"user_id":138,"name":"Economic crisis","steam_id":76561198063562843,"connected_time":246000000000,"state":"active","ping":49},{"user_id":141,"name":"Flex","steam_id":76561197970482191,"connected_time":153000000000,"state":"active","ping":44},{"user_id":89,"name":"Mr. Mundy","steam_id":76561198132008918,"connected_time":3562000000000,"state":"active","ping":73},{"user_id":132,"name":"Classic Duck","steam_id":76561198079413473,"connected_time":528000000000,"state":"active","ping":63},{"user_id":147,"name":"Mr.raccoon","steam_id":76561198247751074,"connected_time":29000000000,"state":"active","ping":67},{"user_id":140,"name":"kotamine","steam_id":76561198068907991,"connected_time":188000000000,"state":"active","ping":62},{"user_id":92,"name":"roblan11","steam_id":76561198066839258,"connected_time":3476000000000,"state":"active","ping":46},{"user_id":136,"name":"trop","steam_id":76561198030642478,"connected_time":485000000000,"state":"active","ping":90},{"user_id":134,"name":"Mytenite","steam_id":76561198097381266,"connected_time":495000000000,"state":"active","ping":47},{"user_id":108,"name":"Mike Rizzowski","steam_id":76561198798657045,"connected_time":2287000000000,"state":"active","ping":75},{"user_id":100,"name":"Hexagon","steam_id":76561198151205758,"connected_time":2847000000000,"state":"active","ping":53},{"user_id":118,"name":"sometimes i chew on the tea bag","steam_id":76561198058012525,"connected_time":1143000000000,"state":"active","ping":71},{"user_id":142,"name":"Michael","steam_id":76561198106684566,"connected_time":120000000000,"state":"active","ping":76},{"user_id":123,"name":"Sweat Plantation","steam_id":76561198025086883,"connected_time":673000000000,"state":"active","ping":116},{"user_id":124,"name":"Lord of the Lockerroom","steam_id":76561198080619697,"connected_time":672000000000,"state":"active","ping":98},{"user_id":143,"name":"Dalzie","steam_id":76561198073051442,"connected_time":115000000000,"state":"active","ping":156},{"user_id":144,"name":"benifis163","steam_id":76561198420973492,"connected_time":102000000000,"state":"active","ping":103},{"user_id":111,"name":"Somario","steam_id":76561198046598526,"connected_time":2185000000000,"state":"active","ping":69},{"user_id":98,"name":"Laru","steam_id":76561197998838438,"connected_time":3345000000000,"state":"active","ping":80},{"user_id":125,"name":"SgtRookie","steam_id":76561198030230427,"connected_time":671000000000,"state":"active","ping":87},{"user_id":145,"name":"Kari","steam_id":76561198979596179,"connected_time":90000000000,"state":"active","ping":102},{"user_id":99,"name":"ALARM","steam_id":76561198120686521,"connected_time":3310000000000,"state":"active","ping":53},{"user_id":146,"name":"Festive Erma","steam_id":76561198038718342,"connected_time":82000000000,"state":"active","ping":88}]},{"server_id":309,"name":"Uncletopia | Frankfurt | 4 | All Maps","name_short":"frk-4","host":"frk-1.de.uncletopia.com","port":27045,"enabled":true,"region":"eu","cc":"de","latitude":50.110924,"longitude":8.682127,"reserved":0,"last_update":"0001-01-01T00:00:00Z","name_a2s":"Uncletopia | Frankfurt | 4 | All Maps","protocol":17,"map":"cp_5gorge","folder":"tf","game":"Team Fortress","app_id":440,"player_count":24,"max_players":24,"Bots":0,"server_type":"Dedicated","server_os":"Linux","password":true,"vac":true,"version":"7757534","steam_id":85568392924504275,"keywords":["cp","nocrits","nodmgspread","uncletopia"],"game_id":440,"stv_port":27046,"stv_name":"Uncletopia | Frankfurt | 4 | All Maps | STV","players":[{"user_id":313,"name":"JEGamer","steam_id":76561198306309465,"connected_time":1776000000000,"state":"active","ping":66},{"user_id":314,"name":"John","steam_id":76561198418445385,"connected_time":1743000000000,"state":"active","ping":62},{"user_id":344,"name":"samqo","steam_id":76561198247815288,"connected_time":34000000000,"state":"active","ping":63},{"user_id":321,"name":"TryTane","steam_id":76561198133293111,"connected_time":1058000000000,"state":"active","ping":46},{"user_id":318,"name":"Wüstenfuchs","steam_id":76561198453885708,"connected_time":1150000000000,"state":"active","ping":63},{"user_id":322,"name":"Kek meister 8 mil","steam_id":76561197989904384,"connected_time":948000000000,"state":"active","ping":64},{"user_id":323,"name":"Salami lid (don't fit)","steam_id":76561197988616343,"connected_time":920000000000,"state":"active","ping":83},{"user_id":345,"name":"zabloing","steam_id":76561198339480413,"connected_time":28000000000,"state":"spawning","ping":62},{"user_id":334,"name":"TSx* {Demon-Angel}","steam_id":76561198151486463,"connected_time":381000000000,"state":"active","ping":76},{"user_id":346,"name":"Jan005","steam_id":76561198410047633,"connected_time":25000000000,"state":"active","ping":67},{"user_id":327,"name":"TSx* Naxer","steam_id":76561198011986779,"connected_time":703000000000,"state":"active","ping":63},{"user_id":347,"name":"obscurum","steam_id":76561198099827790,"connected_time":19000000000,"state":"spawning","ping":63},{"user_id":329,"name":"rosepinkyfuzz","steam_id":76561198018546334,"connected_time":692000000000,"state":"active","ping":70},{"user_id":337,"name":"UNO wants an election","steam_id":76561198846784757,"connected_time":186000000000,"state":"active","ping":61},{"user_id":338,"name":"eduardo","steam_id":76561198014491925,"connected_time":130000000000,"state":"active","ping":85},{"user_id":339,"name":"TheKlin","steam_id":76561198032331453,"connected_time":124000000000,"state":"active","ping":71},{"user_id":335,"name":"TSx* Osa__PL","steam_id":76561198027016799,"connected_time":369000000000,"state":"active","ping":66},{"user_id":340,"name":"chr","steam_id":76561198073016365,"connected_time":121000000000,"state":"active","ping":82},{"user_id":341,"name":"king251311","steam_id":76561199063310889,"connected_time":121000000000,"state":"active","ping":88},{"user_id":342,"name":"Barbo","steam_id":76561198067554169,"connected_time":96000000000,"state":"active","ping":64},{"user_id":343,"name":"TSx* Bargal","steam_id":76561198040266872,"connected_time":94000000000,"state":"active","ping":77},{"user_id":348,"name":"Nelkobud","steam_id":76561198115606282,"connected_time":18000000000,"state":"spawning","ping":63},{"user_id":349,"name":"Vectillion","steam_id":76561198074292454,"connected_time":7000000000,"state":"spawning","ping":63},{"user_id":350,"name":"tone' (real)","steam_id":76561198055552635,"connected_time":6000000000,"state":"spawning","ping":47}]},{"server_id":310,"name":"Uncletopia | Frankfurt | 5 | All Maps","name_short":"frk-5","host":"frk-1.de.uncletopia.com","port":27055,"enabled":true,"region":"eu","cc":"de","latitude":50.110924,"longitude":8.682127,"reserved":0,"last_update":"0001-01-01T00:00:00Z","name_a2s":"Uncletopia | Frankfurt | 5 | All Maps","protocol":17,"map":"pl_snowycoast","folder":"tf","game":"Team Fortress","app_id":440,"player_count":24,"max_players":24,"Bots":0,"server_type":"Dedicated","server_os":"Linux","password":true,"vac":true,"version":"7757534","steam_id":85568392924504277,"keywords":["nocrits","nodmgspread","payload","uncletopia"],"game_id":440,"stv_port":27056,"stv_name":"Uncletopia | Frankfurt | 5 | All Maps | STV","players":[{"user_id":18,"name":"dispenser (vibegoose)","steam_id":76561199065362078,"connected_time":5376000000000,"state":"active","ping":56},{"user_id":101,"name":"FarKiD","steam_id":76561198121560352,"connected_time":943000000000,"state":"active","ping":184},{"user_id":40,"name":"Rimx","steam_id":76561198053034840,"connected_time":3081000000000,"state":"active","ping":94},{"user_id":102,"name":"Repays","steam_id":76561198082993000,"connected_time":770000000000,"state":"active","ping":60},{"user_id":107,"name":"limbicsystem","steam_id":76561198025612680,"connected_time":571000000000,"state":"active","ping":68},{"user_id":106,"name":"whatever","steam_id":76561198095943461,"connected_time":611000000000,"state":"active","ping":60},{"user_id":49,"name":"GEP Gun","steam_id":76561197981821003,"connected_time":2922000000000,"state":"active","ping":68},{"user_id":108,"name":"help","steam_id":76561199056338917,"connected_time":562000000000,"state":"active","ping":181},{"user_id":41,"name":"Toasty5050","steam_id":76561198073540881,"connected_time":3070000000000,"state":"active","ping":46},{"user_id":109,"name":"Paulie Walnuts","steam_id":76561198148078451,"connected_time":560000000000,"state":"active","ping":178},{"user_id":98,"name":"Eivind","steam_id":76561198159927980,"connected_time":1095000000000,"state":"active","ping":70},{"user_id":81,"name":"Captain HandicappedCock","steam_id":76561198109850402,"connected_time":1795000000000,"state":"active","ping":68},{"user_id":114,"name":"Dr. Le Quack","steam_id":76561197995711176,"connected_time":417000000000,"state":"active","ping":88},{"user_id":51,"name":"vadim_kotler","steam_id":76561199016634369,"connected_time":2889000000000,"state":"active","ping":117},{"user_id":76,"name":"kektuse","steam_id":76561198088426580,"connected_time":1993000000000,"state":"active","ping":60},{"user_id":73,"name":"Дota 2","steam_id":76561198089330547,"connected_time":2031000000000,"state":"active","ping":46},{"user_id":115,"name":"nky","steam_id":76561198086229832,"connected_time":374000000000,"state":"active","ping":61},{"user_id":112,"name":"Miolen","steam_id":76561198083366424,"connected_time":504000000000,"state":"active","ping":111},{"user_id":116,"name":"Dachowiec","steam_id":76561198195408281,"connected_time":345000000000,"state":"active","ping":55},{"user_id":80,"name":"pizzer","steam_id":76561198402230799,"connected_time":1833000000000,"state":"active","ping":72},{"user_id":118,"name":"RIFT","steam_id":76561198991622379,"connected_time":9000000000,"state":"active","ping":57},{"user_id":113,"name":"aura","steam_id":76561197991687793,"connected_time":494000000000,"state":"active","ping":66},{"user_id":97,"name":"aleksej.fedorenko270291","steam_id":76561198118407436,"connected_time":1688000000000,"state":"active","ping":61},{"user_id":100,"name":"Daga","steam_id":76561198055450219,"connected_time":1030000000000,"state":"active","ping":53}]},{"server_id":311,"name":"Uncletopia | Frankfurt | 6 | All Maps","name_short":"frk-6","host":"frk-1.de.uncletopia.com","port":27065,"enabled":true,"region":"eu","cc":"de","latitude":50.110924,"longitude":8.682127,"reserved":0,"last_update":"0001-01-01T00:00:00Z","name_a2s":"Uncletopia | Frankfurt | 6 | All Maps","protocol":17,"map":"pl_upward","folder":"tf","game":"Team Fortress","app_id":440,"player_count":24,"max_players":24,"Bots":0,"server_type":"Dedicated","server_os":"Linux","password":true,"vac":true,"version":"7757534","steam_id":85568392924504278,"keywords":["nocrits","nodmgspread","payload","uncletopia"],"game_id":440,"stv_port":27066,"stv_name":"Uncletopia | Frankfurt | 6 | All Maps | STV","players":[{"user_id":647,"name":"mmlock","steam_id":76561198069516191,"connected_time":1934000000000,"state":"active","ping":46},{"user_id":664,"name":"0","steam_id":76561198047648913,"connected_time":804000000000,"state":"active","ping":65},{"user_id":596,"name":"GrzMik","steam_id":76561198061951968,"connected_time":5464000000000,"state":"active","ping":87},{"user_id":632,"name":"atonto","steam_id":76561198424363858,"connected_time":3208000000000,"state":"active","ping":75},{"user_id":658,"name":"***** ***","steam_id":76561198048037379,"connected_time":1412000000000,"state":"active","ping":82},{"user_id":667,"name":"dominus.","steam_id":76561199065917088,"connected_time":428000000000,"state":"active","ping":66},{"user_id":661,"name":"Ed","steam_id":76561198121365396,"connected_time":1097000000000,"state":"active","ping":77},{"user_id":656,"name":"dddd","steam_id":76561198120894372,"connected_time":1431000000000,"state":"active","ping":108},{"user_id":668,"name":"redlix-AA-","steam_id":76561198119413461,"connected_time":370000000000,"state":"active","ping":81},{"user_id":672,"name":"Dewotter","steam_id":76561198007653168,"connected_time":196000000000,"state":"active","ping":66},{"user_id":669,"name":"Tomfool","steam_id":76561197993256481,"connected_time":357000000000,"state":"active","ping":74},{"user_id":673,"name":"Jack","steam_id":76561198079575891,"connected_time":157000000000,"state":"active","ping":61},{"user_id":396,"name":"decoy","steam_id":76561198856289913,"connected_time":14651000000000,"state":"active","ping":46},{"user_id":631,"name":"ToTenLis","steam_id":76561198168581334,"connected_time":3520000000000,"state":"active","ping":93},{"user_id":671,"name":"redindy","steam_id":76561198070154445,"connected_time":325000000000,"state":"active","ping":166},{"user_id":651,"name":"Maxfraier","steam_id":76561198157398707,"connected_time":1640000000000,"state":"active","ping":83},{"user_id":646,"name":"FoOzTV","steam_id":76561197998636728,"connected_time":1944000000000,"state":"active","ping":79},{"user_id":635,"name":"on1on (pickled)","steam_id":76561197995304137,"connected_time":2373000000000,"state":"active","ping":64},{"user_id":659,"name":"Vitun Jonne","steam_id":76561198401737380,"connected_time":1332000000000,"state":"active","ping":60},{"user_id":657,"name":"luma","steam_id":76561198081649669,"connected_time":1421000000000,"state":"active","ping":60},{"user_id":634,"name":"Wolvithe","steam_id":76561198142555612,"connected_time":3095000000000,"state":"active","ping":58},{"user_id":663,"name":"Prim","steam_id":76561198043191342,"connected_time":962000000000,"state":"active","ping":194},{"user_id":666,"name":"laiky","steam_id":76561198258487465,"connected_time":647000000000,"state":"active","ping":99},{"user_id":616,"name":"Tynnyri","steam_id":76561198075516541,"connected_time":4454000000000,"state":"active","ping":118}]},{"server_id":23,"name":"Uncletopia | Frankfurt | 7 | Stopwatch Beta","name_short":"frk-7","host":"frk-1.de.uncletopia.com","port":27075,"enabled":true,"region":"eu","cc":"de","latitude":50.110924,"longitude":8.682127,"reserved":0,"last_update":"0001-01-01T00:00:00Z","name_a2s":"Uncletopia | Frankfurt | 7 | Stopwatch Beta","protocol":17,"map":"cp_sunshine","folder":"tf","game":"Team Fortress","app_id":440,"player_count":0,"max_players":24,"Bots":0,"server_type":"Dedicated","server_os":"Linux","password":true,"vac":true,"version":"7757534","steam_id":85568392924742827,"keywords":["cp","nocrits","nodmgspread","uncletopia"],"game_id":440,"stv_port":27076,"stv_name":"Uncletopia | Frankfurt | 7 | Stopwatch Beta | STV","players":null},{"server_id":24,"name":"Uncletopia | Frankfurt | 8 | Community","name_short":"frk-8","host":"frk-1.de.uncletopia.com","port":27085,"enabled":true,"region":"eu","cc":"de","latitude":50.110924,"longitude":8.682127,"reserved":0,"last_update":"0001-01-01T00:00:00Z","name_a2s":"Uncletopia | Frankfurt | 8 | Community","protocol":17,"map":"workshop/koth_slaughter_rc1.ugc1712845210","folder":"tf","game":"Team Fortress","app_id":440,"player_count":9,"max_players":24,"Bots":0,"server_type":"Dedicated","server_os":"Linux","password":true,"vac":true,"version":"7757534","steam_id":85568392924742828,"keywords":["cp","nocrits","nodmgspread","uncletopia"],"game_id":440,"stv_port":27086,"stv_name":"Uncletopia | Frankfurt | 8 | Community | STV","players":[{"user_id":28,"name":"SaSSolino","steam_id":76561198011308018,"connected_time":2225000000000,"state":"active","ping":54},{"user_id":27,"name":"fried","steam_id":76561198307522022,"connected_time":3462000000000,"state":"active","ping":58},{"user_id":15,"name":"ThyConius","steam_id":76561198257291154,"connected_time":5990000000000,"state":"active","ping":81},{"user_id":20,"name":"cast iron skillet","steam_id":76561199105861570,"connected_time":4765000000000,"state":"active","ping":70},{"user_id":33,"name":"MaypulSoyrup","steam_id":76561199213966821,"connected_time":173000000000,"state":"active","ping":86},{"user_id":30,"name":"Jack.Orlando","steam_id":76561198802400236,"connected_time":740000000000,"state":"active","ping":73},{"user_id":31,"name":"Krabs","steam_id":76561198161679477,"connected_time":711000000000,"state":"active","ping":56},{"user_id":32,"name":"Goon Spoons","steam_id":76561198116391675,"connected_time":652000000000,"state":"active","ping":67},{"user_id":34,"name":"monstrioz","steam_id":76561199004673069,"connected_time":113000000000,"state":"active","ping":87}]},{"server_id":202,"name":"Uncletopia | Hong Kong | 1 | All Maps","name_short":"hgk-1","host":"hgk-1.hk.uncletopia.com","port":27015,"enabled":true,"region":"asia","cc":"hk","latitude":22.302711,"longitude":114.177216,"reserved":0,"last_update":"0001-01-01T00:00:00Z","name_a2s":"Uncletopia | Hong Kong | 1 | All Maps","protocol":17,"map":"ctf_2fort","folder":"tf","game":"Team Fortress","app_id":440,"player_count":0,"max_players":24,"Bots":0,"server_type":"Dedicated","server_os":"Linux","password":true,"vac":true,"version":"7757534","steam_id":85568392924494504,"keywords":["ctf","nocrits","nodmgspread","uncletopia"],"game_id":440,"stv_port":27016,"stv_name":"Uncletopia | Hong Kong | 1 | All Maps | STV","players":null},{"server_id":1,"name":"Uncletopia | Los Angeles | 1 | All Maps","name_short":"lax-1","host":"lax-1.us.uncletopia.com","port":27015,"enabled":true,"region":"us-west","cc":"us","latitude":33.94279,"longitude":-118.41004,"reserved":0,"last_update":"0001-01-01T00:00:00Z","name_a2s":"Uncletopia | Los Angeles | 1 | All Maps","protocol":17,"map":"pl_borneo","folder":"tf","game":"Team Fortress","app_id":440,"player_count":16,"max_players":24,"Bots":0,"server_type":"Dedicated","server_os":"Linux","password":true,"vac":true,"version":"7757534","steam_id":85568392924469991,"keywords":["nocrits","nodmgspread","payload","uncletopia"],"game_id":440,"stv_port":27016,"stv_name":"Uncletopia | Los Angeles | 1 | All Maps | STV","players":[{"user_id":3,"name":"Manx","steam_id":76561197977134062,"connected_time":1348000000000,"state":"active","ping":64},{"user_id":4,"name":"Nibotshooter","steam_id":76561199284825579,"connected_time":1345000000000,"state":"active","ping":69},{"user_id":5,"name":"PianoDeep","steam_id":76561199182813963,"connected_time":1326000000000,"state":"active","ping":68},{"user_id":6,"name":"orionEDM","steam_id":76561198986145301,"connected_time":674000000000,"state":"active","ping":74},{"user_id":9,"name":"Bigfootjinx","steam_id":76561199128050459,"connected_time":399000000000,"state":"active","ping":117},{"user_id":10,"name":"Slight_Pyromaniac","steam_id":76561198252910639,"connected_time":392000000000,"state":"active","ping":182},{"user_id":11,"name":"Seddy","steam_id":76561199073491000,"connected_time":380000000000,"state":"active","ping":102},{"user_id":12,"name":"Interrobang","steam_id":76561198385044529,"connected_time":354000000000,"state":"active","ping":94},{"user_id":15,"name":"Re:Lie","steam_id":76561198125401588,"connected_time":283000000000,"state":"active","ping":58},{"user_id":14,"name":"Eric Cartman","steam_id":76561199141666764,"connected_time":320000000000,"state":"active","ping":185},{"user_id":16,"name":"Schiz-doe-phrenic","steam_id":76561198086475372,"connected_time":250000000000,"state":"active","ping":68},{"user_id":17,"name":"Jack from Jack in The Box","steam_id":76561199083594971,"connected_time":225000000000,"state":"active","ping":45},{"user_id":18,"name":"silly jester","steam_id":76561198079609974,"connected_time":188000000000,"state":"active","ping":56},{"user_id":19,"name":"BIG HOG","steam_id":76561198079923652,"connected_time":13000000000,"state":"active","ping":80},{"user_id":20,"name":"Raven","steam_id":76561198046552871,"connected_time":10000000000,"state":"spawning","ping":112},{"user_id":21,"name":"Nukalaunch","steam_id":76561199255653942,"connected_time":0,"state":"spawning","ping":0}]},{"server_id":112,"name":"Uncletopia | Los Angeles | 2 | All Maps","name_short":"lax-2","host":"lax-1.us.uncletopia.com","port":27025,"enabled":true,"region":"us-west","cc":"us","latitude":33.94279,"longitude":-118.41004,"reserved":0,"last_update":"0001-01-01T00:00:00Z","name_a2s":"Uncletopia | Los Angeles | 2 | All Maps","protocol":17,"map":"koth_cascade","folder":"tf","game":"Team Fortress","app_id":440,"player_count":0,"max_players":24,"Bots":0,"server_type":"Dedicated","server_os":"Linux","password":true,"vac":true,"version":"7757534","steam_id":85568392924469992,"keywords":["cp","nocrits","nodmgspread","uncletopia"],"game_id":440,"stv_port":27026,"stv_name":"Uncletopia | Los Angeles | 2 | All Maps | STV","players":null},{"server_id":324,"name":"Uncletopia | Los Angeles | 3 | All Maps","name_short":"lax-3","host":"lax-1.us.uncletopia.com","port":27035,"enabled":true,"region":"us-west","cc":"us","latitude":33.94279,"longitude":-118.41004,"reserved":0,"last_update":"0001-01-01T00:00:00Z","name_a2s":"Uncletopia | Los Angeles | 3 | All Maps","protocol":17,"map":"cp_process_final","folder":"tf","game":"Team Fortress","app_id":440,"player_count":0,"max_players":24,"Bots":0,"server_type":"Dedicated","server_os":"Linux","password":true,"vac":true,"version":"7757534","steam_id":85568392924510198,"keywords":["cp","nocrits","nodmgspread","uncletopia"],"game_id":440,"stv_port":27036,"stv_name":"Uncletopia | Los Angeles | 3 | All Maps | STV","players":null},{"server_id":25,"name":"Uncletopia | Los Angeles | 4 | Stopwatch Beta","name_short":"lax-4","host":"lax-1.us.uncletopia.com","port":27045,"enabled":true,"region":"us-west","cc":"us","latitude":33.94279,"longitude":-118.41004,"reserved":0,"last_update":"0001-01-01T00:00:00Z","name_a2s":"Uncletopia | Los Angeles | 4 | Stopwatch Beta","protocol":17,"map":"pl_frontier_final","folder":"tf","game":"Team Fortress","app_id":440,"player_count":0,"max_players":24,"Bots":0,"server_type":"Dedicated","server_os":"Linux","password":true,"vac":true,"version":"7757534","steam_id":85568392924510199,"keywords":["nocrits","nodmgspread","payload","uncletopia"],"game_id":440,"stv_port":27046,"stv_name":"Uncletopia | Los Angeles | 4 | Stopwatch Beta | STV","players":null},{"server_id":11,"name":"Uncletopia | London | 1 | All Maps","name_short":"lon-1","host":"lon-1.uk.uncletopia.com","port":27015,"enabled":true,"region":"eu","cc":"gb","latitude":51.509865,"longitude":-0.118092,"reserved":0,"last_update":"0001-01-01T00:00:00Z","name_a2s":"Uncletopia | London | 1 | All Maps","protocol":17,"map":"pl_badwater","folder":"tf","game":"Team Fortress","app_id":440,"player_count":24,"max_players":24,"Bots":0,"server_type":"Dedicated","server_os":"Linux","password":true,"vac":true,"version":"7757534","steam_id":85568392924367362,"keywords":["nocrits","nodmgspread","payload","uncletopia"],"game_id":440,"stv_port":27016,"stv_name":"Uncletopia | London | 1 | All Maps | STV","players":[{"user_id":232,"name":"RadialMount","steam_id":76561198063002562,"connected_time":1057000000000,"state":"active","ping":68},{"user_id":211,"name":"[Data_Redacted]","steam_id":76561198118753143,"connected_time":3191000000000,"state":"active","ping":80},{"user_id":240,"name":"gnarly business","steam_id":76561198832688767,"connected_time":473000000000,"state":"active","ping":47},{"user_id":248,"name":"Yeehaw Cousin","steam_id":76561198010819049,"connected_time":271000000000,"state":"active","ping":160},{"user_id":243,"name":"glass of water and a baguette","steam_id":76561198188642265,"connected_time":383000000000,"state":"active","ping":49},{"user_id":244,"name":"dopamine overdose","steam_id":76561199032511302,"connected_time":371000000000,"state":"active","ping":105},{"user_id":228,"name":"Fred","steam_id":76561198107137362,"connected_time":1276000000000,"state":"active","ping":46},{"user_id":213,"name":"KPhii","steam_id":76561198970587061,"connected_time":2852000000000,"state":"active","ping":74},{"user_id":233,"name":"Axord","steam_id":76561199289652176,"connected_time":1049000000000,"state":"active","ping":59},{"user_id":187,"name":"jimmy bob","steam_id":76561198319583692,"connected_time":4987000000000,"state":"active","ping":54},{"user_id":245,"name":"betterthanyou'lleverbe-AA-","steam_id":76561198102195119,"connected_time":342000000000,"state":"active","ping":29},{"user_id":220,"name":"sneb","steam_id":76561198039381855,"connected_time":2310000000000,"state":"active","ping":61},{"user_id":246,"name":"Samus","steam_id":76561198045943019,"connected_time":334000000000,"state":"active","ping":60},{"user_id":249,"name":"salmon meta","steam_id":76561199385280253,"connected_time":244000000000,"state":"active","ping":117},{"user_id":239,"name":"Magica","steam_id":76561198965200359,"connected_time":476000000000,"state":"active","ping":62},{"user_id":250,"name":"donk","steam_id":76561198162676648,"connected_time":231000000000,"state":"active","ping":58},{"user_id":251,"name":"BobMarleyGod","steam_id":76561198344966538,"connected_time":230000000000,"state":"active","ping":43},{"user_id":222,"name":"dOni","steam_id":76561198257223353,"connected_time":1958000000000,"state":"active","ping":74},{"user_id":235,"name":"Alekk","steam_id":76561198093533143,"connected_time":1009000000000,"state":"active","ping":66},{"user_id":252,"name":"Talent","steam_id":76561198153880354,"connected_time":226000000000,"state":"active","ping":37},{"user_id":255,"name":"Fishum","steam_id":76561198148556559,"connected_time":203000000000,"state":"active","ping":52},{"user_id":224,"name":"pepperonikorv","steam_id":76561198040665006,"connected_time":1913000000000,"state":"active","ping":70},{"user_id":237,"name":"When Life gives you Lemons","steam_id":76561198318290663,"connected_time":945000000000,"state":"active","ping":59},{"user_id":257,"name":"majora's boostio","steam_id":76561198392628642,"connected_time":196000000000,"state":"active","ping":39}]},{"server_id":114,"name":"Uncletopia | London | 2 | All Maps","name_short":"lon-2","host":"lon-1.uk.uncletopia.com","port":27025,"enabled":true,"region":"eu","cc":"gb","latitude":51.509865,"longitude":-0.118092,"reserved":0,"last_update":"0001-01-01T00:00:00Z","name_a2s":"Uncletopia | London | 2 | All Maps","protocol":17,"map":"koth_viaduct","folder":"tf","game":"Team Fortress","app_id":440,"player_count":0,"max_players":24,"Bots":0,"server_type":"Dedicated","server_os":"Linux","password":true,"vac":true,"version":"7757534","steam_id":85568392924470941,"keywords":["cp","nocrits","nodmgspread","uncletopia"],"game_id":440,"stv_port":27026,"stv_name":"Uncletopia | London | 2 | All Maps | STV","players":null},{"server_id":320,"name":"Uncletopia | London | 3 | All Maps","name_short":"lon-3","host":"lon-1.uk.uncletopia.com","port":27035,"enabled":true,"region":"eu","cc":"gb","latitude":51.509865,"longitude":-0.118092,"reserved":0,"last_update":"0001-01-01T00:00:00Z","name_a2s":"Uncletopia | London | 3 | All Maps","protocol":17,"map":"pl_barnblitz","folder":"tf","game":"Team Fortress","app_id":440,"player_count":24,"max_players":24,"Bots":0,"server_type":"Dedicated","server_os":"Linux","password":true,"vac":true,"version":"7757534","steam_id":85568392924510192,"keywords":["nocrits","nodmgspread","payload","uncletopia"],"game_id":440,"stv_port":27036,"stv_name":"Uncletopia | London | 3 | All Maps | STV","players":[{"user_id":380,"name":"LOBZIK","steam_id":76561198114830120,"connected_time":1890000000000,"state":"active","ping":82},{"user_id":359,"name":"British Disapproval","steam_id":76561198001375260,"connected_time":3171000000000,"state":"active","ping":112},{"user_id":388,"name":"Chikapu Xek #savetf2","steam_id":76561198428023493,"connected_time":1217000000000,"state":"active","ping":75},{"user_id":395,"name":"mt","steam_id":76561197961319303,"connected_time":786000000000,"state":"active","ping":60},{"user_id":319,"name":"zek","steam_id":76561198862763731,"connected_time":4889000000000,"state":"active","ping":71},{"user_id":393,"name":"Palex","steam_id":76561198093219465,"connected_time":877000000000,"state":"active","ping":42},{"user_id":403,"name":"Udinese Dion","steam_id":76561198067931573,"connected_time":628000000000,"state":"active","ping":55},{"user_id":381,"name":"dotdotdot","steam_id":76561198057628751,"connected_time":1719000000000,"state":"active","ping":60},{"user_id":372,"name":"F","steam_id":76561199149462792,"connected_time":2493000000000,"state":"active","ping":63},{"user_id":370,"name":"Bottom of the barrel terrorist","steam_id":76561198929386604,"connected_time":2516000000000,"state":"active","ping":92},{"user_id":397,"name":"Fat Pigeon","steam_id":76561198817940142,"connected_time":763000000000,"state":"active","ping":45},{"user_id":404,"name":"ok","steam_id":76561198044451693,"connected_time":613000000000,"state":"active","ping":112},{"user_id":410,"name":"Terry Davis","steam_id":76561198242834532,"connected_time":103000000000,"state":"active","ping":47},{"user_id":353,"name":"Milca_11","steam_id":76561198848650365,"connected_time":3348000000000,"state":"active","ping":88},{"user_id":390,"name":"I Don't Know","steam_id":76561198841011430,"connected_time":1178000000000,"state":"active","ping":84},{"user_id":411,"name":"Rain","steam_id":76561198186993269,"connected_time":31000000000,"state":"active","ping":55},{"user_id":399,"name":"teddyswk","steam_id":76561198404939571,"connected_time":748000000000,"state":"active","ping":104},{"user_id":409,"name":"moser23","steam_id":76561197960543171,"connected_time":165000000000,"state":"active","ping":58},{"user_id":394,"name":"Grillem Dafoe","steam_id":76561198306874574,"connected_time":837000000000,"state":"active","ping":66},{"user_id":400,"name":"Puzzles","steam_id":76561198137106459,"connected_time":738000000000,"state":"active","ping":59},{"user_id":296,"name":"Pottery Knight","steam_id":76561198094455814,"connected_time":6475000000000,"state":"active","ping":94},{"user_id":391,"name":"jonbob","steam_id":76561197963506620,"connected_time":1174000000000,"state":"active","ping":51},{"user_id":401,"name":"Eck","steam_id":76561198170101474,"connected_time":734000000000,"state":"active","ping":58},{"user_id":402,"name":"Backup","steam_id":76561197999557567,"connected_time":728000000000,"state":"active","ping":60}]},{"server_id":321,"name":"Uncletopia | London | 4 | All Maps","name_short":"lon-4","host":"lon-1.uk.uncletopia.com","port":27045,"enabled":true,"region":"eu","cc":"gb","latitude":51.509865,"longitude":-0.118092,"reserved":0,"last_update":"0001-01-01T00:00:00Z","name_a2s":"Uncletopia | London | 4 | All Maps","protocol":17,"map":"koth_viaduct","folder":"tf","game":"Team Fortress","app_id":440,"player_count":0,"max_players":24,"Bots":0,"server_type":"Dedicated","server_os":"Linux","password":true,"vac":true,"version":"7757534","steam_id":85568392924510193,"keywords":["cp","nocrits","nodmgspread","uncletopia"],"game_id":440,"stv_port":27046,"stv_name":"Uncletopia | London | 4 | All Maps | STV","players":null},{"server_id":21,"name":"Uncletopia | London | 5 | All Maps","name_short":"lon-5","host":"lon-1.uk.uncletopia.com","port":27055,"enabled":true,"region":"eu","cc":"gb","latitude":51.509865,"longitude":-0.118092,"reserved":0,"last_update":"0001-01-01T00:00:00Z","name_a2s":"Uncletopia | London | 5 | All Maps","protocol":17,"map":"pl_borneo","folder":"tf","game":"Team Fortress","app_id":440,"player_count":24,"max_players":24,"Bots":0,"server_type":"Dedicated","server_os":"Linux","password":true,"vac":true,"version":"7757534","steam_id":85568392924742829,"keywords":["nocrits","nodmgspread","payload","uncletopia"],"game_id":440,"stv_port":27056,"stv_name":"Uncletopia | London | 5 | All Maps | STV","players":[{"user_id":7,"name":"ran is running","steam_id":76561199443185667,"connected_time":4947000000000,"state":"active","ping":126},{"user_id":8,"name":"justin_ (f2p) (real)","steam_id":76561198839843428,"connected_time":4927000000000,"state":"active","ping":119},{"user_id":88,"name":"Dr Sex","steam_id":76561198029044617,"connected_time":1267000000000,"state":"active","ping":46},{"user_id":95,"name":"cloud","steam_id":76561198179768931,"connected_time":542000000000,"state":"active","ping":57},{"user_id":91,"name":"lumiukko","steam_id":76561199103891073,"connected_time":1211000000000,"state":"active","ping":99},{"user_id":89,"name":"Nerfan20 #SaveTF2","steam_id":76561198227391788,"connected_time":1248000000000,"state":"active","ping":86},{"user_id":60,"name":"nynon","steam_id":76561197998432126,"connected_time":2351000000000,"state":"active","ping":89},{"user_id":20,"name":"mishka.*","steam_id":76561198040003628,"connected_time":4257000000000,"state":"active","ping":76},{"user_id":81,"name":"Mor'du","steam_id":76561198274105878,"connected_time":1901000000000,"state":"active","ping":94},{"user_id":53,"name":"General Petrov","steam_id":76561198027204104,"connected_time":2824000000000,"state":"active","ping":76},{"user_id":51,"name":"Penis Contortionist","steam_id":76561198073663784,"connected_time":3009000000000,"state":"active","ping":34},{"user_id":52,"name":"GuSkand","steam_id":76561198043775605,"connected_time":2919000000000,"state":"active","ping":91},{"user_id":30,"name":"Ruth(-less bitch)","steam_id":76561198150006573,"connected_time":3846000000000,"state":"active","ping":54},{"user_id":94,"name":"Pancakes","steam_id":76561198196259989,"connected_time":567000000000,"state":"active","ping":45},{"user_id":82,"name":"dafydd","steam_id":76561198052200325,"connected_time":1896000000000,"state":"active","ping":81},{"user_id":90,"name":"nachtraaf","steam_id":76561197960473205,"connected_time":1248000000000,"state":"active","ping":54},{"user_id":46,"name":"sv_opor 13123","steam_id":76561198002229612,"connected_time":3082000000000,"state":"active","ping":77},{"user_id":37,"name":"Tomau5","steam_id":76561198027409468,"connected_time":3597000000000,"state":"active","ping":50},{"user_id":83,"name":"Scuttle Bucket","steam_id":76561198100910016,"connected_time":1801000000000,"state":"active","ping":52},{"user_id":93,"name":"Toast Nook","steam_id":76561199093949301,"connected_time":869000000000,"state":"active","ping":87},{"user_id":40,"name":"Santa Andus A silly Robot","steam_id":76561198040830522,"connected_time":3545000000000,"state":"active","ping":81},{"user_id":97,"name":"Mean Green Peen","steam_id":76561198228455736,"connected_time":126000000000,"state":"active","ping":48},{"user_id":98,"name":"DeDMeeT (They/Them)","steam_id":76561198135686475,"connected_time":126000000000,"state":"active","ping":45},{"user_id":79,"name":"Szymekc","steam_id":76561198009541119,"connected_time":2009000000000,"state":"active","ping":76}]},{"server_id":22,"name":"Uncletopia | London | 6 | All Maps","name_short":"lon-6","host":"lon-1.uk.uncletopia.com","port":27065,"enabled":true,"region":"eu","cc":"gb","latitude":51.509865,"longitude":-0.118092,"reserved":0,"last_update":"0001-01-01T00:00:00Z","name_a2s":"Uncletopia | London | 6 | All Maps","protocol":17,"map":"koth_cascade","folder":"tf","game":"Team Fortress","app_id":440,"player_count":0,"max_players":24,"Bots":0,"server_type":"Dedicated","server_os":"Linux","password":true,"vac":true,"version":"7757534","steam_id":85568392924742830,"keywords":["cp","nocrits","nodmgspread","uncletopia"],"game_id":440,"stv_port":27066,"stv_name":"Uncletopia | London | 6 | All Maps | STV","players":null},{"server_id":40,"name":"Uncletopia | London | 7 | No Payload","name_short":"lon-7","host":"lon-1.uk.uncletopia.com","port":27075,"enabled":true,"region":"eu","cc":"gb","latitude":51.509865,"longitude":-0.118092,"reserved":0,"last_update":"0001-01-01T00:00:00Z","name_a2s":"Uncletopia | London | 7 | No Payload","protocol":17,"map":"koth_badlands","folder":"tf","game":"Team Fortress","app_id":440,"player_count":13,"max_players":24,"Bots":0,"server_type":"Dedicated","server_os":"Linux","password":true,"vac":true,"version":"7757534","steam_id":85568392924964314,"keywords":["cp","nocrits","nodmgspread","uncletopia"],"game_id":440,"stv_port":27076,"stv_name":"Uncletopia | London | 7 | No Payload | STV","players":[{"user_id":82,"name":"akakez","steam_id":76561198095432821,"connected_time":3291000000000,"state":"active","ping":145},{"user_id":90,"name":"ヌベール (Nubert)","steam_id":76561199121806567,"connected_time":2753000000000,"state":"active","ping":40},{"user_id":124,"name":"Henry Corvackses","steam_id":76561198930824565,"connected_time":142000000000,"state":"active","ping":226},{"user_id":91,"name":"Bobo","steam_id":76561198052308399,"connected_time":2547000000000,"state":"active","ping":65},{"user_id":92,"name":"Dirty Harry","steam_id":76561198813079990,"connected_time":2261000000000,"state":"active","ping":64},{"user_id":100,"name":"Velvet","steam_id":76561198220345580,"connected_time":1293000000000,"state":"active","ping":90},{"user_id":105,"name":"[PBTB] Hallowasniet.vzwdp","steam_id":76561198168485956,"connected_time":1022000000000,"state":"active","ping":54},{"user_id":106,"name":"Meterora","steam_id":76561198092422131,"connected_time":1003000000000,"state":"active","ping":47},{"user_id":107,"name":"[PBTB] Jonestones.vzwdp","steam_id":76561198328082426,"connected_time":946000000000,"state":"active","ping":68},{"user_id":109,"name":"fume.","steam_id":76561197960476801,"connected_time":933000000000,"state":"active","ping":47},{"user_id":110,"name":"Spliffendor","steam_id":76561198144020209,"connected_time":915000000000,"state":"active","ping":45},{"user_id":111,"name":"gabagool","steam_id":76561198307111838,"connected_time":899000000000,"state":"active","ping":43},{"user_id":113,"name":"Parema","steam_id":76561198146477608,"connected_time":887000000000,"state":"active","ping":60}]},{"server_id":41,"name":"Uncletopia | London | 8 | Community","name_short":"lon-8","host":"lon-1.uk.uncletopia.com","port":27085,"enabled":true,"region":"eu","cc":"gb","latitude":51.509865,"longitude":-0.118092,"reserved":0,"last_update":"0001-01-01T00:00:00Z","name_a2s":"Uncletopia | London | 8 | Community","protocol":17,"map":"workshop/cp_bruhstbowl_b5.ugc2878604990","folder":"tf","game":"Team Fortress","app_id":440,"player_count":0,"max_players":24,"Bots":0,"server_type":"Dedicated","server_os":"Linux","password":true,"vac":true,"version":"7757534","steam_id":85568392924964315,"keywords":["cp","nocrits","nodmgspread","uncletopia"],"game_id":440,"stv_port":27086,"stv_name":"Uncletopia | London | 8 | Community | STV","players":null},{"server_id":300,"name":"Uncletopia | Montréal | 1 | All Maps","name_short":"mtl-1","host":"mtl-1.ca.uncletopia.com","port":27015,"enabled":true,"region":"us-east","cc":"ca","latitude":45.50889,"longitude":-73.56167,"reserved":0,"last_update":"0001-01-01T00:00:00Z","name_a2s":"Uncletopia | Montréal | 1 | All Maps","protocol":17,"map":"pl_snowycoast","folder":"tf","game":"Team Fortress","app_id":440,"player_count":0,"max_players":24,"Bots":0,"server_type":"Dedicated","server_os":"Linux","password":true,"vac":true,"version":"7757534","steam_id":85568392924500087,"keywords":["nocrits","nodmgspread","payload","uncletopia"],"game_id":440,"stv_port":27016,"stv_name":"Uncletopia | Montréal | 1 | All Maps | STV","players":null},{"server_id":301,"name":"Uncletopia | Montréal | 2 | All Maps","name_short":"mtl-2","host":"mtl-1.ca.uncletopia.com","port":27025,"enabled":true,"region":"us-east","cc":"ca","latitude":45.50889,"longitude":-73.56167,"reserved":0,"last_update":"0001-01-01T00:00:00Z","name_a2s":"Uncletopia | Montréal | 2 | All Maps","protocol":17,"map":"pl_snowycoast","folder":"tf","game":"Team Fortress","app_id":440,"player_count":0,"max_players":24,"Bots":0,"server_type":"Dedicated","server_os":"Linux","password":true,"vac":true,"version":"7757534","steam_id":85568392924500088,"keywords":["nocrits","nodmgspread","payload","uncletopia"],"game_id":440,"stv_port":27026,"stv_name":"Uncletopia | Montréal | 2 | All Maps | STV","players":null},{"server_id":302,"name":"Uncletopia | Montréal | 3 | All Maps","name_short":"mtl-3","host":"mtl-1.ca.uncletopia.com","port":27035,"enabled":true,"region":"us-east","cc":"ca","latitude":45.50889,"longitude":-73.56167,"reserved":0,"last_update":"0001-01-01T00:00:00Z","name_a2s":"Uncletopia | Montréal | 3 | All Maps","protocol":17,"map":"cp_dustbowl","folder":"tf","game":"Team Fortress","app_id":440,"player_count":0,"max_players":24,"Bots":0,"server_type":"Dedicated","server_os":"Linux","password":true,"vac":true,"version":"7757534","steam_id":85568392924500089,"keywords":["cp","nocrits","nodmgspread","uncletopia"],"game_id":440,"stv_port":27036,"stv_name":"Uncletopia | Montréal | 3 | All Maps | STV","players":null},{"server_id":303,"name":"Uncletopia | Montréal | 4 | No Payload","name_short":"mtl-4","host":"mtl-1.ca.uncletopia.com","port":27045,"enabled":true,"region":"us-east","cc":"ca","latitude":45.50889,"longitude":-73.56167,"reserved":0,"last_update":"0001-01-01T00:00:00Z","name_a2s":"Uncletopia | Montréal | 4 | No Payload","protocol":17,"map":"pl_borneo","folder":"tf","game":"Team Fortress","app_id":440,"player_count":0,"max_players":24,"Bots":0,"server_type":"Dedicated","server_os":"Linux","password":true,"vac":true,"version":"7757534","steam_id":85568392924500090,"keywords":["nocrits","nodmgspread","payload","uncletopia"],"game_id":440,"stv_port":27046,"stv_name":"Uncletopia | Montréal | 4 | No Payload | STV","players":null},{"server_id":13,"name":"Uncletopia | New York City | 1 | All Maps","name_short":"nyc-1","host":"nyc-1.us.uncletopia.com","port":27015,"enabled":true,"region":"us-east","cc":"us","latitude":40.73061,"longitude":-73.93524,"reserved":0,"last_update":"0001-01-01T00:00:00Z","name_a2s":"Uncletopia | New York City | 1 | All Maps","protocol":17,"map":"koth_lakeside_final","folder":"tf","game":"Team Fortress","app_id":440,"player_count":0,"max_players":24,"Bots":0,"server_type":"Dedicated","server_os":"Linux","password":true,"vac":true,"version":"7757534","steam_id":85568392924469993,"keywords":["cp","nocrits","nodmgspread","uncletopia"],"game_id":440,"stv_port":27016,"stv_name":"Uncletopia | New York City | 1 | All Maps | STV","players":null},{"server_id":14,"name":"Uncletopia | New York City | 2 | All Maps","name_short":"nyc-2","host":"nyc-1.us.uncletopia.com","port":27025,"enabled":true,"region":"us-east","cc":"us","latitude":40.73061,"longitude":-73.93524,"reserved":0,"last_update":"0001-01-01T00:00:00Z","name_a2s":"Uncletopia | New York City | 2 | All Maps","protocol":17,"map":"koth_lakeside_final","folder":"tf","game":"Team Fortress","app_id":440,"player_count":0,"max_players":24,"Bots":0,"server_type":"Dedicated","server_os":"Linux","password":true,"vac":true,"version":"7757534","steam_id":85568392924469994,"keywords":["cp","nocrits","nodmgspread","uncletopia"],"game_id":440,"stv_port":27026,"stv_name":"Uncletopia | New York City | 2 | All Maps | STV","players":null},{"server_id":15,"name":"Uncletopia | New York City | 3 | Stopwatch Beta","name_short":"nyc-3","host":"nyc-1.us.uncletopia.com","port":27035,"enabled":true,"region":"us-east","cc":"us","latitude":40.73061,"longitude":-73.93524,"reserved":0,"last_update":"0001-01-01T00:00:00Z","name_a2s":"Uncletopia | New York City | 3 | Stopwatch Beta","protocol":17,"map":"pl_borneo","folder":"tf","game":"Team Fortress","app_id":440,"player_count":0,"max_players":24,"Bots":0,"server_type":"Dedicated","server_os":"Linux","password":true,"vac":true,"version":"7757534","steam_id":85568392924742820,"keywords":["nocrits","nodmgspread","payload","uncletopia"],"game_id":440,"stv_port":27036,"stv_name":"Uncletopia | New York City | 3 | Stopwatch Beta | STV","players":null},{"server_id":16,"name":"Uncletopia | New York City | 4 | Community","name_short":"nyc-4","host":"nyc-1.us.uncletopia.com","port":27045,"enabled":true,"region":"us-east","cc":"us","latitude":40.73061,"longitude":-73.93524,"reserved":0,"last_update":"0001-01-01T00:00:00Z","name_a2s":"Uncletopia | New York City | 4 | Community","protocol":17,"map":"workshop/cp_overgrown_rc7b.ugc503939302","folder":"tf","game":"Team Fortress","app_id":440,"player_count":0,"max_players":24,"Bots":0,"server_type":"Dedicated","server_os":"Linux","password":true,"vac":true,"version":"7757534","steam_id":85568392924742821,"keywords":["cp","nocrits","nodmgspread","uncletopia"],"game_id":440,"stv_port":27046,"stv_name":"Uncletopia | New York City | 4 | Community | STV","players":null},{"server_id":142,"name":"Uncletopia | São Paulo | 1 | All Maps","name_short":"sao-1","host":"sao-1.br.uncletopia.com","port":27015,"enabled":true,"region":"sa","cc":"br","latitude":-23.533773,"longitude":-46.62529,"reserved":0,"last_update":"0001-01-01T00:00:00Z","name_a2s":"Uncletopia | São Paulo | 1 | All Maps","protocol":17,"map":"pl_pier","folder":"tf","game":"Team Fortress","app_id":440,"player_count":0,"max_players":24,"Bots":0,"server_type":"Dedicated","server_os":"Linux","password":true,"vac":true,"version":"7757534","steam_id":85568392924469996,"keywords":["nocrits","nodmgspread","payload","uncletopia"],"game_id":440,"stv_port":27016,"stv_name":"Uncletopia | São Paulo | 1 | All Maps | STV","players":null},{"server_id":143,"name":"Uncletopia | São Paulo | 2 | All Maps","name_short":"sao-2","host":"sao-2.br.uncletopia.com","port":27015,"enabled":true,"region":"sa","cc":"br","latitude":-23.533773,"longitude":-46.62529,"reserved":0,"last_update":"0001-01-01T00:00:00Z","name_a2s":"Uncletopia | São Paulo | 2 | All Maps","protocol":17,"map":"pl_badwater","folder":"tf","game":"Team Fortress","app_id":440,"player_count":6,"max_players":24,"Bots":0,"server_type":"Dedicated","server_os":"Linux","password":true,"vac":true,"version":"7757534","steam_id":85568392924485349,"keywords":["nocrits","nodmgspread","payload","uncletopia"],"game_id":440,"stv_port":27016,"stv_name":"Uncletopia | São Paulo | 2 | All Maps | STV","players":[{"user_id":6,"name":"burrildo_11","steam_id":76561199163140389,"connected_time":5315000000000,"state":"active","ping":64},{"user_id":8,"name":"Abrahão0100","steam_id":76561199135205416,"connected_time":4851000000000,"state":"active","ping":58},{"user_id":14,"name":"Egoistic Spy","steam_id":76561199294025748,"connected_time":1319000000000,"state":"active","ping":39},{"user_id":16,"name":"bruh momento","steam_id":76561198978669658,"connected_time":462000000000,"state":"active","ping":51},{"user_id":17,"name":"DeadHead","steam_id":76561198929887980,"connected_time":197000000000,"state":"active","ping":56},{"user_id":18,"name":"KisaraL","steam_id":76561198269465983,"connected_time":6000000000,"state":"spawning","ping":85}]},{"server_id":7,"name":"Uncletopia | Seattle | 1 | All Maps","name_short":"sea-1","host":"sea-1.us.uncletopia.com","port":27015,"enabled":true,"region":"us-west","cc":"us","latitude":47.608013,"longitude":-122.33517,"reserved":0,"last_update":"0001-01-01T00:00:00Z","name_a2s":"Uncletopia | Seattle | 1 | All Maps","protocol":17,"map":"cp_dustbowl","folder":"tf","game":"Team Fortress","app_id":440,"player_count":24,"max_players":24,"Bots":0,"server_type":"Dedicated","server_os":"Linux","password":true,"vac":true,"version":"7757534","steam_id":85568392924469997,"keywords":["cp","nocrits","nodmgspread","uncletopia"],"game_id":440,"stv_port":27016,"stv_name":"Uncletopia | Seattle | 1 | All Maps | STV","players":[{"user_id":322,"name":"Cloud","steam_id":76561198272454184,"connected_time":254000000000,"state":"active","ping":176},{"user_id":315,"name":"shy guy","steam_id":76561198151246059,"connected_time":504000000000,"state":"active","ping":66},{"user_id":316,"name":"KingTinkerer","steam_id":76561198226856548,"connected_time":418000000000,"state":"active","ping":70},{"user_id":303,"name":"Cyanide13","steam_id":76561198289185686,"connected_time":1687000000000,"state":"active","ping":94},{"user_id":302,"name":"The Undone Sage","steam_id":76561198261998561,"connected_time":1698000000000,"state":"active","ping":48},{"user_id":323,"name":"mnk","steam_id":76561198107213976,"connected_time":248000000000,"state":"active","ping":59},{"user_id":313,"name":"Admiral Angry","steam_id":76561198058199206,"connected_time":768000000000,"state":"active","ping":111},{"user_id":320,"name":"iiamiizzyy","steam_id":76561198355030751,"connected_time":288000000000,"state":"active","ping":131},{"user_id":317,"name":"Back with the milk","steam_id":76561199020105501,"connected_time":365000000000,"state":"active","ping":111},{"user_id":319,"name":"FALRayne","steam_id":76561198113348816,"connected_time":337000000000,"state":"active","ping":88},{"user_id":255,"name":"Satori Komeiji","steam_id":76561198158211423,"connected_time":4763000000000,"state":"active","ping":70},{"user_id":279,"name":"John Dungus (the real one)","steam_id":76561198049191027,"connected_time":2892000000000,"state":"active","ping":93},{"user_id":309,"name":"The Pepsi® Superbowl®!","steam_id":76561198080828981,"connected_time":1313000000000,"state":"active","ping":76},{"user_id":312,"name":"The Sydney Sleeper Itself","steam_id":76561198180251763,"connected_time":865000000000,"state":"active","ping":106},{"user_id":293,"name":"ShwackedOnNyquil","steam_id":76561198060870270,"connected_time":2251000000000,"state":"active","ping":65},{"user_id":257,"name":"Kit Carson","steam_id":76561198115691546,"connected_time":4645000000000,"state":"active","ping":90},{"user_id":281,"name":"NovaCrusader727","steam_id":76561198022610669,"connected_time":2768000000000,"state":"active","ping":115},{"user_id":291,"name":"1dk","steam_id":76561198135104742,"connected_time":2272000000000,"state":"active","ping":51},{"user_id":283,"name":"KhorneBread ︻デ 一","steam_id":76561198097069958,"connected_time":2691000000000,"state":"active","ping":130},{"user_id":307,"name":"Aerris","steam_id":76561199178877456,"connected_time":1507000000000,"state":"active","ping":100},{"user_id":296,"name":"Ovr","steam_id":76561198405516708,"connected_time":1976000000000,"state":"active","ping":83},{"user_id":104,"name":"THE NUT","steam_id":76561198067813626,"connected_time":14835000000000,"state":"active","ping":52},{"user_id":297,"name":"AmiableNebula","steam_id":76561198094306627,"connected_time":1933000000000,"state":"active","ping":77},{"user_id":308,"name":"Kakyōin Noriaki","steam_id":76561198123809642,"connected_time":1441000000000,"state":"active","ping":124}]},{"server_id":119,"name":"Uncletopia | Seattle | 2 | All Maps","name_short":"sea-2","host":"sea-1.us.uncletopia.com","port":27025,"enabled":true,"region":"us-west","cc":"us","latitude":47.608013,"longitude":-122.33517,"reserved":0,"last_update":"0001-01-01T00:00:00Z","name_a2s":"Uncletopia | Seattle | 2 | All Maps","protocol":17,"map":"cp_dustbowl","folder":"tf","game":"Team Fortress","app_id":440,"player_count":24,"max_players":24,"Bots":0,"server_type":"Dedicated","server_os":"Linux","password":true,"vac":true,"version":"7757534","steam_id":85568392924469998,"keywords":["cp","nocrits","nodmgspread","uncletopia"],"game_id":440,"stv_port":27026,"stv_name":"Uncletopia | Seattle | 2 | All Maps | STV","players":[{"user_id":309,"name":"Atlas Fugged :DD","steam_id":76561198018753989,"connected_time":1456000000000,"state":"active","ping":79},{"user_id":307,"name":"Nani?","steam_id":76561198130982692,"connected_time":1483000000000,"state":"active","ping":102},{"user_id":313,"name":"999 rédé Balloonés","steam_id":76561197973151692,"connected_time":1315000000000,"state":"active","ping":110},{"user_id":323,"name":"Recursive Gamer","steam_id":76561198042102952,"connected_time":404000000000,"state":"active","ping":90},{"user_id":321,"name":"Esau","steam_id":76561198258321837,"connected_time":822000000000,"state":"active","ping":87},{"user_id":255,"name":"Broccoli248","steam_id":76561199162687374,"connected_time":4608000000000,"state":"active","ping":177},{"user_id":264,"name":"swagcaptain","steam_id":76561198411245618,"connected_time":4252000000000,"state":"active","ping":141},{"user_id":308,"name":"DATONA","steam_id":76561198325164208,"connected_time":1481000000000,"state":"active","ping":120},{"user_id":325,"name":"Paolo","steam_id":76561198048134549,"connected_time":142000000000,"state":"active","ping":117},{"user_id":280,"name":"jessicamustdie \u003c3","steam_id":76561198045230921,"connected_time":3792000000000,"state":"active","ping":102},{"user_id":304,"name":"gun spy gaming","steam_id":76561198880739963,"connected_time":1686000000000,"state":"active","ping":58},{"user_id":324,"name":"Large Charles","steam_id":76561197999663001,"connected_time":395000000000,"state":"active","ping":72},{"user_id":262,"name":"Watatsuki no Yorihime","steam_id":76561198063315650,"connected_time":4358000000000,"state":"active","ping":80},{"user_id":312,"name":"gamer time","steam_id":76561199020630299,"connected_time":1366000000000,"state":"active","ping":128},{"user_id":270,"name":"༘ ⋆˚🎧Caffeine☕*˖°","steam_id":76561199259309294,"connected_time":3956000000000,"state":"active","ping":129},{"user_id":285,"name":"cardboardwarrior1","steam_id":76561199145044693,"connected_time":3573000000000,"state":"active","ping":96},{"user_id":322,"name":"Perfume Department","steam_id":76561198128299594,"connected_time":802000000000,"state":"active","ping":75},{"user_id":298,"name":"Doc","steam_id":76561198453335611,"connected_time":2212000000000,"state":"active","ping":89},{"user_id":303,"name":"Malmart_Employee","steam_id":76561198320388704,"connected_time":1732000000000,"state":"active","ping":67},{"user_id":294,"name":"nitrogen bomb","steam_id":76561198206922028,"connected_time":2974000000000,"state":"active","ping":83},{"user_id":275,"name":"Belmore","steam_id":76561198009355231,"connected_time":3923000000000,"state":"active","ping":85},{"user_id":320,"name":"Grammaring","steam_id":76561198867366139,"connected_time":903000000000,"state":"active","ping":72},{"user_id":316,"name":"luca","steam_id":76561198069235730,"connected_time":1282000000000,"state":"active","ping":106},{"user_id":292,"name":"Chubbles","steam_id":76561198237619472,"connected_time":2984000000000,"state":"active","ping":144}]},{"server_id":406,"name":"Uncletopia | Seattle | 3 | Stopwatch Beta","name_short":"sea-3","host":"sea-1.us.uncletopia.com","port":27035,"enabled":true,"region":"us-west","cc":"us","latitude":47.608013,"longitude":-122.33517,"reserved":0,"last_update":"0001-01-01T00:00:00Z","name_a2s":"Uncletopia | Seattle | 3 | Stopwatch Beta","protocol":17,"map":"pl_barnblitz","folder":"tf","game":"Team Fortress","app_id":440,"player_count":0,"max_players":24,"Bots":0,"server_type":"Dedicated","server_os":"Linux","password":true,"vac":true,"version":"7757534","steam_id":85568392924515217,"keywords":["nocrits","nodmgspread","payload","uncletopia"],"game_id":440,"stv_port":27036,"stv_name":"Uncletopia | Seattle | 3 | Stopwatch Beta | STV","players":null},{"server_id":17,"name":"Uncletopia | San Francisco | 1 | All Maps","name_short":"sfo-1","host":"sfo-1.us.uncletopia.com","port":27015,"enabled":true,"region":"us-west","cc":"us","latitude":37.77397,"longitude":-122.4313,"reserved":0,"last_update":"0001-01-01T00:00:00Z","name_a2s":"Uncletopia | San Francisco | 1 | All Maps","protocol":17,"map":"cp_sunshine","folder":"tf","game":"Team Fortress","app_id":440,"player_count":0,"max_players":24,"Bots":0,"server_type":"Dedicated","server_os":"Linux","password":true,"vac":true,"version":"7757534","steam_id":85568392924469999,"keywords":["cp","nocrits","nodmgspread","uncletopia"],"game_id":440,"stv_port":27016,"stv_name":"Uncletopia | San Francisco | 1 | All Maps | STV","players":null},{"server_id":18,"name":"Uncletopia | San Francisco | 2 | All Maps","name_short":"sfo-2","host":"sfo-1.us.uncletopia.com","port":27025,"enabled":true,"region":"us-west","cc":"us","latitude":37.77397,"longitude":-122.4313,"reserved":0,"last_update":"0001-01-01T00:00:00Z","name_a2s":"Uncletopia | San Francisco | 2 | All Maps","protocol":17,"map":"koth_cascade","folder":"tf","game":"Team Fortress","app_id":440,"player_count":0,"max_players":24,"Bots":0,"server_type":"Dedicated","server_os":"Linux","password":true,"vac":true,"version":"7757534","steam_id":85568392924470000,"keywords":["cp","nocrits","nodmgspread","uncletopia"],"game_id":440,"stv_port":27026,"stv_name":"Uncletopia | San Francisco | 2 | All Maps | STV","players":null},{"server_id":19,"name":"Uncletopia | San Francisco | 3 | Stopwatch Beta","name_short":"sfo-3","host":"sfo-1.us.uncletopia.com","port":27035,"enabled":true,"region":"us-west","cc":"us","latitude":37.77397,"longitude":-122.4313,"reserved":0,"last_update":"0001-01-01T00:00:00Z","name_a2s":"Uncletopia | San Francisco | 3 | Stopwatch Beta","protocol":17,"map":"pl_borneo","folder":"tf","game":"Team Fortress","app_id":440,"player_count":0,"max_players":24,"Bots":0,"server_type":"Dedicated","server_os":"Linux","password":true,"vac":true,"version":"7757534","steam_id":85568392924742824,"keywords":["nocrits","nodmgspread","payload","uncletopia"],"game_id":440,"stv_port":27036,"stv_name":"Uncletopia | San Francisco | 3 | Stopwatch Beta | STV","players":null},{"server_id":20,"name":"Uncletopia | San Francisco | 4 | Community","name_short":"sfo-4","host":"sfo-1.us.uncletopia.com","port":27045,"enabled":true,"region":"us-west","cc":"us","latitude":37.77397,"longitude":-122.4313,"reserved":0,"last_update":"0001-01-01T00:00:00Z","name_a2s":"Uncletopia | San Francisco | 4 | Community","protocol":17,"map":"koth_highpass","folder":"tf","game":"Team Fortress","app_id":440,"player_count":0,"max_players":24,"Bots":0,"server_type":"Dedicated","server_os":"Linux","password":true,"vac":true,"version":"7757534","steam_id":85568392924742826,"keywords":["cp","nocrits","nodmgspread","uncletopia"],"game_id":440,"stv_port":27046,"stv_name":"Uncletopia | San Francisco | 4 | Community | STV","players":null},{"server_id":141,"name":"Uncletopia | Sydney | 1 | All Maps","name_short":"syd-1","host":"syd-1.au.uncletopia.com","port":27015,"enabled":true,"region":"au","cc":"au","latitude":-33.865143,"longitude":151.2099,"reserved":0,"last_update":"0001-01-01T00:00:00Z","name_a2s":"Uncletopia | Sydney | 1 | All Maps","protocol":17,"map":"cp_process_final","folder":"tf","game":"Team Fortress","app_id":440,"player_count":0,"max_players":24,"Bots":0,"server_type":"Dedicated","server_os":"Linux","password":true,"vac":true,"version":"7757534","steam_id":85568392924470001,"keywords":["cp","nocrits","nodmgspread","uncletopia"],"game_id":440,"stv_port":27016,"stv_name":"Uncletopia | Sydney | 1 | All Maps | STV","players":null},{"server_id":123,"name":"Uncletopia | Sydney | 2 | All Maps","name_short":"syd-2","host":"syd-1.au.uncletopia.com","port":27025,"enabled":true,"region":"au","cc":"au","latitude":-33.865143,"longitude":151.2099,"reserved":0,"last_update":"0001-01-01T00:00:00Z","name_a2s":"Uncletopia | Sydney | 2 | All Maps","protocol":17,"map":"koth_viaduct","folder":"tf","game":"Team Fortress","app_id":440,"player_count":0,"max_players":24,"Bots":0,"server_type":"Dedicated","server_os":"Linux","password":true,"vac":true,"version":"7757534","steam_id":85568392924470002,"keywords":["cp","nocrits","nodmgspread","uncletopia"],"game_id":440,"stv_port":27026,"stv_name":"Uncletopia | Sydney | 2 | All Maps | STV","players":null},{"server_id":395,"name":"Uncletopia | Sydney | 3 | All Maps","name_short":"syd-3","host":"syd-1.au.uncletopia.com","port":27035,"enabled":true,"region":"au","cc":"au","latitude":-33.865143,"longitude":151.2099,"reserved":0,"last_update":"0001-01-01T00:00:00Z","name_a2s":"Uncletopia | Sydney | 3 | All Maps","protocol":17,"map":"pl_upward","folder":"tf","game":"Team Fortress","app_id":440,"player_count":0,"max_players":24,"Bots":0,"server_type":"Dedicated","server_os":"Linux","password":true,"vac":true,"version":"7757534","steam_id":85568392925194467,"keywords":["nocrits","nodmgspread","payload","uncletopia"],"game_id":440,"stv_port":27036,"stv_name":"Uncletopia | Sydney | 3 | All Maps | STV","players":null},{"server_id":396,"name":"Uncletopia | Sydney | 4 | All Maps","name_short":"syd-4","host":"syd-1.au.uncletopia.com","port":27045,"enabled":true,"region":"au","cc":"au","latitude":-33.865143,"longitude":151.2099,"reserved":0,"last_update":"0001-01-01T00:00:00Z","name_a2s":"Uncletopia | Sydney | 4 | All Maps","protocol":17,"map":"koth_lakeside_final","folder":"tf","game":"Team Fortress","app_id":440,"player_count":0,"max_players":24,"Bots":0,"server_type":"Dedicated","server_os":"Linux","password":true,"vac":true,"version":"7757534","steam_id":85568392925397958,"keywords":["cp","nocrits","nodmgspread","uncletopia"],"game_id":440,"stv_port":27046,"stv_name":"Uncletopia | Sydney | 4 | All Maps | STV","players":null},{"server_id":58,"name":"Uncletopia | Sydney | 5 | Stopwatch Beta","name_short":"syd-5","host":"syd-1.au.uncletopia.com","port":27055,"enabled":true,"region":"au","cc":"au","latitude":-33.865143,"longitude":151.2099,"reserved":0,"last_update":"0001-01-01T00:00:00Z","name_a2s":"Uncletopia | Sydney | 5 | Stopwatch Beta","protocol":17,"map":"koth_highpass","folder":"tf","game":"Team Fortress","app_id":440,"player_count":0,"max_players":24,"Bots":0,"server_type":"Dedicated","server_os":"Linux","password":true,"vac":true,"version":"7757534","steam_id":85568392925397959,"keywords":["cp","nocrits","nodmgspread","uncletopia"],"game_id":440,"stv_port":27056,"stv_name":"Uncletopia | Sydney | 5 | Stopwatch Beta | STV","players":null},{"server_id":59,"name":"Uncletopia | Sydney | 6 | Community","name_short":"syd-6","host":"syd-1.au.uncletopia.com","port":27065,"enabled":true,"region":"au","cc":"au","latitude":-33.865143,"longitude":151.2099,"reserved":0,"last_update":"0001-01-01T00:00:00Z","name_a2s":"Uncletopia | Sydney | 6 | Community","protocol":17,"map":"cp_sunshine","folder":"tf","game":"Team Fortress","app_id":440,"player_count":0,"max_players":24,"Bots":0,"server_type":"Dedicated","server_os":"Linux","password":true,"vac":true,"version":"7757534","steam_id":85568392925397960,"keywords":["cp","nocrits","nodmgspread","uncletopia"],"game_id":440,"stv_port":27066,"stv_name":"Uncletopia | Sydney | 6 | Community | STV","players":null},{"server_id":49,"name":"Uncletopia | Warsaw | 1 | All Maps","name_short":"waw-1","host":"waw-1.pl.uncletopia.com","port":27015,"enabled":true,"region":"eu","cc":"pl","latitude":52.2297,"longitude":21.017532,"reserved":0,"last_update":"0001-01-01T00:00:00Z","name_a2s":"","protocol":0,"map":"","folder":"","game":"","app_id":0,"player_count":0,"max_players":0,"Bots":0,"server_type":"","server_os":"","password":false,"vac":false,"version":"","steam_id":0,"keywords":null,"game_id":0,"stv_port":0,"stv_name":"","players":null},{"server_id":50,"name":"Uncletopia | Warsaw | 2 | All Maps","name_short":"waw-2","host":"waw-1.pl.uncletopia.com","port":27025,"enabled":true,"region":"eu","cc":"pl","latitude":52.2297,"longitude":21.017532,"reserved":0,"last_update":"0001-01-01T00:00:00Z","name_a2s":"Uncletopia | Warsaw | 2 | All Maps","protocol":17,"map":"pl_thundermountain","folder":"tf","game":"Team Fortress","app_id":440,"player_count":3,"max_players":24,"Bots":0,"server_type":"Dedicated","server_os":"Linux","password":true,"vac":true,"version":"7757534","steam_id":85568392925397851,"keywords":["nocrits","nodmgspread","payload","uncletopia"],"game_id":440,"stv_port":27026,"stv_name":"Uncletopia | Warsaw | 2 | All Maps | STV","players":[{"user_id":375,"name":"Faaaay","steam_id":76561198286392106,"connected_time":332000000000,"state":"active","ping":80},{"user_id":379,"name":"jan09102004","steam_id":76561198445458615,"connected_time":79000000000,"state":"active","ping":74},{"user_id":354,"name":"lagzer","steam_id":76561198029295449,"connected_time":2354000000000,"state":"active","ping":50}]},{"server_id":51,"name":"Uncletopia | Warsaw | 3 | All Maps","name_short":"waw-3","host":"waw-1.pl.uncletopia.com","port":27035,"enabled":true,"region":"eu","cc":"pl","latitude":52.2297,"longitude":21.017532,"reserved":0,"last_update":"0001-01-01T00:00:00Z","name_a2s":"Uncletopia | Warsaw | 3 | All Maps","protocol":17,"map":"cp_dustbowl","folder":"tf","game":"Team Fortress","app_id":440,"player_count":0,"max_players":24,"Bots":0,"server_type":"Dedicated","server_os":"Linux","password":true,"vac":true,"version":"7757534","steam_id":85568392925397852,"keywords":["cp","nocrits","nodmgspread","uncletopia"],"game_id":440,"stv_port":27036,"stv_name":"Uncletopia | Warsaw | 3 | All Maps | STV","players":null},{"server_id":52,"name":"Uncletopia | Warsaw | 4 | All Maps","name_short":"waw-4","host":"waw-1.pl.uncletopia.com","port":27045,"enabled":true,"region":"eu","cc":"pl","latitude":52.2297,"longitude":21.017532,"reserved":0,"last_update":"0001-01-01T00:00:00Z","name_a2s":"Uncletopia | Warsaw | 4 | All Maps","protocol":17,"map":"cp_process_final","folder":"tf","game":"Team Fortress","app_id":440,"player_count":0,"max_players":24,"Bots":0,"server_type":"Dedicated","server_os":"Linux","password":true,"vac":true,"version":"7757534","steam_id":85568392925397853,"keywords":["cp","nocrits","nodmgspread","uncletopia"],"game_id":440,"stv_port":27046,"stv_name":"Uncletopia | Warsaw | 4 | All Maps | STV","players":null},{"server_id":53,"name":"Uncletopia | Warsaw | 5 | Stopwatch Beta","name_short":"waw-5","host":"waw-1.pl.uncletopia.com","port":27055,"enabled":true,"region":"eu","cc":"pl","latitude":52.2297,"longitude":21.017532,"reserved":0,"last_update":"0001-01-01T00:00:00Z","name_a2s":"Uncletopia | Warsaw | 5 | Stopwatch Beta","protocol":17,"map":"pl_barnblitz","folder":"tf","game":"Team Fortress","app_id":440,"player_count":0,"max_players":24,"Bots":0,"server_type":"Dedicated","server_os":"Linux","password":true,"vac":true,"version":"7757534","steam_id":85568392925397854,"keywords":["nocrits","nodmgspread","payload","uncletopia"],"game_id":440,"stv_port":27056,"stv_name":"Uncletopia | Warsaw | 5 | Stopwatch Beta | STV","players":null},{"server_id":54,"name":"Uncletopia | Warsaw | 6 | Community","name_short":"waw-6","host":"waw-1.pl.uncletopia.com","port":27065,"enabled":true,"region":"eu","cc":"pl","latitude":52.2297,"longitude":21.017532,"reserved":0,"last_update":"0001-01-01T00:00:00Z","name_a2s":"Uncletopia | Warsaw | 6 | Community","protocol":17,"map":"pl_swiftwater_final1","folder":"tf","game":"Team Fortress","app_id":440,"player_count":0,"max_players":24,"Bots":0,"server_type":"Dedicated","server_os":"Linux","password":true,"vac":true,"version":"7757534","steam_id":85568392925397856,"keywords":["nocrits","nodmgspread","payload","uncletopia"],"game_id":440,"stv_port":27066,"stv_name":"Uncletopia | Warsaw | 6 | Community | STV","players":null}]}