{"status":true,"message":"","result":[{"server_id":9,"name":"Uncletopia | Atlanta | 1 | All Maps","name_short":"atl-1","host":"atl-1.us.uncletopia.com","port":27015,"enabled":true,"region":"us-east","cc":"us","latitude":33.753746,"longitude":-84.38633,"reserved":0,"last_update":"0001-01-01T00:00:00Z","name_a2s":"Uncletopia | Atlanta | 1 | All Maps","protocol":17,"map":"cp_dustbowl","folder":"tf","game":"Team Fortress","app_id":440,"player_count":24,"max_players":24,"Bots":0,"server_type":"Dedicated","server_os":"Linux","password":true,"vac":true,"version":"7757534","steam_id":85568392924469982,"keywords":["cp","nocrits","nodmgspread","uncletopia"],"game_id":440,"stv_port":27016,"stv_name":"Uncletopia | Atlanta | 1 | All Maps | STV","players":[{"user_id":258,"name":"Dr.Zarann","steam_id":76561198163952958,"connected_time":2300000000000,"state":"active","ping":63},{"user_id":285,"name":"paetho YT","steam_id":76561198152690003,"connected_time":1399000000000,"state":"active","ping":44},{"user_id":291,"name":"sam","steam_id":76561198217362968,"connected_time":574000000000,"state":"active","ping":77},{"user_id":161,"name":"FheeseWurger Insouptitty","steam_id":76561198130772096,"connected_time":9246000000000,"state":"active","ping":53},{"user_id":253,"name":"basil","steam_id":76561198075758026,"connected_time":2726000000000,"state":"active","ping":73},{"user_id":232,"name":"Albino Jellyfish","steam_id":76561198208561097,"connected_time":4077000000000,"state":"active","ping":67},{"user_id":290,"name":"Harold","steam_id":76561198057317770,"connected_time":660000000000,"state":"active","ping":101},{"user_id":280,"name":"BIG HOG","steam_id":76561198079923652,"connected_time":1670000000000,"state":"active","ping":75},{"user_id":293,"name":"chubbbo","steam_id":76561198943598378,"connected_time":91000000000,"state":"active","ping":42},{"user_id":288,"name":"Ghost Cage","steam_id":76561198101172776,"connected_time":1264000000000,"state":"active","ping":75},{"user_id":292,"name":"spicy fried chicken","steam_id":76561198319442494,"connected_time":455000000000,"state":"active","ping":111},{"user_id":279,"name":"MaybeLarry","steam_id":76561198982810452,"connected_time":1699000000000,"state":"active","ping":82},{"user_id":255,"name":"\u003c3lil hog\u003c3","steam_id":76561199230929836,"connected_time":2486000000000,"state":"active","ping":74},{"user_id":246,"name":"lukiepills","steam_id":76561199020587077,"connected_time":3008000000000,"state":"active","ping":68},{"user_id":243,"name":"xiii","steam_id":76561198079416036,"connected_time":3424000000000,"state":"active","ping":82},{"user_id":138,"name":"Ashes!","steam_id":76561197998475441,"connected_time":10505000000000,"state":"active","ping":78},{"user_id":284,"name":"e0e0","steam_id":76561198293839750,"connected_time":1436000000000,"state":"active","ping":57},{"user_id":286,"name":"Vladikr1","steam_id":76561198401495362,"connected_time":1372000000000,"state":"active","ping":85},{"user_id":281,"name":"Puggle","steam_id":76561198144864264,"connected_time":1663000000000,"state":"active","ping":100},{"user_id":245,"name":"xX_HimboSwallower_Xx","steam_id":76561198016029965,"connected_time":3312000000000,"state":"active","ping":71},{"user_id":235,"name":"Mug","steam_id":76561199282207802,"connected_time":3753000000000,"state":"active","ping":73},{"user_id":257,"name":"andyiscolorless","steam_id":76561199239870921,"connected_time":2418000000000,"state":"active","ping":139},{"user_id":142,"name":"Dr. drippenstein","steam_id":76561198209380493,"connected_time":10400000000000,"state":"active","ping":63},{"user_id":277,"name":"bruh","steam_id":76561198249206656,"connected_time":1987000000000,"state":"active","ping":86}]},{"server_id":104,"name":"Uncletopia | Atlanta | 2 | All Maps","name_short":"atl-2","host":"atl-1.us.uncletopia.com","port":27025,"enabled":true,"region":"us-east","cc":"us","latitude":33.753746,"longitude":-84.38633,"reserved":0,"last_update":"0001-01-01T00:00:00Z","name_a2s":"Uncletopia | Atlanta | 2 | All Maps","protocol":17,"map":"cp_steel","folder":"tf","game":"Team Fortress","app_id":440,"player_count":23,"max_players":24,"Bots":0,"server_type":"Dedicated","server_os":"Linux","password":true,"vac":true,"version":"7757534","steam_id":85568392924469983,"keywords":["cp","nocrits","nodmgspread","uncletopia"],"game_id":440,"stv_port":27026,"stv_name":"Uncletopia | Atlanta | 2 | All Maps | STV","players":[{"user_id":375,"name":"samantha","steam_id":76561198299290069,"connected_time":1059000000000,"state":"active","ping":96},{"user_id":258,"name":"Hindmost","steam_id":76561199081837220,"connected_time":10312000000000,"state":"active","ping":55},{"user_id":331,"name":"TherealHotDogger32","steam_id":76561198859230393,"connected_time":4018000000000,"state":"active","ping":101},{"user_id":345,"name":"Marlboro Menthol 100s","steam_id":76561198263631055,"connected_time":2639000000000,"state":"active","ping":45},{"user_id":367,"name":"Kaluka","steam_id":76561198036861445,"connected_time":1216000000000,"state":"active","ping":59},{"user_id":310,"name":"eman","steam_id":76561198204395721,"connected_time":5664000000000,"state":"active","ping":110},{"user_id":265,"name":"xJEMAx","steam_id":76561198370956616,"connected_time":9473000000000,"state":"active","ping":79},{"user_id":354,"name":"that's showbiz, baybee","steam_id":76561197998258233,"connected_time":2147000000000,"state":"active","ping":56},{"user_id":366,"name":"27 blends","steam_id":76561197997100185,"connected_time":1221000000000,"state":"active","ping":106},{"user_id":388,"name":"Walmart Employee","steam_id":76561198840373909,"connected_time":296000000000,"state":"active","ping":77},{"user_id":373,"name":"help! esoobac","steam_id":76561198010370396,"connected_time":1157000000000,"state":"active","ping":61},{"user_id":379,"name":"{FITH}™ SmittyWun {FM}","steam_id":76561198079531938,"connected_time":795000000000,"state":"active","ping":62},{"user_id":380,"name":"Danger Daniel","steam_id":76561199085838474,"connected_time":754000000000,"state":"active","ping":86},{"user_id":329,"name":"Project_Counter","steam_id":76561198152786076,"connected_time":4051000000000,"state":"active","ping":89},{"user_id":384,"name":"oblivion fan","steam_id":76561199101522176,"connected_time":573000000000,"state":"active","ping":93},{"user_id":377,"name":"drift.ag21","steam_id":76561198093781093,"connected_time":1020000000000,"state":"active","ping":51},{"user_id":381,"name":"A Getaway Submarine","steam_id":76561199145662306,"connected_time":751000000000,"state":"active","ping":90},{"user_id":383,"name":"Bony","steam_id":76561199001748822,"connected_time":678000000000,"state":"active","ping":112},{"user_id":390,"name":"₪TBC₪ LeeMon337","steam_id":76561198005781265,"connected_time":49000000000,"state":"active","ping":114},{"user_id":385,"name":"Training Arc","steam_id":76561198038832034,"connected_time":493000000000,"state":"active","ping":108},{"user_id":236,"name":"Peepster","steam_id":76561198297854733,"connected_time":11097000000000,"state":"active","ping":93},{"user_id":342,"name":"Brown_Dream","steam_id":76561198975766145,"connected_time":3558000000000,"state":"active","ping":77},{"user_id":355,"name":"Drygongames","steam_id":76561198250418424,"connected_time":2129000000000,"state":"active","ping":80}]},{"server_id":400,"name":"Uncletopia | Atlanta | 3 | Community","name_short":"atl-3","host":"atl-1.us.uncletopia.com","port":27035,"enabled":true,"region":"us-east","cc":"us","latitude":33.753746,"longitude":-84.38633,"reserved":0,"last_update":"0001-01-01T00:00:00Z","name_a2s":"Uncletopia | Atlanta | 3 | Community","protocol":17,"map":"workshop/koth_ramjam_rc1.ugc459778887","folder":"tf","game":"Team Fortress","app_id":440,"player_count":24,"max_players":24,"Bots":0,"server_type":"Dedicated","server_os":"Linux","password":true,"vac":true,"version":"7757534","steam_id":85568392924515187,"keywords":["cp","nocrits","nodmgspread","uncletopia"],"game_id":440,"stv_port":27036,"stv_name":"Uncletopia | Atlanta | 3 | Community | STV","players":[{"user_id":159,"name":"mio","steam_id":76561198239286750,"connected_time":2331000000000,"state":"active","ping":61},{"user_id":155,"name":"mechiimi ★","steam_id":76561198321627268,"connected_time":2704000000000,"state":"active","ping":97},{"user_id":176,"name":"Lost CS player","steam_id":76561198892387723,"connected_time":955000000000,"state":"active","ping":72},{"user_id":170,"name":"Doomagedden","steam_id":76561198272589475,"connected_time":1576000000000,"state":"active","ping":75},{"user_id":128,"name":"H0wlr","steam_id":76561198012332824,"connected_time":4401000000000,"state":"active","ping":81},{"user_id":195,"name":"10k Calorie B\u0026R Oreo Shake","steam_id":76561198057745131,"connected_time":46000000000,"state":"active","ping":73},{"user_id":175,"name":"WDG 1-S","steam_id":76561199057827299,"connected_time":1204000000000,"state":"active","ping":115},{"user_id":65,"name":"BarrowBaron","steam_id":76561198013633236,"connected_time":8378000000000,"state":"active","ping":86},{"user_id":168,"name":"KingKata","steam_id":76561198289610011,"connected_time":1737000000000,"state":"active","ping":166},{"user_id":173,"name":"GojoPreto","steam_id":76561198979348045,"connected_time":1327000000000,"state":"active","ping":73},{"user_id":142,"name":"nicholasballard7109","steam_id":76561199434286633,"connected_time":3590000000000,"state":"active","ping":88},{"user_id":188,"name":"storepilled grocerycel","steam_id":76561198097588802,"connected_time":405000000000,"state":"active","ping":60},{"user_id":169,"name":"teaf","steam_id":76561198406252824,"connected_time":1716000000000,"state":"active","ping":119},{"user_id":178,"name":"bunny ✧(ꈍᴗꈍ)✧","steam_id":76561198318966842,"connected_time":915000000000,"state":"active","ping":77},{"user_id":189,"name":"Quietsharp","steam_id":76561198277968438,"connected_time":401000000000,"state":"active","ping":100},{"user_id":193,"name":"AaronKingKnight","steam_id":76561198174413295,"connected_time":285000000000,"state":"active","ping":64},{"user_id":182,"name":"RainbowLlama","steam_id":76561198129467214,"connected_time":885000000000,"state":"active","ping":75},{"user_id":194,"name":"JMan","steam_id":76561198367705381,"connected_time":203000000000,"state":"active","ping":165},{"user_id":174,"name":"Zoawsome","steam_id":76561198018758753,"connected_time":1275000000000,"state":"active","ping":72},{"user_id":191,"name":"A_Malebolgia","steam_id":76561198097722818,"connected_time":361000000000,"state":"active","ping":92},{"user_id":154,"name":"canid","steam_id":76561198103496593,"connected_time":2793000000000,"state":"active","ping":46},{"user_id":192,"name":"Ishy the Lagger","steam_id":76561198835943890,"connected_time":329000000000,"state":"active","ping":90},{"user_id":171,"name":"Recursive Gamer","steam_id":76561198042102952,"connected_time":1558000000000,"state":"active","ping":82},{"user_id":157,"name":"Rat","steam_id":76561199102985277,"connected_time":2691000000000,"state":"active","ping":79}]},{"server_id":401,"name":"Uncletopia | Atlanta | 4 | No Payload","name_short":"atl-4","host":"atl-1.us.uncletopia.com","port":27045,"enabled":true,"region":"us-east","cc":"us","latitude":33.753746,"longitude":-84.38633,"reserved":0,"last_update":"0001-01-01T00:00:00Z","name_a2s":"","protocol":0,"map":"","folder":"","game":"","app_id":0,"player_count":0,"max_players":0,"Bots":0,"server_type":"","server_os":"","password":false,"vac":false,"version":"","steam_id":0,"keywords":null,"game_id":0,"stv_port":0,"stv_name":"","players":null},{"server_id":2,"name":"Uncletopia | Chicago | 1 | All Maps","name_short":"chi-1","host":"chi-1.us.uncletopia.com","port":27015,"enabled":true,"region":"us-central","cc":"us","latitude":41.881832,"longitude":-87.62318,"reserved":0,"last_update":"0001-01-01T00:00:00Z","name_a2s":"Uncletopia | Chicago | 1 | All Maps","protocol":17,"map":"pl_swiftwater_final1","folder":"tf","game":"Team Fortress","app_id":440,"player_count":24,"max_players":24,"Bots":0,"server_type":"Dedicated","server_os":"Linux","password":true,"vac":true,"version":"7757534","steam_id":85568392924469984,"keywords":["nocrits","nodmgspread","payload","uncletopia"],"game_id":440,"stv_port":27016,"stv_name":"Uncletopia | Chicago | 1 | All Maps | STV","players":[{"user_id":265,"name":"Ike Yard","steam_id":76561197998954523,"connected_time":864000000000,"state":"active","ping":60},{"user_id":252,"name":"LemonPoppyMuffin","steam_id":76561198044813750,"connected_time":1754000000000,"state":"active","ping":70},{"user_id":154,"name":"Mike Charlie","steam_id":76561199470538309,"connected_time":9722000000000,"state":"active","ping":60},{"user_id":266,"name":"Tlaloc","steam_id":76561198375215983,"connected_time":855000000000,"state":"active","ping":123},{"user_id":217,"name":"Pussy Slambasket","steam_id":76561198093694322,"connected_time":3984000000000,"state":"active","ping":53},{"user_id":267,"name":"Spring Beans","steam_id":76561197978546259,"connected_time":831000000000,"state":"active","ping":60},{"user_id":262,"name":"Lost","steam_id":76561198093713427,"connected_time":902000000000,"state":"active","ping":60},{"user_id":258,"name":"Pawn Cushman","steam_id":76561198221635676,"connected_time":1405000000000,"state":"active","ping":69},{"user_id":278,"name":"PKBEAST_7","steam_id":76561198177136537,"connected_time":238000000000,"state":"active","ping":87},{"user_id":281,"name":"broccoli meat","steam_id":76561198070923665,"connected_time":183000000000,"state":"active","ping":77},{"user_id":273,"name":"Dante","steam_id":76561198798234838,"connected_time":792000000000,"state":"active","ping":120},{"user_id":239,"name":"Buddy_and_Pal","steam_id":76561199078574984,"connected_time":2505000000000,"state":"active","ping":91},{"user_id":284,"name":"even_steven.4season","steam_id":76561199161322235,"connected_time":77000000000,"state":"active","ping":60},{"user_id":263,"name":".jpg","steam_id":76561198137237377,"connected_time":895000000000,"state":"active","ping":72},{"user_id":283,"name":"FattSucc","steam_id":76561198009500503,"connected_time":176000000000,"state":"active","ping":90},{"user_id":280,"name":"Meringue","steam_id":76561198067899943,"connected_time":184000000000,"state":"active","ping":82},{"user_id":250,"name":"Erlenmeyer","steam_id":76561199044703828,"connected_time":1880000000000,"state":"active","ping":70},{"user_id":277,"name":"Tanman653","steam_id":76561199046653301,"connected_time":715000000000,"state":"active","ping":112},{"user_id":256,"name":"Kebab","steam_id":76561199075899115,"connected_time":1482000000000,"state":"active","ping":95},{"user_id":47,"name":"godsdoctor","steam_id":76561198055010413,"connected_time":15420000000000,"state":"active","ping":137},{"user_id":271,"name":"Garlic","steam_id":76561198207529047,"connected_time":818000000000,"state":"active","ping":85},{"user_id":269,"name":"jaydn","steam_id":76561198086615208,"connected_time":822000000000,"state":"active","ping":64},{"user_id":270,"name":"Onyiun","steam_id":76561199124107338,"connected_time":820000000000,"state":"active","ping":80},{"user_id":276,"name":"Owen","steam_id":76561198025446908,"connected_time":748000000000,"state":"active","ping":64}]},{"server_id":106,"name":"Uncletopia | Chicago | 2 | All Maps","name_short":"chi-2","host":"chi-1.us.uncletopia.com","port":27025,"enabled":true,"region":"us-central","cc":"us","latitude":41.881832,"longitude":-87.62318,"reserved":0,"last_update":"0001-01-01T00:00:00Z","name_a2s":"Uncletopia | Chicago | 2 | All Maps","protocol":17,"map":"pl_badwater","folder":"tf","game":"Team Fortress","app_id":440,"player_count":24,"max_players":24,"Bots":0,"server_type":"Dedicated","server_os":"Linux","password":true,"vac":true,"version":"7757534","steam_id":85568392924469985,"keywords":["nocrits","nodmgspread","payload","uncletopia"],"game_id":440,"stv_port":27026,"stv_name":"Uncletopia | Chicago | 2 | All Maps | STV","players":[{"user_id":423,"name":"Jezzus","steam_id":76561199289676387,"connected_time":3789000000000,"state":"active","ping":86},{"user_id":487,"name":"LikeASir","steam_id":76561198042209721,"connected_time":205000000000,"state":"active","ping":43},{"user_id":436,"name":"aiden","steam_id":76561198449527009,"connected_time":3150000000000,"state":"active","ping":49},{"user_id":456,"name":"Lulo","steam_id":76561198200617911,"connected_time":2426000000000,"state":"active","ping":60},{"user_id":446,"name":"Goober","steam_id":76561198988863807,"connected_time":2972000000000,"state":"active","ping":74},{"user_id":434,"name":"CinnamonBoy","steam_id":76561198882330338,"connected_time":3236000000000,"state":"active","ping":65},{"user_id":488,"name":"Soull","steam_id":76561199188088471,"connected_time":186000000000,"state":"active","ping":83},{"user_id":489,"name":"Big Phonius","steam_id":76561199092395311,"connected_time":184000000000,"state":"active","ping":63},{"user_id":490,"name":"Adversarry","steam_id":76561198964350076,"connected_time":184000000000,"state":"active","ping":54},{"user_id":435,"name":"finn the human","steam_id":76561198072592880,"connected_time":3169000000000,"state":"active","ping":44},{"user_id":438,"name":"DeadErebus","steam_id":76561198286117045,"connected_time":3115000000000,"state":"active","ping":32},{"user_id":463,"name":"Slazzer","steam_id":76561198404351844,"connected_time":1964000000000,"state":"active","ping":77},{"user_id":449,"name":"Maxxycat","steam_id":76561198194062681,"connected_time":2885000000000,"state":"active","ping":59},{"user_id":464,"name":"d u k k i","steam_id":76561198071807437,"connected_time":1927000000000,"state":"active","ping":181},{"user_id":494,"name":"Spyfall","steam_id":76561198081729993,"connected_time":32000000000,"state":"active","ping":71},{"user_id":491,"name":"Phasmofreak69","steam_id":76561199192531253,"connected_time":184000000000,"state":"active","ping":58},{"user_id":432,"name":"Doubting Dave","steam_id":76561198066410749,"connected_time":3388000000000,"state":"active","ping":71},{"user_id":450,"name":"Chinese Cabbage","steam_id":76561198311588768,"connected_time":2834000000000,"state":"active","ping":77},{"user_id":466,"name":"clancy","steam_id":76561199294116951,"connected_time":1888000000000,"state":"active","ping":129},{"user_id":468,"name":"Grify","steam_id":76561198012292317,"connected_time":1845000000000,"state":"active","ping":88},{"user_id":479,"name":"Oli B\u003eQS/BP/Bulk w/ 500+ keys","steam_id":76561198140316312,"connected_time":928000000000,"state":"active","ping":49},{"user_id":470,"name":"Tamalito109","steam_id":76561198310531554,"connected_time":1812000000000,"state":"active","ping":100},{"user_id":493,"name":"BIG CHIP","steam_id":76561198023680617,"connected_time":87000000000,"state":"active","ping":48},{"user_id":482,"name":"dbelow_","steam_id":76561198056148853,"connected_time":572000000000,"state":"active","ping":66}]},{"server_id":402,"name":"Uncletopia | Chicago | 3 | All Maps","name_short":"chi-3","host":"chi-1.us.uncletopia.com","port":27035,"enabled":true,"region":"us-central","cc":"us","latitude":41.881832,"longitude":-87.62318,"reserved":0,"last_update":"0001-01-01T00:00:00Z","name_a2s":"Uncletopia | Chicago | 3 | All Maps","protocol":17,"map":"koth_viaduct","folder":"tf","game":"Team Fortress","app_id":440,"player_count":24,"max_players":24,"Bots":0,"server_type":"Dedicated","server_os":"Linux","password":true,"vac":true,"version":"7757534","steam_id":85568392924515191,"keywords":["cp","nocrits","nodmgspread","uncletopia"],"game_id":440,"stv_port":27036,"stv_name":"Uncletopia | Chicago | 3 | All Maps | STV","players":[{"user_id":303,"name":"roberito","steam_id":76561198148367036,"connected_time":2067000000000,"state":"active","ping":59},{"user_id":327,"name":"TheGuyWhoPlays","steam_id":76561198277363002,"connected_time":393000000000,"state":"active","ping":55},{"user_id":328,"name":"burm","steam_id":76561198039354652,"connected_time":216000000000,"state":"active","ping":104},{"user_id":308,"name":"Sgt. Bread","steam_id":76561198441943642,"connected_time":1774000000000,"state":"active","ping":215},{"user_id":236,"name":"DJ Chalice","steam_id":76561197974872458,"connected_time":6391000000000,"state":"active","ping":75},{"user_id":276,"name":"stupid ape","steam_id":76561198350027075,"connected_time":3424000000000,"state":"active","ping":64},{"user_id":259,"name":"Trove","steam_id":76561198110970476,"connected_time":4687000000000,"state":"active","ping":53},{"user_id":307,"name":"▲▼▲ Paul Atreideeznuts","steam_id":76561198015714075,"connected_time":1853000000000,"state":"active","ping":81},{"user_id":322,"name":"Herment","steam_id":76561198710005863,"connected_time":488000000000,"state":"active","ping":72},{"user_id":323,"name":"MECHANISM MALE","steam_id":76561198855935442,"connected_time":451000000000,"state":"active","ping":74},{"user_id":316,"name":"Pneumo.","steam_id":76561197987911883,"connected_time":1274000000000,"state":"active","ping":155},{"user_id":268,"name":"Also Known As Assteeth","steam_id":76561198049837377,"connected_time":4310000000000,"state":"active","ping":45},{"user_id":305,"name":"watching","steam_id":76561198255249600,"connected_time":1900000000000,"state":"active","ping":72},{"user_id":331,"name":"Senna","steam_id":76561198115830949,"connected_time":17000000000,"state":"active","ping":81},{"user_id":325,"name":"DamerDoozle","steam_id":76561199121686201,"connected_time":414000000000,"state":"active","ping":70},{"user_id":306,"name":"BasicPeaches","steam_id":76561198190890150,"connected_time":1900000000000,"state":"active","ping":76},{"user_id":315,"name":"¬‿¬","steam_id":76561198325526945,"connected_time":1459000000000,"state":"active","ping":67},{"user_id":310,"name":"CHEEKY EUNUCH","steam_id":76561198990825232,"connected_time":1744000000000,"state":"active","ping":61},{"user_id":114,"name":"Motreir","steam_id":76561198151717946,"connected_time":14027000000000,"state":"active","ping":80},{"user_id":311,"name":"Drsausage69","steam_id":76561198309230782,"connected_time":1744000000000,"state":"active","ping":91},{"user_id":321,"name":"_hooded_","steam_id":76561198023595873,"connected_time":632000000000,"state":"active","ping":81},{"user_id":285,"name":"J.G. Klaus","steam_id":76561198001111196,"connected_time":2776000000000,"state":"active","ping":64},{"user_id":318,"name":"Xen","steam_id":76561198025311844,"connected_time":933000000000,"state":"active","ping":93},{"user_id":326,"name":"Tanky","steam_id":76561199440310323,"connected_time":413000000000,"state":"active","ping":75}]},{"server_id":403,"name":"Uncletopia | Chicago | 4 | All Maps","name_short":"chi-4","host":"chi-1.us.uncletopia.com","port":27045,"enabled":true,"region":"us-central","cc":"us","latitude":41.881832,"longitude":-87.62318,"reserved":0,"last_update":"0001-01-01T00:00:00Z","name_a2s":"Uncletopia | Chicago | 4 | All Maps","protocol":17,"map":"pl_borneo","folder":"tf","game":"Team Fortress","app_id":440,"player_count":23,"max_players":24,"Bots":0,"server_type":"Dedicated","server_os":"Linux","password":true,"vac":true,"version":"7757534","steam_id":85568392924515193,"keywords":["nocrits","nodmgspread","payload","uncletopia"],"game_id":440,"stv_port":27046,"stv_name":"Uncletopia | Chicago | 4 | All Maps | STV","players":[{"user_id":8,"name":"NBA2k22hoodmoments","steam_id":76561198383103506,"connected_time":7651000000000,"state":"active","ping":52},{"user_id":50,"name":"♂♥ spum Burgler","steam_id":76561198158003907,"connected_time":5983000000000,"state":"active","ping":78},{"user_id":117,"name":"yaldabaoth","steam_id":76561198084606869,"connected_time":689000000000,"state":"active","ping":40},{"user_id":106,"name":"Kirum","steam_id":76561199050174626,"connected_time":1031000000000,"state":"active","ping":59},{"user_id":88,"name":"Dark Lord","steam_id":76561198044199150,"connected_time":2474000000000,"state":"active","ping":71},{"user_id":105,"name":"Stryker Donger","steam_id":76561198073542859,"connected_time":1038000000000,"state":"active","ping":103},{"user_id":104,"name":"hexagram","steam_id":76561198077902438,"connected_time":1074000000000,"state":"active","ping":89},{"user_id":56,"name":"igotmail","steam_id":76561198070631899,"connected_time":5582000000000,"state":"active","ping":68},{"user_id":107,"name":"AudaCD","steam_id":76561198202775853,"connected_time":1031000000000,"state":"active","ping":45},{"user_id":121,"name":"i really like this dog :)","steam_id":76561198882404753,"connected_time":54000000000,"state":"active","ping":85},{"user_id":120,"name":"(1)PRAYTOGARFIELD","steam_id":76561199047858865,"connected_time":71000000000,"state":"active","ping":97},{"user_id":116,"name":"Kij2001","steam_id":76561198322000297,"connected_time":783000000000,"state":"active","ping":102},{"user_id":101,"name":"Worst Scenario","steam_id":76561199052130229,"connected_time":1405000000000,"state":"active","ping":56},{"user_id":99,"name":"Rockcrusher","steam_id":76561199012666353,"connected_time":1647000000000,"state":"active","ping":66},{"user_id":118,"name":"Acehay14","steam_id":76561198052373291,"connected_time":609000000000,"state":"active","ping":59},{"user_id":86,"name":"Lasky","steam_id":76561198079437901,"connected_time":2754000000000,"state":"active","ping":82},{"user_id":83,"name":"TimTheEnchanter","steam_id":76561198174405078,"connected_time":2959000000000,"state":"active","ping":70},{"user_id":103,"name":"Monster","steam_id":76561198189429665,"connected_time":1091000000000,"state":"active","ping":69},{"user_id":102,"name":"Emperor Calus (Very Drippy)","steam_id":76561198239727208,"connected_time":1375000000000,"state":"active","ping":92},{"user_id":93,"name":"PRAYTOGARFIELD","steam_id":76561198329035044,"connected_time":2192000000000,"state":"active","ping":46},{"user_id":85,"name":"feliser","steam_id":76561198084336096,"connected_time":2875000000000,"state":"active","ping":56},{"user_id":113,"name":"ae","steam_id":76561198012945016,"connected_time":881000000000,"state":"active","ping":45},{"user_id":122,"name":"[GUT] RiDiK®","steam_id":76561197969756446,"connected_time":53000000000,"state":"active","ping":56}]},{"server_id":36,"name":"Uncletopia | Chicago | 5 | All Maps","name_short":"chi-5","host":"chi-2.us.uncletopia.com","port":27015,"enabled":true,"region":"us-central","cc":"us","latitude":41.881832,"longitude":-87.62318,"reserved":0,"last_update":"0001-01-01T00:00:00Z","name_a2s":"Uncletopia | Chicago | 5 | All Maps","protocol":17,"map":"koth_highpass","folder":"tf","game":"Team Fortress","app_id":440,"player_count":22,"max_players":24,"Bots":0,"server_type":"Dedicated","server_os":"Linux","password":true,"vac":true,"version":"7757534","steam_id":85568392924866362,"keywords":["cp","nocrits","nodmgspread","uncletopia"],"game_id":440,"stv_port":27016,"stv_name":"Uncletopia | Chicago | 5 | All Maps | STV","players":[{"user_id":85,"name":"ghostglitch","steam_id":76561197991608573,"connected_time":505000000000,"state":"active","ping":91},{"user_id":58,"name":"Goodboish","steam_id":76561198170403119,"connected_time":1877000000000,"state":"active","ping":66},{"user_id":50,"name":"Walkiing","steam_id":76561198074473413,"connected_time":2619000000000,"state":"active","ping":42},{"user_id":90,"name":"Dzhoshua","steam_id":76561198071915251,"connected_time":270000000000,"state":"active","ping":55},{"user_id":77,"name":"JohnnyBoi","steam_id":76561199082599937,"connected_time":1063000000000,"state":"active","ping":110},{"user_id":22,"name":"wolf_71","steam_id":76561198963570945,"connected_time":4069000000000,"state":"active","ping":67},{"user_id":59,"name":"gas chambers for pit bulls","steam_id":76561198045340743,"connected_time":1876000000000,"state":"active","ping":79},{"user_id":91,"name":"john","steam_id":76561198850447852,"connected_time":269000000000,"state":"active","ping":72},{"user_id":60,"name":"TheDarkOne","steam_id":76561198409746725,"connected_time":1799000000000,"state":"active","ping":56},{"user_id":45,"name":"Elongated Muskrat","steam_id":76561198314501346,"connected_time":2827000000000,"state":"active","ping":87},{"user_id":55,"name":"AutoCon17","steam_id":76561198209977473,"connected_time":2399000000000,"state":"active","ping":44},{"user_id":96,"name":"Squatchamo","steam_id":76561198012968239,"connected_time":142000000000,"state":"active","ping":69},{"user_id":83,"name":"Robin","steam_id":76561198121165149,"connected_time":713000000000,"state":"active","ping":43},{"user_id":70,"name":"raw chicken enjoyer","steam_id":76561198986943063,"connected_time":1309000000000,"state":"active","ping":56},{"user_id":71,"name":"LitlToast","steam_id":76561198353473171,"connected_time":1302000000000,"state":"active","ping":67},{"user_id":36,"name":"//MPinkStahli //_^","steam_id":76561198014421477,"connected_time":3198000000000,"state":"active","ping":49},{"user_id":94,"name":"CrazySquirrel","steam_id":76561198206338200,"connected_time":260000000000,"state":"active","ping":62},{"user_id":38,"name":"Nen","steam_id":76561198893347370,"connected_time":3174000000000,"state":"active","ping":113},{"user_id":89,"name":"pipis","steam_id":76561198140971525,"connected_time":300000000000,"state":"active","ping":60},{"user_id":95,"name":"Nav","steam_id":76561198278282836,"connected_time":244000000000,"state":"active","ping":54},{"user_id":61,"name":"squid","steam_id":76561199001656196,"connected_time":1796000000000,"state":"active","ping":54},{"user_id":75,"name":"Knight","steam_id":76561198154529952,"connected_time":1254000000000,"state":"active","ping":98}]},{"server_id":37,"name":"Uncletopia | Chicago | 6 | All Maps","name_short":"chi-6","host":"chi-2.us.uncletopia.com","port":27025,"enabled":true,"region":"us-central","cc":"us","latitude":41.881832,"longitude":-87.62318,"reserved":0,"last_update":"0001-01-01T00:00:00Z","name_a2s":"Uncletopia | Chicago | 6 | All Maps","protocol":17,"map":"cp_dustbowl","folder":"tf","game":"Team Fortress","app_id":440,"player_count":24,"max_players":24,"Bots":0,"server_type":"Dedicated","server_os":"Linux","password":true,"vac":true,"version":"7757534","steam_id":85568392924866363,"keywords":["cp","nocrits","nodmgspread","uncletopia"],"game_id":440,"stv_port":27026,"stv_name":"Uncletopia | Chicago | 6 | All Maps | STV","players":[{"user_id":214,"name":"Type Three Dabeetus","steam_id":76561198062710038,"connected_time":871000000000,"state":"active","ping":101},{"user_id":206,"name":"tuna","steam_id":76561198128164970,"connected_time":1136000000000,"state":"active","ping":108},{"user_id":218,"name":"rat eater","steam_id":76561199216874750,"connected_time":461000000000,"state":"active","ping":61},{"user_id":202,"name":"Urine Enthusiast [Piss Gaming]","steam_id":76561198067798973,"connected_time":1401000000000,"state":"active","ping":128},{"user_id":209,"name":"biigman","steam_id":76561198111147624,"connected_time":927000000000,"state":"active","ping":92},{"user_id":175,"name":"enmgxcltayiqoacx","steam_id":76561197974965536,"connected_time":3678000000000,"state":"active","ping":65},{"user_id":173,"name":"Bad Rollout","steam_id":76561197971948876,"connected_time":3738000000000,"state":"active","ping":74},{"user_id":197,"name":"Broadsword","steam_id":76561198011160411,"connected_time":2134000000000,"state":"active","ping":87},{"user_id":188,"name":"AlphaScout","steam_id":76561198047797890,"connected_time":2514000000000,"state":"active","ping":73},{"user_id":215,"name":"Ectomonkey","steam_id":76561198125417062,"connected_time":790000000000,"state":"active","ping":101},{"user_id":186,"name":"Lots0","steam_id":76561198043143145,"connected_time":2562000000000,"state":"active","ping":101},{"user_id":190,"name":"Sky (⌐■_■)","steam_id":76561198104953731,"connected_time":2500000000000,"state":"active","ping":94},{"user_id":211,"name":"Highphin","steam_id":76561198986584680,"connected_time":919000000000,"state":"active","ping":66},{"user_id":219,"name":"Spaghetti","steam_id":76561198019383013,"connected_time":420000000000,"state":"active","ping":77},{"user_id":217,"name":"fmell","steam_id":76561198111655570,"connected_time":506000000000,"state":"active","ping":46},{"user_id":205,"name":"sombrero Artgrenadier","steam_id":76561198063305359,"connected_time":1149000000000,"state":"active","ping":71},{"user_id":174,"name":"GrimDaReaper","steam_id":76561199038948822,"connected_time":3730000000000,"state":"active","ping":90},{"user_id":203,"name":"Looking for my marbles","steam_id":76561198208078111,"connected_time":1388000000000,"state":"active","ping":98},{"user_id":221,"name":"conscripted monk","steam_id":76561199029246232,"connected_time":140000000000,"state":"active","ping":68},{"user_id":49,"name":"Loki!","steam_id":76561198089201861,"connected_time":13458000000000,"state":"active","ping":65},{"user_id":207,"name":"Platino","steam_id":76561198410957728,"connected_time":1113000000000,"state":"active","ping":51},{"user_id":213,"name":"Nixx","steam_id":76561198156166913,"connected_time":887000000000,"state":"active","ping":95},{"user_id":193,"name":"hud7on","steam_id":76561198185811389,"connected_time":2445000000000,"state":"active","ping":81},{"user_id":172,"name":"Enzo","steam_id":76561197975076681,"connected_time":3974000000000,"state":"active","ping":49}]},{"server_id":38,"name":"Uncletopia | Chicago | 7 | Stopwatch Beta","name_short":"chi-7","host":"chi-2.us.uncletopia.com","port":27035,"enabled":true,"region":"us-central","cc":"us","latitude":41.881832,"longitude":-87.62318,"reserved":0,"last_update":"0001-01-01T00:00:00Z","name_a2s":"Uncletopia | Chicago | 7 | Stopwatch Beta","protocol":17,"map":"pl_barnblitz","folder":"tf","game":"Team Fortress","app_id":440,"player_count":0,"max_players":24,"Bots":0,"server_type":"Dedicated","server_os":"Linux","password":true,"vac":true,"version":"7757534","steam_id":85568392924866364,"keywords":["nocrits","nodmgspread","payload","uncletopia"],"game_id":440,"stv_port":27036,"stv_name":"Uncletopia | Chicago | 7 | Stopwatch Beta | STV","players":null},{"server_id":39,"name":"Uncletopia | Chicago | 8 | Community","name_short":"chi-8","host":"chi-2.us.uncletopia.com","port":27045,"enabled":true,"region":"us-central","cc":"us","latitude":41.881832,"longitude":-87.62318,"reserved":0,"last_update":"0001-01-01T00:00:00Z","name_a2s":"Uncletopia | Chicago | 8 | Community","protocol":17,"map":"koth_cascade","folder":"tf","game":"Team Fortress","app_id":440,"player_count":0,"max_players":24,"Bots":0,"server_type":"Dedicated","server_os":"Linux","password":true,"vac":true,"version":"7757534","steam_id":85568392924866365,"keywords":["cp","nocrits","nodmgspread","uncletopia"],"game_id":440,"stv_port":27046,"stv_name":"Uncletopia | Chicago | 8 | Community | STV","players":null},{"server_id":8,"name":"Uncletopia | Dallas | 1 | All Maps","name_short":"dal-1","host":"dal-1.us.uncletopia.com","port":27015,"enabled":true,"region":"us-central","cc":"us","latitude":32.779167,"longitude":-96.80889,"reserved":0,"last_update":"0001-01-01T00:00:00Z","name_a2s":"Uncletopia | Dallas | 1 | All Maps","protocol":17,"map":"koth_lakeside_final","folder":"tf","game":"Team Fortress","app_id":440,"player_count":21,"max_players":24,"Bots":0,"server_type":"Dedicated","server_os":"Linux","password":true,"vac":true,"version":"7757534","steam_id":85568392924469986,"keywords":["cp","nocrits","nodmgspread","uncletopia"],"game_id":440,"stv_port":27016,"stv_name":"Uncletopia | Dallas | 1 | All Maps | STV","players":[{"user_id":243,"name":"heavensandwiches","steam_id":76561198019021094,"connected_time":2626000000000,"state":"active","ping":56},{"user_id":270,"name":"sam1521","steam_id":76561198027264163,"connected_time":682000000000,"state":"active","ping":70},{"user_id":274,"name":"DMM","steam_id":76561198065426171,"connected_time":463000000000,"state":"active","ping":57},{"user_id":254,"name":"Moonflower ✦","steam_id":76561198191782483,"connected_time":1670000000000,"state":"active","ping":49},{"user_id":237,"name":"pleasehelpidonthavefingers","steam_id":76561199367935846,"connected_time":3067000000000,"state":"active","ping":71},{"user_id":256,"name":"iaPK","steam_id":76561198056618642,"connected_time":1565000000000,"state":"active","ping":40},{"user_id":249,"name":"Goblin Merchant (50 OFF)","steam_id":76561199323707429,"connected_time":2292000000000,"state":"active","ping":66},{"user_id":252,"name":"Mellou","steam_id":76561198212048740,"connected_time":2015000000000,"state":"active","ping":50},{"user_id":267,"name":"Alwsomex0","steam_id":76561198397244772,"connected_time":691000000000,"state":"active","ping":108},{"user_id":268,"name":"Kataoka","steam_id":76561198162169852,"connected_time":690000000000,"state":"active","ping":81},{"user_id":247,"name":"Shattered Glass","steam_id":76561198116835391,"connected_time":2493000000000,"state":"active","ping":86},{"user_id":271,"name":"Axities","steam_id":76561198278008225,"connected_time":641000000000,"state":"active","ping":78},{"user_id":235,"name":"EmotreX","steam_id":76561198366518989,"connected_time":3354000000000,"state":"active","ping":52},{"user_id":232,"name":"Flubdy_","steam_id":76561198073338521,"connected_time":3589000000000,"state":"active","ping":57},{"user_id":164,"name":"Fresh Lychee","steam_id":76561198045399559,"connected_time":9805000000000,"state":"active","ping":78},{"user_id":276,"name":"Five","steam_id":76561198026640473,"connected_time":291000000000,"state":"active","ping":61},{"user_id":275,"name":"thanksgiving turkey","steam_id":76561198976876859,"connected_time":425000000000,"state":"active","ping":85},{"user_id":165,"name":"The World's Softest Sandwich","steam_id":76561198015577707,"connected_time":9803000000000,"state":"active","ping":76},{"user_id":167,"name":"gamerlegend47","steam_id":76561198122776598,"connected_time":9733000000000,"state":"active","ping":70},{"user_id":255,"name":"momb","steam_id":76561198142234038,"connected_time":1601000000000,"state":"active","ping":85},{"user_id":262,"name":"minty","steam_id":76561198062821894,"connected_time":727000000000,"state":"active","ping":52}]},{"server_id":108,"name":"Uncletopia | Dallas | 2 | All Maps","name_short":"dal-2","host":"dal-1.us.uncletopia.com","port":27025,"enabled":true,"region":"us-central","cc":"us","latitude":32.779167,"longitude":-96.80889,"reserved":0,"last_update":"0001-01-01T00:00:00Z","name_a2s":"Uncletopia | Dallas | 2 | All Maps","protocol":17,"map":"cp_snakewater_final1","folder":"tf","game":"Team Fortress","app_id":440,"player_count":24,"max_players":24,"Bots":0,"server_type":"Dedicated","server_os":"Linux","password":true,"vac":true,"version":"7757534","steam_id":85568392924469988,"keywords":["cp","nocrits","nodmgspread","uncletopia"],"game_id":440,"stv_port":27026,"stv_name":"Uncletopia | Dallas | 2 | All Maps | STV","players":[{"user_id":82,"name":"Nightlygalad","steam_id":76561198170693990,"connected_time":5216000000000,"state":"active","ping":84},{"user_id":133,"name":"Jeugh","steam_id":76561198073498865,"connected_time":1189000000000,"state":"active","ping":109},{"user_id":97,"name":"Can You Feel It Mr.Krabs","steam_id":76561198128302414,"connected_time":4651000000000,"state":"active","ping":68},{"user_id":144,"name":"Sir.TopHats","steam_id":76561198267326839,"connected_time":254000000000,"state":"active","ping":64},{"user_id":137,"name":"Carapintada","steam_id":76561199388911950,"connected_time":984000000000,"state":"active","ping":57},{"user_id":150,"name":"FunGi","steam_id":76561198881418662,"connected_time":73000000000,"state":"active","ping":75},{"user_id":145,"name":"demonight team defense too","steam_id":76561198038400226,"connected_time":247000000000,"state":"active","ping":54},{"user_id":127,"name":"Look See","steam_id":76561198157253413,"connected_time":1242000000000,"state":"active","ping":99},{"user_id":119,"name":"xZackAttack27x","steam_id":76561198035446639,"connected_time":2231000000000,"state":"active","ping":36},{"user_id":138,"name":"Jacob Hornberger 2016 dice","steam_id":76561198204549723,"connected_time":961000000000,"state":"active","ping":132},{"user_id":122,"name":"♥ t.tv/thedittoguy ♥","steam_id":76561199013129784,"connected_time":2158000000000,"state":"active","ping":60},{"user_id":76,"name":"JACOB","steam_id":76561198211874895,"connected_time":5559000000000,"state":"active","ping":104},{"user_id":79,"name":"tekan","steam_id":76561199077174231,"connected_time":5473000000000,"state":"active","ping":97},{"user_id":115,"name":"girl smell","steam_id":76561198118962168,"connected_time":2829000000000,"state":"active","ping":73},{"user_id":126,"name":"Koffy","steam_id":76561198184386039,"connected_time":1277000000000,"state":"active","ping":81},{"user_id":78,"name":"Misha","steam_id":76561198066174041,"connected_time":5521000000000,"state":"active","ping":89},{"user_id":113,"name":"Eden","steam_id":76561198081284664,"connected_time":2904000000000,"state":"active","ping":74},{"user_id":140,"name":"ChefSamHero","steam_id":76561198835118478,"connected_time":926000000000,"state":"active","ping":61},{"user_id":104,"name":"RedFlare","steam_id":76561199254669036,"connected_time":4013000000000,"state":"active","ping":83},{"user_id":123,"name":"TheMilkMan","steam_id":76561198407934122,"connected_time":2006000000000,"state":"active","ping":90},{"user_id":148,"name":"Scita","steam_id":76561198066861559,"connected_time":231000000000,"state":"active","ping":91},{"user_id":146,"name":"Doc{MDW}","steam_id":76561198075049640,"connected_time":244000000000,"state":"active","ping":76},{"user_id":132,"name":"RomerKromer","steam_id":76561198050499626,"connected_time":1215000000000,"state":"active","ping":70},{"user_id":149,"name":"JaRdZ","steam_id":76561199154246816,"connected_time":224000000000,"state":"active","ping":76}]},{"server_id":5,"name":"Uncletopia | Frankfurt | 1 | All Maps","name_short":"frk-1","host":"frk-1.de.uncletopia.com","port":27015,"enabled":true,"region":"eu","cc":"de","latitude":50.110924,"longitude":8.682127,"reserved":0,"last_update":"0001-01-01T00:00:00Z","name_a2s":"Uncletopia | Frankfurt | 1 | All Maps","protocol":17,"map":"cp_dustbowl","folder":"tf","game":"Team Fortress","app_id":440,"player_count":11,"max_players":24,"Bots":0,"server_type":"Dedicated","server_os":"Linux","password":true,"vac":true,"version":"7757534","steam_id":85568392924469989,"keywords":["cp","nocrits","nodmgspread","uncletopia"],"game_id":440,"stv_port":27016,"stv_name":"Uncletopia | Frankfurt | 1 | All Maps | STV","players":[{"user_id":647,"name":"Borazilla","steam_id":76561198083626821,"connected_time":219000000000,"state":"active","ping":112},{"user_id":635,"name":"Carrotcracker","steam_id":76561198034862396,"connected_time":943000000000,"state":"active","ping":68},{"user_id":646,"name":"Mza28","steam_id":76561198873993324,"connected_time":261000000000,"state":"active","ping":76},{"user_id":639,"name":"Grandfir8","steam_id":76561198209624295,"connected_time":718000000000,"state":"active","ping":155},{"user_id":649,"name":"Predrag218","steam_id":76561199242439630,"connected_time":80000000000,"state":"active","ping":127},{"user_id":638,"name":"truebosnianking","steam_id":76561199440060597,"connected_time":778000000000,"state":"active","ping":85},{"user_id":640,"name":"Usagi","steam_id":76561198009808058,"connected_time":566000000000,"state":"active","ping":47},{"user_id":631,"name":"eeeeee","steam_id":76561198017786875,"connected_time":1064000000000,"state":"active","ping":59},{"user_id":642,"name":"Thingy","steam_id":76561198927484630,"connected_time":499000000000,"state":"active","ping":57},{"user_id":633,"name":"640x480","steam_id":76561198304515309,"connected_time":1009000000000,"state":"active","ping":72},{"user_id":623,"name":"Maru","steam_id":76561198030931030,"connected_time":1685000000000,"state":"active","ping":68}]},{"server_id":110,"name":"Uncletopia | Frankfurt | 2 | All Maps","name_short":"frk-2","host":"frk-1.de.uncletopia.com","port":27025,"enabled":true,"region":"eu","cc":"de","latitude":50.110924,"longitude":8.682127,"reserved":0,"last_update":"0001-01-01T00:00:00Z","name_a2s":"Uncletopia | Frankfurt | 2 | All Maps","protocol":17,"map":"pl_badwater","folder":"tf","game":"Team Fortress","app_id":440,"player_count":24,"max_players":24,"Bots":0,"server_type":"Dedicated","server_os":"Linux","password":true,"vac":true,"version":"7757534","steam_id":85568392924469990,"keywords":["nocrits","nodmgspread","payload","uncletopia"],"game_id":440,"stv_port":27026,"stv_name":"Uncletopia | Frankfurt | 2 | All Maps | STV","players":[{"user_id":572,"name":"nynon","steam_id":76561197998432126,"connected_time":1083000000000,"state":"active","ping":90},{"user_id":561,"name":"Typs","steam_id":76561198011748555,"connected_time":2289000000000,"state":"active","ping":49},{"user_id":570,"name":"_Starlight_","steam_id":76561197993885738,"connected_time":1158000000000,"state":"active","ping":84},{"user_id":476,"name":"ChickyCoop","steam_id":76561199072983488,"connected_time":7283000000000,"state":"active","ping":71},{"user_id":578,"name":"jmp","steam_id":76561198168283286,"connected_time":706000000000,"state":"active","ping":68},{"user_id":577,"name":"Dewotter","steam_id":76561198007653168,"connected_time":727000000000,"state":"active","ping":65},{"user_id":584,"name":"1ggy","steam_id":76561199051285912,"connected_time":122000000000,"state":"active","ping":135},{"user_id":575,"name":"челкарь против ш\ufffd","steam_id":76561199149307190,"connected_time":797000000000,"state":"active","ping":76},{"user_id":559,"name":"s a i","steam_id":76561197970379754,"connected_time":2327000000000,"state":"active","ping":45},{"user_id":573,"name":"Syll","steam_id":76561198040736202,"connected_time":925000000000,"state":"active","ping":92},{"user_id":583,"name":"Barbiehunter #SaveTF2","steam_id":76561198071630928,"connected_time":570000000000,"state":"active","ping":50},{"user_id":521,"name":"Knez","steam_id":76561198043806388,"connected_time":4395000000000,"state":"active","ping":71},{"user_id":585,"name":"xiiski","steam_id":76561198152387747,"connected_time":11000000000,"state":"spawning","ping":81},{"user_id":579,"name":"LOBZIK","steam_id":76561198114830120,"connected_time":689000000000,"state":"active","ping":75},{"user_id":580,"name":"addicted","steam_id":76561199129801006,"connected_time":679000000000,"state":"active","ping":45},{"user_id":581,"name":"Woa","steam_id":76561198345683201,"connected_time":679000000000,"state":"active","ping":54},{"user_id":562,"name":"Bounter","steam_id":76561198072614188,"connected_time":2184000000000,"state":"active","ping":63},{"user_id":478,"name":"The Bushman","steam_id":76561198152576682,"connected_time":7197000000000,"state":"active","ping":80},{"user_id":569,"name":"DespawnedDiamond","steam_id":76561198841944417,"connected_time":1166000000000,"state":"active","ping":72},{"user_id":541,"name":"howabe","steam_id":76561197996486818,"connected_time":3753000000000,"state":"active","ping":53},{"user_id":553,"name":"Radegast the Brown","steam_id":76561198075489505,"connected_time":3061000000000,"state":"active","ping":60},{"user_id":551,"name":"Danio211","steam_id":76561199228698878,"connected_time":3093000000000,"state":"active","ping":76},{"user_id":582,"name":"KingPotatoChips","steam_id":76561198035156465,"connected_time":669000000000,"state":"active","ping":58},{"user_id":499,"name":"Ott","steam_id":76561198276464481,"connected_time":6131000000000,"state":"active","ping":69}]},{"server_id":308,"name":"Uncletopia | Frankfurt | 3 | All Maps","name_short":"frk-3","host":"frk-1.de.uncletopia.com","port":27035,"enabled":true,"region":"eu","cc":"de","latitude":50.110924,"longitude":8.682127,"reserved":0,"last_update":"0001-01-01T00:00:00Z","name_a2s":"Uncletopia | Frankfurt | 3 | All Maps","protocol":17,"map":"koth_sawmill","folder":"tf","game":"Team Fortress","app_id":440,"player_count":22,"max_players":24,"Bots":0,"server_type":"Dedicated","server_os":"Linux","password":true,"vac":true,"version":"7757534","steam_id":85568392924504274,"keywords":["cp","nocrits","nodmgspread","uncletopia"],"game_id":440,"stv_port":27036,"stv_name":"Uncletopia | Frankfurt | 3 | All Maps | STV","players":[{"user_id":325,"name":"grandpa's post-mortem photo","steam_id":76561198130116078,"connected_time":1430000000000,"state":"active","ping":96},{"user_id":352,"name":"dn4k","steam_id":76561199221755690,"connected_time":298000000000,"state":"active","ping":76},{"user_id":351,"name":"HamsterPi","steam_id":76561198079430842,"connected_time":320000000000,"state":"active","ping":73},{"user_id":347,"name":"Conni243","steam_id":76561198900177514,"connected_time":528000000000,"state":"active","ping":45},{"user_id":326,"name":"epicgamerfb42","steam_id":76561198057046524,"connected_time":1428000000000,"state":"active","ping":102},{"user_id":304,"name":"Darth Ross","steam_id":76561198019563782,"connected_time":3294000000000,"state":"active","ping":66},{"user_id":287,"name":"Ecton","steam_id":76561198025103720,"connected_time":5033000000000,"state":"active","ping":61},{"user_id":335,"name":"noodlehairronaldoprime","steam_id":76561199471954402,"connected_time":1151000000000,"state":"active","ping":59},{"user_id":346,"name":"Mr. House (Real)","steam_id":76561198162554213,"connected_time":534000000000,"state":"active","ping":76},{"user_id":341,"name":"Nyhde","steam_id":76561198012771416,"connected_time":870000000000,"state":"active","ping":82},{"user_id":342,"name":"tiny engi","steam_id":76561199380255051,"connected_time":814000000000,"state":"active","ping":89},{"user_id":306,"name":"Darastrix","steam_id":76561198044170224,"connected_time":3267000000000,"state":"active","ping":70},{"user_id":356,"name":"madman hesus","steam_id":76561198159702599,"connected_time":84000000000,"state":"active","ping":76},{"user_id":329,"name":"REN","steam_id":76561198000596385,"connected_time":1390000000000,"state":"active","ping":70},{"user_id":353,"name":"tirr0j","steam_id":76561198061949211,"connected_time":248000000000,"state":"active","ping":84},{"user_id":355,"name":"Pan W","steam_id":76561198384111099,"connected_time":147000000000,"state":"active","ping":72},{"user_id":358,"name":"mp1mp2mp3","steam_id":76561198088967665,"connected_time":28000000000,"state":"active","ping":144},{"user_id":348,"name":"r0la","steam_id":76561198128315340,"connected_time":495000000000,"state":"active","ping":87},{"user_id":339,"name":"Goose of Wisdom","steam_id":76561198233465044,"connected_time":1012000000000,"state":"active","ping":151},{"user_id":297,"name":"Gorogaz","steam_id":76561198207157679,"connected_time":4105000000000,"state":"active","ping":61},{"user_id":349,"name":"Mr.Dies a lot","steam_id":76561199061602946,"connected_time":483000000000,"state":"active","ping":90},{"user_id":350,"name":"Monara12th","steam_id":76561199478607360,"connected_time":444000000000,"state":"active","ping":70}]},{"server_id":309,"name":"Uncletopia | Frankfurt | 4 | All Maps","name_short":"frk-4","host":"frk-1.de.uncletopia.com","port":27045,"enabled":true,"region":"eu","cc":"de","latitude":50.110924,"longitude":8.682127,"reserved":0,"last_update":"0001-01-01T00:00:00Z","name_a2s":"Uncletopia | Frankfurt | 4 | All Maps","protocol":17,"map":"pl_upward","folder":"tf","game":"Team Fortress","app_id":440,"player_count":22,"max_players":24,"Bots":0,"server_type":"Dedicated","server_os":"Linux","password":true,"vac":true,"version":"7757534","steam_id":85568392924504275,"keywords":["nocrits","nodmgspread","payload","uncletopia"],"game_id":440,"stv_port":27046,"stv_name":"Uncletopia | Frankfurt | 4 | All Maps | STV","players":[{"user_id":93,"name":"balinter","steam_id":76561198103408801,"connected_time":1981000000000,"state":"active","ping":75},{"user_id":114,"name":"Goobie","steam_id":76561198047375383,"connected_time":256000000000,"state":"active","ping":50},{"user_id":107,"name":"Tesla","steam_id":76561198378649144,"connected_time":1241000000000,"state":"active","ping":70},{"user_id":95,"name":"donnie darko gaming","steam_id":76561198073028512,"connected_time":1911000000000,"state":"active","ping":81},{"user_id":115,"name":"The Appleguy","steam_id":76561198444982569,"connected_time":133000000000,"state":"active","ping":73},{"user_id":96,"name":"maerd.","steam_id":76561198031942623,"connected_time":1837000000000,"state":"active","ping":67},{"user_id":109,"name":"revolver rolka","steam_id":76561198131103805,"connected_time":716000000000,"state":"active","ping":78},{"user_id":116,"name":"Knugen the Conqueror","steam_id":76561198127091993,"connected_time":113000000000,"state":"active","ping":53},{"user_id":108,"name":"John Noob","steam_id":76561197999170026,"connected_time":817000000000,"state":"active","ping":95},{"user_id":98,"name":"Panda","steam_id":76561198176342325,"connected_time":1785000000000,"state":"active","ping":100},{"user_id":51,"name":"Astyloblatta","steam_id":76561199222909666,"connected_time":4500000000000,"state":"active","ping":58},{"user_id":99,"name":"Do you uWu!?","steam_id":76561198067204908,"connected_time":1780000000000,"state":"active","ping":69},{"user_id":117,"name":"emnem","steam_id":76561198332712960,"connected_time":105000000000,"state":"active","ping":75},{"user_id":118,"name":"fake rx","steam_id":76561198105121641,"connected_time":27000000000,"state":"active","ping":67},{"user_id":101,"name":"yet another cringe name","steam_id":76561198170609049,"connected_time":1777000000000,"state":"active","ping":76},{"user_id":88,"name":"Avoo","steam_id":76561198186954897,"connected_time":2305000000000,"state":"active","ping":90},{"user_id":48,"name":"Carrot Arc","steam_id":76561198164957006,"connected_time":4720000000000,"state":"active","ping":87},{"user_id":102,"name":"i uWu for Ches","steam_id":76561198097507847,"connected_time":1767000000000,"state":"active","ping":76},{"user_id":111,"name":"LoLo","steam_id":76561199403387863,"connected_time":466000000000,"state":"active","ping":62},{"user_id":103,"name":"tïger","steam_id":76561198260483157,"connected_time":1762000000000,"state":"active","ping":79},{"user_id":110,"name":"Amigo zemcenu tarifs ārzemēm","steam_id":76561199168663034,"connected_time":609000000000,"state":"active","ping":61},{"user_id":106,"name":"Economic crisis","steam_id":76561198063562843,"connected_time":1744000000000,"state":"active","ping":52}]},{"server_id":310,"name":"Uncletopia | Frankfurt | 5 | All Maps","name_short":"frk-5","host":"frk-1.de.uncletopia.com","port":27055,"enabled":true,"region":"eu","cc":"de","latitude":50.110924,"longitude":8.682127,"reserved":0,"last_update":"0001-01-01T00:00:00Z","name_a2s":"Uncletopia | Frankfurt | 5 | All Maps","protocol":17,"map":"pl_badwater","folder":"tf","game":"Team Fortress","app_id":440,"player_count":24,"max_players":24,"Bots":0,"server_type":"Dedicated","server_os":"Linux","password":true,"vac":true,"version":"7757534","steam_id":85568392924504277,"keywords":["nocrits","nodmgspread","payload","uncletopia"],"game_id":440,"stv_port":27056,"stv_name":"Uncletopia | Frankfurt | 5 | All Maps | STV","players":[{"user_id":639,"name":"kyuta","steam_id":76561198382281653,"connected_time":1118000000000,"state":"active","ping":90},{"user_id":611,"name":"xavier","steam_id":76561198076494034,"connected_time":4583000000000,"state":"active","ping":58},{"user_id":612,"name":"LarsInABox","steam_id":76561198028329262,"connected_time":4571000000000,"state":"active","ping":75},{"user_id":537,"name":"sunshine (he/him)","steam_id":76561198084597975,"connected_time":9929000000000,"state":"active","ping":66},{"user_id":643,"name":"Ankle Dane","steam_id":76561198134378108,"connected_time":854000000000,"state":"active","ping":80},{"user_id":635,"name":"✿◕ ‿ ◕✿Ҝㄥㄖ丂乙","steam_id":76561198254420463,"connected_time":1534000000000,"state":"active","ping":72},{"user_id":646,"name":"MAKENTAKEN","steam_id":76561199127359587,"connected_time":708000000000,"state":"active","ping":96},{"user_id":628,"name":"Fat Pigeon","steam_id":76561198817940142,"connected_time":2677000000000,"state":"active","ping":49},{"user_id":648,"name":"Carkey","steam_id":76561198054398642,"connected_time":537000000000,"state":"active","ping":59},{"user_id":580,"name":"hananamanna","steam_id":76561198006570285,"connected_time":7091000000000,"state":"active","ping":111},{"user_id":662,"name":"Udinese Dion","steam_id":76561198067931573,"connected_time":52000000000,"state":"active","ping":57},{"user_id":622,"name":"Serton♝","steam_id":76561198011061126,"connected_time":3926000000000,"state":"active","ping":86},{"user_id":613,"name":"cursedbygod♡","steam_id":76561198318291047,"connected_time":4569000000000,"state":"active","ping":116},{"user_id":644,"name":"professional car consumer","steam_id":76561198977420882,"connected_time":843000000000,"state":"active","ping":56},{"user_id":576,"name":"elsuedi","steam_id":76561198074722832,"connected_time":7489000000000,"state":"active","ping":57},{"user_id":645,"name":"wouris","steam_id":76561198876188003,"connected_time":827000000000,"state":"active","ping":60},{"user_id":577,"name":"ghost","steam_id":76561198189940229,"connected_time":7461000000000,"state":"active","ping":64},{"user_id":623,"name":"Pipp Petals2014","steam_id":76561198147668373,"connected_time":3808000000000,"state":"active","ping":54},{"user_id":626,"name":"Cookies and Bakies","steam_id":76561198017442928,"connected_time":3293000000000,"state":"active","ping":65},{"user_id":555,"name":"Vershal Smershal","steam_id":76561198116223995,"connected_time":9222000000000,"state":"active","ping":62},{"user_id":658,"name":"CalzoneCarl456","steam_id":76561198846982793,"connected_time":187000000000,"state":"active","ping":62},{"user_id":647,"name":"Egor Pomidor","steam_id":76561199175688390,"connected_time":686000000000,"state":"active","ping":76},{"user_id":632,"name":"Jonathan","steam_id":76561198087988880,"connected_time":2525000000000,"state":"active","ping":49},{"user_id":637,"name":"sareena","steam_id":76561198810194062,"connected_time":1229000000000,"state":"active","ping":81}]},{"server_id":311,"name":"Uncletopia | Frankfurt | 6 | All Maps","name_short":"frk-6","host":"frk-1.de.uncletopia.com","port":27065,"enabled":true,"region":"eu","cc":"de","latitude":50.110924,"longitude":8.682127,"reserved":0,"last_update":"0001-01-01T00:00:00Z","name_a2s":"Uncletopia | Frankfurt | 6 | All Maps","protocol":17,"map":"pl_borneo","folder":"tf","game":"Team Fortress","app_id":440,"player_count":24,"max_players":24,"Bots":0,"server_type":"Dedicated","server_os":"Linux","password":true,"vac":true,"version":"7757534","steam_id":85568392924504278,"keywords":["nocrits","nodmgspread","payload","uncletopia"],"game_id":440,"stv_port":27066,"stv_name":"Uncletopia | Frankfurt | 6 | All Maps | STV","players":[{"user_id":549,"name":"Lyncurion","steam_id":76561199260022725,"connected_time":566000000000,"state":"active","ping":78},{"user_id":557,"name":"Farao Ramses II","steam_id":76561198078722712,"connected_time":331000000000,"state":"active","ping":54},{"user_id":497,"name":"Fuvuk","steam_id":76561198044458593,"connected_time":3287000000000,"state":"active","ping":91},{"user_id":533,"name":"2BCD","steam_id":76561198178254946,"connected_time":1623000000000,"state":"active","ping":68},{"user_id":545,"name":"Keks","steam_id":76561198109155202,"connected_time":862000000000,"state":"active","ping":44},{"user_id":551,"name":"Dave The Sloth","steam_id":76561199135831355,"connected_time":548000000000,"state":"active","ping":68},{"user_id":562,"name":"QuantumV","steam_id":76561198945732717,"connected_time":120000000000,"state":"active","ping":77},{"user_id":532,"name":"Clitorina","steam_id":76561198077570815,"connected_time":1817000000000,"state":"active","ping":54},{"user_id":548,"name":"Draku","steam_id":76561198129801642,"connected_time":694000000000,"state":"active","ping":90},{"user_id":563,"name":"Dope","steam_id":76561198318858892,"connected_time":109000000000,"state":"active","ping":69},{"user_id":553,"name":"-rikeOo-","steam_id":76561198303995379,"connected_time":476000000000,"state":"active","ping":68},{"user_id":522,"name":"5tv^","steam_id":76561198063129586,"connected_time":2119000000000,"state":"active","ping":69},{"user_id":564,"name":"Insain Bolt!","steam_id":76561198025687726,"connected_time":68000000000,"state":"active","ping":68},{"user_id":555,"name":"Oki (Bon)","steam_id":76561199047748534,"connected_time":417000000000,"state":"active","ping":69},{"user_id":525,"name":"Wululu","steam_id":76561198180657331,"connected_time":2091000000000,"state":"active","ping":59},{"user_id":535,"name":"disc0rd","steam_id":76561197985965776,"connected_time":1216000000000,"state":"active","ping":66},{"user_id":490,"name":"Vani'zaki","steam_id":76561198061424020,"connected_time":3551000000000,"state":"active","ping":65},{"user_id":531,"name":"Zanuda","steam_id":76561198060833686,"connected_time":1912000000000,"state":"active","ping":73},{"user_id":556,"name":"Arcader","steam_id":76561198109860110,"connected_time":402000000000,"state":"active","ping":57},{"user_id":537,"name":"finbar","steam_id":76561198056812396,"connected_time":1208000000000,"state":"active","ping":78},{"user_id":543,"name":"MeleeMeta","steam_id":76561198237963558,"connected_time":884000000000,"state":"active","ping":62},{"user_id":540,"name":"FeelsAvokado","steam_id":76561198223660888,"connected_time":1121000000000,"state":"active","ping":80},{"user_id":558,"name":"The Chosen One","steam_id":76561199046984627,"connected_time":313000000000,"state":"active","ping":176},{"user_id":561,"name":"true","steam_id":76561198031145243,"connected_time":171000000000,"state":"active","ping":123}]},{"server_id":23,"name":"Uncletopia | Frankfurt | 7 | Stopwatch Beta","name_short":"frk-7","host":"frk-1.de.uncletopia.com","port":27075,"enabled":true,"region":"eu","cc":"de","latitude":50.110924,"longitude":8.682127,"reserved":0,"last_update":"0001-01-01T00:00:00Z","name_a2s":"Uncletopia | Frankfurt | 7 | Stopwatch Beta","protocol":17,"map":"workshop/koth_bagel_rc6.ugc2514036946","folder":"tf","game":"Team Fortress","app_id":440,"player_count":0,"max_players":24,"Bots":0,"server_type":"Dedicated","server_os":"Linux","password":true,"vac":true,"version":"7757534","steam_id":85568392924742827,"keywords":["cp","nocrits","nodmgspread","uncletopia"],"game_id":440,"stv_port":27076,"stv_name":"Uncletopia | Frankfurt | 7 | Stopwatch Beta | STV","players":null},{"server_id":24,"name":"Uncletopia | Frankfurt | 8 | Community","name_short":"frk-8","host":"frk-1.de.uncletopia.com","port":27085,"enabled":true,"region":"eu","cc":"de","latitude":50.110924,"longitude":8.682127,"reserved":0,"last_update":"0001-01-01T00:00:00Z","name_a2s":"Uncletopia | Frankfurt | 8 | Community","protocol":17,"map":"workshop/cp_hazyfort_rc6.ugc1365963729","folder":"tf","game":"Team Fortress","app_id":440,"player_count":1,"max_players":24,"Bots":0,"server_type":"Dedicated","server_os":"Linux","password":true,"vac":true,"version":"7757534","steam_id":85568392924742828,"keywords":["cp","nocrits","nodmgspread","uncletopia"],"game_id":440,"stv_port":27086,"stv_name":"Uncletopia | Frankfurt | 8 | Community | STV","players":[{"user_id":7679,"name":"Debch1k","steam_id":76561198144985727,"connected_time":0,"state":"connecting","ping":60}]},{"server_id":202,"name":"Uncletopia | Hong Kong | 1 | All Maps","name_short":"hgk-1","host":"hgk-1.hk.uncletopia.com","port":27015,"enabled":true,"region":"asia","cc":"hk","latitude":22.302711,"longitude":114.177216,"reserved":0,"last_update":"0001-01-01T00:00:00Z","name_a2s":"Uncletopia | Hong Kong | 1 | All Maps","protocol":17,"map":"koth_lakeside_final","folder":"tf","game":"Team Fortress","app_id":440,"player_count":0,"max_players":24,"Bots":0,"server_type":"Dedicated","server_os":"Linux","password":true,"vac":true,"version":"7757534","steam_id":85568392924494504,"keywords":["cp","nocrits","nodmgspread","uncletopia"],"game_id":440,"stv_port":27016,"stv_name":"Uncletopia | Hong Kong | 1 | All Maps | STV","players":null},{"server_id":1,"name":"Uncletopia | Los Angeles | 1 | All Maps","name_short":"lax-1","host":"lax-1.us.uncletopia.com","port":27015,"enabled":true,"region":"us-west","cc":"us","latitude":33.94279,"longitude":-118.41004,"reserved":0,"last_update":"0001-01-01T00:00:00Z","name_a2s":"Uncletopia | Los Angeles | 1 | All Maps","protocol":17,"map":"koth_lakeside_final","folder":"tf","game":"Team Fortress","app_id":440,"player_count":1,"max_players":24,"Bots":0,"server_type":"Dedicated","server_os":"Linux","password":true,"vac":true,"version":"7757534","steam_id":85568392924469991,"keywords":["cp","nocrits","nodmgspread","uncletopia"],"game_id":440,"stv_port":27016,"stv_name":"Uncletopia | Los Angeles | 1 | All Maps | STV","players":[{"user_id":15,"name":"JJTv771v","steam_id":76561199090178746,"connected_time":281000000000,"state":"spawning","ping":644}]},{"server_id":112,"name":"Uncletopia | Los Angeles | 2 | All Maps","name_short":"lax-2","host":"lax-1.us.uncletopia.com","port":27025,"enabled":true,"region":"us-west","cc":"us","latitude":33.94279,"longitude":-118.41004,"reserved":0,"last_update":"0001-01-01T00:00:00Z","name_a2s":"Uncletopia | Los Angeles | 2 | All Maps","protocol":17,"map":"cp_snakewater_final1","folder":"tf","game":"Team Fortress","app_id":440,"player_count":0,"max_players":24,"Bots":0,"server_type":"Dedicated","server_os":"Linux","password":true,"vac":true,"version":"7757534","steam_id":85568392924469992,"keywords":["cp","nocrits","nodmgspread","uncletopia"],"game_id":440,"stv_port":27026,"stv_name":"Uncletopia | Los Angeles | 2 | All Maps | STV","players":null},{"server_id":324,"name":"Uncletopia | Los Angeles | 3 | All Maps","name_short":"lax-3","host":"lax-1.us.uncletopia.com","port":27035,"enabled":true,"region":"us-west","cc":"us","latitude":33.94279,"longitude":-118.41004,"reserved":0,"last_update":"0001-01-01T00:00:00Z","name_a2s":"Uncletopia | Los Angeles | 3 | All Maps","protocol":17,"map":"pl_barnblitz","folder":"tf","game":"Team Fortress","app_id":440,"player_count":0,"max_players":24,"Bots":0,"server_type":"Dedicated","server_os":"Linux","password":true,"vac":true,"version":"7757534","steam_id":85568392924510198,"keywords":["nocrits","nodmgspread","payload","uncletopia"],"game_id":440,"stv_port":27036,"stv_name":"Uncletopia | Los Angeles | 3 | All Maps | STV","players":null},{"server_id":25,"name":"Uncletopia | Los Angeles | 4 | Stopwatch Beta","name_short":"lax-4","host":"lax-1.us.uncletopia.com","port":27045,"enabled":true,"region":"us-west","cc":"us","latitude":33.94279,"longitude":-118.41004,"reserved":0,"last_update":"0001-01-01T00:00:00Z","name_a2s":"Uncletopia | Los Angeles | 4 | Stopwatch Beta","protocol":17,"map":"pl_swiftwater_final1","folder":"tf","game":"Team Fortress","app_id":440,"player_count":0,"max_players":24,"Bots":0,"server_type":"Dedicated","server_os":"Linux","password":true,"vac":true,"version":"7757534","steam_id":85568392924510199,"keywords":["nocrits","nodmgspread","payload","uncletopia"],"game_id":440,"stv_port":27046,"stv_name":"Uncletopia | Los Angeles | 4 | Stopwatch Beta | STV","players":null},{"server_id":11,"name":"Uncletopia | London | 1 | All Maps","name_short":"lon-1","host":"lon-1.uk.uncletopia.com","port":27015,"enabled":true,"region":"eu","cc":"gb","latitude":51.509865,"longitude":-0.118092,"reserved":0,"last_update":"0001-01-01T00:00:00Z","name_a2s":"Uncletopia | London | 1 | All Maps","protocol":17,"map":"pl_pier","folder":"tf","game":"Team Fortress","app_id":440,"player_count":24,"max_players":24,"Bots":0,"server_type":"Dedicated","server_os":"Linux","password":true,"vac":true,"version":"7757534","steam_id":85568392924367362,"keywords":["nocrits","nodmgspread","payload","uncletopia"],"game_id":440,"stv_port":27016,"stv_name":"Uncletopia | London | 1 | All Maps | STV","players":[{"user_id":569,"name":"flappi","steam_id":76561198072892783,"connected_time":3994000000000,"state":"active","ping":62},{"user_id":612,"name":"gibb (official)","steam_id":76561198074097655,"connected_time":269000000000,"state":"active","ping":42},{"user_id":592,"name":"𝔱𝔴𝔲𝔧𝔰𝔱𝔞\ufffd\ufffd\ufffd","steam_id":76561198155944450,"connected_time":2399000000000,"state":"active","ping":123},{"user_id":613,"name":"Krabs","steam_id":76561198161679477,"connected_time":129000000000,"state":"active","ping":45},{"user_id":568,"name":"SHLUUUURP","steam_id":76561199150903062,"connected_time":4129000000000,"state":"active","ping":57},{"user_id":578,"name":"Pineapple Okan","steam_id":76561198069199449,"connected_time":3475000000000,"state":"active","ping":110},{"user_id":558,"name":"Killer Queen","steam_id":76561198860424456,"connected_time":4711000000000,"state":"active","ping":63},{"user_id":611,"name":"Wyro","steam_id":76561199176835169,"connected_time":317000000000,"state":"active","ping":53},{"user_id":564,"name":"MrXtr","steam_id":76561198966247397,"connected_time":4595000000000,"state":"active","ping":67},{"user_id":532,"name":"Hermitcrack","steam_id":76561198149216441,"connected_time":6668000000000,"state":"active","ping":75},{"user_id":604,"name":"Omni","steam_id":76561197964320557,"connected_time":948000000000,"state":"active","ping":61},{"user_id":601,"name":"♥ aura ♥","steam_id":76561198066258544,"connected_time":1063000000000,"state":"active","ping":72},{"user_id":602,"name":"Sandshee","steam_id":76561198088574666,"connected_time":1059000000000,"state":"active","ping":42},{"user_id":605,"name":"Twitchy Gains","steam_id":76561198981136003,"connected_time":886000000000,"state":"active","ping":132},{"user_id":586,"name":"Poppy Stingray","steam_id":76561198049673783,"connected_time":2985000000000,"state":"active","ping":73},{"user_id":618,"name":"Lethal","steam_id":76561198452042648,"connected_time":16000000000,"state":"active","ping":79},{"user_id":608,"name":"jimmy bob","steam_id":76561198319583692,"connected_time":570000000000,"state":"active","ping":55},{"user_id":570,"name":"SnowShot","steam_id":76561198004766638,"connected_time":3798000000000,"state":"active","ping":75},{"user_id":600,"name":"youmme95","steam_id":76561198049802823,"connected_time":1268000000000,"state":"active","ping":81},{"user_id":587,"name":"teddy","steam_id":76561198007436837,"connected_time":2927000000000,"state":"active","ping":45},{"user_id":574,"name":"shooer! (shooer!)","steam_id":76561198110531281,"connected_time":3614000000000,"state":"active","ping":72},{"user_id":597,"name":"Aaron","steam_id":76561197990046953,"connected_time":2272000000000,"state":"active","ping":69},{"user_id":595,"name":"ayadam","steam_id":76561198161515769,"connected_time":2338000000000,"state":"active","ping":103},{"user_id":610,"name":"Vitamin Weee","steam_id":76561199183937747,"connected_time":385000000000,"state":"active","ping":99}]},{"server_id":114,"name":"Uncletopia | London | 2 | All Maps","name_short":"lon-2","host":"lon-1.uk.uncletopia.com","port":27025,"enabled":true,"region":"eu","cc":"gb","latitude":51.509865,"longitude":-0.118092,"reserved":0,"last_update":"0001-01-01T00:00:00Z","name_a2s":"Uncletopia | London | 2 | All Maps","protocol":17,"map":"pl_snowycoast","folder":"tf","game":"Team Fortress","app_id":440,"player_count":24,"max_players":24,"Bots":0,"server_type":"Dedicated","server_os":"Linux","password":true,"vac":true,"version":"7757534","steam_id":85568392924470941,"keywords":["nocrits","nodmgspread","payload","uncletopia"],"game_id":440,"stv_port":27026,"stv_name":"Uncletopia | London | 2 | All Maps | STV","players":[{"user_id":435,"name":"Gildedire","steam_id":76561198063959574,"connected_time":369000000000,"state":"active","ping":132},{"user_id":405,"name":"Lux","steam_id":76561198060417740,"connected_time":3277000000000,"state":"active","ping":46},{"user_id":424,"name":"syms","steam_id":76561198066679812,"connected_time":1207000000000,"state":"active","ping":79},{"user_id":415,"name":"NiKoRo","steam_id":76561197963686614,"connected_time":2357000000000,"state":"active","ping":83},{"user_id":401,"name":"frosty","steam_id":76561198094560834,"connected_time":3338000000000,"state":"active","ping":56},{"user_id":402,"name":"Johan","steam_id":76561199380849468,"connected_time":3291000000000,"state":"active","ping":62},{"user_id":417,"name":"LiterallyRyanGosling","steam_id":76561199017856691,"connected_time":2290000000000,"state":"active","ping":53},{"user_id":431,"name":"DocTwoEight","steam_id":76561198153488940,"connected_time":585000000000,"state":"active","ping":75},{"user_id":437,"name":"DoubleTee","steam_id":76561198018980347,"connected_time":288000000000,"state":"active","ping":151},{"user_id":430,"name":"beheading video from 2009","steam_id":76561198834897089,"connected_time":651000000000,"state":"active","ping":74},{"user_id":432,"name":"Нікітрон","steam_id":76561198044401080,"connected_time":490000000000,"state":"active","ping":65},{"user_id":433,"name":"ev1lboyo","steam_id":76561199199499453,"connected_time":432000000000,"state":"active","ping":89},{"user_id":418,"name":"Smarties McFlurry","steam_id":76561198196259989,"connected_time":2288000000000,"state":"active","ping":47},{"user_id":390,"name":"hichem","steam_id":76561198056197307,"connected_time":4105000000000,"state":"active","ping":59},{"user_id":413,"name":"Cenni","steam_id":76561198236644024,"connected_time":2418000000000,"state":"active","ping":69},{"user_id":407,"name":"FlukeY","steam_id":76561198026137327,"connected_time":2893000000000,"state":"active","ping":64},{"user_id":434,"name":"Pootis","steam_id":76561198823265247,"connected_time":389000000000,"state":"active","ping":82},{"user_id":425,"name":"langston rendell","steam_id":76561199387063710,"connected_time":1173000000000,"state":"active","ping":91},{"user_id":420,"name":"British Disapproval","steam_id":76561198001375260,"connected_time":2087000000000,"state":"active","ping":60},{"user_id":393,"name":"Max Andrew","steam_id":76561198158955194,"connected_time":3921000000000,"state":"active","ping":55},{"user_id":365,"name":"Bocchi","steam_id":76561198101532240,"connected_time":5998000000000,"state":"active","ping":60},{"user_id":394,"name":"meriones","steam_id":76561198034234373,"connected_time":3866000000000,"state":"active","ping":40},{"user_id":373,"name":"Executor","steam_id":76561198195703822,"connected_time":4876000000000,"state":"active","ping":45},{"user_id":427,"name":"H-say","steam_id":76561198177400362,"connected_time":1118000000000,"state":"active","ping":89}]},{"server_id":320,"name":"Uncletopia | London | 3 | All Maps","name_short":"lon-3","host":"lon-1.uk.uncletopia.com","port":27035,"enabled":true,"region":"eu","cc":"gb","latitude":51.509865,"longitude":-0.118092,"reserved":0,"last_update":"0001-01-01T00:00:00Z","name_a2s":"Uncletopia | London | 3 | All Maps","protocol":17,"map":"pl_frontier_final","folder":"tf","game":"Team Fortress","app_id":440,"player_count":24,"max_players":24,"Bots":0,"server_type":"Dedicated","server_os":"Linux","password":true,"vac":true,"version":"7757534","steam_id":85568392924510192,"keywords":["nocrits","nodmgspread","payload","uncletopia"],"game_id":440,"stv_port":27036,"stv_name":"Uncletopia | London | 3 | All Maps | STV","players":[{"user_id":175,"name":"a perfectly fine dog","steam_id":76561198000890796,"connected_time":1766000000000,"state":"active","ping":96},{"user_id":179,"name":"Modge","steam_id":76561198034119979,"connected_time":1483000000000,"state":"active","ping":54},{"user_id":160,"name":"fshfkr","steam_id":76561198095979282,"connected_time":2482000000000,"state":"active","ping":48},{"user_id":200,"name":"pezza","steam_id":76561197995173247,"connected_time":273000000000,"state":"active","ping":63},{"user_id":185,"name":"YBOT554","steam_id":76561198836830645,"connected_time":1211000000000,"state":"active","ping":50},{"user_id":188,"name":"Koi-Koi","steam_id":76561198045527771,"connected_time":1090000000000,"state":"active","ping":55},{"user_id":171,"name":"Davey","steam_id":76561198256879107,"connected_time":2051000000000,"state":"active","ping":77},{"user_id":197,"name":"TOMANDPC","steam_id":76561198065304748,"connected_time":518000000000,"state":"active","ping":54},{"user_id":193,"name":"aughhh","steam_id":76561199000081676,"connected_time":796000000000,"state":"active","ping":47},{"user_id":195,"name":"Iphy","steam_id":76561198137519489,"connected_time":734000000000,"state":"active","ping":79},{"user_id":152,"name":"sape","steam_id":76561198089322416,"connected_time":3378000000000,"state":"active","ping":95},{"user_id":158,"name":"Mannequin","steam_id":76561198128833974,"connected_time":2747000000000,"state":"active","ping":51},{"user_id":190,"name":"DelaNo","steam_id":76561199125086655,"connected_time":1029000000000,"state":"active","ping":31},{"user_id":201,"name":"Sch","steam_id":76561198071341689,"connected_time":191000000000,"state":"active","ping":68},{"user_id":181,"name":"Laurie","steam_id":76561198082951750,"connected_time":1355000000000,"state":"active","ping":47},{"user_id":174,"name":"˹Fate's·Marionette˼","steam_id":76561198034197381,"connected_time":1960000000000,"state":"active","ping":51},{"user_id":196,"name":"i have severe 2fort brainrot","steam_id":76561198159100379,"connected_time":707000000000,"state":"active","ping":68},{"user_id":153,"name":"Circular","steam_id":76561198001536710,"connected_time":3375000000000,"state":"active","ping":49},{"user_id":124,"name":"Lau","steam_id":76561197993573576,"connected_time":4304000000000,"state":"active","ping":100},{"user_id":199,"name":"adam","steam_id":76561199024816404,"connected_time":351000000000,"state":"active","ping":90},{"user_id":182,"name":"Raulca25","steam_id":76561199068256964,"connected_time":1327000000000,"state":"active","ping":85},{"user_id":191,"name":"Mechanical Man","steam_id":76561198031573426,"connected_time":989000000000,"state":"active","ping":75},{"user_id":123,"name":"Macro","steam_id":76561199442846226,"connected_time":4398000000000,"state":"active","ping":162},{"user_id":192,"name":"a group of ants doing their bes","steam_id":76561199017681186,"connected_time":965000000000,"state":"active","ping":72}]},{"server_id":321,"name":"Uncletopia | London | 4 | All Maps","name_short":"lon-4","host":"lon-1.uk.uncletopia.com","port":27045,"enabled":true,"region":"eu","cc":"gb","latitude":51.509865,"longitude":-0.118092,"reserved":0,"last_update":"0001-01-01T00:00:00Z","name_a2s":"Uncletopia | London | 4 | All Maps","protocol":17,"map":"koth_highpass","folder":"tf","game":"Team Fortress","app_id":440,"player_count":2,"max_players":24,"Bots":0,"server_type":"Dedicated","server_os":"Linux","password":true,"vac":true,"version":"7757534","steam_id":85568392924510193,"keywords":["cp","nocrits","nodmgspread","uncletopia"],"game_id":440,"stv_port":27046,"stv_name":"Uncletopia | London | 4 | All Maps | STV","players":[{"user_id":287,"name":"Boardie","steam_id":76561198215700300,"connected_time":184000000000,"state":"active","ping":56},{"user_id":288,"name":"Uncle Terry","steam_id":76561198396415736,"connected_time":143000000000,"state":"active","ping":53}]},{"server_id":21,"name":"Uncletopia | London | 5 | All Maps","name_short":"lon-5","host":"lon-1.uk.uncletopia.com","port":27055,"enabled":true,"region":"eu","cc":"gb","latitude":51.509865,"longitude":-0.118092,"reserved":0,"last_update":"0001-01-01T00:00:00Z","name_a2s":"Uncletopia | London | 5 | All Maps","protocol":17,"map":"pl_badwater","folder":"tf","game":"Team Fortress","app_id":440,"player_count":24,"max_players":24,"Bots":0,"server_type":"Dedicated","server_os":"Linux","password":true,"vac":true,"version":"7757534","steam_id":85568392924742829,"keywords":["nocrits","nodmgspread","payload","uncletopia"],"game_id":440,"stv_port":27056,"stv_name":"Uncletopia | London | 5 | All Maps | STV","players":[{"user_id":199,"name":"Baba Foss","steam_id":76561198002302019,"connected_time":2569000000000,"state":"active","ping":53},{"user_id":215,"name":"Typhon","steam_id":76561198000365228,"connected_time":1429000000000,"state":"active","ping":100},{"user_id":239,"name":"Dilski","steam_id":76561198048896546,"connected_time":0,"state":"spawning","ping":19},{"user_id":232,"name":"Penis Contortionist","steam_id":76561198073663784,"connected_time":770000000000,"state":"active","ping":34},{"user_id":237,"name":"w*man","steam_id":76561198057210144,"connected_time":81000000000,"state":"active","ping":49},{"user_id":238,"name":"Cotton Eye Joe","steam_id":76561198080594207,"connected_time":76000000000,"state":"active","ping":56},{"user_id":160,"name":"Liversey","steam_id":76561198012351470,"connected_time":4532000000000,"state":"active","ping":44},{"user_id":235,"name":"Puzzles","steam_id":76561198137106459,"connected_time":282000000000,"state":"active","ping":58},{"user_id":208,"name":"Oxer","steam_id":76561198055942412,"connected_time":1850000000000,"state":"active","ping":83},{"user_id":233,"name":"=FAZE= Fernandinho the Eggplant","steam_id":76561198042988373,"connected_time":706000000000,"state":"active","ping":118},{"user_id":177,"name":"unknown","steam_id":76561198066452389,"connected_time":3623000000000,"state":"active","ping":74},{"user_id":185,"name":"Grumtsior","steam_id":76561198043563111,"connected_time":3346000000000,"state":"active","ping":75},{"user_id":209,"name":"Panda","steam_id":76561198397291137,"connected_time":1842000000000,"state":"active","ping":151},{"user_id":190,"name":"Ed","steam_id":76561198135081318,"connected_time":3091000000000,"state":"active","ping":54},{"user_id":230,"name":"Yaire","steam_id":76561198017343510,"connected_time":850000000000,"state":"active","ping":55},{"user_id":164,"name":"✪ m_br3","steam_id":76561198044981990,"connected_time":4378000000000,"state":"active","ping":75},{"user_id":234,"name":"Kingmako1099","steam_id":76561199266890323,"connected_time":702000000000,"state":"active","ping":137},{"user_id":231,"name":"Kan0_","steam_id":76561198129596771,"connected_time":825000000000,"state":"active","ping":60},{"user_id":108,"name":"BarrackOmaha","steam_id":76561198027922724,"connected_time":7597000000000,"state":"active","ping":82},{"user_id":110,"name":"Owlet","steam_id":76561198065613974,"connected_time":7503000000000,"state":"active","ping":72},{"user_id":228,"name":"upisfree","steam_id":76561198064037857,"connected_time":944000000000,"state":"active","ping":119},{"user_id":214,"name":"NumBurger235","steam_id":76561199365595980,"connected_time":1795000000000,"state":"active","ping":145},{"user_id":148,"name":"Zerfesh","steam_id":76561198117534358,"connected_time":5608000000000,"state":"active","ping":99},{"user_id":229,"name":"1 toke 4 mars bars","steam_id":76561198056460000,"connected_time":898000000000,"state":"active","ping":48}]},{"server_id":22,"name":"Uncletopia | London | 6 | All Maps","name_short":"lon-6","host":"lon-1.uk.uncletopia.com","port":27065,"enabled":true,"region":"eu","cc":"gb","latitude":51.509865,"longitude":-0.118092,"reserved":0,"last_update":"0001-01-01T00:00:00Z","name_a2s":"Uncletopia | London | 6 | All Maps","protocol":17,"map":"cp_snakewater_final1","folder":"tf","game":"Team Fortress","app_id":440,"player_count":22,"max_players":24,"Bots":0,"server_type":"Dedicated","server_os":"Linux","password":true,"vac":true,"version":"7757534","steam_id":85568392924742830,"keywords":["cp","nocrits","nodmgspread","uncletopia"],"game_id":440,"stv_port":27066,"stv_name":"Uncletopia | London | 6 | All Maps | STV","players":[{"user_id":221,"name":"dotdotdot","steam_id":76561198057628751,"connected_time":6674000000000,"state":"active","ping":60},{"user_id":308,"name":"Spamton G Spamton","steam_id":76561198916276543,"connected_time":489000000000,"state":"active","ping":50},{"user_id":294,"name":"hl.dsk for MSX2","steam_id":76561198041966915,"connected_time":1706000000000,"state":"active","ping":75},{"user_id":305,"name":"Pagey2911","steam_id":76561198018465350,"connected_time":1065000000000,"state":"active","ping":74},{"user_id":295,"name":"Grillem Dafoe","steam_id":76561198306874574,"connected_time":1705000000000,"state":"active","ping":58},{"user_id":279,"name":"Toodlesnoot","steam_id":76561198036543689,"connected_time":2817000000000,"state":"active","ping":56},{"user_id":313,"name":"Glenn Quagmire","steam_id":76561199348527880,"connected_time":11000000000,"state":"active","ping":91},{"user_id":306,"name":"ignitor \u003c3","steam_id":76561198218996844,"connected_time":1037000000000,"state":"active","ping":56},{"user_id":302,"name":"Nithle","steam_id":76561198025372740,"connected_time":1463000000000,"state":"active","ping":30},{"user_id":297,"name":"Silva_mlon","steam_id":76561199310242047,"connected_time":1685000000000,"state":"active","ping":63},{"user_id":272,"name":"Antimation","steam_id":76561198125649544,"connected_time":3425000000000,"state":"active","ping":46},{"user_id":298,"name":"EZPK","steam_id":76561197987474355,"connected_time":1668000000000,"state":"active","ping":62},{"user_id":314,"name":"Perci","steam_id":76561198097789669,"connected_time":4000000000,"state":"spawning","ping":60},{"user_id":198,"name":"Regan","steam_id":76561198100631086,"connected_time":8573000000000,"state":"active","ping":53},{"user_id":307,"name":"Miton","steam_id":76561197970323209,"connected_time":637000000000,"state":"active","ping":92},{"user_id":286,"name":"Benpl","steam_id":76561198084890757,"connected_time":2495000000000,"state":"active","ping":54},{"user_id":300,"name":"PrimeTarget","steam_id":76561198046409289,"connected_time":1591000000000,"state":"active","ping":76},{"user_id":303,"name":"I.C. Wiener","steam_id":76561197999912254,"connected_time":1385000000000,"state":"active","ping":97},{"user_id":309,"name":"r2d2.(/ˌɑːr.tuːˈdiːtuː/)","steam_id":76561198201235703,"connected_time":483000000000,"state":"active","ping":70},{"user_id":288,"name":"EdD","steam_id":76561199203608558,"connected_time":2292000000000,"state":"active","ping":112},{"user_id":292,"name":"fried","steam_id":76561198307522022,"connected_time":2037000000000,"state":"active","ping":54},{"user_id":312,"name":"Cillian","steam_id":76561199471571148,"connected_time":217000000000,"state":"active","ping":65}]},{"server_id":40,"name":"Uncletopia | London | 7 | No Payload","name_short":"lon-7","host":"lon-1.uk.uncletopia.com","port":27075,"enabled":true,"region":"eu","cc":"gb","latitude":51.509865,"longitude":-0.118092,"reserved":0,"last_update":"0001-01-01T00:00:00Z","name_a2s":"Uncletopia | London | 7 | No Payload","protocol":17,"map":"cp_gorge","folder":"tf","game":"Team Fortress","app_id":440,"player_count":0,"max_players":24,"Bots":0,"server_type":"Dedicated","server_os":"Linux","password":true,"vac":true,"version":"7757534","steam_id":85568392924964314,"keywords":["cp","nocrits","nodmgspread","uncletopia"],"game_id":440,"stv_port":27076,"stv_name":"Uncletopia | London | 7 | No Payload | STV","players":null},{"server_id":41,"name":"Uncletopia | London | 8 | Community","name_short":"lon-8","host":"lon-1.uk.uncletopia.com","port":27085,"enabled":true,"region":"eu","cc":"gb","latitude":51.509865,"longitude":-0.118092,"reserved":0,"last_update":"0001-01-01T00:00:00Z","name_a2s":"Uncletopia | London | 8 | Community","protocol":17,"map":"workshop/koth_bagel_rc6.ugc2514036946","folder":"tf","game":"Team Fortress","app_id":440,"player_count":0,"max_players":24,"Bots":0,"server_type":"Dedicated","server_os":"Linux","password":true,"vac":true,"version":"7757534","steam_id":85568392924964315,"keywords":["cp","nocrits","nodmgspread","uncletopia"],"game_id":440,"stv_port":27086,"stv_name":"Uncletopia | London | 8 | Community | STV","players":null},{"server_id":300,"name":"Uncletopia | Montréal | 1 | All Maps","name_short":"mtl-1","host":"mtl-1.ca.uncletopia.com","port":27015,"enabled":true,"region":"us-east","cc":"ca","latitude":45.50889,"longitude":-73.56167,"reserved":0,"last_update":"0001-01-01T00:00:00Z","name_a2s":"Uncletopia | Montréal | 1 | All Maps","protocol":17,"map":"pl_borneo","folder":"tf","game":"Team Fortress","app_id":440,"player_count":24,"max_players":24,"Bots":0,"server_type":"Dedicated","server_os":"Linux","password":true,"vac":true,"version":"7757534","steam_id":85568392924500087,"keywords":["nocrits","nodmgspread","payload","uncletopia"],"game_id":440,"stv_port":27016,"stv_name":"Uncletopia | Montréal | 1 | All Maps | STV","players":[{"user_id":142,"name":"Freddie Bert","steam_id":76561197994893096,"connected_time":1312000000000,"state":"active","ping":73},{"user_id":129,"name":"Swifz","steam_id":76561199074464840,"connected_time":1667000000000,"state":"active","ping":109},{"user_id":121,"name":"Wahooka","steam_id":76561197962240925,"connected_time":3073000000000,"state":"active","ping":60},{"user_id":127,"name":"mm","steam_id":76561198841559088,"connected_time":1683000000000,"state":"active","ping":60},{"user_id":132,"name":"Kally™","steam_id":76561198112369159,"connected_time":1608000000000,"state":"active","ping":79},{"user_id":86,"name":"Sove67","steam_id":76561198069919807,"connected_time":5049000000000,"state":"active","ping":105},{"user_id":122,"name":"shadow6","steam_id":76561197979807910,"connected_time":3050000000000,"state":"active","ping":168},{"user_id":157,"name":"maxxuss [AiRe]","steam_id":76561197999155912,"connected_time":538000000000,"state":"active","ping":47},{"user_id":133,"name":"Catcrazo101","steam_id":76561198811516011,"connected_time":1537000000000,"state":"active","ping":60},{"user_id":150,"name":"Demoman With One Joke","steam_id":76561197993467034,"connected_time":672000000000,"state":"active","ping":62},{"user_id":154,"name":"The Thunder Down Under","steam_id":76561198098587930,"connected_time":561000000000,"state":"active","ping":54},{"user_id":135,"name":"Infineable","steam_id":76561198358100698,"connected_time":1478000000000,"state":"active","ping":78},{"user_id":141,"name":"Connie","steam_id":76561198068661013,"connected_time":1365000000000,"state":"active","ping":85},{"user_id":148,"name":"Garlb","steam_id":76561198044636706,"connected_time":986000000000,"state":"active","ping":60},{"user_id":116,"name":"dan0m","steam_id":76561199057929697,"connected_time":3218000000000,"state":"active","ping":79},{"user_id":152,"name":"BigBubble42","steam_id":76561198136286123,"connected_time":670000000000,"state":"active","ping":73},{"user_id":146,"name":"IAmAProfesonal","steam_id":76561199171858953,"connected_time":1082000000000,"state":"active","ping":45},{"user_id":143,"name":"NYT","steam_id":76561198041151763,"connected_time":1286000000000,"state":"active","ping":35},{"user_id":153,"name":"Spectre","steam_id":76561198025652246,"connected_time":667000000000,"state":"active","ping":61},{"user_id":144,"name":"FETTUCCINE GANG","steam_id":76561198398722419,"connected_time":1247000000000,"state":"active","ping":100},{"user_id":158,"name":"Atomic_RPG","steam_id":76561199467202160,"connected_time":501000000000,"state":"active","ping":85},{"user_id":125,"name":"ok","steam_id":76561198445140249,"connected_time":2043000000000,"state":"active","ping":78},{"user_id":139,"name":"Coffeebeans","steam_id":76561197987543188,"connected_time":1406000000000,"state":"active","ping":76},{"user_id":156,"name":"Phil Collins","steam_id":76561198068868644,"connected_time":549000000000,"state":"active","ping":127}]},{"server_id":301,"name":"Uncletopia | Montréal | 2 | All Maps","name_short":"mtl-2","host":"mtl-1.ca.uncletopia.com","port":27025,"enabled":true,"region":"us-east","cc":"ca","latitude":45.50889,"longitude":-73.56167,"reserved":0,"last_update":"0001-01-01T00:00:00Z","name_a2s":"Uncletopia | Montréal | 2 | All Maps","protocol":17,"map":"pl_swiftwater_final1","folder":"tf","game":"Team Fortress","app_id":440,"player_count":11,"max_players":24,"Bots":0,"server_type":"Dedicated","server_os":"Linux","password":true,"vac":true,"version":"7757534","steam_id":85568392924500088,"keywords":["nocrits","nodmgspread","payload","uncletopia"],"game_id":440,"stv_port":27026,"stv_name":"Uncletopia | Montréal | 2 | All Maps | STV","players":[{"user_id":29,"name":"Sub-average Spy Main","steam_id":76561198884288965,"connected_time":2283000000000,"state":"active","ping":47},{"user_id":20,"name":"Not_Douglas","steam_id":76561199024184136,"connected_time":3331000000000,"state":"active","ping":59},{"user_id":27,"name":"cokersworld","steam_id":76561198039731344,"connected_time":2632000000000,"state":"active","ping":87},{"user_id":39,"name":"Mewysty","steam_id":76561199200480562,"connected_time":707000000000,"state":"active","ping":125},{"user_id":41,"name":"DaveSTER","steam_id":76561197986043270,"connected_time":468000000000,"state":"active","ping":73},{"user_id":35,"name":"bohnerlogan","steam_id":76561199473926707,"connected_time":1474000000000,"state":"active","ping":81},{"user_id":37,"name":"Turtler","steam_id":76561199264817324,"connected_time":1274000000000,"state":"active","ping":43},{"user_id":23,"name":"BOT Positronic♥June (they/she","steam_id":76561198042556857,"connected_time":3023000000000,"state":"active","ping":62},{"user_id":42,"name":"dell-star","steam_id":76561198841709393,"connected_time":381000000000,"state":"active","ping":53},{"user_id":47,"name":"judesro","steam_id":76561198352244888,"connected_time":1000000000,"state":"spawning","ping":26},{"user_id":45,"name":"The Paladin","steam_id":76561199110579692,"connected_time":342000000000,"state":"active","ping":60}]},{"server_id":302,"name":"Uncletopia | Montréal | 3 | All Maps","name_short":"mtl-3","host":"mtl-1.ca.uncletopia.com","port":27035,"enabled":true,"region":"us-east","cc":"ca","latitude":45.50889,"longitude":-73.56167,"reserved":0,"last_update":"0001-01-01T00:00:00Z","name_a2s":"Uncletopia | Montréal | 3 | All Maps","protocol":17,"map":"koth_lakeside_final","folder":"tf","game":"Team Fortress","app_id":440,"player_count":0,"max_players":24,"Bots":0,"server_type":"Dedicated","server_os":"Linux","password":true,"vac":true,"version":"7757534","steam_id":85568392924500089,"keywords":["cp","nocrits","nodmgspread","uncletopia"],"game_id":440,"stv_port":27036,"stv_name":"Uncletopia | Montréal | 3 | All Maps | STV","players":null},{"server_id":303,"name":"Uncletopia | Montréal | 4 | No Payload","name_short":"mtl-4","host":"mtl-1.ca.uncletopia.com","port":27045,"enabled":true,"region":"us-east","cc":"ca","latitude":45.50889,"longitude":-73.56167,"reserved":0,"last_update":"0001-01-01T00:00:00Z","name_a2s":"Uncletopia | Montréal | 4 | No Payload","protocol":17,"map":"ctf_doublecross","folder":"tf","game":"Team Fortress","app_id":440,"player_count":0,"max_players":24,"Bots":0,"server_type":"Dedicated","server_os":"Linux","password":true,"vac":true,"version":"7757534","steam_id":85568392924500090,"keywords":["ctf","nocrits","nodmgspread","uncletopia"],"game_id":440,"stv_port":27046,"stv_name":"Uncletopia | Montréal | 4 | No Payload | STV","players":null},{"server_id":13,"name":"Uncletopia | New York City | 1 | All Maps","name_short":"nyc-1","host":"nyc-1.us.uncletopia.com","port":27015,"enabled":true,"region":"us-east","cc":"us","latitude":40.73061,"longitude":-73.93524,"reserved":0,"last_update":"0001-01-01T00:00:00Z","name_a2s":"Uncletopia | New York City | 1 | All Maps","protocol":17,"map":"koth_king","folder":"tf","game":"Team Fortress","app_id":440,"player_count":22,"max_players":24,"Bots":0,"server_type":"Dedicated","server_os":"Linux","password":true,"vac":true,"version":"7757534","steam_id":85568392924469993,"keywords":["cp","nocrits","nodmgspread","uncletopia"],"game_id":440,"stv_port":27016,"stv_name":"Uncletopia | New York City | 1 | All Maps | STV","players":[{"user_id":141,"name":"Delilah-fluff","steam_id":76561198977968066,"connected_time":10449000000000,"state":"active","ping":62},{"user_id":264,"name":"Weather Report","steam_id":76561199109494283,"connected_time":973000000000,"state":"active","ping":51},{"user_id":238,"name":"that fat croc from donkey kong","steam_id":76561198159172495,"connected_time":3717000000000,"state":"active","ping":134},{"user_id":259,"name":"Yeonwoo","steam_id":76561199082985721,"connected_time":1680000000000,"state":"active","ping":50},{"user_id":271,"name":"Midlife Crisis Jotaro","steam_id":76561199023562280,"connected_time":9000000000,"state":"spawning","ping":70},{"user_id":243,"name":"MILF Gaming","steam_id":76561198155378170,"connected_time":3296000000000,"state":"active","ping":40},{"user_id":252,"name":"it's quite simple","steam_id":76561199447681710,"connected_time":1914000000000,"state":"active","ping":74},{"user_id":163,"name":"Osrio","steam_id":76561198083428069,"connected_time":8549000000000,"state":"active","ping":95},{"user_id":214,"name":"Ian","steam_id":76561199078852180,"connected_time":5578000000000,"state":"active","ping":54},{"user_id":263,"name":"Prometheus Jones","steam_id":76561198059087964,"connected_time":1015000000000,"state":"active","ping":76},{"user_id":269,"name":"Cap","steam_id":76561198072870415,"connected_time":169000000000,"state":"active","ping":116},{"user_id":255,"name":"teddyswk","steam_id":76561198404939571,"connected_time":1824000000000,"state":"active","ping":143},{"user_id":270,"name":"mana_sourcer","steam_id":76561199231055566,"connected_time":51000000000,"state":"active","ping":82},{"user_id":256,"name":"Muffin","steam_id":76561199156302434,"connected_time":1811000000000,"state":"active","ping":71},{"user_id":159,"name":"Pickle Chips","steam_id":76561198271951504,"connected_time":8713000000000,"state":"active","ping":45},{"user_id":245,"name":"El Bondin","steam_id":76561198820792434,"connected_time":2998000000000,"state":"active","ping":94},{"user_id":233,"name":"WibbyOne","steam_id":76561198052843846,"connected_time":4495000000000,"state":"active","ping":38},{"user_id":265,"name":"big pancake","steam_id":76561198068580322,"connected_time":876000000000,"state":"active","ping":38},{"user_id":210,"name":"CrustyCapybara","steam_id":76561199450398030,"connected_time":6133000000000,"state":"active","ping":57},{"user_id":260,"name":"Shock Trooper","steam_id":76561199086731683,"connected_time":1523000000000,"state":"active","ping":66},{"user_id":258,"name":"Hach","steam_id":76561198044072315,"connected_time":1774000000000,"state":"active","ping":119},{"user_id":162,"name":"Kerflumple","steam_id":76561198050602757,"connected_time":8674000000000,"state":"active","ping":57}]},{"server_id":14,"name":"Uncletopia | New York City | 2 | All Maps","name_short":"nyc-2","host":"nyc-1.us.uncletopia.com","port":27025,"enabled":true,"region":"us-east","cc":"us","latitude":40.73061,"longitude":-73.93524,"reserved":0,"last_update":"0001-01-01T00:00:00Z","name_a2s":"Uncletopia | New York City | 2 | All Maps","protocol":17,"map":"pl_frontier_final","folder":"tf","game":"Team Fortress","app_id":440,"player_count":24,"max_players":24,"Bots":0,"server_type":"Dedicated","server_os":"Linux","password":true,"vac":true,"version":"7757534","steam_id":85568392924469994,"keywords":["nocrits","nodmgspread","payload","uncletopia"],"game_id":440,"stv_port":27026,"stv_name":"Uncletopia | New York City | 2 | All Maps | STV","players":[{"user_id":559,"name":"Decs","steam_id":76561198825197974,"connected_time":851000000000,"state":"active","ping":128},{"user_id":431,"name":".jpegged","steam_id":76561198120078454,"connected_time":12266000000000,"state":"active","ping":86},{"user_id":550,"name":"Goldoche","steam_id":76561197995065045,"connected_time":1944000000000,"state":"active","ping":68},{"user_id":554,"name":"Biter1051","steam_id":76561199480475414,"connected_time":1526000000000,"state":"active","ping":32},{"user_id":558,"name":"Voyager","steam_id":76561199128786637,"connected_time":1205000000000,"state":"active","ping":102},{"user_id":574,"name":"1479tds","steam_id":76561199102576584,"connected_time":57000000000,"state":"active","ping":69},{"user_id":519,"name":"Scorp","steam_id":76561198070619615,"connected_time":4316000000000,"state":"active","ping":74},{"user_id":535,"name":"balls","steam_id":76561199100633985,"connected_time":2511000000000,"state":"active","ping":148},{"user_id":571,"name":"Bored Barred Owl","steam_id":76561198263895597,"connected_time":477000000000,"state":"active","ping":58},{"user_id":546,"name":"lost in spaaaaace","steam_id":76561199085974120,"connected_time":2070000000000,"state":"active","ping":63},{"user_id":560,"name":"Drake the Pixel","steam_id":76561198131824401,"connected_time":847000000000,"state":"active","ping":43},{"user_id":538,"name":"Draco6257","steam_id":76561199147322448,"connected_time":2468000000000,"state":"active","ping":30},{"user_id":575,"name":"Periculosum PhD in Funny","steam_id":76561198123370914,"connected_time":48000000000,"state":"active","ping":91},{"user_id":566,"name":"Inadequate","steam_id":76561198108263810,"connected_time":760000000000,"state":"active","ping":150},{"user_id":525,"name":"nav","steam_id":76561198872608266,"connected_time":4007000000000,"state":"active","ping":80},{"user_id":503,"name":"sonic1394","steam_id":76561198054636788,"connected_time":5736000000000,"state":"active","ping":73},{"user_id":573,"name":"Bee","steam_id":76561198074681324,"connected_time":311000000000,"state":"active","ping":46},{"user_id":568,"name":"lfty","steam_id":76561198283841707,"connected_time":685000000000,"state":"active","ping":55},{"user_id":508,"name":"Krellah","steam_id":76561198287045069,"connected_time":5537000000000,"state":"active","ping":60},{"user_id":542,"name":"kursed","steam_id":76561198992371495,"connected_time":2346000000000,"state":"active","ping":41},{"user_id":562,"name":"Frontier Psychiatrist","steam_id":76561198378587138,"connected_time":816000000000,"state":"active","ping":110},{"user_id":563,"name":"Windy Writer","steam_id":76561198048217633,"connected_time":808000000000,"state":"active","ping":71},{"user_id":572,"name":"MurpAMurp","steam_id":76561198374437261,"connected_time":343000000000,"state":"active","ping":69},{"user_id":565,"name":"AntiAnimus","steam_id":76561198039074432,"connected_time":804000000000,"state":"active","ping":91}]},{"server_id":15,"name":"Uncletopia | New York City | 3 | Stopwatch Beta","name_short":"nyc-3","host":"nyc-1.us.uncletopia.com","port":27035,"enabled":true,"region":"us-east","cc":"us","latitude":40.73061,"longitude":-73.93524,"reserved":0,"last_update":"0001-01-01T00:00:00Z","name_a2s":"Uncletopia | New York City | 3 | Stopwatch Beta","protocol":17,"map":"workshop/koth_ashville_final.ugc2130459942","folder":"tf","game":"Team Fortress","app_id":440,"player_count":13,"max_players":24,"Bots":0,"server_type":"Dedicated","server_os":"Linux","password":true,"vac":true,"version":"7757534","steam_id":85568392924742820,"keywords":["cp","nocrits","nodmgspread","uncletopia"],"game_id":440,"stv_port":27036,"stv_name":"Uncletopia | New York City | 3 | Stopwatch Beta | STV","players":[{"user_id":17,"name":"MCRoar_15","steam_id":76561198414807065,"connected_time":2844000000000,"state":"active","ping":59},{"user_id":20,"name":"Kmanscan","steam_id":76561198035671938,"connected_time":1890000000000,"state":"active","ping":95},{"user_id":27,"name":"Drewey","steam_id":76561199258609863,"connected_time":479000000000,"state":"active","ping":70},{"user_id":23,"name":"the entire population of boston","steam_id":76561199006361788,"connected_time":1035000000000,"state":"active","ping":58},{"user_id":22,"name":"aurawolf2189","steam_id":76561199174027883,"connected_time":1088000000000,"state":"active","ping":99},{"user_id":24,"name":"★NL★ vacated-bark","steam_id":76561199241149010,"connected_time":1031000000000,"state":"active","ping":102},{"user_id":25,"name":"Jestiere","steam_id":76561199334300357,"connected_time":876000000000,"state":"active","ping":95},{"user_id":26,"name":"Penguinoverlord999","steam_id":76561199231051116,"connected_time":853000000000,"state":"active","ping":56},{"user_id":28,"name":"Nerrrd_","steam_id":76561198870129960,"connected_time":416000000000,"state":"active","ping":40},{"user_id":34,"name":"Poptart From Mars","steam_id":76561197979930960,"connected_time":129000000000,"state":"active","ping":85},{"user_id":30,"name":"Dreamzapp","steam_id":76561199084936632,"connected_time":368000000000,"state":"active","ping":123},{"user_id":31,"name":"Party Fit","steam_id":76561199437896078,"connected_time":328000000000,"state":"active","ping":89},{"user_id":33,"name":"Larry from Pokemon SV","steam_id":76561198095245223,"connected_time":278000000000,"state":"active","ping":50}]},{"server_id":16,"name":"Uncletopia | New York City | 4 | Community","name_short":"nyc-4","host":"nyc-1.us.uncletopia.com","port":27045,"enabled":true,"region":"us-east","cc":"us","latitude":40.73061,"longitude":-73.93524,"reserved":0,"last_update":"0001-01-01T00:00:00Z","name_a2s":"Uncletopia | New York City | 4 | Community","protocol":17,"map":"pl_swiftwater_final1","folder":"tf","game":"Team Fortress","app_id":440,"player_count":0,"max_players":24,"Bots":0,"server_type":"Dedicated","server_os":"Linux","password":true,"vac":true,"version":"7757534","steam_id":85568392924742821,"keywords":["nocrits","nodmgspread","payload","uncletopia"],"game_id":440,"stv_port":27046,"stv_name":"Uncletopia | New York City | 4 | Community | STV","players":null},{"server_id":142,"name":"Uncletopia | São Paulo | 1 | All Maps","name_short":"sao-1","host":"sao-1.br.uncletopia.com","port":27015,"enabled":true,"region":"sa","cc":"br","latitude":-23.533773,"longitude":-46.62529,"reserved":0,"last_update":"0001-01-01T00:00:00Z","name_a2s":"Uncletopia | São Paulo | 1 | All Maps","protocol":17,"map":"koth_cascade","folder":"tf","game":"Team Fortress","app_id":440,"player_count":0,"max_players":24,"Bots":0,"server_type":"Dedicated","server_os":"Linux","password":true,"vac":true,"version":"7757534","steam_id":85568392924469996,"keywords":["cp","nocrits","nodmgspread","uncletopia"],"game_id":440,"stv_port":27016,"stv_name":"Uncletopia | São Paulo | 1 | All Maps | STV","players":null},{"server_id":143,"name":"Uncletopia | São Paulo | 2 | All Maps","name_short":"sao-2","host":"sao-2.br.uncletopia.com","port":27015,"enabled":true,"region":"sa","cc":"br","latitude":-23.533773,"longitude":-46.62529,"reserved":0,"last_update":"0001-01-01T00:00:00Z","name_a2s":"Uncletopia | São Paulo | 2 | All Maps","protocol":17,"map":"pl_frontier_final","folder":"tf","game":"Team Fortress","app_id":440,"player_count":19,"max_players":24,"Bots":0,"server_type":"Dedicated","server_os":"Linux","password":true,"vac":true,"version":"7757534","steam_id":85568392924485349,"keywords":["nocrits","nodmgspread","payload","uncletopia"],"game_id":440,"stv_port":27016,"stv_name":"Uncletopia | São Paulo | 2 | All Maps | STV","players":[{"user_id":22,"name":"HeadShotGamerBR","steam_id":76561198116856702,"connected_time":4786000000000,"state":"active","ping":76},{"user_id":24,"name":"Stalin","steam_id":76561198073356694,"connected_time":4559000000000,"state":"active","ping":51},{"user_id":110,"name":"Zircon","steam_id":76561198363199181,"connected_time":91000000000,"state":"active","ping":64},{"user_id":109,"name":"CJAIME01345","steam_id":76561199091599141,"connected_time":267000000000,"state":"active","ping":92},{"user_id":101,"name":"edug4mer.contato","steam_id":76561199473094953,"connected_time":770000000000,"state":"active","ping":63},{"user_id":26,"name":"PORTEIRO ROBINSON","steam_id":76561198062467781,"connected_time":4385000000000,"state":"active","ping":46},{"user_id":73,"name":"YellowEyePatch Guy","steam_id":76561199108111310,"connected_time":1923000000000,"state":"active","ping":52},{"user_id":95,"name":"Pizza","steam_id":76561198969388265,"connected_time":1100000000000,"state":"active","ping":48},{"user_id":86,"name":"K9 Patata","steam_id":76561198290232171,"connected_time":1305000000000,"state":"active","ping":88},{"user_id":111,"name":"Horizon","steam_id":76561198263900841,"connected_time":5000000000,"state":"spawning","ping":89},{"user_id":100,"name":":^)","steam_id":76561198276113571,"connected_time":823000000000,"state":"active","ping":34},{"user_id":90,"name":"pequeno pedrinho","steam_id":76561198994253286,"connected_time":1195000000000,"state":"active","ping":28},{"user_id":78,"name":"WeegeePJ","steam_id":76561199383362382,"connected_time":1655000000000,"state":"active","ping":174},{"user_id":92,"name":"Mister Robot","steam_id":76561198251320860,"connected_time":1172000000000,"state":"active","ping":47},{"user_id":93,"name":"Good Girl Sylveon","steam_id":76561198254171043,"connected_time":1170000000000,"state":"active","ping":56},{"user_id":60,"name":"Blue9Fairy","steam_id":76561198039942928,"connected_time":2417000000000,"state":"active","ping":61},{"user_id":96,"name":"Bateman","steam_id":76561198113405909,"connected_time":1048000000000,"state":"active","ping":61},{"user_id":108,"name":"berd nord, apex baitola","steam_id":76561198856085690,"connected_time":479000000000,"state":"active","ping":62},{"user_id":72,"name":"asDfail","steam_id":76561198156055288,"connected_time":2020000000000,"state":"active","ping":43}]},{"server_id":7,"name":"Uncletopia | Seattle | 1 | All Maps","name_short":"sea-1","host":"sea-1.us.uncletopia.com","port":27015,"enabled":true,"region":"us-west","cc":"us","latitude":47.608013,"longitude":-122.33517,"reserved":0,"last_update":"0001-01-01T00:00:00Z","name_a2s":"Uncletopia | Seattle | 1 | All Maps","protocol":17,"map":"cp_mercenarypark","folder":"tf","game":"Team Fortress","app_id":440,"player_count":22,"max_players":24,"Bots":0,"server_type":"Dedicated","server_os":"Linux","password":true,"vac":true,"version":"7757534","steam_id":85568392924469997,"keywords":["cp","nocrits","nodmgspread","uncletopia"],"game_id":440,"stv_port":27016,"stv_name":"Uncletopia | Seattle | 1 | All Maps | STV","players":[{"user_id":165,"name":"River Rat","steam_id":76561198116383976,"connected_time":341000000000,"state":"active","ping":67},{"user_id":151,"name":"Reb","steam_id":76561198144756713,"connected_time":1454000000000,"state":"active","ping":77},{"user_id":162,"name":"Tungsten","steam_id":76561198312854342,"connected_time":604000000000,"state":"active","ping":66},{"user_id":114,"name":"LesserAce","steam_id":76561198153258132,"connected_time":3181000000000,"state":"active","ping":121},{"user_id":116,"name":"Keamy","steam_id":76561199471434875,"connected_time":3164000000000,"state":"active","ping":35},{"user_id":138,"name":"Ultra Pinstinct","steam_id":76561198336604599,"connected_time":1938000000000,"state":"active","ping":58},{"user_id":164,"name":"tacofever","steam_id":76561198010966507,"connected_time":519000000000,"state":"active","ping":75},{"user_id":110,"name":"Sakisano","steam_id":76561198245814880,"connected_time":3758000000000,"state":"active","ping":80},{"user_id":148,"name":"MacchuPeachu","steam_id":76561199093242587,"connected_time":1488000000000,"state":"active","ping":61},{"user_id":126,"name":"Medic","steam_id":76561198152570304,"connected_time":2555000000000,"state":"active","ping":83},{"user_id":150,"name":"Themasterman75","steam_id":76561199385573293,"connected_time":1465000000000,"state":"active","ping":70},{"user_id":168,"name":"Logan601 #savetf2","steam_id":76561198263116731,"connected_time":51000000000,"state":"active","ping":84},{"user_id":155,"name":"chrome 2008 (she/they)","steam_id":76561198321277216,"connected_time":1354000000000,"state":"active","ping":70},{"user_id":113,"name":"Buzz Buzz","steam_id":76561198294101501,"connected_time":3396000000000,"state":"active","ping":78},{"user_id":143,"name":"_cza","steam_id":76561198079793576,"connected_time":1784000000000,"state":"active","ping":48},{"user_id":146,"name":"Titocheeto","steam_id":76561198994684924,"connected_time":1673000000000,"state":"active","ping":77},{"user_id":144,"name":"Vlad","steam_id":76561198072334604,"connected_time":1777000000000,"state":"active","ping":55},{"user_id":153,"name":"Stapler","steam_id":76561198099295077,"connected_time":1429000000000,"state":"active","ping":66},{"user_id":136,"name":"jacix3 [gay wolfgirl]{she/it}","steam_id":76561198205004165,"connected_time":2062000000000,"state":"active","ping":59},{"user_id":154,"name":"bloodhail","steam_id":76561198121633820,"connected_time":1418000000000,"state":"active","ping":75},{"user_id":156,"name":"MeatShield 2000","steam_id":76561199375192850,"connected_time":1339000000000,"state":"active","ping":102},{"user_id":105,"name":"maxwell.cat","steam_id":76561199164582237,"connected_time":4373000000000,"state":"active","ping":54}]},{"server_id":119,"name":"Uncletopia | Seattle | 2 | All Maps","name_short":"sea-2","host":"sea-1.us.uncletopia.com","port":27025,"enabled":true,"region":"us-west","cc":"us","latitude":47.608013,"longitude":-122.33517,"reserved":0,"last_update":"0001-01-01T00:00:00Z","name_a2s":"Uncletopia | Seattle | 2 | All Maps","protocol":17,"map":"koth_harvest_final","folder":"tf","game":"Team Fortress","app_id":440,"player_count":22,"max_players":24,"Bots":0,"server_type":"Dedicated","server_os":"Linux","password":true,"vac":true,"version":"7757534","steam_id":85568392924469998,"keywords":["cp","nocrits","nodmgspread","uncletopia"],"game_id":440,"stv_port":27026,"stv_name":"Uncletopia | Seattle | 2 | All Maps | STV","players":[{"user_id":354,"name":"imadabest","steam_id":76561199123304377,"connected_time":355000000000,"state":"active","ping":104},{"user_id":294,"name":"taquito","steam_id":76561198272049926,"connected_time":3740000000000,"state":"active","ping":62},{"user_id":364,"name":"KingSteve42","steam_id":76561198409455888,"connected_time":196000000000,"state":"active","ping":107},{"user_id":353,"name":"Uber Waffle","steam_id":76561199184707946,"connected_time":360000000000,"state":"active","ping":126},{"user_id":366,"name":"Gamba","steam_id":76561198069264650,"connected_time":146000000000,"state":"active","ping":79},{"user_id":312,"name":"hawkeye joe","steam_id":76561198053289095,"connected_time":2256000000000,"state":"active","ping":35},{"user_id":333,"name":"johnman gooberguy","steam_id":76561199014859764,"connected_time":1493000000000,"state":"active","ping":79},{"user_id":365,"name":"Sky","steam_id":76561198853245153,"connected_time":171000000000,"state":"active","ping":40},{"user_id":301,"name":"♦Benji♦","steam_id":76561198313529973,"connected_time":3018000000000,"state":"active","ping":46},{"user_id":359,"name":"Deeply","steam_id":76561199000786530,"connected_time":325000000000,"state":"active","ping":93},{"user_id":350,"name":"lightning","steam_id":76561198432444690,"connected_time":366000000000,"state":"active","ping":37},{"user_id":369,"name":"TheFlightGuy","steam_id":76561198211958229,"connected_time":8000000000,"state":"spawning","ping":218},{"user_id":308,"name":"Dean Martin","steam_id":76561198419470351,"connected_time":2487000000000,"state":"active","ping":73},{"user_id":345,"name":"Auggy","steam_id":76561198041816037,"connected_time":394000000000,"state":"active","ping":77},{"user_id":290,"name":"Wishful","steam_id":76561198880608202,"connected_time":4171000000000,"state":"active","ping":51},{"user_id":370,"name":"felinae","steam_id":76561198085308417,"connected_time":6000000000,"state":"active","ping":44},{"user_id":351,"name":"blue hazmat dude","steam_id":76561199448097283,"connected_time":366000000000,"state":"active","ping":251},{"user_id":360,"name":"Big Jon","steam_id":76561198402285099,"connected_time":324000000000,"state":"active","ping":81},{"user_id":357,"name":"slack","steam_id":76561198269268086,"connected_time":344000000000,"state":"active","ping":141},{"user_id":361,"name":"peter griffindor","steam_id":76561198007867721,"connected_time":315000000000,"state":"active","ping":73},{"user_id":362,"name":"The local hobo","steam_id":76561198289650060,"connected_time":305000000000,"state":"active","ping":79},{"user_id":363,"name":"weenie hut jr","steam_id":76561198206922028,"connected_time":290000000000,"state":"active","ping":74}]},{"server_id":406,"name":"Uncletopia | Seattle | 3 | Stopwatch Beta","name_short":"sea-3","host":"sea-1.us.uncletopia.com","port":27035,"enabled":true,"region":"us-west","cc":"us","latitude":47.608013,"longitude":-122.33517,"reserved":0,"last_update":"0001-01-01T00:00:00Z","name_a2s":"Uncletopia | Seattle | 3 | Stopwatch Beta","protocol":17,"map":"koth_lakeside_final","folder":"tf","game":"Team Fortress","app_id":440,"player_count":0,"max_players":24,"Bots":0,"server_type":"Dedicated","server_os":"Linux","password":true,"vac":true,"version":"7757534","steam_id":85568392924515217,"keywords":["cp","nocrits","nodmgspread","uncletopia"],"game_id":440,"stv_port":27036,"stv_name":"Uncletopia | Seattle | 3 | Stopwatch Beta | STV","players":null},{"server_id":17,"name":"Uncletopia | San Francisco | 1 | All Maps","name_short":"sfo-1","host":"sfo-1.us.uncletopia.com","port":27015,"enabled":true,"region":"us-west","cc":"us","latitude":37.77397,"longitude":-122.4313,"reserved":0,"last_update":"0001-01-01T00:00:00Z","name_a2s":"Uncletopia | San Francisco | 1 | All Maps","protocol":17,"map":"pl_upward","folder":"tf","game":"Team Fortress","app_id":440,"player_count":23,"max_players":24,"Bots":0,"server_type":"Dedicated","server_os":"Linux","password":true,"vac":true,"version":"7757534","steam_id":85568392924469999,"keywords":["nocrits","nodmgspread","payload","uncletopia"],"game_id":440,"stv_port":27016,"stv_name":"Uncletopia | San Francisco | 1 | All Maps | STV","players":[{"user_id":7,"name":"kira","steam_id":76561199054467241,"connected_time":3995000000000,"state":"active","ping":83},{"user_id":51,"name":"panpanpanpanpan","steam_id":76561198277478746,"connected_time":1781000000000,"state":"active","ping":70},{"user_id":78,"name":"everyrockstar!","steam_id":76561198272094975,"connected_time":283000000000,"state":"active","ping":75},{"user_id":69,"name":"doobiebob","steam_id":76561198071963742,"connected_time":1156000000000,"state":"active","ping":66},{"user_id":81,"name":"charm quark","steam_id":76561198098770777,"connected_time":242000000000,"state":"active","ping":70},{"user_id":79,"name":"HRT","steam_id":76561198013781132,"connected_time":261000000000,"state":"active","ping":101},{"user_id":62,"name":"Thunder","steam_id":76561198097721532,"connected_time":1514000000000,"state":"active","ping":56},{"user_id":76,"name":"Mini","steam_id":76561198119708149,"connected_time":295000000000,"state":"active","ping":70},{"user_id":71,"name":"jayden","steam_id":76561198152455865,"connected_time":836000000000,"state":"active","ping":70},{"user_id":70,"name":"Menacing Pile of Frogs","steam_id":76561198360134800,"connected_time":1078000000000,"state":"active","ping":116},{"user_id":73,"name":"Lane","steam_id":76561197965828506,"connected_time":703000000000,"state":"active","ping":89},{"user_id":60,"name":"Dov-Ah-Bob","steam_id":76561198147798338,"connected_time":1567000000000,"state":"active","ping":61},{"user_id":77,"name":"tailorturtle","steam_id":76561198107481127,"connected_time":291000000000,"state":"active","ping":106},{"user_id":26,"name":"Pyrotek⁴","steam_id":76561198072747672,"connected_time":2514000000000,"state":"active","ping":51},{"user_id":80,"name":"KingShoop","steam_id":76561198060077597,"connected_time":251000000000,"state":"active","ping":79},{"user_id":84,"name":"Day off gamer","steam_id":76561198309760791,"connected_time":51000000000,"state":"active","ping":102},{"user_id":75,"name":"Wendall555","steam_id":76561198985637603,"connected_time":306000000000,"state":"active","ping":45},{"user_id":42,"name":"Pez","steam_id":76561199197778137,"connected_time":2116000000000,"state":"active","ping":73},{"user_id":36,"name":"reymundo","steam_id":76561197989412830,"connected_time":2270000000000,"state":"active","ping":74},{"user_id":41,"name":"Fractured_Mango","steam_id":76561199013113268,"connected_time":2132000000000,"state":"active","ping":85},{"user_id":57,"name":"donutdagger","steam_id":76561199203048300,"connected_time":1641000000000,"state":"active","ping":77},{"user_id":55,"name":"fish","steam_id":76561198440986029,"connected_time":1743000000000,"state":"active","ping":51},{"user_id":74,"name":"Cwafflezz","steam_id":76561199116635411,"connected_time":634000000000,"state":"active","ping":120}]},{"server_id":18,"name":"Uncletopia | San Francisco | 2 | All Maps","name_short":"sfo-2","host":"sfo-1.us.uncletopia.com","port":27025,"enabled":true,"region":"us-west","cc":"us","latitude":37.77397,"longitude":-122.4313,"reserved":0,"last_update":"0001-01-01T00:00:00Z","name_a2s":"Uncletopia | San Francisco | 2 | All Maps","protocol":17,"map":"pl_swiftwater_final1","folder":"tf","game":"Team Fortress","app_id":440,"player_count":23,"max_players":24,"Bots":0,"server_type":"Dedicated","server_os":"Linux","password":true,"vac":true,"version":"7757534","steam_id":85568392924470000,"keywords":["nocrits","nodmgspread","payload","uncletopia"],"game_id":440,"stv_port":27026,"stv_name":"Uncletopia | San Francisco | 2 | All Maps | STV","players":[{"user_id":90,"name":"chumpp","steam_id":76561197968299392,"connected_time":798000000000,"state":"active","ping":57},{"user_id":62,"name":"FemboyMilk ❤","steam_id":76561198387324643,"connected_time":2607000000000,"state":"active","ping":73},{"user_id":17,"name":"SwellAF","steam_id":76561198237957256,"connected_time":4567000000000,"state":"active","ping":74},{"user_id":93,"name":"momus","steam_id":76561198966979196,"connected_time":197000000000,"state":"active","ping":58},{"user_id":95,"name":"The Horny","steam_id":76561198863639459,"connected_time":176000000000,"state":"active","ping":77},{"user_id":94,"name":"heisenburger","steam_id":76561198986534519,"connected_time":190000000000,"state":"active","ping":54},{"user_id":21,"name":"body shot bandit","steam_id":76561198273998286,"connected_time":4195000000000,"state":"active","ping":46},{"user_id":31,"name":"NathanSomething","steam_id":76561198927509821,"connected_time":3835000000000,"state":"active","ping":85},{"user_id":89,"name":"Marcy","steam_id":76561198097413073,"connected_time":880000000000,"state":"active","ping":62},{"user_id":78,"name":"Spicy","steam_id":76561198963371720,"connected_time":1718000000000,"state":"active","ping":89},{"user_id":30,"name":"jello","steam_id":76561198149683030,"connected_time":3923000000000,"state":"active","ping":48},{"user_id":91,"name":"Mediarch","steam_id":76561198050765729,"connected_time":292000000000,"state":"active","ping":70},{"user_id":32,"name":"golia","steam_id":76561198000264266,"connected_time":3801000000000,"state":"active","ping":88},{"user_id":33,"name":"old birb man","steam_id":76561199410269097,"connected_time":3783000000000,"state":"active","ping":115},{"user_id":82,"name":"lestagio","steam_id":76561199040214135,"connected_time":1207000000000,"state":"active","ping":132},{"user_id":39,"name":"💀King Diamond💀","steam_id":76561198012101598,"connected_time":3432000000000,"state":"active","ping":72},{"user_id":69,"name":"Dietrich","steam_id":76561198028163840,"connected_time":1955000000000,"state":"active","ping":66},{"user_id":96,"name":"zeplinnn","steam_id":76561198301300987,"connected_time":165000000000,"state":"active","ping":79},{"user_id":84,"name":"Robo Intern","steam_id":76561199067098696,"connected_time":1046000000000,"state":"active","ping":136},{"user_id":99,"name":"ground dorf","steam_id":76561198044265737,"connected_time":21000000000,"state":"active","ping":101},{"user_id":97,"name":"Landlord","steam_id":76561198987913057,"connected_time":153000000000,"state":"active","ping":72},{"user_id":76,"name":"i cant aim","steam_id":76561198065873462,"connected_time":1867000000000,"state":"active","ping":55},{"user_id":98,"name":"Dav","steam_id":76561198116862395,"connected_time":123000000000,"state":"active","ping":72}]},{"server_id":19,"name":"Uncletopia | San Francisco | 3 | Stopwatch Beta","name_short":"sfo-3","host":"sfo-1.us.uncletopia.com","port":27035,"enabled":true,"region":"us-west","cc":"us","latitude":37.77397,"longitude":-122.4313,"reserved":0,"last_update":"0001-01-01T00:00:00Z","name_a2s":"Uncletopia | San Francisco | 3 | Stopwatch Beta","protocol":17,"map":"workshop/cp_reckoner_rc6.ugc674719999","folder":"tf","game":"Team Fortress","app_id":440,"player_count":0,"max_players":24,"Bots":0,"server_type":"Dedicated","server_os":"Linux","password":true,"vac":true,"version":"7757534","steam_id":85568392924742824,"keywords":["cp","nocrits","nodmgspread","uncletopia"],"game_id":440,"stv_port":27036,"stv_name":"Uncletopia | San Francisco | 3 | Stopwatch Beta | STV","players":null},{"server_id":20,"name":"Uncletopia | San Francisco | 4 | Community","name_short":"sfo-4","host":"sfo-1.us.uncletopia.com","port":27045,"enabled":true,"region":"us-west","cc":"us","latitude":37.77397,"longitude":-122.4313,"reserved":0,"last_update":"0001-01-01T00:00:00Z","name_a2s":"Uncletopia | San Francisco | 4 | Community","protocol":17,"map":"workshop/koth_product_final.ugc454272353","folder":"tf","game":"Team Fortress","app_id":440,"player_count":0,"max_players":24,"Bots":0,"server_type":"Dedicated","server_os":"Linux","password":true,"vac":true,"version":"7757534","steam_id":85568392924742826,"keywords":["cp","nocrits","nodmgspread","uncletopia"],"game_id":440,"stv_port":27046,"stv_name":"Uncletopia | San Francisco | 4 | Community | STV","players":null},{"server_id":141,"name":"Uncletopia | Sydney | 1 | All Maps","name_short":"syd-1","host":"syd-1.au.uncletopia.com","port":27015,"enabled":true,"region":"au","cc":"au","latitude":-33.865143,"longitude":151.2099,"reserved":0,"last_update":"0001-01-01T00:00:00Z","name_a2s":"Uncletopia | Sydney | 1 | All Maps","protocol":17,"map":"koth_viaduct","folder":"tf","game":"Team Fortress","app_id":440,"player_count":1,"max_players":24,"Bots":0,"server_type":"Dedicated","server_os":"Linux","password":true,"vac":true,"version":"7757534","steam_id":85568392924470001,"keywords":["cp","nocrits","nodmgspread","uncletopia"],"game_id":440,"stv_port":27016,"stv_name":"Uncletopia | Sydney | 1 | All Maps | STV","players":[{"user_id":8,"name":"*_*","steam_id":76561198937717599,"connected_time":172000000000,"state":"active","ping":288}]},{"server_id":123,"name":"Uncletopia | Sydney | 2 | All Maps","name_short":"syd-2","host":"syd-1.au.uncletopia.com","port":27025,"enabled":true,"region":"au","cc":"au","latitude":-33.865143,"longitude":151.2099,"reserved":0,"last_update":"0001-01-01T00:00:00Z","name_a2s":"Uncletopia | Sydney | 2 | All Maps","protocol":17,"map":"cp_process_final","folder":"tf","game":"Team Fortress","app_id":440,"player_count":0,"max_players":24,"Bots":0,"server_type":"Dedicated","server_os":"Linux","password":true,"vac":true,"version":"7757534","steam_id":85568392924470002,"keywords":["cp","nocrits","nodmgspread","uncletopia"],"game_id":440,"stv_port":27026,"stv_name":"Uncletopia | Sydney | 2 | All Maps | STV","players":null},{"server_id":395,"name":"Uncletopia | Sydney | 3 | All Maps","name_short":"syd-3","host":"syd-1.au.uncletopia.com","port":27035,"enabled":true,"region":"au","cc":"au","latitude":-33.865143,"longitude":151.2099,"reserved":0,"last_update":"0001-01-01T00:00:00Z","name_a2s":"Uncletopia | Sydney | 3 | All Maps","protocol":17,"map":"pl_swiftwater_final1","folder":"tf","game":"Team Fortress","app_id":440,"player_count":0,"max_players":24,"Bots":0,"server_type":"Dedicated","server_os":"Linux","password":true,"vac":true,"version":"7757534","steam_id":85568392925194467,"keywords":["nocrits","nodmgspread","payload","uncletopia"],"game_id":440,"stv_port":27036,"stv_name":"Uncletopia | Sydney | 3 | All Maps | STV","players":null},{"server_id":396,"name":"Uncletopia | Sydney | 4 | All Maps","name_short":"syd-4","host":"syd-1.au.uncletopia.com","port":27045,"enabled":true,"region":"au","cc":"au","latitude":-33.865143,"longitude":151.2099,"reserved":0,"last_update":"0001-01-01T00:00:00Z","name_a2s":"Uncletopia | Sydney | 4 | All Maps","protocol":17,"map":"koth_highpass","folder":"tf","game":"Team Fortress","app_id":440,"player_count":0,"max_players":24,"Bots":0,"server_type":"Dedicated","server_os":"Linux","password":true,"vac":true,"version":"7757534","steam_id":85568392925397958,"keywords":["cp","nocrits","nodmgspread","uncletopia"],"game_id":440,"stv_port":27046,"stv_name":"Uncletopia | Sydney | 4 | All Maps | STV","players":null},{"server_id":58,"name":"Uncletopia | Sydney | 5 | Stopwatch Beta","name_short":"syd-5","host":"syd-1.au.uncletopia.com","port":27055,"enabled":true,"region":"au","cc":"au","latitude":-33.865143,"longitude":151.2099,"reserved":0,"last_update":"0001-01-01T00:00:00Z","name_a2s":"Uncletopia | Sydney | 5 | Stopwatch Beta","protocol":17,"map":"koth_cascade","folder":"tf","game":"Team Fortress","app_id":440,"player_count":0,"max_players":24,"Bots":0,"server_type":"Dedicated","server_os":"Linux","password":true,"vac":true,"version":"7757534","steam_id":85568392925397959,"keywords":["cp","nocrits","nodmgspread","uncletopia"],"game_id":440,"stv_port":27056,"stv_name":"Uncletopia | Sydney | 5 | Stopwatch Beta | STV","players":null},{"server_id":59,"name":"Uncletopia | Sydney | 6 | Community","name_short":"syd-6","host":"syd-1.au.uncletopia.com","port":27065,"enabled":true,"region":"au","cc":"au","latitude":-33.865143,"longitude":151.2099,"reserved":0,"last_update":"0001-01-01T00:00:00Z","name_a2s":"Uncletopia | Sydney | 6 | Community","protocol":17,"map":"cp_snakewater_final1","folder":"tf","game":"Team Fortress","app_id":440,"player_count":0,"max_players":24,"Bots":0,"server_type":"Dedicated","server_os":"Linux","password":true,"vac":true,"version":"7757534","steam_id":85568392925397960,"keywords":["cp","nocrits","nodmgspread","uncletopia"],"game_id":440,"stv_port":27066,"stv_name":"Uncletopia | Sydney | 6 | Community | STV","players":null},{"server_id":49,"name":"Uncletopia | Warsaw | 1 | All Maps","name_short":"waw-1","host":"waw-1.pl.uncletopia.com","port":27015,"enabled":true,"region":"eu","cc":"pl","latitude":52.2297,"longitude":21.017532,"reserved":0,"last_update":"0001-01-01T00:00:00Z","name_a2s":"","protocol":0,"map":"","folder":"","game":"","app_id":0,"player_count":0,"max_players":0,"Bots":0,"server_type":"","server_os":"","password":false,"vac":false,"version":"","steam_id":0,"keywords":null,"game_id":0,"stv_port":0,"stv_name":"","players":null},{"server_id":50,"name":"Uncletopia | Warsaw | 2 | All Maps","name_short":"waw-2","host":"waw-1.pl.uncletopia.com","port":27025,"enabled":true,"region":"eu","cc":"pl","latitude":52.2297,"longitude":21.017532,"reserved":0,"last_update":"0001-01-01T00:00:00Z","name_a2s":"Uncletopia | Warsaw | 2 | All Maps","protocol":17,"map":"koth_viaduct","folder":"tf","game":"Team Fortress","app_id":440,"player_count":0,"max_players":24,"Bots":0,"server_type":"Dedicated","server_os":"Linux","password":true,"vac":true,"version":"7757534","steam_id":85568392925397851,"keywords":["cp","nocrits","nodmgspread","uncletopia"],"game_id":440,"stv_port":27026,"stv_name":"Uncletopia | Warsaw | 2 | All Maps | STV","players":null},{"server_id":51,"name":"Uncletopia | Warsaw | 3 | All Maps","name_short":"waw-3","host":"waw-1.pl.uncletopia.com","port":27035,"enabled":true,"region":"eu","cc":"pl","latitude":52.2297,"longitude":21.017532,"reserved":0,"last_update":"0001-01-01T00:00:00Z","name_a2s":"Uncletopia | Warsaw | 3 | All Maps","protocol":17,"map":"koth_viaduct","folder":"tf","game":"Team Fortress","app_id":440,"player_count":0,"max_players":24,"Bots":0,"server_type":"Dedicated","server_os":"Linux","password":true,"vac":true,"version":"7757534","steam_id":85568392925397852,"keywords":["cp","nocrits","nodmgspread","uncletopia"],"game_id":440,"stv_port":27036,"stv_name":"Uncletopia | Warsaw | 3 | All Maps | STV","players":null},{"server_id":52,"name":"Uncletopia | Warsaw | 4 | All Maps","name_short":"waw-4","host":"waw-1.pl.uncletopia.com","port":27045,"enabled":true,"region":"eu","cc":"pl","latitude":52.2297,"longitude":21.017532,"reserved":0,"last_update":"0001-01-01T00:00:00Z","name_a2s":"Uncletopia | Warsaw | 4 | All Maps","protocol":17,"map":"koth_lakeside_final","folder":"tf","game":"Team Fortress","app_id":440,"player_count":0,"max_players":24,"Bots":0,"server_type":"Dedicated","server_os":"Linux","password":true,"vac":true,"version":"7757534","steam_id":85568392925397853,"keywords":["cp","nocrits","nodmgspread","uncletopia"],"game_id":440,"stv_port":27046,"stv_name":"Uncletopia | Warsaw | 4 | All Maps | STV","players":null},{"server_id":53,"name":"Uncletopia | Warsaw | 5 | Stopwatch Beta","name_short":"waw-5","host":"waw-1.pl.uncletopia.com","port":27055,"enabled":true,"region":"eu","cc":"pl","latitude":52.2297,"longitude":21.017532,"reserved":0,"last_update":"0001-01-01T00:00:00Z","name_a2s":"Uncletopia | Warsaw | 5 | Stopwatch Beta","protocol":17,"map":"pl_borneo","folder":"tf","game":"Team Fortress","app_id":440,"player_count":0,"max_players":24,"Bots":0,"server_type":"Dedicated","server_os":"Linux","password":true,"vac":true,"version":"7757534","steam_id":85568392925397854,"keywords":["nocrits","nodmgspread","payload","uncletopia"],"game_id":440,"stv_port":27056,"stv_name":"Uncletopia | Warsaw | 5 | Stopwatch Beta | STV","players":null},{"server_id":54,"name":"Uncletopia | Warsaw | 6 | Community","name_short":"waw-6","host":"waw-1.pl.uncletopia.com","port":27065,"enabled":true,"region":"eu","cc":"pl","latitude":52.2297,"longitude":21.017532,"reserved":0,"last_update":"0001-01-01T00:00:00Z","name_a2s":"Uncletopia | Warsaw | 6 | Community","protocol":17,"map":"koth_lakeside_final","folder":"tf","game":"Team Fortress","app_id":440,"player_count":0,"max_players":24,"Bots":0,"server_type":"Dedicated","server_os":"Linux","password":true,"vac":true,"version":"7757534","steam_id":85568392925397856,"keywords":["cp","nocrits","nodmgspread","uncletopia"],"game_id":440,"stv_port":27066,"stv_name":"Uncletopia | Warsaw | 6 | Community | STV","players":null}]}