{"status":true,"message":"","result":[{"server_id":9,"name":"Uncletopia | Atlanta | 1 | All Maps","name_short":"atl-1","host":"atl-1.us.uncletopia.com","port":27015,"enabled":true,"region":"us-east","cc":"us","latitude":33.753746,"longitude":-84.38633,"reserved":0,"last_update":"0001-01-01T00:00:00Z","name_a2s":"Uncletopia | Atlanta | 1 | All Maps","protocol":17,"map":"ctf_landfall","folder":"tf","game":"Team Fortress","app_id":440,"player_count":24,"max_players":24,"Bots":0,"server_type":"Dedicated","server_os":"Linux","password":true,"vac":true,"version":"7757534","steam_id":85568392924469982,"keywords":["ctf","nocrits","nodmgspread","uncletopia"],"game_id":440,"stv_port":27016,"stv_name":"Uncletopia | Atlanta | 1 | All Maps | STV","players":[{"user_id":296,"name":"Wrench","steam_id":76561198055879094,"connected_time":2756000000000,"state":"active","ping":57},{"user_id":286,"name":"Scrumlet","steam_id":76561198339806643,"connected_time":3871000000000,"state":"active","ping":77},{"user_id":288,"name":"Saggy","steam_id":76561198166706479,"connected_time":3821000000000,"state":"active","ping":84},{"user_id":310,"name":"Carl, Good to see you","steam_id":76561198070574075,"connected_time":1776000000000,"state":"active","ping":54},{"user_id":300,"name":"Alt1 l Epifiny","steam_id":76561198027958086,"connected_time":2635000000000,"state":"active","ping":87},{"user_id":265,"name":"Thotimus Begonimus","steam_id":76561197970275938,"connected_time":6262000000000,"state":"active","ping":38},{"user_id":305,"name":"root beer enthusiast","steam_id":76561198124791670,"connected_time":1904000000000,"state":"active","ping":38},{"user_id":280,"name":"Draconic Rift","steam_id":76561198044986440,"connected_time":4748000000000,"state":"active","ping":66},{"user_id":297,"name":"cheeks","steam_id":76561197993371179,"connected_time":2756000000000,"state":"active","ping":45},{"user_id":321,"name":"Architect","steam_id":76561198015242016,"connected_time":205000000000,"state":"active","ping":60},{"user_id":323,"name":"ShiYor","steam_id":76561199117260032,"connected_time":26000000000,"state":"active","ping":129},{"user_id":322,"name":"Jona2180","steam_id":76561198807012900,"connected_time":194000000000,"state":"active","ping":71},{"user_id":271,"name":"427621","steam_id":76561198822069026,"connected_time":5681000000000,"state":"active","ping":92},{"user_id":217,"name":"G·ÑÇ√Æ∆¨·ÑÉŒâ-Œõ–Ø∆¨√Æ∆ß∆¨ùÖ†","steam_id":76561198829607485,"connected_time":9449000000000,"state":"active","ping":44},{"user_id":317,"name":"Bali","steam_id":76561198038693845,"connected_time":1244000000000,"state":"active","ping":66},{"user_id":270,"name":"Ashes!","steam_id":76561197998475441,"connected_time":5692000000000,"state":"active","ping":67},{"user_id":313,"name":"Spymemes","steam_id":76561198403552512,"connected_time":1605000000000,"state":"active","ping":42},{"user_id":314,"name":"DylanGuy","steam_id":76561198800767851,"connected_time":1591000000000,"state":"active","ping":58},{"user_id":267,"name":"You Want Me","steam_id":76561198135492119,"connected_time":6111000000000,"state":"active","ping":69},{"user_id":213,"name":"3,000,000 merged Chihuahuas","steam_id":76561198130772096,"connected_time":9884000000000,"state":"active","ping":45},{"user_id":273,"name":"‚òÖ ‚òÖ AL ‚òÖ ‚òÖ","steam_id":76561199020764069,"connected_time":5108000000000,"state":"active","ping":99},{"user_id":304,"name":"Riptide","steam_id":76561198164930435,"connected_time":2089000000000,"state":"active","ping":58},{"user_id":284,"name":"ATL1 | Pango","steam_id":76561198069811545,"connected_time":3993000000000,"state":"active","ping":30},{"user_id":319,"name":"Nyle","steam_id":76561198045652639,"connected_time":883000000000,"state":"active","ping":112}]},{"server_id":400,"name":"Uncletopia | Atlanta | 3 | Community","name_short":"atl-3","host":"atl-1.us.uncletopia.com","port":27035,"enabled":true,"region":"us-east","cc":"us","latitude":33.753746,"longitude":-84.38633,"reserved":0,"last_update":"0001-01-01T00:00:00Z","name_a2s":"Uncletopia | Atlanta | 3 | Community","protocol":17,"map":"workshop/koth_bagel_rc6.ugc2514036946","folder":"tf","game":"Team Fortress","app_id":440,"player_count":0,"max_players":24,"Bots":0,"server_type":"Dedicated","server_os":"Linux","password":true,"vac":true,"version":"7757534","steam_id":85568392924515187,"keywords":["cp","nocrits","nodmgspread","uncletopia"],"game_id":440,"stv_port":27036,"stv_name":"Uncletopia | Atlanta | 3 | Community | STV","players":null},{"server_id":401,"name":"Uncletopia | Atlanta | 4 | No Payload","name_short":"atl-4","host":"atl-1.us.uncletopia.com","port":27045,"enabled":true,"region":"us-east","cc":"us","latitude":33.753746,"longitude":-84.38633,"reserved":0,"last_update":"0001-01-01T00:00:00Z","name_a2s":"","protocol":0,"map":"","folder":"","game":"","app_id":0,"player_count":0,"max_players":0,"Bots":0,"server_type":"","server_os":"","password":false,"vac":false,"version":"","steam_id":0,"keywords":null,"game_id":0,"stv_port":0,"stv_name":"","players":null},{"server_id":2,"name":"Uncletopia | Chicago | 1 | All Maps","name_short":"chi-1","host":"chi-1.us.uncletopia.com","port":27015,"enabled":true,"region":"us-central","cc":"us","latitude":41.881832,"longitude":-87.62318,"reserved":0,"last_update":"0001-01-01T00:00:00Z","name_a2s":"Uncletopia | Chicago | 1 | All Maps","protocol":17,"map":"pl_borneo","folder":"tf","game":"Team Fortress","app_id":440,"player_count":24,"max_players":24,"Bots":0,"server_type":"Dedicated","server_os":"Linux","password":true,"vac":true,"version":"7757534","steam_id":85568392924469984,"keywords":["nocrits","nodmgspread","payload","uncletopia"],"game_id":440,"stv_port":27016,"stv_name":"Uncletopia | Chicago | 1 | All Maps | STV","players":[{"user_id":102,"name":"worker","steam_id":76561198039608940,"connected_time":4920000000000,"state":"active","ping":118},{"user_id":153,"name":"ArchdukeofSuno","steam_id":76561198068577739,"connected_time":490000000000,"state":"active","ping":84},{"user_id":157,"name":"Ye ( I Love Caulk ) West","steam_id":76561198068830312,"connected_time":302000000000,"state":"active","ping":45},{"user_id":111,"name":"DocLucky","steam_id":76561199093899249,"connected_time":3783000000000,"state":"active","ping":159},{"user_id":150,"name":"Macko","steam_id":76561198452005461,"connected_time":608000000000,"state":"active","ping":81},{"user_id":158,"name":"Induceddata","steam_id":76561198868302455,"connected_time":113000000000,"state":"active","ping":58},{"user_id":151,"name":"wiiblob","steam_id":76561198109106242,"connected_time":554000000000,"state":"active","ping":140},{"user_id":135,"name":"bessie","steam_id":76561198079603532,"connected_time":2622000000000,"state":"active","ping":80},{"user_id":149,"name":"yvko","steam_id":76561198165724991,"connected_time":670000000000,"state":"active","ping":70},{"user_id":115,"name":"Crab Rangoon","steam_id":76561198059310510,"connected_time":3504000000000,"state":"active","ping":73},{"user_id":110,"name":"Astoriae!","steam_id":76561199090168858,"connected_time":4473000000000,"state":"active","ping":68},{"user_id":138,"name":":slight_smile:","steam_id":76561198120124007,"connected_time":2194000000000,"state":"active","ping":82},{"user_id":87,"name":"vv","steam_id":76561198134813102,"connected_time":5552000000000,"state":"active","ping":58},{"user_id":121,"name":"girlpeen supreme","steam_id":76561198031242903,"connected_time":3330000000000,"state":"active","ping":67},{"user_id":142,"name":"TeeTree","steam_id":76561198862307874,"connected_time":1911000000000,"state":"active","ping":61},{"user_id":139,"name":"-_-","steam_id":76561198057717934,"connected_time":2153000000000,"state":"active","ping":45},{"user_id":40,"name":"pelt","steam_id":76561197993593754,"connected_time":10266000000000,"state":"active","ping":44},{"user_id":140,"name":"debin","steam_id":76561198070711217,"connected_time":1919000000000,"state":"active","ping":55},{"user_id":134,"name":"ash","steam_id":76561198127890645,"connected_time":2713000000000,"state":"active","ping":84},{"user_id":159,"name":"uluna","steam_id":76561198284102821,"connected_time":62000000000,"state":"active","ping":68},{"user_id":133,"name":"god approaches","steam_id":76561198081617990,"connected_time":2734000000000,"state":"active","ping":100},{"user_id":123,"name":"LunarrD","steam_id":76561198811220107,"connected_time":3052000000000,"state":"active","ping":80},{"user_id":144,"name":"XxBananaBoyxX","steam_id":76561198042057532,"connected_time":1899000000000,"state":"active","ping":93},{"user_id":37,"name":"HighJingo","steam_id":76561198846814390,"connected_time":10604000000000,"state":"active","ping":70}]},{"server_id":106,"name":"Uncletopia | Chicago | 2 | All Maps","name_short":"chi-2","host":"chi-1.us.uncletopia.com","port":27025,"enabled":true,"region":"us-central","cc":"us","latitude":41.881832,"longitude":-87.62318,"reserved":0,"last_update":"0001-01-01T00:00:00Z","name_a2s":"Uncletopia | Chicago | 2 | All Maps","protocol":17,"map":"pl_pier","folder":"tf","game":"Team Fortress","app_id":440,"player_count":0,"max_players":24,"Bots":0,"server_type":"Dedicated","server_os":"Linux","password":true,"vac":true,"version":"7757534","steam_id":85568392924469985,"keywords":["nocrits","nodmgspread","payload","uncletopia"],"game_id":440,"stv_port":27026,"stv_name":"Uncletopia | Chicago | 2 | All Maps | STV","players":null},{"server_id":402,"name":"Uncletopia | Chicago | 3 | All Maps","name_short":"chi-3","host":"chi-1.us.uncletopia.com","port":27035,"enabled":true,"region":"us-central","cc":"us","latitude":41.881832,"longitude":-87.62318,"reserved":0,"last_update":"0001-01-01T00:00:00Z","name_a2s":"Uncletopia | Chicago | 3 | All Maps","protocol":17,"map":"cp_steel","folder":"tf","game":"Team Fortress","app_id":440,"player_count":24,"max_players":24,"Bots":0,"server_type":"Dedicated","server_os":"Linux","password":true,"vac":true,"version":"7757534","steam_id":85568392924515191,"keywords":["cp","nocrits","nodmgspread","uncletopia"],"game_id":440,"stv_port":27036,"stv_name":"Uncletopia | Chicago | 3 | All Maps | STV","players":[{"user_id":136,"name":"Enron Hubbard","steam_id":76561198012951411,"connected_time":929000000000,"state":"active","ping":60},{"user_id":127,"name":"Dot.","steam_id":76561198149463984,"connected_time":1613000000000,"state":"active","ping":55},{"user_id":143,"name":"athletesfoot","steam_id":76561197997331867,"connected_time":404000000000,"state":"active","ping":59},{"user_id":108,"name":"trobin120","steam_id":76561199122420273,"connected_time":2753000000000,"state":"active","ping":63},{"user_id":139,"name":"username","steam_id":76561198130826890,"connected_time":788000000000,"state":"active","ping":86},{"user_id":102,"name":"Try Gardening","steam_id":76561198120311340,"connected_time":3280000000000,"state":"active","ping":47},{"user_id":116,"name":"tlm","steam_id":76561198178457461,"connected_time":1793000000000,"state":"active","ping":69},{"user_id":118,"name":"Alexhcgar„ÉÖ","steam_id":76561198085706389,"connected_time":1741000000000,"state":"active","ping":113},{"user_id":140,"name":"Sigiferd","steam_id":76561198148788110,"connected_time":767000000000,"state":"active","ping":133},{"user_id":147,"name":"‚àÄ…ê","steam_id":76561198139718219,"connected_time":65000000000,"state":"active","ping":72},{"user_id":120,"name":"Stormartillery","steam_id":76561198408982577,"connected_time":1730000000000,"state":"active","ping":76},{"user_id":145,"name":"[chef] iron","steam_id":76561197970888616,"connected_time":329000000000,"state":"active","ping":43},{"user_id":76,"name":"LegendaryMister151","steam_id":76561198064890524,"connected_time":4335000000000,"state":"active","ping":89},{"user_id":92,"name":"Analogy != Definition","steam_id":76561197999657118,"connected_time":3877000000000,"state":"active","ping":86},{"user_id":146,"name":"ÈÇ™ÊÅ∂ÁöÑÂ∑´Â∏à","steam_id":76561198165212575,"connected_time":168000000000,"state":"active","ping":61},{"user_id":69,"name":"Roadhog (real)","steam_id":76561198948401045,"connected_time":4509000000000,"state":"active","ping":71},{"user_id":122,"name":"altra","steam_id":76561198117148323,"connected_time":1706000000000,"state":"active","ping":58},{"user_id":144,"name":"Morattab","steam_id":76561199467853508,"connected_time":346000000000,"state":"active","ping":101},{"user_id":123,"name":"Garfield","steam_id":76561198037803087,"connected_time":1676000000000,"state":"active","ping":71},{"user_id":124,"name":"Aeront","steam_id":76561198072032723,"connected_time":1671000000000,"state":"active","ping":89},{"user_id":135,"name":"I can't heal","steam_id":76561198039763676,"connected_time":1118000000000,"state":"active","ping":64},{"user_id":129,"name":"Boy Pussy","steam_id":76561199121980584,"connected_time":1609000000000,"state":"active","ping":60},{"user_id":134,"name":"Even Tide","steam_id":76561199057226703,"connected_time":1258000000000,"state":"active","ping":76},{"user_id":141,"name":"BackwardsEagle","steam_id":76561199013712612,"connected_time":736000000000,"state":"active","ping":97}]},{"server_id":403,"name":"Uncletopia | Chicago | 4 | All Maps","name_short":"chi-4","host":"chi-1.us.uncletopia.com","port":27045,"enabled":true,"region":"us-central","cc":"us","latitude":41.881832,"longitude":-87.62318,"reserved":0,"last_update":"0001-01-01T00:00:00Z","name_a2s":"Uncletopia | Chicago | 4 | All Maps","protocol":17,"map":"pl_frontier_final","folder":"tf","game":"Team Fortress","app_id":440,"player_count":19,"max_players":24,"Bots":0,"server_type":"Dedicated","server_os":"Linux","password":true,"vac":true,"version":"7757534","steam_id":85568392924515193,"keywords":["nocrits","nodmgspread","payload","uncletopia"],"game_id":440,"stv_port":27046,"stv_name":"Uncletopia | Chicago | 4 | All Maps | STV","players":[{"user_id":512,"name":"Reginald Von Dillisbuff III","steam_id":76561198829303833,"connected_time":443000000000,"state":"connecting","ping":50},{"user_id":494,"name":"Ztdegi57","steam_id":76561198172236563,"connected_time":2100000000000,"state":"spawning","ping":62},{"user_id":504,"name":"Walmus","steam_id":76561198111416393,"connected_time":1107000000000,"state":"spawning","ping":92},{"user_id":502,"name":"Dust","steam_id":76561198106949905,"connected_time":1152000000000,"state":"spawning","ping":73},{"user_id":523,"name":"Luna","steam_id":76561198131342156,"connected_time":148000000000,"state":"spawning","ping":103},{"user_id":503,"name":"PeopleOrderOurPatties","steam_id":76561198323144922,"connected_time":1135000000000,"state":"spawning","ping":62},{"user_id":519,"name":"huh6750","steam_id":76561199094058555,"connected_time":272000000000,"state":"spawning","ping":62},{"user_id":505,"name":"Bad Namesman","steam_id":76561198027205470,"connected_time":1106000000000,"state":"spawning","ping":111},{"user_id":495,"name":"McLovin","steam_id":76561198114934503,"connected_time":2060000000000,"state":"spawning","ping":126},{"user_id":520,"name":"Sunshine","steam_id":76561198885528098,"connected_time":270000000000,"state":"spawning","ping":95},{"user_id":455,"name":"Temujin","steam_id":76561198030936583,"connected_time":2981000000000,"state":"spawning","ping":64},{"user_id":515,"name":"scrapheap","steam_id":76561198202407087,"connected_time":392000000000,"state":"spawning","ping":83},{"user_id":469,"name":"wack","steam_id":76561198095697330,"connected_time":2796000000000,"state":"spawning","ping":97},{"user_id":510,"name":"lyanide","steam_id":76561198311704368,"connected_time":809000000000,"state":"spawning","ping":77},{"user_id":498,"name":"Acro Banwagon","steam_id":76561198092451804,"connected_time":1739000000000,"state":"spawning","ping":76},{"user_id":500,"name":"John Dungus (the real one)","steam_id":76561198049191027,"connected_time":1493000000000,"state":"connecting","ping":108},{"user_id":489,"name":"Assitins","steam_id":76561198041572892,"connected_time":2227000000000,"state":"spawning","ping":94},{"user_id":492,"name":"WitheringLeo","steam_id":76561198046722918,"connected_time":2190000000000,"state":"spawning","ping":84},{"user_id":521,"name":"hamter","steam_id":76561198086245104,"connected_time":229000000000,"state":"spawning","ping":109}]},{"server_id":36,"name":"Uncletopia | Chicago | 5 | All Maps","name_short":"chi-5","host":"chi-2.us.uncletopia.com","port":27015,"enabled":true,"region":"us-central","cc":"us","latitude":41.881832,"longitude":-87.62318,"reserved":0,"last_update":"0001-01-01T00:00:00Z","name_a2s":"Uncletopia | Chicago | 5 | All Maps","protocol":17,"map":"koth_lakeside_final","folder":"tf","game":"Team Fortress","app_id":440,"player_count":0,"max_players":24,"Bots":0,"server_type":"Dedicated","server_os":"Linux","password":true,"vac":true,"version":"7757534","steam_id":85568392924866362,"keywords":["cp","nocrits","nodmgspread","uncletopia"],"game_id":440,"stv_port":27016,"stv_name":"Uncletopia | Chicago | 5 | All Maps | STV","players":null},{"server_id":37,"name":"Uncletopia | Chicago | 6 | All Maps","name_short":"chi-6","host":"chi-2.us.uncletopia.com","port":27025,"enabled":true,"region":"us-central","cc":"us","latitude":41.881832,"longitude":-87.62318,"reserved":0,"last_update":"0001-01-01T00:00:00Z","name_a2s":"Uncletopia | Chicago | 6 | All Maps","protocol":17,"map":"cp_altitude","folder":"tf","game":"Team Fortress","app_id":440,"player_count":0,"max_players":24,"Bots":0,"server_type":"Dedicated","server_os":"Linux","password":true,"vac":true,"version":"7757534","steam_id":85568392924866363,"keywords":["cp","nocrits","nodmgspread","uncletopia"],"game_id":440,"stv_port":27026,"stv_name":"Uncletopia | Chicago | 6 | All Maps | STV","players":null},{"server_id":38,"name":"Uncletopia | Chicago | 7 | Stopwatch Beta","name_short":"chi-7","host":"chi-2.us.uncletopia.com","port":27035,"enabled":true,"region":"us-central","cc":"us","latitude":41.881832,"longitude":-87.62318,"reserved":0,"last_update":"0001-01-01T00:00:00Z","name_a2s":"Uncletopia | Chicago | 7 | Stopwatch Beta","protocol":17,"map":"koth_viaduct","folder":"tf","game":"Team Fortress","app_id":440,"player_count":0,"max_players":24,"Bots":0,"server_type":"Dedicated","server_os":"Linux","password":true,"vac":true,"version":"7757534","steam_id":85568392924866364,"keywords":["cp","nocrits","nodmgspread","uncletopia"],"game_id":440,"stv_port":27036,"stv_name":"Uncletopia | Chicago | 7 | Stopwatch Beta | STV","players":null},{"server_id":39,"name":"Uncletopia | Chicago | 8 | Community","name_short":"chi-8","host":"chi-2.us.uncletopia.com","port":27045,"enabled":true,"region":"us-central","cc":"us","latitude":41.881832,"longitude":-87.62318,"reserved":0,"last_update":"0001-01-01T00:00:00Z","name_a2s":"Uncletopia | Chicago | 8 | Community","protocol":17,"map":"koth_lakeside_final","folder":"tf","game":"Team Fortress","app_id":440,"player_count":0,"max_players":24,"Bots":0,"server_type":"Dedicated","server_os":"Linux","password":true,"vac":true,"version":"7757534","steam_id":85568392924866365,"keywords":["cp","nocrits","nodmgspread","uncletopia"],"game_id":440,"stv_port":27046,"stv_name":"Uncletopia | Chicago | 8 | Community | STV","players":null},{"server_id":8,"name":"Uncletopia | Dallas | 1 | All Maps","name_short":"dal-1","host":"dal-1.us.uncletopia.com","port":27015,"enabled":true,"region":"us-central","cc":"us","latitude":32.779167,"longitude":-96.80889,"reserved":0,"last_update":"0001-01-01T00:00:00Z","name_a2s":"Uncletopia | Dallas | 1 | All Maps","protocol":17,"map":"pl_frontier_final","folder":"tf","game":"Team Fortress","app_id":440,"player_count":24,"max_players":24,"Bots":0,"server_type":"Dedicated","server_os":"Linux","password":true,"vac":true,"version":"7757534","steam_id":85568392924469986,"keywords":["nocrits","nodmgspread","payload","uncletopia"],"game_id":440,"stv_port":27016,"stv_name":"Uncletopia | Dallas | 1 | All Maps | STV","players":[{"user_id":213,"name":"GLG.Liz","steam_id":76561198021957956,"connected_time":1493000000000,"state":"active","ping":48},{"user_id":177,"name":"Yimberly","steam_id":76561199206923109,"connected_time":3906000000000,"state":"active","ping":82},{"user_id":69,"name":"Bo","steam_id":76561198023975550,"connected_time":12687000000000,"state":"active","ping":161},{"user_id":227,"name":"clover","steam_id":76561199388351466,"connected_time":540000000000,"state":"active","ping":59},{"user_id":189,"name":"ChottoAMinute","steam_id":76561198873157775,"connected_time":2931000000000,"state":"active","ping":53},{"user_id":214,"name":"Mr. Bixby","steam_id":76561198868839264,"connected_time":881000000000,"state":"active","ping":56},{"user_id":203,"name":"‚öß AylaBB ‚öß","steam_id":76561198119211246,"connected_time":2061000000000,"state":"active","ping":102},{"user_id":230,"name":"Smughtro","steam_id":76561199092291647,"connected_time":255000000000,"state":"active","ping":97},{"user_id":186,"name":"Watatsuki no Yorihime","steam_id":76561198063315650,"connected_time":3330000000000,"state":"active","ping":74},{"user_id":190,"name":"xbox record that","steam_id":76561198150117455,"connected_time":2792000000000,"state":"active","ping":66},{"user_id":225,"name":"herb","steam_id":76561198185980055,"connected_time":568000000000,"state":"active","ping":67},{"user_id":159,"name":"Silvermace","steam_id":76561198090696843,"connected_time":4729000000000,"state":"active","ping":58},{"user_id":193,"name":"Toasty","steam_id":76561198079001554,"connected_time":2750000000000,"state":"active","ping":68},{"user_id":209,"name":"Weerk","steam_id":76561199209543551,"connected_time":1717000000000,"state":"active","ping":77},{"user_id":208,"name":"mayhem","steam_id":76561199246637881,"connected_time":1762000000000,"state":"active","ping":42},{"user_id":228,"name":"hoodwink00‚ù§","steam_id":76561198133869796,"connected_time":356000000000,"state":"active","ping":74},{"user_id":219,"name":"Huge eevee fan","steam_id":76561198128057732,"connected_time":790000000000,"state":"active","ping":84},{"user_id":218,"name":"lost in spaaaaace","steam_id":76561199085974120,"connected_time":805000000000,"state":"active","ping":88},{"user_id":220,"name":"Sarah","steam_id":76561199013702818,"connected_time":778000000000,"state":"active","ping":108},{"user_id":184,"name":"dark luigi","steam_id":76561198048007844,"connected_time":3368000000000,"state":"active","ping":75},{"user_id":223,"name":"TrustworthyStranger","steam_id":76561198154105678,"connected_time":693000000000,"state":"active","ping":70},{"user_id":211,"name":"techturkey","steam_id":76561199154637989,"connected_time":1670000000000,"state":"active","ping":100},{"user_id":200,"name":"purple diesel","steam_id":76561197976548449,"connected_time":2371000000000,"state":"active","ping":88},{"user_id":229,"name":"Bad Rollout","steam_id":76561197971948876,"connected_time":346000000000,"state":"active","ping":90}]},{"server_id":108,"name":"Uncletopia | Dallas | 2 | All Maps","name_short":"dal-2","host":"dal-1.us.uncletopia.com","port":27025,"enabled":true,"region":"us-central","cc":"us","latitude":32.779167,"longitude":-96.80889,"reserved":0,"last_update":"0001-01-01T00:00:00Z","name_a2s":"Uncletopia | Dallas | 2 | All Maps","protocol":17,"map":"pl_borneo","folder":"tf","game":"Team Fortress","app_id":440,"player_count":0,"max_players":24,"Bots":0,"server_type":"Dedicated","server_os":"Linux","password":true,"vac":true,"version":"7757534","steam_id":85568392924469988,"keywords":["nocrits","nodmgspread","payload","uncletopia"],"game_id":440,"stv_port":27026,"stv_name":"Uncletopia | Dallas | 2 | All Maps | STV","players":null},{"server_id":5,"name":"Uncletopia | Frankfurt | 1 | All Maps","name_short":"frk-1","host":"frk-1.de.uncletopia.com","port":27015,"enabled":true,"region":"eu","cc":"de","latitude":50.110924,"longitude":8.682127,"reserved":0,"last_update":"0001-01-01T00:00:00Z","name_a2s":"Uncletopia | Frankfurt | 1 | All Maps","protocol":17,"map":"koth_viaduct","folder":"tf","game":"Team Fortress","app_id":440,"player_count":0,"max_players":24,"Bots":0,"server_type":"Dedicated","server_os":"Linux","password":true,"vac":true,"version":"7757534","steam_id":85568392924469989,"keywords":["cp","nocrits","nodmgspread","uncletopia"],"game_id":440,"stv_port":27016,"stv_name":"Uncletopia | Frankfurt | 1 | All Maps | STV","players":null},{"server_id":110,"name":"Uncletopia | Frankfurt | 2 | All Maps","name_short":"frk-2","host":"frk-1.de.uncletopia.com","port":27025,"enabled":true,"region":"eu","cc":"de","latitude":50.110924,"longitude":8.682127,"reserved":0,"last_update":"0001-01-01T00:00:00Z","name_a2s":"Uncletopia | Frankfurt | 2 | All Maps","protocol":17,"map":"pl_swiftwater_final1","folder":"tf","game":"Team Fortress","app_id":440,"player_count":24,"max_players":24,"Bots":0,"server_type":"Dedicated","server_os":"Linux","password":true,"vac":true,"version":"7757534","steam_id":85568392924469990,"keywords":["nocrits","nodmgspread","payload","uncletopia"],"game_id":440,"stv_port":27026,"stv_name":"Uncletopia | Frankfurt | 2 | All Maps | STV","players":[{"user_id":383,"name":"ÊÇ™","steam_id":76561198095879087,"connected_time":469000000000,"state":"active","ping":64},{"user_id":292,"name":"wasps","steam_id":76561198049485054,"connected_time":7303000000000,"state":"active","ping":87},{"user_id":325,"name":"hananamanna","steam_id":76561198006570285,"connected_time":4998000000000,"state":"active","ping":110},{"user_id":370,"name":"Floyd","steam_id":76561198125333672,"connected_time":1328000000000,"state":"active","ping":75},{"user_id":280,"name":"john fortress","steam_id":76561198013237629,"connected_time":8514000000000,"state":"active","ping":92},{"user_id":377,"name":"Nostradamus","steam_id":76561198349792686,"connected_time":902000000000,"state":"active","ping":60},{"user_id":378,"name":"Waltcha","steam_id":76561198007691468,"connected_time":851000000000,"state":"active","ping":61},{"user_id":363,"name":"Sabour","steam_id":76561197963965445,"connected_time":1698000000000,"state":"active","ping":60},{"user_id":371,"name":"Aspartus","steam_id":76561198101385763,"connected_time":1205000000000,"state":"active","ping":47},{"user_id":341,"name":"√ÉNVS DR√ÉNVS","steam_id":76561198138733015,"connected_time":3619000000000,"state":"active","ping":113},{"user_id":379,"name":"Steen","steam_id":76561198122992510,"connected_time":770000000000,"state":"active","ping":45},{"user_id":386,"name":"malebranch","steam_id":76561198171177823,"connected_time":164000000000,"state":"active","ping":89},{"user_id":387,"name":"Baki ‡∂û","steam_id":76561198193615529,"connected_time":142000000000,"state":"active","ping":48},{"user_id":381,"name":"Pirate Robot","steam_id":76561197985583708,"connected_time":670000000000,"state":"active","ping":154},{"user_id":364,"name":"Slightly insane","steam_id":76561198879330791,"connected_time":1620000000000,"state":"active","ping":90},{"user_id":339,"name":"CumbustiblePunda","steam_id":76561197974274677,"connected_time":3651000000000,"state":"active","ping":63},{"user_id":384,"name":"Hyperek","steam_id":76561198130797464,"connected_time":435000000000,"state":"active","ping":65},{"user_id":385,"name":"murf","steam_id":76561199184831395,"connected_time":401000000000,"state":"active","ping":60},{"user_id":352,"name":"Bentley","steam_id":76561197978252169,"connected_time":2457000000000,"state":"active","ping":77},{"user_id":353,"name":"Cosmetic brain","steam_id":76561198055936410,"connected_time":2429000000000,"state":"active","ping":86},{"user_id":368,"name":"Filleman","steam_id":76561198159386946,"connected_time":1474000000000,"state":"active","ping":64},{"user_id":365,"name":"Caliban","steam_id":76561197999696839,"connected_time":1619000000000,"state":"active","ping":107},{"user_id":366,"name":":\u003e","steam_id":76561198149978882,"connected_time":1541000000000,"state":"active","ping":68},{"user_id":374,"name":"Pyrolander","steam_id":76561198050785450,"connected_time":1060000000000,"state":"active","ping":53}]},{"server_id":308,"name":"Uncletopia | Frankfurt | 3 | All Maps","name_short":"frk-3","host":"frk-1.de.uncletopia.com","port":27035,"enabled":true,"region":"eu","cc":"de","latitude":50.110924,"longitude":8.682127,"reserved":0,"last_update":"0001-01-01T00:00:00Z","name_a2s":"Uncletopia | Frankfurt | 3 | All Maps","protocol":17,"map":"pl_frontier_final","folder":"tf","game":"Team Fortress","app_id":440,"player_count":24,"max_players":24,"Bots":0,"server_type":"Dedicated","server_os":"Linux","password":true,"vac":true,"version":"7757534","steam_id":85568392924504274,"keywords":["nocrits","nodmgspread","payload","uncletopia"],"game_id":440,"stv_port":27036,"stv_name":"Uncletopia | Frankfurt | 3 | All Maps | STV","players":[{"user_id":442,"name":"walking plane","steam_id":76561198146779559,"connected_time":2234000000000,"state":"active","ping":75},{"user_id":437,"name":"Mr.killer","steam_id":76561198290584189,"connected_time":2325000000000,"state":"active","ping":93},{"user_id":422,"name":"ghenios","steam_id":76561198030011207,"connected_time":2940000000000,"state":"active","ping":95},{"user_id":406,"name":"G6 sherlock","steam_id":76561198802967796,"connected_time":3886000000000,"state":"active","ping":118},{"user_id":443,"name":"meriones","steam_id":76561198034234373,"connected_time":2222000000000,"state":"active","ping":55},{"user_id":417,"name":"Rizzly Bear","steam_id":76561199012155377,"connected_time":3547000000000,"state":"active","ping":43},{"user_id":453,"name":"¬¨¬∞Nice","steam_id":76561198387871867,"connected_time":539000000000,"state":"active","ping":75},{"user_id":425,"name":"2BCD","steam_id":76561198178254946,"connected_time":2774000000000,"state":"active","ping":62},{"user_id":455,"name":"lettuce at 58p","steam_id":76561199401283123,"connected_time":254000000000,"state":"active","ping":59},{"user_id":426,"name":"rizook","steam_id":76561198055010039,"connected_time":2769000000000,"state":"active","ping":69},{"user_id":428,"name":"Ragles","steam_id":76561198132454783,"connected_time":2760000000000,"state":"active","ping":70},{"user_id":367,"name":"Mr. Mundy","steam_id":76561198132008918,"connected_time":6858000000000,"state":"active","ping":86},{"user_id":397,"name":"Hexagon","steam_id":76561198151205758,"connected_time":4511000000000,"state":"active","ping":51},{"user_id":452,"name":"Deacon Dracul","steam_id":76561198046880663,"connected_time":737000000000,"state":"active","ping":99},{"user_id":444,"name":"MAKENTAKEN","steam_id":76561199127359587,"connected_time":1771000000000,"state":"active","ping":92},{"user_id":447,"name":"fuze","steam_id":76561198018757672,"connected_time":1628000000000,"state":"active","ping":83},{"user_id":440,"name":"Deva Path","steam_id":76561198085763542,"connected_time":2302000000000,"state":"active","ping":73},{"user_id":448,"name":"Literally a Trans Woman","steam_id":76561198054639925,"connected_time":1224000000000,"state":"active","ping":138},{"user_id":431,"name":"—Ç–æ–ª—è","steam_id":76561199098518615,"connected_time":2692000000000,"state":"active","ping":93},{"user_id":416,"name":"Gilob","steam_id":76561198392490566,"connected_time":3613000000000,"state":"active","ping":83},{"user_id":454,"name":"I.C. Wiener","steam_id":76561197999912254,"connected_time":438000000000,"state":"active","ping":86},{"user_id":297,"name":"nyanezt","steam_id":76561198253734265,"connected_time":10637000000000,"state":"active","ping":90},{"user_id":430,"name":"wtabs","steam_id":76561198831766743,"connected_time":2717000000000,"state":"active","ping":72},{"user_id":394,"name":"nedilya","steam_id":76561198039692077,"connected_time":4573000000000,"state":"active","ping":57}]},{"server_id":309,"name":"Uncletopia | Frankfurt | 4 | All Maps","name_short":"frk-4","host":"frk-1.de.uncletopia.com","port":27045,"enabled":true,"region":"eu","cc":"de","latitude":50.110924,"longitude":8.682127,"reserved":0,"last_update":"0001-01-01T00:00:00Z","name_a2s":"Uncletopia | Frankfurt | 4 | All Maps","protocol":17,"map":"cp_sunshine","folder":"tf","game":"Team Fortress","app_id":440,"player_count":25,"max_players":24,"Bots":0,"server_type":"Dedicated","server_os":"Linux","password":true,"vac":true,"version":"7757534","steam_id":85568392924504275,"keywords":["cp","nocrits","nodmgspread","uncletopia"],"game_id":440,"stv_port":27046,"stv_name":"Uncletopia | Frankfurt | 4 | All Maps | STV","players":[{"user_id":326,"name":"Gamer_X","steam_id":76561198085349286,"connected_time":2021000000000,"state":"active","ping":76},{"user_id":344,"name":"TheMilOne","steam_id":76561198058910512,"connected_time":353000000000,"state":"active","ping":64},{"user_id":342,"name":"tua","steam_id":76561198034955422,"connected_time":574000000000,"state":"active","ping":70},{"user_id":285,"name":"Joey Lemons","steam_id":76561198068104187,"connected_time":5540000000000,"state":"active","ping":148},{"user_id":194,"name":"citronous","steam_id":76561198093290934,"connected_time":11330000000000,"state":"active","ping":58},{"user_id":305,"name":"m√®x","steam_id":76561197975951572,"connected_time":4715000000000,"state":"active","ping":53},{"user_id":350,"name":"Bobirulez","steam_id":76561198009125458,"connected_time":51000000000,"state":"active","ping":69},{"user_id":325,"name":"Parapluie","steam_id":76561197971640301,"connected_time":2091000000000,"state":"active","ping":56},{"user_id":341,"name":"AwterSix","steam_id":76561198042561678,"connected_time":639000000000,"state":"active","ping":59},{"user_id":340,"name":"smell_my_cheese","steam_id":76561198008517427,"connected_time":744000000000,"state":"active","ping":69},{"user_id":330,"name":"Charrky","steam_id":76561198054398642,"connected_time":1683000000000,"state":"active","ping":54},{"user_id":286,"name":"Vershal Smershal","steam_id":76561198116223995,"connected_time":5511000000000,"state":"active","ping":61},{"user_id":324,"name":"Mlody Wilk","steam_id":76561198133663355,"connected_time":2170000000000,"state":"active","ping":74},{"user_id":345,"name":"Mr.Schnittlauch","steam_id":76561198295868113,"connected_time":342000000000,"state":"active","ping":67},{"user_id":318,"name":"Pilaarius","steam_id":76561198120273212,"connected_time":2842000000000,"state":"active","ping":97},{"user_id":328,"name":"Mi Manchi","steam_id":76561198171573129,"connected_time":1933000000000,"state":"active","ping":49},{"user_id":346,"name":"Nithle","steam_id":76561198025372740,"connected_time":288000000000,"state":"active","ping":45},{"user_id":347,"name":"gneeda","steam_id":76561198147249160,"connected_time":234000000000,"state":"active","ping":102},{"user_id":337,"name":"Catsanddogs123","steam_id":76561198030868386,"connected_time":998000000000,"state":"active","ping":105},{"user_id":348,"name":"powej","steam_id":76561198056381418,"connected_time":224000000000,"state":"active","ping":45},{"user_id":333,"name":"Int3rnet","steam_id":76561198049289285,"connected_time":1317000000000,"state":"active","ping":63},{"user_id":336,"name":"H2Orange","steam_id":76561198082128552,"connected_time":1012000000000,"state":"active","ping":82},{"user_id":310,"name":"=^_^=","steam_id":76561198076494034,"connected_time":4097000000000,"state":"active","ping":57},{"user_id":349,"name":"BELADIT","steam_id":76561198011911501,"connected_time":203000000000,"state":"active","ping":65},{"user_id":351,"name":"‚òÖpoyo‚òÖ","steam_id":76561198150078959,"connected_time":29000000000,"state":"spawning","ping":95}]},{"server_id":310,"name":"Uncletopia | Frankfurt | 5 | All Maps","name_short":"frk-5","host":"frk-1.de.uncletopia.com","port":27055,"enabled":true,"region":"eu","cc":"de","latitude":50.110924,"longitude":8.682127,"reserved":0,"last_update":"0001-01-01T00:00:00Z","name_a2s":"Uncletopia | Frankfurt | 5 | All Maps","protocol":17,"map":"cp_altitude","folder":"tf","game":"Team Fortress","app_id":440,"player_count":15,"max_players":24,"Bots":0,"server_type":"Dedicated","server_os":"Linux","password":true,"vac":true,"version":"7757534","steam_id":85568392924504277,"keywords":["cp","nocrits","nodmgspread","uncletopia"],"game_id":440,"stv_port":27056,"stv_name":"Uncletopia | Frankfurt | 5 | All Maps | STV","players":[{"user_id":278,"name":"SoapySophie","steam_id":76561198902894934,"connected_time":1775000000000,"state":"active","ping":111},{"user_id":273,"name":"groovy","steam_id":76561198805228150,"connected_time":2023000000000,"state":"active","ping":155},{"user_id":274,"name":"ellie","steam_id":76561198986197639,"connected_time":2019000000000,"state":"active","ping":79},{"user_id":291,"name":"ziv0104","steam_id":76561198089642287,"connected_time":241000000000,"state":"active","ping":94},{"user_id":276,"name":"Parasil","steam_id":76561199022012681,"connected_time":2015000000000,"state":"active","ping":170},{"user_id":277,"name":"spixy","steam_id":76561199077401744,"connected_time":1996000000000,"state":"active","ping":187},{"user_id":279,"name":"elo_themeow","steam_id":76561198289751538,"connected_time":1725000000000,"state":"active","ping":67},{"user_id":280,"name":"Shenda_","steam_id":76561199154937367,"connected_time":1720000000000,"state":"active","ping":148},{"user_id":281,"name":"king251311","steam_id":76561199063310889,"connected_time":1222000000000,"state":"active","ping":77},{"user_id":288,"name":"Rudy Karma","steam_id":76561198349348738,"connected_time":887000000000,"state":"active","ping":89},{"user_id":290,"name":"GIBus_Scout30","steam_id":76561199272782484,"connected_time":616000000000,"state":"active","ping":56},{"user_id":289,"name":"BOCIAN","steam_id":76561198251301790,"connected_time":877000000000,"state":"active","ping":84},{"user_id":292,"name":"I'm Pain","steam_id":76561199167781869,"connected_time":72000000000,"state":"active","ping":63},{"user_id":293,"name":"Kanksteli","steam_id":76561198035919109,"connected_time":61000000000,"state":"active","ping":65},{"user_id":294,"name":"sork","steam_id":76561198082446459,"connected_time":55000000000,"state":"active","ping":64}]},{"server_id":311,"name":"Uncletopia | Frankfurt | 6 | All Maps","name_short":"frk-6","host":"frk-1.de.uncletopia.com","port":27065,"enabled":true,"region":"eu","cc":"de","latitude":50.110924,"longitude":8.682127,"reserved":0,"last_update":"0001-01-01T00:00:00Z","name_a2s":"Uncletopia | Frankfurt | 6 | All Maps","protocol":17,"map":"pl_borneo","folder":"tf","game":"Team Fortress","app_id":440,"player_count":24,"max_players":24,"Bots":0,"server_type":"Dedicated","server_os":"Linux","password":true,"vac":true,"version":"7757534","steam_id":85568392924504278,"keywords":["nocrits","nodmgspread","payload","uncletopia"],"game_id":440,"stv_port":27066,"stv_name":"Uncletopia | Frankfurt | 6 | All Maps | STV","players":[{"user_id":74,"name":"a straight white male","steam_id":76561198381120660,"connected_time":1227000000000,"state":"active","ping":87},{"user_id":73,"name":"Basil Gaming","steam_id":76561199150611560,"connected_time":1308000000000,"state":"active","ping":172},{"user_id":13,"name":"PaperBagGuy ‚å´","steam_id":76561198419513196,"connected_time":5418000000000,"state":"active","ping":76},{"user_id":75,"name":"Aquila","steam_id":76561198046440044,"connected_time":1147000000000,"state":"active","ping":59},{"user_id":76,"name":"Dill Killem","steam_id":76561199071571354,"connected_time":1128000000000,"state":"active","ping":72},{"user_id":17,"name":"Carrot Arc","steam_id":76561198164957006,"connected_time":4844000000000,"state":"active","ping":95},{"user_id":77,"name":"Numbe","steam_id":76561198269614930,"connected_time":1118000000000,"state":"active","ping":90},{"user_id":78,"name":"competitively suicidal","steam_id":76561198193357946,"connected_time":1035000000000,"state":"active","ping":120},{"user_id":79,"name":"After8","steam_id":76561198090750865,"connected_time":1031000000000,"state":"active","ping":66},{"user_id":80,"name":"Kleiner batle net","steam_id":76561198009922500,"connected_time":986000000000,"state":"active","ping":53},{"user_id":85,"name":"Acanda","steam_id":76561198123246537,"connected_time":391000000000,"state":"active","ping":53},{"user_id":25,"name":"SantiTzePug","steam_id":76561199049615996,"connected_time":4520000000000,"state":"active","ping":75},{"user_id":84,"name":"Wilbur soup","steam_id":76561199086849378,"connected_time":482000000000,"state":"active","ping":83},{"user_id":30,"name":"East#","steam_id":76561198126240609,"connected_time":4313000000000,"state":"active","ping":89},{"user_id":61,"name":"MrBanana","steam_id":76561198116021623,"connected_time":2162000000000,"state":"active","ping":46},{"user_id":31,"name":"Jeivan ¬Ω","steam_id":76561198254637614,"connected_time":4265000000000,"state":"active","ping":109},{"user_id":72,"name":"eduardo","steam_id":76561198014491925,"connected_time":1343000000000,"state":"active","ping":84},{"user_id":33,"name":"Vischan but worse","steam_id":76561199371650805,"connected_time":4114000000000,"state":"active","ping":95},{"user_id":81,"name":"Pico","steam_id":76561198063552545,"connected_time":961000000000,"state":"active","ping":99},{"user_id":67,"name":"soup","steam_id":76561198386933065,"connected_time":1678000000000,"state":"active","ping":62},{"user_id":82,"name":"p","steam_id":76561198003653977,"connected_time":953000000000,"state":"active","ping":92},{"user_id":69,"name":"Prism","steam_id":76561198075538312,"connected_time":1562000000000,"state":"active","ping":42},{"user_id":66,"name":"Gr√∏nkj√¶r","steam_id":76561198041075280,"connected_time":1871000000000,"state":"active","ping":86},{"user_id":83,"name":"Cheers Mate!","steam_id":76561198265192382,"connected_time":927000000000,"state":"active","ping":62}]},{"server_id":23,"name":"Uncletopia | Frankfurt | 7 | Stopwatch Beta","name_short":"frk-7","host":"frk-1.de.uncletopia.com","port":27075,"enabled":true,"region":"eu","cc":"de","latitude":50.110924,"longitude":8.682127,"reserved":0,"last_update":"0001-01-01T00:00:00Z","name_a2s":"Uncletopia | Frankfurt | 7 | Stopwatch Beta","protocol":17,"map":"pl_borneo","folder":"tf","game":"Team Fortress","app_id":440,"player_count":0,"max_players":24,"Bots":0,"server_type":"Dedicated","server_os":"Linux","password":true,"vac":true,"version":"7757534","steam_id":85568392924742827,"keywords":["nocrits","nodmgspread","payload","uncletopia"],"game_id":440,"stv_port":27076,"stv_name":"Uncletopia | Frankfurt | 7 | Stopwatch Beta | STV","players":null},{"server_id":24,"name":"Uncletopia | Frankfurt | 8 | Community","name_short":"frk-8","host":"frk-1.de.uncletopia.com","port":27085,"enabled":true,"region":"eu","cc":"de","latitude":50.110924,"longitude":8.682127,"reserved":0,"last_update":"0001-01-01T00:00:00Z","name_a2s":"Uncletopia | Frankfurt | 8 | Community","protocol":17,"map":"workshop/koth_ashville_final.ugc2130459942","folder":"tf","game":"Team Fortress","app_id":440,"player_count":0,"max_players":24,"Bots":0,"server_type":"Dedicated","server_os":"Linux","password":true,"vac":true,"version":"7757534","steam_id":85568392924742828,"keywords":["cp","nocrits","nodmgspread","uncletopia"],"game_id":440,"stv_port":27086,"stv_name":"Uncletopia | Frankfurt | 8 | Community | STV","players":null},{"server_id":202,"name":"Uncletopia | Hong Kong | 1 | All Maps","name_short":"hgk-1","host":"hgk-1.hk.uncletopia.com","port":27015,"enabled":true,"region":"asia","cc":"hk","latitude":22.302711,"longitude":114.177216,"reserved":0,"last_update":"0001-01-01T00:00:00Z","name_a2s":"Uncletopia | Hong Kong | 1 | All Maps","protocol":17,"map":"koth_lakeside_final","folder":"tf","game":"Team Fortress","app_id":440,"player_count":0,"max_players":24,"Bots":0,"server_type":"Dedicated","server_os":"Linux","password":true,"vac":true,"version":"7757534","steam_id":85568392924494504,"keywords":["cp","nocrits","nodmgspread","uncletopia"],"game_id":440,"stv_port":27016,"stv_name":"Uncletopia | Hong Kong | 1 | All Maps | STV","players":null},{"server_id":1,"name":"Uncletopia | Los Angeles | 1 | All Maps","name_short":"lax-1","host":"lax-1.us.uncletopia.com","port":27015,"enabled":true,"region":"us-west","cc":"us","latitude":33.94279,"longitude":-118.41004,"reserved":0,"last_update":"0001-01-01T00:00:00Z","name_a2s":"Uncletopia | Los Angeles | 1 | All Maps","protocol":17,"map":"cp_mountainlab","folder":"tf","game":"Team Fortress","app_id":440,"player_count":0,"max_players":24,"Bots":0,"server_type":"Dedicated","server_os":"Linux","password":true,"vac":true,"version":"7757534","steam_id":85568392924469991,"keywords":["cp","nocrits","nodmgspread","uncletopia"],"game_id":440,"stv_port":27016,"stv_name":"Uncletopia | Los Angeles | 1 | All Maps | STV","players":null},{"server_id":112,"name":"Uncletopia | Los Angeles | 2 | All Maps","name_short":"lax-2","host":"lax-1.us.uncletopia.com","port":27025,"enabled":true,"region":"us-west","cc":"us","latitude":33.94279,"longitude":-118.41004,"reserved":0,"last_update":"0001-01-01T00:00:00Z","name_a2s":"Uncletopia | Los Angeles | 2 | All Maps","protocol":17,"map":"koth_viaduct","folder":"tf","game":"Team Fortress","app_id":440,"player_count":0,"max_players":24,"Bots":0,"server_type":"Dedicated","server_os":"Linux","password":true,"vac":true,"version":"7757534","steam_id":85568392924469992,"keywords":["cp","nocrits","nodmgspread","uncletopia"],"game_id":440,"stv_port":27026,"stv_name":"Uncletopia | Los Angeles | 2 | All Maps | STV","players":null},{"server_id":324,"name":"Uncletopia | Los Angeles | 3 | All Maps","name_short":"lax-3","host":"lax-1.us.uncletopia.com","port":27035,"enabled":true,"region":"us-west","cc":"us","latitude":33.94279,"longitude":-118.41004,"reserved":0,"last_update":"0001-01-01T00:00:00Z","name_a2s":"Uncletopia | Los Angeles | 3 | All Maps","protocol":17,"map":"pl_swiftwater_final1","folder":"tf","game":"Team Fortress","app_id":440,"player_count":0,"max_players":24,"Bots":0,"server_type":"Dedicated","server_os":"Linux","password":true,"vac":true,"version":"7757534","steam_id":85568392924510198,"keywords":["nocrits","nodmgspread","payload","uncletopia"],"game_id":440,"stv_port":27036,"stv_name":"Uncletopia | Los Angeles | 3 | All Maps | STV","players":null},{"server_id":25,"name":"Uncletopia | Los Angeles | 4 | Stopwatch Beta","name_short":"lax-4","host":"lax-1.us.uncletopia.com","port":27045,"enabled":true,"region":"us-west","cc":"us","latitude":33.94279,"longitude":-118.41004,"reserved":0,"last_update":"0001-01-01T00:00:00Z","name_a2s":"Uncletopia | Los Angeles | 4 | Stopwatch Beta","protocol":17,"map":"workshop/koth_product_final.ugc454272353","folder":"tf","game":"Team Fortress","app_id":440,"player_count":0,"max_players":24,"Bots":0,"server_type":"Dedicated","server_os":"Linux","password":true,"vac":true,"version":"7757534","steam_id":85568392924510199,"keywords":["cp","nocrits","nodmgspread","uncletopia"],"game_id":440,"stv_port":27046,"stv_name":"Uncletopia | Los Angeles | 4 | Stopwatch Beta | STV","players":null},{"server_id":11,"name":"Uncletopia | London | 1 | All Maps","name_short":"lon-1","host":"lon-1.uk.uncletopia.com","port":27015,"enabled":true,"region":"eu","cc":"gb","latitude":51.509865,"longitude":-0.118092,"reserved":0,"last_update":"0001-01-01T00:00:00Z","name_a2s":"Uncletopia | London | 1 | All Maps","protocol":17,"map":"pl_borneo","folder":"tf","game":"Team Fortress","app_id":440,"player_count":24,"max_players":24,"Bots":0,"server_type":"Dedicated","server_os":"Linux","password":true,"vac":true,"version":"7757534","steam_id":85568392924367362,"keywords":["nocrits","nodmgspread","payload","uncletopia"],"game_id":440,"stv_port":27016,"stv_name":"Uncletopia | London | 1 | All Maps | STV","players":[{"user_id":462,"name":"Quack","steam_id":76561198048712219,"connected_time":1851000000000,"state":"active","ping":59},{"user_id":470,"name":"Ork","steam_id":76561197968575924,"connected_time":654000000000,"state":"active","ping":54},{"user_id":469,"name":"ledmic","steam_id":76561198258601448,"connected_time":704000000000,"state":"active","ping":45},{"user_id":352,"name":"Chad Slav","steam_id":76561198160103841,"connected_time":9331000000000,"state":"active","ping":71},{"user_id":445,"name":"Blacksheep","steam_id":76561198019621063,"connected_time":2974000000000,"state":"active","ping":48},{"user_id":451,"name":"epic gamer moment","steam_id":76561198299515070,"connected_time":2793000000000,"state":"active","ping":104},{"user_id":479,"name":"Amandus","steam_id":76561198036281079,"connected_time":215000000000,"state":"active","ping":65},{"user_id":413,"name":"Proto-arc","steam_id":76561198012776747,"connected_time":4942000000000,"state":"active","ping":49},{"user_id":478,"name":"most sane mentalist","steam_id":76561198310095220,"connected_time":321000000000,"state":"active","ping":41},{"user_id":473,"name":"kotamine","steam_id":76561198068907991,"connected_time":568000000000,"state":"active","ping":66},{"user_id":446,"name":"warum","steam_id":76561199403752637,"connected_time":2971000000000,"state":"active","ping":54},{"user_id":409,"name":"Your Lovely Medic","steam_id":76561198039326848,"connected_time":5468000000000,"state":"active","ping":56},{"user_id":481,"name":"Jaydyn","steam_id":76561198140326797,"connected_time":138000000000,"state":"active","ping":134},{"user_id":480,"name":"Cane","steam_id":76561197976831215,"connected_time":212000000000,"state":"active","ping":91},{"user_id":447,"name":"Flal","steam_id":76561198453819816,"connected_time":2964000000000,"state":"active","ping":69},{"user_id":474,"name":"Thalgorock","steam_id":76561198195315022,"connected_time":530000000000,"state":"active","ping":70},{"user_id":457,"name":"Puck :))","steam_id":76561198378295653,"connected_time":2615000000000,"state":"active","ping":74},{"user_id":466,"name":"Celtins","steam_id":76561198839837475,"connected_time":915000000000,"state":"active","ping":59},{"user_id":483,"name":"si fra","steam_id":76561198340262024,"connected_time":36000000000,"state":"active","ping":62},{"user_id":454,"name":"Kwizine","steam_id":76561198147999400,"connected_time":2733000000000,"state":"active","ping":70},{"user_id":433,"name":"triangle","steam_id":76561198046838168,"connected_time":3698000000000,"state":"active","ping":60},{"user_id":393,"name":"brokenphilip","steam_id":76561198080960604,"connected_time":6853000000000,"state":"active","ping":79},{"user_id":475,"name":"Joe","steam_id":76561197973896073,"connected_time":526000000000,"state":"active","ping":54},{"user_id":477,"name":"limbicsystem","steam_id":76561198025612680,"connected_time":441000000000,"state":"active","ping":55}]},{"server_id":114,"name":"Uncletopia | London | 2 | All Maps","name_short":"lon-2","host":"lon-1.uk.uncletopia.com","port":27025,"enabled":true,"region":"eu","cc":"gb","latitude":51.509865,"longitude":-0.118092,"reserved":0,"last_update":"0001-01-01T00:00:00Z","name_a2s":"Uncletopia | London | 2 | All Maps","protocol":17,"map":"pl_pier","folder":"tf","game":"Team Fortress","app_id":440,"player_count":24,"max_players":24,"Bots":0,"server_type":"Dedicated","server_os":"Linux","password":true,"vac":true,"version":"7757534","steam_id":85568392924470941,"keywords":["nocrits","nodmgspread","payload","uncletopia"],"game_id":440,"stv_port":27026,"stv_name":"Uncletopia | London | 2 | All Maps | STV","players":[{"user_id":289,"name":"Bronze Age GRINDSET","steam_id":76561198859118263,"connected_time":4172000000000,"state":"active","ping":143},{"user_id":348,"name":"skilltissues","steam_id":76561198025828664,"connected_time":770000000000,"state":"active","ping":57},{"user_id":349,"name":"Gideon","steam_id":76561198045132575,"connected_time":747000000000,"state":"active","ping":44},{"user_id":350,"name":"Volcyy","steam_id":76561198063979124,"connected_time":732000000000,"state":"active","ping":47},{"user_id":318,"name":"Zerfesh","steam_id":76561198117534358,"connected_time":2326000000000,"state":"active","ping":91},{"user_id":356,"name":"AWG","steam_id":76561198178218778,"connected_time":350000000000,"state":"active","ping":49},{"user_id":336,"name":"Johnny Lawrence #JohnnyMaxxing","steam_id":76561199367141671,"connected_time":1597000000000,"state":"active","ping":119},{"user_id":343,"name":"Captain Samo","steam_id":76561198047224482,"connected_time":1103000000000,"state":"active","ping":69},{"user_id":351,"name":"arowin24","steam_id":76561198077342689,"connected_time":723000000000,"state":"active","ping":58},{"user_id":358,"name":"Eleren","steam_id":76561198123361225,"connected_time":96000000000,"state":"active","ping":46},{"user_id":340,"name":"crazy scout","steam_id":76561198444324659,"connected_time":1477000000000,"state":"active","ping":34},{"user_id":353,"name":"A Wuggery Gruv","steam_id":76561198164638571,"connected_time":506000000000,"state":"active","ping":40},{"user_id":342,"name":"Hat-Wearing Mann","steam_id":76561198048816757,"connected_time":1375000000000,"state":"active","ping":109},{"user_id":357,"name":"aura","steam_id":76561197991687793,"connected_time":318000000000,"state":"active","ping":74},{"user_id":221,"name":"Milca_11","steam_id":76561198848650365,"connected_time":7614000000000,"state":"active","ping":74},{"user_id":334,"name":"Bloody","steam_id":76561198005754592,"connected_time":1644000000000,"state":"active","ping":74},{"user_id":338,"name":"Grumtsior","steam_id":76561198043563111,"connected_time":1556000000000,"state":"active","ping":76},{"user_id":335,"name":"Nick42","steam_id":76561198167564291,"connected_time":1640000000000,"state":"active","ping":71},{"user_id":354,"name":"CrashyPlay","steam_id":76561198106125298,"connected_time":479000000000,"state":"active","ping":88},{"user_id":345,"name":"‚ú™ m_br3","steam_id":76561198044981990,"connected_time":891000000000,"state":"active","ping":75},{"user_id":331,"name":"EdSuedi","steam_id":76561199387956486,"connected_time":1999000000000,"state":"active","ping":60},{"user_id":341,"name":"Rlen","steam_id":76561198132139920,"connected_time":1452000000000,"state":"active","ping":102},{"user_id":332,"name":"QuorglepleegJR","steam_id":76561198984658438,"connected_time":1817000000000,"state":"active","ping":52},{"user_id":311,"name":"Gnarville","steam_id":76561198006373329,"connected_time":2804000000000,"state":"active","ping":46}]},{"server_id":320,"name":"Uncletopia | London | 3 | All Maps","name_short":"lon-3","host":"lon-1.uk.uncletopia.com","port":27035,"enabled":true,"region":"eu","cc":"gb","latitude":51.509865,"longitude":-0.118092,"reserved":0,"last_update":"0001-01-01T00:00:00Z","name_a2s":"Uncletopia | London | 3 | All Maps","protocol":17,"map":"koth_harvest_final","folder":"tf","game":"Team Fortress","app_id":440,"player_count":24,"max_players":24,"Bots":0,"server_type":"Dedicated","server_os":"Linux","password":true,"vac":true,"version":"7757534","steam_id":85568392924510192,"keywords":["cp","nocrits","nodmgspread","uncletopia"],"game_id":440,"stv_port":27036,"stv_name":"Uncletopia | London | 3 | All Maps | STV","players":[{"user_id":824,"name":"quickfast","steam_id":76561199438900919,"connected_time":755000000000,"state":"active","ping":43},{"user_id":833,"name":"Guwop","steam_id":76561197970425737,"connected_time":115000000000,"state":"active","ping":144},{"user_id":744,"name":"Codex","steam_id":76561198068748584,"connected_time":5496000000000,"state":"active","ping":45},{"user_id":825,"name":"TJ","steam_id":76561198446827428,"connected_time":667000000000,"state":"active","ping":44},{"user_id":819,"name":"Breadcrab","steam_id":76561198015924039,"connected_time":1015000000000,"state":"active","ping":63},{"user_id":808,"name":"Kotlet schabowy","steam_id":76561198048983509,"connected_time":1838000000000,"state":"active","ping":74},{"user_id":804,"name":"Pancakes","steam_id":76561198196259989,"connected_time":2284000000000,"state":"active","ping":46},{"user_id":524,"name":"Lyra","steam_id":76561198043601838,"connected_time":13806000000000,"state":"active","ping":74},{"user_id":776,"name":"Zepta","steam_id":76561199001659666,"connected_time":3893000000000,"state":"active","ping":99},{"user_id":761,"name":"Posture Check","steam_id":76561198053897197,"connected_time":4714000000000,"state":"active","ping":37},{"user_id":738,"name":"ran is running","steam_id":76561199443185667,"connected_time":5658000000000,"state":"active","ping":141},{"user_id":830,"name":"Derp","steam_id":76561198197901062,"connected_time":249000000000,"state":"active","ping":50},{"user_id":822,"name":"peter dangling","steam_id":76561198864327475,"connected_time":891000000000,"state":"active","ping":59},{"user_id":814,"name":"Panda","steam_id":76561198176342325,"connected_time":1208000000000,"state":"active","ping":91},{"user_id":792,"name":"regimiro","steam_id":76561198120457008,"connected_time":3308000000000,"state":"active","ping":53},{"user_id":763,"name":"justin_ (f2p) (real)","steam_id":76561198839843428,"connected_time":4615000000000,"state":"active","ping":122},{"user_id":823,"name":"Sonix42","steam_id":76561198071408458,"connected_time":882000000000,"state":"active","ping":53},{"user_id":789,"name":"PyroTitan","steam_id":76561198096550598,"connected_time":3551000000000,"state":"active","ping":50},{"user_id":831,"name":"ster","steam_id":76561198111986039,"connected_time":217000000000,"state":"active","ping":51},{"user_id":816,"name":"tarnce energy","steam_id":76561198106049954,"connected_time":1125000000000,"state":"active","ping":80},{"user_id":832,"name":"Dewotter","steam_id":76561198007653168,"connected_time":206000000000,"state":"active","ping":52},{"user_id":834,"name":"–ü–µ—Å –ü–∞—Ç—Ä–æ–Ω","steam_id":76561198273199378,"connected_time":102000000000,"state":"active","ping":76},{"user_id":835,"name":"kbbq","steam_id":76561198346638308,"connected_time":47000000000,"state":"active","ping":56},{"user_id":836,"name":"Eing","steam_id":76561198253125820,"connected_time":34000000000,"state":"active","ping":67}]},{"server_id":321,"name":"Uncletopia | London | 4 | All Maps","name_short":"lon-4","host":"lon-1.uk.uncletopia.com","port":27045,"enabled":true,"region":"eu","cc":"gb","latitude":51.509865,"longitude":-0.118092,"reserved":0,"last_update":"0001-01-01T00:00:00Z","name_a2s":"Uncletopia | London | 4 | All Maps","protocol":17,"map":"cp_gravelpit","folder":"tf","game":"Team Fortress","app_id":440,"player_count":14,"max_players":24,"Bots":0,"server_type":"Dedicated","server_os":"Linux","password":true,"vac":true,"version":"7757534","steam_id":85568392924510193,"keywords":["cp","nocrits","nodmgspread","uncletopia"],"game_id":440,"stv_port":27046,"stv_name":"Uncletopia | London | 4 | All Maps | STV","players":[{"user_id":197,"name":"800 Ping","steam_id":76561198079841458,"connected_time":55000000000,"state":"active","ping":146},{"user_id":192,"name":"Gerald","steam_id":76561198400746168,"connected_time":420000000000,"state":"active","ping":81},{"user_id":198,"name":"dddd","steam_id":76561198120894372,"connected_time":55000000000,"state":"active","ping":115},{"user_id":191,"name":"Ricky","steam_id":76561198950770019,"connected_time":572000000000,"state":"active","ping":124},{"user_id":193,"name":"Luigixby","steam_id":76561198400631599,"connected_time":404000000000,"state":"active","ping":64},{"user_id":201,"name":"BALLYHOO MK.27","steam_id":76561198990574250,"connected_time":27000000000,"state":"active","ping":154},{"user_id":166,"name":"foxy the pirate gaming","steam_id":76561199460297021,"connected_time":2296000000000,"state":"active","ping":57},{"user_id":175,"name":"Greencoffee","steam_id":76561198842090589,"connected_time":1811000000000,"state":"active","ping":52},{"user_id":145,"name":"princess dvs","steam_id":76561198012901314,"connected_time":3899000000000,"state":"active","ping":92},{"user_id":181,"name":"Kamanie","steam_id":76561198135448255,"connected_time":1611000000000,"state":"active","ping":63},{"user_id":182,"name":"unpleasant gradient","steam_id":76561199072186739,"connected_time":1606000000000,"state":"active","ping":56},{"user_id":183,"name":"dob:cob","steam_id":76561198253323044,"connected_time":1601000000000,"state":"active","ping":79},{"user_id":184,"name":"Shawty","steam_id":76561198158631465,"connected_time":1490000000000,"state":"active","ping":66},{"user_id":189,"name":"SpilledMilk","steam_id":76561198174123971,"connected_time":1160000000000,"state":"active","ping":56}]},{"server_id":21,"name":"Uncletopia | London | 5 | All Maps","name_short":"lon-5","host":"lon-1.uk.uncletopia.com","port":27055,"enabled":true,"region":"eu","cc":"gb","latitude":51.509865,"longitude":-0.118092,"reserved":0,"last_update":"0001-01-01T00:00:00Z","name_a2s":"Uncletopia | London | 5 | All Maps","protocol":17,"map":"cp_powerhouse","folder":"tf","game":"Team Fortress","app_id":440,"player_count":24,"max_players":24,"Bots":0,"server_type":"Dedicated","server_os":"Linux","password":true,"vac":true,"version":"7757534","steam_id":85568392924742829,"keywords":["cp","nocrits","nodmgspread","uncletopia"],"game_id":440,"stv_port":27056,"stv_name":"Uncletopia | London | 5 | All Maps | STV","players":[{"user_id":43,"name":"oRang3_","steam_id":76561198841009476,"connected_time":2517000000000,"state":"active","ping":75},{"user_id":73,"name":"TheEmeraldStar","steam_id":76561198072942529,"connected_time":319000000000,"state":"active","ping":74},{"user_id":78,"name":"ElBaneazos","steam_id":76561198080830061,"connected_time":203000000000,"state":"active","ping":66},{"user_id":60,"name":"Fat Pigeon","steam_id":76561198817940142,"connected_time":1167000000000,"state":"active","ping":45},{"user_id":57,"name":"Fridge","steam_id":76561198071665589,"connected_time":1329000000000,"state":"active","ping":90},{"user_id":48,"name":"BL4CKPL4T3","steam_id":76561198983185163,"connected_time":2457000000000,"state":"active","ping":75},{"user_id":58,"name":"X-tis","steam_id":76561198043837480,"connected_time":1282000000000,"state":"active","ping":63},{"user_id":18,"name":"roblan11","steam_id":76561198066839258,"connected_time":3960000000000,"state":"active","ping":54},{"user_id":66,"name":"Bread 0f Box","steam_id":76561198165594721,"connected_time":956000000000,"state":"active","ping":67},{"user_id":72,"name":"Dunkie","steam_id":76561198298952685,"connected_time":407000000000,"state":"active","ping":46},{"user_id":62,"name":"Egor Pomidor","steam_id":76561199175688390,"connected_time":1158000000000,"state":"active","ping":82},{"user_id":65,"name":"Yrj√∂ Koskinen Yrj√∂-Koskinen","steam_id":76561198368181145,"connected_time":1004000000000,"state":"active","ping":85},{"user_id":64,"name":"Diamhair","steam_id":76561198109020178,"connected_time":1124000000000,"state":"active","ping":62},{"user_id":35,"name":"big hoops","steam_id":76561198004703799,"connected_time":2893000000000,"state":"active","ping":44},{"user_id":67,"name":"M4XIMUS302","steam_id":76561198881511334,"connected_time":920000000000,"state":"active","ping":98},{"user_id":68,"name":"UWBW","steam_id":76561198007524241,"connected_time":906000000000,"state":"active","ping":158},{"user_id":33,"name":"Son Goku","steam_id":76561199383437138,"connected_time":2962000000000,"state":"active","ping":119},{"user_id":34,"name":"pitbull gaming","steam_id":76561198052412362,"connected_time":2920000000000,"state":"active","ping":66},{"user_id":70,"name":"Spetse","steam_id":76561197990649972,"connected_time":505000000000,"state":"active","ping":89},{"user_id":71,"name":"Axord","steam_id":76561199289652176,"connected_time":491000000000,"state":"active","ping":68},{"user_id":74,"name":"Pepelu","steam_id":76561198170725977,"connected_time":314000000000,"state":"active","ping":54},{"user_id":75,"name":"Alexander73","steam_id":76561198964753138,"connected_time":293000000000,"state":"active","ping":67},{"user_id":76,"name":"Diggity","steam_id":76561198297157085,"connected_time":282000000000,"state":"active","ping":39},{"user_id":79,"name":"Drunk russian with pyromania","steam_id":76561198195527328,"connected_time":67000000000,"state":"active","ping":51}]},{"server_id":22,"name":"Uncletopia | London | 6 | All Maps","name_short":"lon-6","host":"lon-1.uk.uncletopia.com","port":27065,"enabled":true,"region":"eu","cc":"gb","latitude":51.509865,"longitude":-0.118092,"reserved":0,"last_update":"0001-01-01T00:00:00Z","name_a2s":"Uncletopia | London | 6 | All Maps","protocol":17,"map":"koth_highpass","folder":"tf","game":"Team Fortress","app_id":440,"player_count":0,"max_players":24,"Bots":0,"server_type":"Dedicated","server_os":"Linux","password":true,"vac":true,"version":"7757534","steam_id":85568392924742830,"keywords":["cp","nocrits","nodmgspread","uncletopia"],"game_id":440,"stv_port":27066,"stv_name":"Uncletopia | London | 6 | All Maps | STV","players":null},{"server_id":40,"name":"Uncletopia | London | 7 | No Payload","name_short":"lon-7","host":"lon-1.uk.uncletopia.com","port":27075,"enabled":true,"region":"eu","cc":"gb","latitude":51.509865,"longitude":-0.118092,"reserved":0,"last_update":"0001-01-01T00:00:00Z","name_a2s":"Uncletopia | London | 7 | No Payload","protocol":17,"map":"koth_highpass","folder":"tf","game":"Team Fortress","app_id":440,"player_count":3,"max_players":24,"Bots":0,"server_type":"Dedicated","server_os":"Linux","password":true,"vac":true,"version":"7757534","steam_id":85568392924964314,"keywords":["cp","nocrits","nodmgspread","uncletopia"],"game_id":440,"stv_port":27076,"stv_name":"Uncletopia | London | 7 | No Payload | STV","players":[{"user_id":12,"name":"Doggo_Rosso","steam_id":76561199115418676,"connected_time":308000000000,"state":"active","ping":82},{"user_id":14,"name":"Sasia2317","steam_id":76561199098035375,"connected_time":195000000000,"state":"active","ping":96},{"user_id":15,"name":"TOP P","steam_id":76561198390824709,"connected_time":142000000000,"state":"active","ping":66}]},{"server_id":41,"name":"Uncletopia | London | 8 | Community","name_short":"lon-8","host":"lon-1.uk.uncletopia.com","port":27085,"enabled":true,"region":"eu","cc":"gb","latitude":51.509865,"longitude":-0.118092,"reserved":0,"last_update":"0001-01-01T00:00:00Z","name_a2s":"Uncletopia | London | 8 | Community","protocol":17,"map":"workshop/pl_boundary_final1.ugc456799153","folder":"tf","game":"Team Fortress","app_id":440,"player_count":0,"max_players":24,"Bots":0,"server_type":"Dedicated","server_os":"Linux","password":true,"vac":true,"version":"7757534","steam_id":85568392924964315,"keywords":["nocrits","nodmgspread","payload","uncletopia"],"game_id":440,"stv_port":27086,"stv_name":"Uncletopia | London | 8 | Community | STV","players":null},{"server_id":300,"name":"Uncletopia | Montr√©al | 1 | All Maps","name_short":"mtl-1","host":"mtl-1.ca.uncletopia.com","port":27015,"enabled":true,"region":"us-east","cc":"ca","latitude":45.50889,"longitude":-73.56167,"reserved":0,"last_update":"0001-01-01T00:00:00Z","name_a2s":"Uncletopia | Montr√©al | 1 | All Maps","protocol":17,"map":"pl_badwater","folder":"tf","game":"Team Fortress","app_id":440,"player_count":24,"max_players":24,"Bots":0,"server_type":"Dedicated","server_os":"Linux","password":true,"vac":true,"version":"7757534","steam_id":85568392924500087,"keywords":["nocrits","nodmgspread","payload","uncletopia"],"game_id":440,"stv_port":27016,"stv_name":"Uncletopia | Montr√©al | 1 | All Maps | STV","players":[{"user_id":225,"name":"Myra Valkyr","steam_id":76561198047233788,"connected_time":3812000000000,"state":"active","ping":136},{"user_id":229,"name":"Buck","steam_id":76561198064244796,"connected_time":3376000000000,"state":"active","ping":60},{"user_id":237,"name":"lwyr","steam_id":76561198007982579,"connected_time":2419000000000,"state":"active","ping":58},{"user_id":233,"name":"barbara","steam_id":76561198072417792,"connected_time":2580000000000,"state":"active","ping":105},{"user_id":258,"name":"Dino Aids","steam_id":76561199204984924,"connected_time":1313000000000,"state":"active","ping":98},{"user_id":265,"name":"30 fps gaming","steam_id":76561199216756079,"connected_time":990000000000,"state":"active","ping":115},{"user_id":264,"name":"Trolldier 76","steam_id":76561198036504161,"connected_time":997000000000,"state":"active","ping":118},{"user_id":234,"name":"A Trigger Happy Chipmunk","steam_id":76561198013608736,"connected_time":2537000000000,"state":"active","ping":59},{"user_id":239,"name":"Viokik","steam_id":76561198408846602,"connected_time":2214000000000,"state":"active","ping":74},{"user_id":219,"name":"Bostrash641","steam_id":76561199447225685,"connected_time":4539000000000,"state":"active","ping":160},{"user_id":235,"name":"Female Gamer","steam_id":76561199366482682,"connected_time":2526000000000,"state":"active","ping":126},{"user_id":227,"name":"Sunkisses_","steam_id":76561198046476671,"connected_time":3783000000000,"state":"active","ping":72},{"user_id":158,"name":"wlnecro1","steam_id":76561199157418402,"connected_time":9014000000000,"state":"active","ping":84},{"user_id":244,"name":"Homuncul Jim","steam_id":76561198081135168,"connected_time":1956000000000,"state":"active","ping":74},{"user_id":245,"name":"Supratentorium","steam_id":76561198038508636,"connected_time":1950000000000,"state":"active","ping":76},{"user_id":220,"name":"LErik9858","steam_id":76561198808654852,"connected_time":4474000000000,"state":"active","ping":156},{"user_id":246,"name":"kribster","steam_id":76561198050659882,"connected_time":1943000000000,"state":"active","ping":66},{"user_id":248,"name":"[OC2TM] CF-TF2","steam_id":76561198145893044,"connected_time":1788000000000,"state":"active","ping":59},{"user_id":249,"name":"Mario Ball","steam_id":76561199297779078,"connected_time":1777000000000,"state":"active","ping":90},{"user_id":257,"name":"Pixeled","steam_id":76561198088917077,"connected_time":1410000000000,"state":"active","ping":92},{"user_id":252,"name":"maple.","steam_id":76561198071737566,"connected_time":1729000000000,"state":"active","ping":55},{"user_id":201,"name":"RyInc","steam_id":76561198874261643,"connected_time":6210000000000,"state":"active","ping":44},{"user_id":255,"name":"Sir Loin","steam_id":76561198084097322,"connected_time":1597000000000,"state":"active","ping":75},{"user_id":267,"name":"RileyNiko","steam_id":76561198162093639,"connected_time":972000000000,"state":"active","ping":66}]},{"server_id":301,"name":"Uncletopia | Montr√©al | 2 | All Maps","name_short":"mtl-2","host":"mtl-1.ca.uncletopia.com","port":27025,"enabled":true,"region":"us-east","cc":"ca","latitude":45.50889,"longitude":-73.56167,"reserved":0,"last_update":"0001-01-01T00:00:00Z","name_a2s":"Uncletopia | Montr√©al | 2 | All Maps","protocol":17,"map":"cp_sunshine","folder":"tf","game":"Team Fortress","app_id":440,"player_count":0,"max_players":24,"Bots":0,"server_type":"Dedicated","server_os":"Linux","password":true,"vac":true,"version":"7757534","steam_id":85568392924500088,"keywords":["cp","nocrits","nodmgspread","uncletopia"],"game_id":440,"stv_port":27026,"stv_name":"Uncletopia | Montr√©al | 2 | All Maps | STV","players":null},{"server_id":302,"name":"Uncletopia | Montr√©al | 3 | All Maps","name_short":"mtl-3","host":"mtl-1.ca.uncletopia.com","port":27035,"enabled":true,"region":"us-east","cc":"ca","latitude":45.50889,"longitude":-73.56167,"reserved":0,"last_update":"0001-01-01T00:00:00Z","name_a2s":"Uncletopia | Montr√©al | 3 | All Maps","protocol":17,"map":"koth_lakeside_final","folder":"tf","game":"Team Fortress","app_id":440,"player_count":2,"max_players":24,"Bots":0,"server_type":"Dedicated","server_os":"Linux","password":true,"vac":true,"version":"7757534","steam_id":85568392924500089,"keywords":["cp","nocrits","nodmgspread","uncletopia"],"game_id":440,"stv_port":27036,"stv_name":"Uncletopia | Montr√©al | 3 | All Maps | STV","players":[{"user_id":13,"name":"Vibess","steam_id":76561199086964735,"connected_time":302000000000,"state":"active","ping":50},{"user_id":14,"name":"Cancant","steam_id":76561199156695295,"connected_time":182000000000,"state":"active","ping":63}]},{"server_id":303,"name":"Uncletopia | Montr√©al | 4 | No Payload","name_short":"mtl-4","host":"mtl-1.ca.uncletopia.com","port":27045,"enabled":true,"region":"us-east","cc":"ca","latitude":45.50889,"longitude":-73.56167,"reserved":0,"last_update":"0001-01-01T00:00:00Z","name_a2s":"Uncletopia | Montr√©al | 4 | No Payload","protocol":17,"map":"pl_pier","folder":"tf","game":"Team Fortress","app_id":440,"player_count":0,"max_players":24,"Bots":0,"server_type":"Dedicated","server_os":"Linux","password":true,"vac":true,"version":"7757534","steam_id":85568392924500090,"keywords":["nocrits","nodmgspread","payload","uncletopia"],"game_id":440,"stv_port":27046,"stv_name":"Uncletopia | Montr√©al | 4 | No Payload | STV","players":null},{"server_id":13,"name":"Uncletopia | New York City | 1 | All Maps","name_short":"nyc-1","host":"nyc-1.us.uncletopia.com","port":27015,"enabled":true,"region":"us-east","cc":"us","latitude":40.73061,"longitude":-73.93524,"reserved":0,"last_update":"0001-01-01T00:00:00Z","name_a2s":"Uncletopia | New York City | 1 | All Maps","protocol":17,"map":"koth_lakeside_final","folder":"tf","game":"Team Fortress","app_id":440,"player_count":0,"max_players":24,"Bots":0,"server_type":"Dedicated","server_os":"Linux","password":true,"vac":true,"version":"7757534","steam_id":85568392924469993,"keywords":["cp","nocrits","nodmgspread","uncletopia"],"game_id":440,"stv_port":27016,"stv_name":"Uncletopia | New York City | 1 | All Maps | STV","players":null},{"server_id":14,"name":"Uncletopia | New York City | 2 | All Maps","name_short":"nyc-2","host":"nyc-1.us.uncletopia.com","port":27025,"enabled":true,"region":"us-east","cc":"us","latitude":40.73061,"longitude":-73.93524,"reserved":0,"last_update":"0001-01-01T00:00:00Z","name_a2s":"Uncletopia | New York City | 2 | All Maps","protocol":17,"map":"koth_cascade","folder":"tf","game":"Team Fortress","app_id":440,"player_count":0,"max_players":24,"Bots":0,"server_type":"Dedicated","server_os":"Linux","password":true,"vac":true,"version":"7757534","steam_id":85568392924469994,"keywords":["cp","nocrits","nodmgspread","uncletopia"],"game_id":440,"stv_port":27026,"stv_name":"Uncletopia | New York City | 2 | All Maps | STV","players":null},{"server_id":15,"name":"Uncletopia | New York City | 3 | Stopwatch Beta","name_short":"nyc-3","host":"nyc-1.us.uncletopia.com","port":27035,"enabled":true,"region":"us-east","cc":"us","latitude":40.73061,"longitude":-73.93524,"reserved":0,"last_update":"0001-01-01T00:00:00Z","name_a2s":"Uncletopia | New York City | 3 | Stopwatch Beta","protocol":17,"map":"workshop/pl_barnblitz_pro7.ugc582280235","folder":"tf","game":"Team Fortress","app_id":440,"player_count":0,"max_players":24,"Bots":0,"server_type":"Dedicated","server_os":"Linux","password":true,"vac":true,"version":"7757534","steam_id":85568392924742820,"keywords":["nocrits","nodmgspread","payload","uncletopia"],"game_id":440,"stv_port":27036,"stv_name":"Uncletopia | New York City | 3 | Stopwatch Beta | STV","players":null},{"server_id":16,"name":"Uncletopia | New York City | 4 | Community","name_short":"nyc-4","host":"nyc-1.us.uncletopia.com","port":27045,"enabled":true,"region":"us-east","cc":"us","latitude":40.73061,"longitude":-73.93524,"reserved":0,"last_update":"0001-01-01T00:00:00Z","name_a2s":"Uncletopia | New York City | 4 | Community","protocol":17,"map":"workshop/koth_ashville_final.ugc2130459942","folder":"tf","game":"Team Fortress","app_id":440,"player_count":0,"max_players":24,"Bots":0,"server_type":"Dedicated","server_os":"Linux","password":true,"vac":true,"version":"7757534","steam_id":85568392924742821,"keywords":["cp","nocrits","nodmgspread","uncletopia"],"game_id":440,"stv_port":27046,"stv_name":"Uncletopia | New York City | 4 | Community | STV","players":null},{"server_id":142,"name":"Uncletopia | S√£o Paulo | 1 | All Maps","name_short":"sao-1","host":"sao-1.br.uncletopia.com","port":27015,"enabled":true,"region":"sa","cc":"br","latitude":-23.533773,"longitude":-46.62529,"reserved":0,"last_update":"0001-01-01T00:00:00Z","name_a2s":"Uncletopia | S√£o Paulo | 1 | All Maps","protocol":17,"map":"pl_snowycoast","folder":"tf","game":"Team Fortress","app_id":440,"player_count":0,"max_players":24,"Bots":0,"server_type":"Dedicated","server_os":"Linux","password":true,"vac":true,"version":"7757534","steam_id":85568392924469996,"keywords":["nocrits","nodmgspread","payload","uncletopia"],"game_id":440,"stv_port":27016,"stv_name":"Uncletopia | S√£o Paulo | 1 | All Maps | STV","players":null},{"server_id":143,"name":"Uncletopia | S√£o Paulo | 2 | All Maps","name_short":"sao-2","host":"sao-2.br.uncletopia.com","port":27015,"enabled":true,"region":"sa","cc":"br","latitude":-23.533773,"longitude":-46.62529,"reserved":0,"last_update":"0001-01-01T00:00:00Z","name_a2s":"Uncletopia | S√£o Paulo | 2 | All Maps","protocol":17,"map":"cp_altitude","folder":"tf","game":"Team Fortress","app_id":440,"player_count":0,"max_players":24,"Bots":0,"server_type":"Dedicated","server_os":"Linux","password":true,"vac":true,"version":"7757534","steam_id":85568392924485349,"keywords":["cp","nocrits","nodmgspread","uncletopia"],"game_id":440,"stv_port":27016,"stv_name":"Uncletopia | S√£o Paulo | 2 | All Maps | STV","players":null},{"server_id":7,"name":"Uncletopia | Seattle | 1 | All Maps","name_short":"sea-1","host":"sea-1.us.uncletopia.com","port":27015,"enabled":true,"region":"us-west","cc":"us","latitude":47.608013,"longitude":-122.33517,"reserved":0,"last_update":"0001-01-01T00:00:00Z","name_a2s":"Uncletopia | Seattle | 1 | All Maps","protocol":17,"map":"pl_barnblitz","folder":"tf","game":"Team Fortress","app_id":440,"player_count":24,"max_players":24,"Bots":0,"server_type":"Dedicated","server_os":"Linux","password":true,"vac":true,"version":"7757534","steam_id":85568392924469997,"keywords":["nocrits","nodmgspread","payload","uncletopia"],"game_id":440,"stv_port":27016,"stv_name":"Uncletopia | Seattle | 1 | All Maps | STV","players":[{"user_id":345,"name":"byte_sized","steam_id":76561198155560837,"connected_time":1730000000000,"state":"active","ping":103},{"user_id":314,"name":"H4V0C","steam_id":76561199129350925,"connected_time":3319000000000,"state":"active","ping":51},{"user_id":341,"name":"merkure","steam_id":76561198213385439,"connected_time":1856000000000,"state":"active","ping":70},{"user_id":365,"name":"puppygirl gaming","steam_id":76561198044363630,"connected_time":157000000000,"state":"active","ping":120},{"user_id":244,"name":"PheebsyDeebsy","steam_id":76561198101509436,"connected_time":4656000000000,"state":"active","ping":68},{"user_id":299,"name":"Nibotshooter","steam_id":76561199284825579,"connected_time":3650000000000,"state":"active","ping":93},{"user_id":361,"name":"shy guy","steam_id":76561198151246059,"connected_time":192000000000,"state":"active","ping":71},{"user_id":90,"name":"dust | she/it","steam_id":76561198045218909,"connected_time":15470000000000,"state":"active","ping":41},{"user_id":354,"name":"Dr. Karl, the AUS Science Guy","steam_id":76561198031278747,"connected_time":1000000000000,"state":"active","ping":46},{"user_id":327,"name":"ulysses","steam_id":76561198059313367,"connected_time":2556000000000,"state":"active","ping":39},{"user_id":346,"name":"Wendall555","steam_id":76561198985637603,"connected_time":1716000000000,"state":"active","ping":69},{"user_id":352,"name":"Leo","steam_id":76561198309760791,"connected_time":1236000000000,"state":"active","ping":122},{"user_id":356,"name":"Eosson","steam_id":76561198108642113,"connected_time":550000000000,"state":"active","ping":60},{"user_id":357,"name":"NeverAcedIt (Pinnacle -\u003e Pit)","steam_id":76561198406671743,"connected_time":489000000000,"state":"active","ping":144},{"user_id":349,"name":"The Pepsi¬Æ Superbowl¬Æ!","steam_id":76561198080828981,"connected_time":1562000000000,"state":"active","ping":80},{"user_id":362,"name":"Voxany","steam_id":76561198081096335,"connected_time":192000000000,"state":"active","ping":136},{"user_id":342,"name":"AmiableNebula","steam_id":76561198094306627,"connected_time":1855000000000,"state":"active","ping":76},{"user_id":340,"name":"Cam(era)","steam_id":76561198285054047,"connected_time":1917000000000,"state":"active","ping":67},{"user_id":351,"name":"Gut125Cin","steam_id":76561198101787225,"connected_time":1443000000000,"state":"active","ping":54},{"user_id":363,"name":"128gb sd card","steam_id":76561198043636749,"connected_time":173000000000,"state":"active","ping":75},{"user_id":359,"name":"DennethThaThinather","steam_id":76561198098121768,"connected_time":467000000000,"state":"active","ping":88},{"user_id":364,"name":"Mara Roo","steam_id":76561198279341789,"connected_time":163000000000,"state":"active","ping":122},{"user_id":343,"name":"jawnymac","steam_id":76561198179529599,"connected_time":1855000000000,"state":"active","ping":76},{"user_id":353,"name":"Fiveona","steam_id":76561198070119414,"connected_time":1195000000000,"state":"active","ping":76}]},{"server_id":119,"name":"Uncletopia | Seattle | 2 | All Maps","name_short":"sea-2","host":"sea-1.us.uncletopia.com","port":27025,"enabled":true,"region":"us-west","cc":"us","latitude":47.608013,"longitude":-122.33517,"reserved":0,"last_update":"0001-01-01T00:00:00Z","name_a2s":"Uncletopia | Seattle | 2 | All Maps","protocol":17,"map":"ctf_sawmill","folder":"tf","game":"Team Fortress","app_id":440,"player_count":10,"max_players":24,"Bots":0,"server_type":"Dedicated","server_os":"Linux","password":true,"vac":true,"version":"7757534","steam_id":85568392924469998,"keywords":["ctf","nocrits","nodmgspread","uncletopia"],"game_id":440,"stv_port":27026,"stv_name":"Uncletopia | Seattle | 2 | All Maps | STV","players":[{"user_id":189,"name":"i am weed","steam_id":76561198419896433,"connected_time":333000000000,"state":"active","ping":40},{"user_id":9,"name":"Spoilt Pudding","steam_id":76561198001195423,"connected_time":7939000000000,"state":"active","ping":97},{"user_id":191,"name":"Luigi","steam_id":76561198354590331,"connected_time":269000000000,"state":"active","ping":69},{"user_id":192,"name":"nfseskimo","steam_id":76561198078745666,"connected_time":245000000000,"state":"active","ping":45},{"user_id":186,"name":"Javis","steam_id":76561198204163123,"connected_time":685000000000,"state":"active","ping":119},{"user_id":85,"name":"SHrek","steam_id":76561198071236389,"connected_time":3218000000000,"state":"active","ping":84},{"user_id":75,"name":"AuzzieJZ","steam_id":76561198134430439,"connected_time":4290000000000,"state":"active","ping":121},{"user_id":106,"name":"Buswolley","steam_id":76561197995205571,"connected_time":2434000000000,"state":"active","ping":58},{"user_id":79,"name":"soda","steam_id":76561198105924953,"connected_time":3421000000000,"state":"active","ping":69},{"user_id":158,"name":"M\u0026M","steam_id":76561198272061789,"connected_time":1512000000000,"state":"active","ping":109}]},{"server_id":406,"name":"Uncletopia | Seattle | 3 | Stopwatch Beta","name_short":"sea-3","host":"sea-1.us.uncletopia.com","port":27035,"enabled":true,"region":"us-west","cc":"us","latitude":47.608013,"longitude":-122.33517,"reserved":0,"last_update":"0001-01-01T00:00:00Z","name_a2s":"Uncletopia | Seattle | 3 | Stopwatch Beta","protocol":17,"map":"workshop/koth_ashville_final.ugc2130459942","folder":"tf","game":"Team Fortress","app_id":440,"player_count":0,"max_players":24,"Bots":0,"server_type":"Dedicated","server_os":"Linux","password":true,"vac":true,"version":"7757534","steam_id":85568392924515217,"keywords":["cp","nocrits","nodmgspread","uncletopia"],"game_id":440,"stv_port":27036,"stv_name":"Uncletopia | Seattle | 3 | Stopwatch Beta | STV","players":null},{"server_id":17,"name":"Uncletopia | San Francisco | 1 | All Maps","name_short":"sfo-1","host":"sfo-1.us.uncletopia.com","port":27015,"enabled":true,"region":"us-west","cc":"us","latitude":37.77397,"longitude":-122.4313,"reserved":0,"last_update":"0001-01-01T00:00:00Z","name_a2s":"Uncletopia | San Francisco | 1 | All Maps","protocol":17,"map":"cp_snakewater_final1","folder":"tf","game":"Team Fortress","app_id":440,"player_count":23,"max_players":24,"Bots":0,"server_type":"Dedicated","server_os":"Linux","password":true,"vac":true,"version":"7757534","steam_id":85568392924469999,"keywords":["cp","nocrits","nodmgspread","uncletopia"],"game_id":440,"stv_port":27016,"stv_name":"Uncletopia | San Francisco | 1 | All Maps | STV","players":[{"user_id":41,"name":"BLANK3T (They/He) | RGL.gg","steam_id":76561198028875624,"connected_time":549000000000,"state":"active","ping":59},{"user_id":37,"name":"Dietrich","steam_id":76561198028163840,"connected_time":796000000000,"state":"active","ping":67},{"user_id":28,"name":"Good Mudkip","steam_id":76561198439784449,"connected_time":1083000000000,"state":"active","ping":76},{"user_id":54,"name":"Winter the Witchie","steam_id":76561198151971178,"connected_time":186000000000,"state":"active","ping":106},{"user_id":48,"name":"VaL-ASROC","steam_id":76561198886493635,"connected_time":427000000000,"state":"active","ping":46},{"user_id":14,"name":"Grammaring","steam_id":76561198867366139,"connected_time":1656000000000,"state":"active","ping":67},{"user_id":58,"name":"Shark Sandwich","steam_id":76561198025007938,"connected_time":15000000000,"state":"spawning","ping":74},{"user_id":17,"name":"Evenaris","steam_id":76561198087544319,"connected_time":1484000000000,"state":"active","ping":53},{"user_id":52,"name":"Marceline","steam_id":76561198081371520,"connected_time":227000000000,"state":"active","ping":84},{"user_id":50,"name":"Scoron","steam_id":76561198062099305,"connected_time":291000000000,"state":"active","ping":59},{"user_id":22,"name":"Turbot","steam_id":76561198032325267,"connected_time":1181000000000,"state":"active","ping":193},{"user_id":51,"name":"Radical Raptor","steam_id":76561198209640125,"connected_time":286000000000,"state":"active","ping":92},{"user_id":25,"name":"kitsu ‚ô•","steam_id":76561198091741658,"connected_time":1147000000000,"state":"active","ping":72},{"user_id":55,"name":"Wacks","steam_id":76561198079476100,"connected_time":166000000000,"state":"active","ping":57},{"user_id":44,"name":"wing demolisher","steam_id":76561198178638591,"connected_time":496000000000,"state":"active","ping":75},{"user_id":30,"name":"PeptoBismol","steam_id":76561198082669076,"connected_time":999000000000,"state":"active","ping":70},{"user_id":36,"name":"Fachedin","steam_id":76561198041850415,"connected_time":868000000000,"state":"active","ping":55},{"user_id":45,"name":"oil","steam_id":76561198099980149,"connected_time":473000000000,"state":"active","ping":60},{"user_id":46,"name":"fridge","steam_id":76561198986774696,"connected_time":452000000000,"state":"active","ping":60},{"user_id":47,"name":"uzr","steam_id":76561198799343084,"connected_time":446000000000,"state":"active","ping":61},{"user_id":53,"name":"Petrols","steam_id":76561198065709739,"connected_time":193000000000,"state":"active","ping":127},{"user_id":56,"name":"Fluffy Guppy","steam_id":76561198153159411,"connected_time":130000000000,"state":"active","ping":86},{"user_id":57,"name":"jackhillard83","steam_id":76561199057098390,"connected_time":79000000000,"state":"active","ping":106}]},{"server_id":18,"name":"Uncletopia | San Francisco | 2 | All Maps","name_short":"sfo-2","host":"sfo-1.us.uncletopia.com","port":27025,"enabled":true,"region":"us-west","cc":"us","latitude":37.77397,"longitude":-122.4313,"reserved":0,"last_update":"0001-01-01T00:00:00Z","name_a2s":"Uncletopia | San Francisco | 2 | All Maps","protocol":17,"map":"koth_viaduct","folder":"tf","game":"Team Fortress","app_id":440,"player_count":0,"max_players":24,"Bots":0,"server_type":"Dedicated","server_os":"Linux","password":true,"vac":true,"version":"7757534","steam_id":85568392924470000,"keywords":["cp","nocrits","nodmgspread","uncletopia"],"game_id":440,"stv_port":27026,"stv_name":"Uncletopia | San Francisco | 2 | All Maps | STV","players":null},{"server_id":19,"name":"Uncletopia | San Francisco | 3 | Stopwatch Beta","name_short":"sfo-3","host":"sfo-1.us.uncletopia.com","port":27035,"enabled":true,"region":"us-west","cc":"us","latitude":37.77397,"longitude":-122.4313,"reserved":0,"last_update":"0001-01-01T00:00:00Z","name_a2s":"Uncletopia | San Francisco | 3 | Stopwatch Beta","protocol":17,"map":"pl_swiftwater_final1","folder":"tf","game":"Team Fortress","app_id":440,"player_count":0,"max_players":24,"Bots":0,"server_type":"Dedicated","server_os":"Linux","password":true,"vac":true,"version":"7757534","steam_id":85568392924742824,"keywords":["nocrits","nodmgspread","payload","uncletopia"],"game_id":440,"stv_port":27036,"stv_name":"Uncletopia | San Francisco | 3 | Stopwatch Beta | STV","players":null},{"server_id":20,"name":"Uncletopia | San Francisco | 4 | Community","name_short":"sfo-4","host":"sfo-1.us.uncletopia.com","port":27045,"enabled":true,"region":"us-west","cc":"us","latitude":37.77397,"longitude":-122.4313,"reserved":0,"last_update":"0001-01-01T00:00:00Z","name_a2s":"Uncletopia | San Francisco | 4 | Community","protocol":17,"map":"workshop/koth_kemptown_rc1.ugc767410655","folder":"tf","game":"Team Fortress","app_id":440,"player_count":0,"max_players":24,"Bots":0,"server_type":"Dedicated","server_os":"Linux","password":true,"vac":true,"version":"7757534","steam_id":85568392924742826,"keywords":["cp","nocrits","nodmgspread","uncletopia"],"game_id":440,"stv_port":27046,"stv_name":"Uncletopia | San Francisco | 4 | Community | STV","players":null},{"server_id":141,"name":"Uncletopia | Sydney | 1 | All Maps","name_short":"syd-1","host":"syd-1.au.uncletopia.com","port":27015,"enabled":true,"region":"au","cc":"au","latitude":-33.865143,"longitude":151.2099,"reserved":0,"last_update":"0001-01-01T00:00:00Z","name_a2s":"Uncletopia | Sydney | 1 | All Maps","protocol":17,"map":"pl_barnblitz","folder":"tf","game":"Team Fortress","app_id":440,"player_count":0,"max_players":24,"Bots":0,"server_type":"Dedicated","server_os":"Linux","password":true,"vac":true,"version":"7757534","steam_id":85568392924470001,"keywords":["nocrits","nodmgspread","payload","uncletopia"],"game_id":440,"stv_port":27016,"stv_name":"Uncletopia | Sydney | 1 | All Maps | STV","players":null},{"server_id":123,"name":"Uncletopia | Sydney | 2 | All Maps","name_short":"syd-2","host":"syd-1.au.uncletopia.com","port":27025,"enabled":true,"region":"au","cc":"au","latitude":-33.865143,"longitude":151.2099,"reserved":0,"last_update":"0001-01-01T00:00:00Z","name_a2s":"Uncletopia | Sydney | 2 | All Maps","protocol":17,"map":"cp_snakewater_final1","folder":"tf","game":"Team Fortress","app_id":440,"player_count":0,"max_players":24,"Bots":0,"server_type":"Dedicated","server_os":"Linux","password":true,"vac":true,"version":"7757534","steam_id":85568392924470002,"keywords":["cp","nocrits","nodmgspread","uncletopia"],"game_id":440,"stv_port":27026,"stv_name":"Uncletopia | Sydney | 2 | All Maps | STV","players":null},{"server_id":395,"name":"Uncletopia | Sydney | 3 | All Maps","name_short":"syd-3","host":"syd-1.au.uncletopia.com","port":27035,"enabled":true,"region":"au","cc":"au","latitude":-33.865143,"longitude":151.2099,"reserved":0,"last_update":"0001-01-01T00:00:00Z","name_a2s":"Uncletopia | Sydney | 3 | All Maps","protocol":17,"map":"pl_borneo","folder":"tf","game":"Team Fortress","app_id":440,"player_count":0,"max_players":24,"Bots":0,"server_type":"Dedicated","server_os":"Linux","password":true,"vac":true,"version":"7757534","steam_id":85568392925194467,"keywords":["nocrits","nodmgspread","payload","uncletopia"],"game_id":440,"stv_port":27036,"stv_name":"Uncletopia | Sydney | 3 | All Maps | STV","players":null},{"server_id":396,"name":"Uncletopia | Sydney | 4 | All Maps","name_short":"syd-4","host":"syd-1.au.uncletopia.com","port":27045,"enabled":true,"region":"au","cc":"au","latitude":-33.865143,"longitude":151.2099,"reserved":0,"last_update":"0001-01-01T00:00:00Z","name_a2s":"Uncletopia | Sydney | 4 | All Maps","protocol":17,"map":"cp_process_final","folder":"tf","game":"Team Fortress","app_id":440,"player_count":0,"max_players":24,"Bots":0,"server_type":"Dedicated","server_os":"Linux","password":true,"vac":true,"version":"7757534","steam_id":85568392925397958,"keywords":["cp","nocrits","nodmgspread","uncletopia"],"game_id":440,"stv_port":27046,"stv_name":"Uncletopia | Sydney | 4 | All Maps | STV","players":null},{"server_id":58,"name":"Uncletopia | Sydney | 5 | Stopwatch Beta","name_short":"syd-5","host":"syd-1.au.uncletopia.com","port":27055,"enabled":true,"region":"au","cc":"au","latitude":-33.865143,"longitude":151.2099,"reserved":0,"last_update":"0001-01-01T00:00:00Z","name_a2s":"Uncletopia | Sydney | 5 | Stopwatch Beta","protocol":17,"map":"koth_cascade","folder":"tf","game":"Team Fortress","app_id":440,"player_count":0,"max_players":24,"Bots":0,"server_type":"Dedicated","server_os":"Linux","password":true,"vac":true,"version":"7757534","steam_id":85568392925397959,"keywords":["cp","nocrits","nodmgspread","uncletopia"],"game_id":440,"stv_port":27056,"stv_name":"Uncletopia | Sydney | 5 | Stopwatch Beta | STV","players":null},{"server_id":59,"name":"Uncletopia | Sydney | 6 | Community","name_short":"syd-6","host":"syd-1.au.uncletopia.com","port":27065,"enabled":true,"region":"au","cc":"au","latitude":-33.865143,"longitude":151.2099,"reserved":0,"last_update":"0001-01-01T00:00:00Z","name_a2s":"Uncletopia | Sydney | 6 | Community","protocol":17,"map":"pl_badwater","folder":"tf","game":"Team Fortress","app_id":440,"player_count":0,"max_players":24,"Bots":0,"server_type":"Dedicated","server_os":"Linux","password":true,"vac":true,"version":"7757534","steam_id":85568392925397960,"keywords":["nocrits","nodmgspread","payload","uncletopia"],"game_id":440,"stv_port":27066,"stv_name":"Uncletopia | Sydney | 6 | Community | STV","players":null},{"server_id":49,"name":"Uncletopia | Warsaw | 1 | All Maps","name_short":"waw-1","host":"waw-1.pl.uncletopia.com","port":27015,"enabled":true,"region":"eu","cc":"pl","latitude":52.2297,"longitude":21.017532,"reserved":0,"last_update":"0001-01-01T00:00:00Z","name_a2s":"","protocol":0,"map":"","folder":"","game":"","app_id":0,"player_count":0,"max_players":0,"Bots":0,"server_type":"","server_os":"","password":false,"vac":false,"version":"","steam_id":0,"keywords":null,"game_id":0,"stv_port":0,"stv_name":"","players":null},{"server_id":50,"name":"Uncletopia | Warsaw | 2 | All Maps","name_short":"waw-2","host":"waw-1.pl.uncletopia.com","port":27025,"enabled":true,"region":"eu","cc":"pl","latitude":52.2297,"longitude":21.017532,"reserved":0,"last_update":"0001-01-01T00:00:00Z","name_a2s":"Uncletopia | Warsaw | 2 | All Maps","protocol":17,"map":"pl_borneo","folder":"tf","game":"Team Fortress","app_id":440,"player_count":0,"max_players":24,"Bots":0,"server_type":"Dedicated","server_os":"Linux","password":true,"vac":true,"version":"7757534","steam_id":85568392925397851,"keywords":["nocrits","nodmgspread","payload","uncletopia"],"game_id":440,"stv_port":27026,"stv_name":"Uncletopia | Warsaw | 2 | All Maps | STV","players":null},{"server_id":51,"name":"Uncletopia | Warsaw | 3 | All Maps","name_short":"waw-3","host":"waw-1.pl.uncletopia.com","port":27035,"enabled":true,"region":"eu","cc":"pl","latitude":52.2297,"longitude":21.017532,"reserved":0,"last_update":"0001-01-01T00:00:00Z","name_a2s":"Uncletopia | Warsaw | 3 | All Maps","protocol":17,"map":"pl_barnblitz","folder":"tf","game":"Team Fortress","app_id":440,"player_count":0,"max_players":24,"Bots":0,"server_type":"Dedicated","server_os":"Linux","password":true,"vac":true,"version":"7757534","steam_id":85568392925397852,"keywords":["nocrits","nodmgspread","payload","uncletopia"],"game_id":440,"stv_port":27036,"stv_name":"Uncletopia | Warsaw | 3 | All Maps | STV","players":null},{"server_id":52,"name":"Uncletopia | Warsaw | 4 | All Maps","name_short":"waw-4","host":"waw-1.pl.uncletopia.com","port":27045,"enabled":true,"region":"eu","cc":"pl","latitude":52.2297,"longitude":21.017532,"reserved":0,"last_update":"0001-01-01T00:00:00Z","name_a2s":"Uncletopia | Warsaw | 4 | All Maps","protocol":17,"map":"pl_swiftwater_final1","folder":"tf","game":"Team Fortress","app_id":440,"player_count":0,"max_players":24,"Bots":0,"server_type":"Dedicated","server_os":"Linux","password":true,"vac":true,"version":"7757534","steam_id":85568392925397853,"keywords":["nocrits","nodmgspread","payload","uncletopia"],"game_id":440,"stv_port":27046,"stv_name":"Uncletopia | Warsaw | 4 | All Maps | STV","players":null},{"server_id":53,"name":"Uncletopia | Warsaw | 5 | Stopwatch Beta","name_short":"waw-5","host":"waw-1.pl.uncletopia.com","port":27055,"enabled":true,"region":"eu","cc":"pl","latitude":52.2297,"longitude":21.017532,"reserved":0,"last_update":"0001-01-01T00:00:00Z","name_a2s":"Uncletopia | Warsaw | 5 | Stopwatch Beta","protocol":17,"map":"pl_pier","folder":"tf","game":"Team Fortress","app_id":440,"player_count":0,"max_players":24,"Bots":0,"server_type":"Dedicated","server_os":"Linux","password":true,"vac":true,"version":"7757534","steam_id":85568392925397854,"keywords":["nocrits","nodmgspread","payload","uncletopia"],"game_id":440,"stv_port":27056,"stv_name":"Uncletopia | Warsaw | 5 | Stopwatch Beta | STV","players":null},{"server_id":54,"name":"Uncletopia | Warsaw | 6 | Community","name_short":"waw-6","host":"waw-1.pl.uncletopia.com","port":27065,"enabled":true,"region":"eu","cc":"pl","latitude":52.2297,"longitude":21.017532,"reserved":0,"last_update":"0001-01-01T00:00:00Z","name_a2s":"Uncletopia | Warsaw | 6 | Community","protocol":17,"map":"koth_highpass","folder":"tf","game":"Team Fortress","app_id":440,"player_count":0,"max_players":24,"Bots":0,"server_type":"Dedicated","server_os":"Linux","password":true,"vac":true,"version":"7757534","steam_id":85568392925397856,"keywords":["cp","nocrits","nodmgspread","uncletopia"],"game_id":440,"stv_port":27066,"stv_name":"Uncletopia | Warsaw | 6 | Community | STV","players":null}]}