{"status":true,"message":"","result":[{"server_id":9,"name":"Uncletopia | Atlanta | 1 | All Maps","name_short":"atl-1","host":"atl-1.us.uncletopia.com","port":27015,"enabled":true,"region":"us-east","cc":"us","latitude":33.753746,"longitude":-84.38633,"reserved":0,"last_update":"0001-01-01T00:00:00Z","name_a2s":"Uncletopia | Atlanta | 1 | All Maps","protocol":17,"map":"pl_swiftwater_final1","folder":"tf","game":"Team Fortress","app_id":440,"player_count":25,"max_players":24,"Bots":0,"server_type":"Dedicated","server_os":"Linux","password":true,"vac":true,"version":"7757534","steam_id":85568392924469982,"keywords":["nocrits","nodmgspread","payload","uncletopia"],"game_id":440,"stv_port":27016,"stv_name":"Uncletopia | Atlanta | 1 | All Maps | STV","players":[{"user_id":66,"name":"melancholy","steam_id":76561198024301465,"connected_time":5142000000000,"state":"active","ping":44},{"user_id":127,"name":"Meh but good","steam_id":76561199005772246,"connected_time":451000000000,"state":"active","ping":59},{"user_id":111,"name":"Sly_Soviet","steam_id":76561199138465888,"connected_time":1616000000000,"state":"active","ping":95},{"user_id":134,"name":"FemboyNate","steam_id":76561198146636410,"connected_time":6000000000,"state":"spawning","ping":44},{"user_id":73,"name":"Jin Gulilo","steam_id":76561198065151242,"connected_time":4333000000000,"state":"active","ping":75},{"user_id":99,"name":"Sunny‚≠êDays","steam_id":76561198043892974,"connected_time":2504000000000,"state":"active","ping":69},{"user_id":95,"name":"Benji","steam_id":76561198239015880,"connected_time":2743000000000,"state":"active","ping":101},{"user_id":43,"name":"GeneralTaco","steam_id":76561198026783097,"connected_time":7129000000000,"state":"active","ping":129},{"user_id":122,"name":"OddSlaush","steam_id":76561198043898488,"connected_time":922000000000,"state":"active","ping":106},{"user_id":124,"name":"PikaGEMER","steam_id":76561198409850176,"connected_time":740000000000,"state":"active","ping":102},{"user_id":126,"name":"heimdall","steam_id":76561198069380992,"connected_time":499000000000,"state":"active","ping":80},{"user_id":81,"name":"floofy","steam_id":76561198389769098,"connected_time":3398000000000,"state":"active","ping":85},{"user_id":112,"name":"Grape Sauce","steam_id":76561198140136651,"connected_time":1609000000000,"state":"active","ping":90},{"user_id":128,"name":"Arcadletus","steam_id":76561198976009938,"connected_time":372000000000,"state":"active","ping":73},{"user_id":106,"name":"eish","steam_id":76561198089463603,"connected_time":1918000000000,"state":"active","ping":105},{"user_id":113,"name":"Umevol","steam_id":76561198082943489,"connected_time":1573000000000,"state":"active","ping":105},{"user_id":133,"name":"nnobi","steam_id":76561198878729277,"connected_time":286000000000,"state":"active","ping":59},{"user_id":115,"name":"4ubrey","steam_id":76561198151688908,"connected_time":1556000000000,"state":"active","ping":61},{"user_id":130,"name":"fitotutus","steam_id":76561197974993253,"connected_time":323000000000,"state":"active","ping":90},{"user_id":117,"name":"Marc G","steam_id":76561198062650363,"connected_time":1441000000000,"state":"active","ping":74},{"user_id":131,"name":"TTV/ArcticFlesh","steam_id":76561198099678868,"connected_time":313000000000,"state":"active","ping":55},{"user_id":132,"name":"[Time]","steam_id":76561198081994708,"connected_time":309000000000,"state":"active","ping":45},{"user_id":135,"name":"0","steam_id":76561197961095970,"connected_time":4000000000,"state":"spawning","ping":60},{"user_id":77,"name":"ash","steam_id":76561198127890645,"connected_time":3802000000000,"state":"active","ping":60},{"user_id":102,"name":"CreativeUsername","steam_id":76561198186045503,"connected_time":2310000000000,"state":"active","ping":83}]},{"server_id":104,"name":"Uncletopia | Atlanta | 2 | All Maps","name_short":"atl-2","host":"atl-1.us.uncletopia.com","port":27025,"enabled":true,"region":"us-east","cc":"us","latitude":33.753746,"longitude":-84.38633,"reserved":0,"last_update":"0001-01-01T00:00:00Z","name_a2s":"Uncletopia | Atlanta | 2 | All Maps","protocol":17,"map":"cp_mountainlab","folder":"tf","game":"Team Fortress","app_id":440,"player_count":0,"max_players":24,"Bots":0,"server_type":"Dedicated","server_os":"Linux","password":true,"vac":true,"version":"7757534","steam_id":85568392924469983,"keywords":["cp","nocrits","nodmgspread","uncletopia"],"game_id":440,"stv_port":27026,"stv_name":"Uncletopia | Atlanta | 2 | All Maps | STV","players":null},{"server_id":400,"name":"Uncletopia | Atlanta | 3 | Community","name_short":"atl-3","host":"atl-1.us.uncletopia.com","port":27035,"enabled":true,"region":"us-east","cc":"us","latitude":33.753746,"longitude":-84.38633,"reserved":0,"last_update":"0001-01-01T00:00:00Z","name_a2s":"Uncletopia | Atlanta | 3 | Community","protocol":17,"map":"workshop/cp_propaganda_b18.ugc1603743849","folder":"tf","game":"Team Fortress","app_id":440,"player_count":0,"max_players":24,"Bots":0,"server_type":"Dedicated","server_os":"Linux","password":true,"vac":true,"version":"7757534","steam_id":85568392924515187,"keywords":["cp","nocrits","nodmgspread","uncletopia"],"game_id":440,"stv_port":27036,"stv_name":"Uncletopia | Atlanta | 3 | Community | STV","players":null},{"server_id":401,"name":"Uncletopia | Atlanta | 4 | No Payload","name_short":"atl-4","host":"atl-1.us.uncletopia.com","port":27045,"enabled":true,"region":"us-east","cc":"us","latitude":33.753746,"longitude":-84.38633,"reserved":0,"last_update":"0001-01-01T00:00:00Z","name_a2s":"","protocol":0,"map":"","folder":"","game":"","app_id":0,"player_count":0,"max_players":0,"Bots":0,"server_type":"","server_os":"","password":false,"vac":false,"version":"","steam_id":0,"keywords":null,"game_id":0,"stv_port":0,"stv_name":"","players":null},{"server_id":2,"name":"Uncletopia | Chicago | 1 | All Maps","name_short":"chi-1","host":"chi-1.us.uncletopia.com","port":27015,"enabled":true,"region":"us-central","cc":"us","latitude":41.881832,"longitude":-87.62318,"reserved":0,"last_update":"0001-01-01T00:00:00Z","name_a2s":"Uncletopia | Chicago | 1 | All Maps","protocol":17,"map":"pl_badwater","folder":"tf","game":"Team Fortress","app_id":440,"player_count":0,"max_players":24,"Bots":0,"server_type":"Dedicated","server_os":"Linux","password":true,"vac":true,"version":"7757534","steam_id":85568392924469984,"keywords":["nocrits","nodmgspread","payload","uncletopia"],"game_id":440,"stv_port":27016,"stv_name":"Uncletopia | Chicago | 1 | All Maps | STV","players":null},{"server_id":106,"name":"Uncletopia | Chicago | 2 | All Maps","name_short":"chi-2","host":"chi-1.us.uncletopia.com","port":27025,"enabled":true,"region":"us-central","cc":"us","latitude":41.881832,"longitude":-87.62318,"reserved":0,"last_update":"0001-01-01T00:00:00Z","name_a2s":"Uncletopia | Chicago | 2 | All Maps","protocol":17,"map":"pl_snowycoast","folder":"tf","game":"Team Fortress","app_id":440,"player_count":24,"max_players":24,"Bots":0,"server_type":"Dedicated","server_os":"Linux","password":true,"vac":true,"version":"7757534","steam_id":85568392924469985,"keywords":["nocrits","nodmgspread","payload","uncletopia"],"game_id":440,"stv_port":27026,"stv_name":"Uncletopia | Chicago | 2 | All Maps | STV","players":[{"user_id":82,"name":"RedneckPhoenix","steam_id":76561198172922366,"connected_time":6054000000000,"state":"active","ping":38},{"user_id":129,"name":"Mush","steam_id":76561198393461065,"connected_time":2627000000000,"state":"active","ping":79},{"user_id":111,"name":"Crotonga","steam_id":76561198077178900,"connected_time":3799000000000,"state":"active","ping":58},{"user_id":143,"name":"Friggy","steam_id":76561198131467867,"connected_time":1971000000000,"state":"active","ping":85},{"user_id":155,"name":"Kurg","steam_id":76561198143381218,"connected_time":1218000000000,"state":"active","ping":46},{"user_id":153,"name":"ty","steam_id":76561198045333395,"connected_time":1339000000000,"state":"active","ping":55},{"user_id":160,"name":"Lucky7","steam_id":76561199084623109,"connected_time":1090000000000,"state":"active","ping":103},{"user_id":172,"name":"Resistance","steam_id":76561198146782074,"connected_time":510000000000,"state":"active","ping":52},{"user_id":173,"name":"Sevice","steam_id":76561198108904001,"connected_time":392000000000,"state":"active","ping":58},{"user_id":141,"name":"ÔøΩ","steam_id":76561199231483904,"connected_time":2141000000000,"state":"active","ping":105},{"user_id":156,"name":"DOGE??","steam_id":76561198331098675,"connected_time":1206000000000,"state":"active","ping":91},{"user_id":163,"name":"Less Than Stupid","steam_id":76561198873150234,"connected_time":870000000000,"state":"active","ping":90},{"user_id":164,"name":"Brock O'Brian","steam_id":76561198117839474,"connected_time":859000000000,"state":"active","ping":89},{"user_id":165,"name":"Frodo T Baggins","steam_id":76561198048090297,"connected_time":825000000000,"state":"active","ping":56},{"user_id":174,"name":"DMJanitor","steam_id":76561198058929753,"connected_time":377000000000,"state":"active","ping":108},{"user_id":167,"name":"Monster","steam_id":76561198189429665,"connected_time":797000000000,"state":"active","ping":78},{"user_id":125,"name":"RedRose","steam_id":76561199197402592,"connected_time":2922000000000,"state":"active","ping":91},{"user_id":168,"name":"Truffleoil","steam_id":76561198114689041,"connected_time":767000000000,"state":"active","ping":65},{"user_id":169,"name":"player 2 role","steam_id":76561198173860681,"connected_time":755000000000,"state":"active","ping":60},{"user_id":157,"name":"Jared","steam_id":76561198174468986,"connected_time":1203000000000,"state":"active","ping":105},{"user_id":170,"name":"Puwnter","steam_id":76561198127821062,"connected_time":705000000000,"state":"active","ping":66},{"user_id":158,"name":"joe","steam_id":76561198149179519,"connected_time":1192000000000,"state":"active","ping":106},{"user_id":175,"name":"hidden_games","steam_id":76561198149683392,"connected_time":348000000000,"state":"active","ping":60},{"user_id":176,"name":"Horrizan","steam_id":76561197965028480,"connected_time":324000000000,"state":"active","ping":92}]},{"server_id":402,"name":"Uncletopia | Chicago | 3 | All Maps","name_short":"chi-3","host":"chi-1.us.uncletopia.com","port":27035,"enabled":true,"region":"us-central","cc":"us","latitude":41.881832,"longitude":-87.62318,"reserved":0,"last_update":"0001-01-01T00:00:00Z","name_a2s":"Uncletopia | Chicago | 3 | All Maps","protocol":17,"map":"cp_dustbowl","folder":"tf","game":"Team Fortress","app_id":440,"player_count":0,"max_players":24,"Bots":0,"server_type":"Dedicated","server_os":"Linux","password":true,"vac":true,"version":"7757534","steam_id":85568392924515191,"keywords":["cp","nocrits","nodmgspread","uncletopia"],"game_id":440,"stv_port":27036,"stv_name":"Uncletopia | Chicago | 3 | All Maps | STV","players":null},{"server_id":403,"name":"Uncletopia | Chicago | 4 | All Maps","name_short":"chi-4","host":"chi-1.us.uncletopia.com","port":27045,"enabled":true,"region":"us-central","cc":"us","latitude":41.881832,"longitude":-87.62318,"reserved":0,"last_update":"0001-01-01T00:00:00Z","name_a2s":"Uncletopia | Chicago | 4 | All Maps","protocol":17,"map":"pl_barnblitz","folder":"tf","game":"Team Fortress","app_id":440,"player_count":24,"max_players":24,"Bots":0,"server_type":"Dedicated","server_os":"Linux","password":true,"vac":true,"version":"7757534","steam_id":85568392924515193,"keywords":["nocrits","nodmgspread","payload","uncletopia"],"game_id":440,"stv_port":27046,"stv_name":"Uncletopia | Chicago | 4 | All Maps | STV","players":[{"user_id":119,"name":"aphex","steam_id":76561198092966791,"connected_time":175000000000,"state":"active","ping":83},{"user_id":85,"name":"kris736","steam_id":76561198038208255,"connected_time":3405000000000,"state":"active","ping":53},{"user_id":110,"name":"Six","steam_id":76561198140584050,"connected_time":1363000000000,"state":"active","ping":63},{"user_id":101,"name":"Panckakebro","steam_id":76561198106419992,"connected_time":1604000000000,"state":"active","ping":82},{"user_id":114,"name":"Bag","steam_id":76561198012395490,"connected_time":1060000000000,"state":"active","ping":73},{"user_id":69,"name":"DatFluffyPancake","steam_id":76561198271958697,"connected_time":5106000000000,"state":"active","ping":82},{"user_id":104,"name":"Titan Tezwa","steam_id":76561198030320618,"connected_time":1483000000000,"state":"active","ping":74},{"user_id":73,"name":"Lilac","steam_id":76561198977523626,"connected_time":4468000000000,"state":"active","ping":71},{"user_id":89,"name":"looloopaa","steam_id":76561198048179242,"connected_time":3252000000000,"state":"active","ping":59},{"user_id":86,"name":"shadow elite","steam_id":76561198165212575,"connected_time":3359000000000,"state":"active","ping":62},{"user_id":118,"name":"washy","steam_id":76561198046622670,"connected_time":363000000000,"state":"active","ping":90},{"user_id":68,"name":"Mr. Dry Lips","steam_id":76561198028157625,"connected_time":5321000000000,"state":"active","ping":84},{"user_id":99,"name":"Jorb","steam_id":76561198095643651,"connected_time":2323000000000,"state":"active","ping":92},{"user_id":105,"name":"mac_cheese","steam_id":76561198071334162,"connected_time":1440000000000,"state":"active","ping":93},{"user_id":106,"name":"Just Chuck","steam_id":76561198121697504,"connected_time":1433000000000,"state":"active","ping":80},{"user_id":116,"name":"shanghai","steam_id":76561197997961542,"connected_time":870000000000,"state":"active","ping":61},{"user_id":117,"name":"Scorpie Doodle","steam_id":76561198021845763,"connected_time":820000000000,"state":"active","ping":96},{"user_id":92,"name":"Zelumie","steam_id":76561198147335801,"connected_time":3179000000000,"state":"active","ping":58},{"user_id":107,"name":"SPACECOWBOY","steam_id":76561199093645953,"connected_time":1407000000000,"state":"active","ping":91},{"user_id":95,"name":"Emperor Dankatine","steam_id":76561198044741086,"connected_time":3088000000000,"state":"active","ping":82},{"user_id":108,"name":"Oxferd Crow","steam_id":76561198096916018,"connected_time":1397000000000,"state":"active","ping":109},{"user_id":115,"name":"Kidzbopsicle","steam_id":76561198047660691,"connected_time":1059000000000,"state":"active","ping":59},{"user_id":111,"name":"Drift Stick","steam_id":76561198847048304,"connected_time":1351000000000,"state":"active","ping":107},{"user_id":97,"name":"Mintchacolate","steam_id":76561198058011580,"connected_time":3075000000000,"state":"active","ping":57}]},{"server_id":36,"name":"Uncletopia | Chicago | 5 | All Maps","name_short":"chi-5","host":"chi-2.us.uncletopia.com","port":27015,"enabled":true,"region":"us-central","cc":"us","latitude":41.881832,"longitude":-87.62318,"reserved":0,"last_update":"0001-01-01T00:00:00Z","name_a2s":"Uncletopia | Chicago | 5 | All Maps","protocol":17,"map":"koth_cascade","folder":"tf","game":"Team Fortress","app_id":440,"player_count":0,"max_players":24,"Bots":0,"server_type":"Dedicated","server_os":"Linux","password":true,"vac":true,"version":"7757534","steam_id":85568392924866362,"keywords":["cp","nocrits","nodmgspread","uncletopia"],"game_id":440,"stv_port":27016,"stv_name":"Uncletopia | Chicago | 5 | All Maps | STV","players":null},{"server_id":37,"name":"Uncletopia | Chicago | 6 | All Maps","name_short":"chi-6","host":"chi-2.us.uncletopia.com","port":27025,"enabled":true,"region":"us-central","cc":"us","latitude":41.881832,"longitude":-87.62318,"reserved":0,"last_update":"0001-01-01T00:00:00Z","name_a2s":"Uncletopia | Chicago | 6 | All Maps","protocol":17,"map":"koth_lakeside_final","folder":"tf","game":"Team Fortress","app_id":440,"player_count":0,"max_players":24,"Bots":0,"server_type":"Dedicated","server_os":"Linux","password":true,"vac":true,"version":"7757534","steam_id":85568392924866363,"keywords":["cp","nocrits","nodmgspread","uncletopia"],"game_id":440,"stv_port":27026,"stv_name":"Uncletopia | Chicago | 6 | All Maps | STV","players":null},{"server_id":38,"name":"Uncletopia | Chicago | 7 | Stopwatch Beta","name_short":"chi-7","host":"chi-2.us.uncletopia.com","port":27035,"enabled":true,"region":"us-central","cc":"us","latitude":41.881832,"longitude":-87.62318,"reserved":0,"last_update":"0001-01-01T00:00:00Z","name_a2s":"Uncletopia | Chicago | 7 | Stopwatch Beta","protocol":17,"map":"pl_barnblitz","folder":"tf","game":"Team Fortress","app_id":440,"player_count":0,"max_players":24,"Bots":0,"server_type":"Dedicated","server_os":"Linux","password":true,"vac":true,"version":"7757534","steam_id":85568392924866364,"keywords":["nocrits","nodmgspread","payload","uncletopia"],"game_id":440,"stv_port":27036,"stv_name":"Uncletopia | Chicago | 7 | Stopwatch Beta | STV","players":null},{"server_id":39,"name":"Uncletopia | Chicago | 8 | Community","name_short":"chi-8","host":"chi-2.us.uncletopia.com","port":27045,"enabled":true,"region":"us-central","cc":"us","latitude":41.881832,"longitude":-87.62318,"reserved":0,"last_update":"0001-01-01T00:00:00Z","name_a2s":"Uncletopia | Chicago | 8 | Community","protocol":17,"map":"koth_cascade","folder":"tf","game":"Team Fortress","app_id":440,"player_count":0,"max_players":24,"Bots":0,"server_type":"Dedicated","server_os":"Linux","password":true,"vac":true,"version":"7757534","steam_id":85568392924866365,"keywords":["cp","nocrits","nodmgspread","uncletopia"],"game_id":440,"stv_port":27046,"stv_name":"Uncletopia | Chicago | 8 | Community | STV","players":null},{"server_id":8,"name":"Uncletopia | Dallas | 1 | All Maps","name_short":"dal-1","host":"dal-1.us.uncletopia.com","port":27015,"enabled":true,"region":"us-central","cc":"us","latitude":32.779167,"longitude":-96.80889,"reserved":0,"last_update":"0001-01-01T00:00:00Z","name_a2s":"Uncletopia | Dallas | 1 | All Maps","protocol":17,"map":"cp_sunshine","folder":"tf","game":"Team Fortress","app_id":440,"player_count":0,"max_players":24,"Bots":0,"server_type":"Dedicated","server_os":"Linux","password":true,"vac":true,"version":"7757534","steam_id":85568392924469986,"keywords":["cp","nocrits","nodmgspread","uncletopia"],"game_id":440,"stv_port":27016,"stv_name":"Uncletopia | Dallas | 1 | All Maps | STV","players":null},{"server_id":108,"name":"Uncletopia | Dallas | 2 | All Maps","name_short":"dal-2","host":"dal-1.us.uncletopia.com","port":27025,"enabled":true,"region":"us-central","cc":"us","latitude":32.779167,"longitude":-96.80889,"reserved":0,"last_update":"0001-01-01T00:00:00Z","name_a2s":"Uncletopia | Dallas | 2 | All Maps","protocol":17,"map":"cp_altitude","folder":"tf","game":"Team Fortress","app_id":440,"player_count":24,"max_players":24,"Bots":0,"server_type":"Dedicated","server_os":"Linux","password":true,"vac":true,"version":"7757534","steam_id":85568392924469988,"keywords":["cp","nocrits","nodmgspread","uncletopia"],"game_id":440,"stv_port":27026,"stv_name":"Uncletopia | Dallas | 2 | All Maps | STV","players":[{"user_id":171,"name":"DargaribdusPersonOfLordlyCalibe","steam_id":76561198020876416,"connected_time":751000000000,"state":"active","ping":70},{"user_id":159,"name":"gromit","steam_id":76561198037746805,"connected_time":1103000000000,"state":"active","ping":91},{"user_id":93,"name":"Galactamarx","steam_id":76561198028065755,"connected_time":6044000000000,"state":"active","ping":77},{"user_id":98,"name":"QUEASYWHALE","steam_id":76561199107482851,"connected_time":5869000000000,"state":"active","ping":121},{"user_id":160,"name":"blademiss","steam_id":76561198062083019,"connected_time":1099000000000,"state":"active","ping":84},{"user_id":178,"name":"DjBallBag","steam_id":76561198118551080,"connected_time":426000000000,"state":"active","ping":66},{"user_id":161,"name":"Person","steam_id":76561198093244204,"connected_time":1069000000000,"state":"active","ping":96},{"user_id":138,"name":"dunka","steam_id":76561198066114874,"connected_time":2713000000000,"state":"active","ping":115},{"user_id":155,"name":"This game sucks","steam_id":76561198042007578,"connected_time":1289000000000,"state":"active","ping":60},{"user_id":173,"name":"üå∏MelWormüå∏","steam_id":76561198084145814,"connected_time":586000000000,"state":"active","ping":63},{"user_id":139,"name":"s","steam_id":76561198149443710,"connected_time":2703000000000,"state":"active","ping":82},{"user_id":181,"name":"Jacket","steam_id":76561198131518482,"connected_time":276000000000,"state":"active","ping":87},{"user_id":149,"name":"TheMaskedChris","steam_id":76561198271980205,"connected_time":2066000000000,"state":"active","ping":75},{"user_id":177,"name":"Dirtbomb","steam_id":76561198002403301,"connected_time":492000000000,"state":"active","ping":96},{"user_id":111,"name":"plink","steam_id":76561198057829889,"connected_time":4864000000000,"state":"active","ping":113},{"user_id":140,"name":"Imabee","steam_id":76561198032523749,"connected_time":2695000000000,"state":"active","ping":84},{"user_id":163,"name":"Vortiger","steam_id":76561198275813176,"connected_time":1065000000000,"state":"active","ping":98},{"user_id":183,"name":"skate","steam_id":76561198322312114,"connected_time":2000000000,"state":"spawning","ping":56},{"user_id":113,"name":"Quiver Cakes ._.","steam_id":76561198243155576,"connected_time":4824000000000,"state":"active","ping":75},{"user_id":166,"name":"Karma's Camera","steam_id":76561198059385185,"connected_time":948000000000,"state":"active","ping":87},{"user_id":179,"name":"I Came","steam_id":76561198082938358,"connected_time":410000000000,"state":"active","ping":98},{"user_id":182,"name":"TheVandive","steam_id":76561199014510667,"connected_time":123000000000,"state":"active","ping":136},{"user_id":168,"name":"Grassman (Cc)","steam_id":76561198026488532,"connected_time":914000000000,"state":"active","ping":88},{"user_id":180,"name":"89","steam_id":76561198106308056,"connected_time":408000000000,"state":"active","ping":76}]},{"server_id":5,"name":"Uncletopia | Frankfurt | 1 | All Maps","name_short":"frk-1","host":"frk-1.de.uncletopia.com","port":27015,"enabled":true,"region":"eu","cc":"de","latitude":50.110924,"longitude":8.682127,"reserved":0,"last_update":"0001-01-01T00:00:00Z","name_a2s":"Uncletopia | Frankfurt | 1 | All Maps","protocol":17,"map":"pl_snowycoast","folder":"tf","game":"Team Fortress","app_id":440,"player_count":0,"max_players":24,"Bots":0,"server_type":"Dedicated","server_os":"Linux","password":true,"vac":true,"version":"7757534","steam_id":85568392924469989,"keywords":["nocrits","nodmgspread","payload","uncletopia"],"game_id":440,"stv_port":27016,"stv_name":"Uncletopia | Frankfurt | 1 | All Maps | STV","players":null},{"server_id":110,"name":"Uncletopia | Frankfurt | 2 | All Maps","name_short":"frk-2","host":"frk-1.de.uncletopia.com","port":27025,"enabled":true,"region":"eu","cc":"de","latitude":50.110924,"longitude":8.682127,"reserved":0,"last_update":"0001-01-01T00:00:00Z","name_a2s":"Uncletopia | Frankfurt | 2 | All Maps","protocol":17,"map":"koth_lakeside_final","folder":"tf","game":"Team Fortress","app_id":440,"player_count":0,"max_players":24,"Bots":0,"server_type":"Dedicated","server_os":"Linux","password":true,"vac":true,"version":"7757534","steam_id":85568392924469990,"keywords":["cp","nocrits","nodmgspread","uncletopia"],"game_id":440,"stv_port":27026,"stv_name":"Uncletopia | Frankfurt | 2 | All Maps | STV","players":null},{"server_id":308,"name":"Uncletopia | Frankfurt | 3 | All Maps","name_short":"frk-3","host":"frk-1.de.uncletopia.com","port":27035,"enabled":true,"region":"eu","cc":"de","latitude":50.110924,"longitude":8.682127,"reserved":0,"last_update":"0001-01-01T00:00:00Z","name_a2s":"Uncletopia | Frankfurt | 3 | All Maps","protocol":17,"map":"pl_swiftwater_final1","folder":"tf","game":"Team Fortress","app_id":440,"player_count":0,"max_players":24,"Bots":0,"server_type":"Dedicated","server_os":"Linux","password":true,"vac":true,"version":"7757534","steam_id":85568392924504274,"keywords":["nocrits","nodmgspread","payload","uncletopia"],"game_id":440,"stv_port":27036,"stv_name":"Uncletopia | Frankfurt | 3 | All Maps | STV","players":null},{"server_id":309,"name":"Uncletopia | Frankfurt | 4 | All Maps","name_short":"frk-4","host":"frk-1.de.uncletopia.com","port":27045,"enabled":true,"region":"eu","cc":"de","latitude":50.110924,"longitude":8.682127,"reserved":0,"last_update":"0001-01-01T00:00:00Z","name_a2s":"Uncletopia | Frankfurt | 4 | All Maps","protocol":17,"map":"koth_cascade","folder":"tf","game":"Team Fortress","app_id":440,"player_count":0,"max_players":24,"Bots":0,"server_type":"Dedicated","server_os":"Linux","password":true,"vac":true,"version":"7757534","steam_id":85568392924504275,"keywords":["cp","nocrits","nodmgspread","uncletopia"],"game_id":440,"stv_port":27046,"stv_name":"Uncletopia | Frankfurt | 4 | All Maps | STV","players":null},{"server_id":310,"name":"Uncletopia | Frankfurt | 5 | All Maps","name_short":"frk-5","host":"frk-1.de.uncletopia.com","port":27055,"enabled":true,"region":"eu","cc":"de","latitude":50.110924,"longitude":8.682127,"reserved":0,"last_update":"0001-01-01T00:00:00Z","name_a2s":"Uncletopia | Frankfurt | 5 | All Maps","protocol":17,"map":"koth_lakeside_final","folder":"tf","game":"Team Fortress","app_id":440,"player_count":0,"max_players":24,"Bots":0,"server_type":"Dedicated","server_os":"Linux","password":true,"vac":true,"version":"7757534","steam_id":85568392924504277,"keywords":["cp","nocrits","nodmgspread","uncletopia"],"game_id":440,"stv_port":27056,"stv_name":"Uncletopia | Frankfurt | 5 | All Maps | STV","players":null},{"server_id":311,"name":"Uncletopia | Frankfurt | 6 | All Maps","name_short":"frk-6","host":"frk-1.de.uncletopia.com","port":27065,"enabled":true,"region":"eu","cc":"de","latitude":50.110924,"longitude":8.682127,"reserved":0,"last_update":"0001-01-01T00:00:00Z","name_a2s":"Uncletopia | Frankfurt | 6 | All Maps","protocol":17,"map":"pl_frontier_final","folder":"tf","game":"Team Fortress","app_id":440,"player_count":0,"max_players":24,"Bots":0,"server_type":"Dedicated","server_os":"Linux","password":true,"vac":true,"version":"7757534","steam_id":85568392924504278,"keywords":["nocrits","nodmgspread","payload","uncletopia"],"game_id":440,"stv_port":27066,"stv_name":"Uncletopia | Frankfurt | 6 | All Maps | STV","players":null},{"server_id":23,"name":"Uncletopia | Frankfurt | 7 | Stopwatch Beta","name_short":"frk-7","host":"frk-1.de.uncletopia.com","port":27075,"enabled":true,"region":"eu","cc":"de","latitude":50.110924,"longitude":8.682127,"reserved":0,"last_update":"0001-01-01T00:00:00Z","name_a2s":"Uncletopia | Frankfurt | 7 | Stopwatch Beta","protocol":17,"map":"workshop/koth_ramjam_rc1.ugc459778887","folder":"tf","game":"Team Fortress","app_id":440,"player_count":0,"max_players":24,"Bots":0,"server_type":"Dedicated","server_os":"Linux","password":true,"vac":true,"version":"7757534","steam_id":85568392924742827,"keywords":["cp","nocrits","nodmgspread","uncletopia"],"game_id":440,"stv_port":27076,"stv_name":"Uncletopia | Frankfurt | 7 | Stopwatch Beta | STV","players":null},{"server_id":24,"name":"Uncletopia | Frankfurt | 8 | Community","name_short":"frk-8","host":"frk-1.de.uncletopia.com","port":27085,"enabled":true,"region":"eu","cc":"de","latitude":50.110924,"longitude":8.682127,"reserved":0,"last_update":"0001-01-01T00:00:00Z","name_a2s":"Uncletopia | Frankfurt | 8 | Community","protocol":17,"map":"koth_lakeside_final","folder":"tf","game":"Team Fortress","app_id":440,"player_count":0,"max_players":24,"Bots":0,"server_type":"Dedicated","server_os":"Linux","password":true,"vac":true,"version":"7757534","steam_id":85568392924742828,"keywords":["cp","nocrits","nodmgspread","uncletopia"],"game_id":440,"stv_port":27086,"stv_name":"Uncletopia | Frankfurt | 8 | Community | STV","players":null},{"server_id":202,"name":"Uncletopia | Hong Kong | 1 | All Maps","name_short":"hgk-1","host":"hgk-1.hk.uncletopia.com","port":27015,"enabled":true,"region":"asia","cc":"hk","latitude":22.302711,"longitude":114.177216,"reserved":0,"last_update":"0001-01-01T00:00:00Z","name_a2s":"Uncletopia | Hong Kong | 1 | All Maps","protocol":17,"map":"koth_viaduct","folder":"tf","game":"Team Fortress","app_id":440,"player_count":0,"max_players":24,"Bots":0,"server_type":"Dedicated","server_os":"Linux","password":true,"vac":true,"version":"7757534","steam_id":85568392924494504,"keywords":["cp","nocrits","nodmgspread","uncletopia"],"game_id":440,"stv_port":27016,"stv_name":"Uncletopia | Hong Kong | 1 | All Maps | STV","players":null},{"server_id":1,"name":"Uncletopia | Los Angeles | 1 | All Maps","name_short":"lax-1","host":"lax-1.us.uncletopia.com","port":27015,"enabled":true,"region":"us-west","cc":"us","latitude":33.94279,"longitude":-118.41004,"reserved":0,"last_update":"0001-01-01T00:00:00Z","name_a2s":"Uncletopia | Los Angeles | 1 | All Maps","protocol":17,"map":"pl_thundermountain","folder":"tf","game":"Team Fortress","app_id":440,"player_count":24,"max_players":24,"Bots":0,"server_type":"Dedicated","server_os":"Linux","password":true,"vac":true,"version":"7757534","steam_id":85568392924469991,"keywords":["nocrits","nodmgspread","payload","uncletopia"],"game_id":440,"stv_port":27016,"stv_name":"Uncletopia | Los Angeles | 1 | All Maps | STV","players":[{"user_id":144,"name":"Mobile Hotspot Gaming","steam_id":76561198123030809,"connected_time":1576000000000,"state":"active","ping":96},{"user_id":116,"name":"StumpyWeed","steam_id":76561198051772381,"connected_time":4327000000000,"state":"active","ping":75},{"user_id":130,"name":"Altruisticailuridae","steam_id":76561198335295596,"connected_time":3422000000000,"state":"active","ping":55},{"user_id":96,"name":"Varia","steam_id":76561198047588672,"connected_time":6678000000000,"state":"active","ping":73},{"user_id":149,"name":"shawarma.lord007","steam_id":76561198115458307,"connected_time":1465000000000,"state":"active","ping":45},{"user_id":97,"name":"VerenitEEE","steam_id":76561198064503363,"connected_time":6659000000000,"state":"active","ping":99},{"user_id":162,"name":"Pee_Pants_McGee","steam_id":76561199153307294,"connected_time":442000000000,"state":"active","ping":60},{"user_id":151,"name":"‚Ä∫‚Ä∫ Melon","steam_id":76561198041266286,"connected_time":1277000000000,"state":"active","ping":55},{"user_id":120,"name":"l.Uzi.l","steam_id":76561198145767721,"connected_time":4076000000000,"state":"active","ping":44},{"user_id":159,"name":"bonk","steam_id":76561198050681704,"connected_time":731000000000,"state":"active","ping":91},{"user_id":137,"name":"Big Jon","steam_id":76561198402285099,"connected_time":2515000000000,"state":"active","ping":70},{"user_id":136,"name":"everythingrhymeswithorange","steam_id":76561198010306193,"connected_time":2637000000000,"state":"active","ping":63},{"user_id":163,"name":"MyMonkeyBaby","steam_id":76561198046896670,"connected_time":432000000000,"state":"active","ping":86},{"user_id":161,"name":"b4ttle_axe","steam_id":76561198061691855,"connected_time":459000000000,"state":"active","ping":49},{"user_id":153,"name":"Reef","steam_id":76561199130187039,"connected_time":1084000000000,"state":"active","ping":67},{"user_id":122,"name":"pt","steam_id":76561198143023330,"connected_time":3904000000000,"state":"active","ping":49},{"user_id":157,"name":"celery","steam_id":76561199004451589,"connected_time":996000000000,"state":"active","ping":71},{"user_id":134,"name":"Kujo","steam_id":76561198342579745,"connected_time":2912000000000,"state":"active","ping":71},{"user_id":154,"name":"All 24 Pok√©mon movies at once","steam_id":76561198164738311,"connected_time":1073000000000,"state":"active","ping":115},{"user_id":155,"name":"Cheff cook","steam_id":76561198451203268,"connected_time":1047000000000,"state":"active","ping":54},{"user_id":152,"name":"bigman1","steam_id":76561198050225055,"connected_time":1247000000000,"state":"active","ping":50},{"user_id":142,"name":"Whisper!","steam_id":76561198119609795,"connected_time":1591000000000,"state":"active","ping":52},{"user_id":156,"name":"blank","steam_id":76561198105529673,"connected_time":1040000000000,"state":"active","ping":44},{"user_id":143,"name":"werolat","steam_id":76561197960544784,"connected_time":1591000000000,"state":"active","ping":68}]},{"server_id":112,"name":"Uncletopia | Los Angeles | 2 | All Maps","name_short":"lax-2","host":"lax-1.us.uncletopia.com","port":27025,"enabled":true,"region":"us-west","cc":"us","latitude":33.94279,"longitude":-118.41004,"reserved":0,"last_update":"0001-01-01T00:00:00Z","name_a2s":"Uncletopia | Los Angeles | 2 | All Maps","protocol":17,"map":"koth_cascade","folder":"tf","game":"Team Fortress","app_id":440,"player_count":0,"max_players":24,"Bots":0,"server_type":"Dedicated","server_os":"Linux","password":true,"vac":true,"version":"7757534","steam_id":85568392924469992,"keywords":["cp","nocrits","nodmgspread","uncletopia"],"game_id":440,"stv_port":27026,"stv_name":"Uncletopia | Los Angeles | 2 | All Maps | STV","players":null},{"server_id":324,"name":"Uncletopia | Los Angeles | 3 | All Maps","name_short":"lax-3","host":"lax-1.us.uncletopia.com","port":27035,"enabled":true,"region":"us-west","cc":"us","latitude":33.94279,"longitude":-118.41004,"reserved":0,"last_update":"0001-01-01T00:00:00Z","name_a2s":"Uncletopia | Los Angeles | 3 | All Maps","protocol":17,"map":"pl_swiftwater_final1","folder":"tf","game":"Team Fortress","app_id":440,"player_count":0,"max_players":24,"Bots":0,"server_type":"Dedicated","server_os":"Linux","password":true,"vac":true,"version":"7757534","steam_id":85568392924510198,"keywords":["nocrits","nodmgspread","payload","uncletopia"],"game_id":440,"stv_port":27036,"stv_name":"Uncletopia | Los Angeles | 3 | All Maps | STV","players":null},{"server_id":25,"name":"Uncletopia | Los Angeles | 4 | Stopwatch Beta","name_short":"lax-4","host":"lax-1.us.uncletopia.com","port":27045,"enabled":true,"region":"us-west","cc":"us","latitude":33.94279,"longitude":-118.41004,"reserved":0,"last_update":"0001-01-01T00:00:00Z","name_a2s":"Uncletopia | Los Angeles | 4 | Stopwatch Beta","protocol":17,"map":"pl_swiftwater_final1","folder":"tf","game":"Team Fortress","app_id":440,"player_count":0,"max_players":24,"Bots":0,"server_type":"Dedicated","server_os":"Linux","password":true,"vac":true,"version":"7757534","steam_id":85568392924510199,"keywords":["nocrits","nodmgspread","payload","uncletopia"],"game_id":440,"stv_port":27046,"stv_name":"Uncletopia | Los Angeles | 4 | Stopwatch Beta | STV","players":null},{"server_id":11,"name":"Uncletopia | London | 1 | All Maps","name_short":"lon-1","host":"lon-1.uk.uncletopia.com","port":27015,"enabled":true,"region":"eu","cc":"gb","latitude":51.509865,"longitude":-0.118092,"reserved":0,"last_update":"0001-01-01T00:00:00Z","name_a2s":"Uncletopia | London | 1 | All Maps","protocol":17,"map":"koth_highpass","folder":"tf","game":"Team Fortress","app_id":440,"player_count":0,"max_players":24,"Bots":0,"server_type":"Dedicated","server_os":"Linux","password":true,"vac":true,"version":"7757534","steam_id":85568392924367362,"keywords":["cp","nocrits","nodmgspread","uncletopia"],"game_id":440,"stv_port":27016,"stv_name":"Uncletopia | London | 1 | All Maps | STV","players":null},{"server_id":114,"name":"Uncletopia | London | 2 | All Maps","name_short":"lon-2","host":"lon-1.uk.uncletopia.com","port":27025,"enabled":true,"region":"eu","cc":"gb","latitude":51.509865,"longitude":-0.118092,"reserved":0,"last_update":"0001-01-01T00:00:00Z","name_a2s":"Uncletopia | London | 2 | All Maps","protocol":17,"map":"koth_viaduct","folder":"tf","game":"Team Fortress","app_id":440,"player_count":0,"max_players":24,"Bots":0,"server_type":"Dedicated","server_os":"Linux","password":true,"vac":true,"version":"7757534","steam_id":85568392924470941,"keywords":["cp","nocrits","nodmgspread","uncletopia"],"game_id":440,"stv_port":27026,"stv_name":"Uncletopia | London | 2 | All Maps | STV","players":null},{"server_id":320,"name":"Uncletopia | London | 3 | All Maps","name_short":"lon-3","host":"lon-1.uk.uncletopia.com","port":27035,"enabled":true,"region":"eu","cc":"gb","latitude":51.509865,"longitude":-0.118092,"reserved":0,"last_update":"0001-01-01T00:00:00Z","name_a2s":"Uncletopia | London | 3 | All Maps","protocol":17,"map":"cp_dustbowl","folder":"tf","game":"Team Fortress","app_id":440,"player_count":0,"max_players":24,"Bots":0,"server_type":"Dedicated","server_os":"Linux","password":true,"vac":true,"version":"7757534","steam_id":85568392924510192,"keywords":["cp","nocrits","nodmgspread","uncletopia"],"game_id":440,"stv_port":27036,"stv_name":"Uncletopia | London | 3 | All Maps | STV","players":null},{"server_id":321,"name":"Uncletopia | London | 4 | All Maps","name_short":"lon-4","host":"lon-1.uk.uncletopia.com","port":27045,"enabled":true,"region":"eu","cc":"gb","latitude":51.509865,"longitude":-0.118092,"reserved":0,"last_update":"0001-01-01T00:00:00Z","name_a2s":"Uncletopia | London | 4 | All Maps","protocol":17,"map":"cp_dustbowl","folder":"tf","game":"Team Fortress","app_id":440,"player_count":0,"max_players":24,"Bots":0,"server_type":"Dedicated","server_os":"Linux","password":true,"vac":true,"version":"7757534","steam_id":85568392924510193,"keywords":["cp","nocrits","nodmgspread","uncletopia"],"game_id":440,"stv_port":27046,"stv_name":"Uncletopia | London | 4 | All Maps | STV","players":null},{"server_id":21,"name":"Uncletopia | London | 5 | All Maps","name_short":"lon-5","host":"lon-1.uk.uncletopia.com","port":27055,"enabled":true,"region":"eu","cc":"gb","latitude":51.509865,"longitude":-0.118092,"reserved":0,"last_update":"0001-01-01T00:00:00Z","name_a2s":"Uncletopia | London | 5 | All Maps","protocol":17,"map":"cp_altitude","folder":"tf","game":"Team Fortress","app_id":440,"player_count":0,"max_players":24,"Bots":0,"server_type":"Dedicated","server_os":"Linux","password":true,"vac":true,"version":"7757534","steam_id":85568392924742829,"keywords":["cp","nocrits","nodmgspread","uncletopia"],"game_id":440,"stv_port":27056,"stv_name":"Uncletopia | London | 5 | All Maps | STV","players":null},{"server_id":22,"name":"Uncletopia | London | 6 | All Maps","name_short":"lon-6","host":"lon-1.uk.uncletopia.com","port":27065,"enabled":true,"region":"eu","cc":"gb","latitude":51.509865,"longitude":-0.118092,"reserved":0,"last_update":"0001-01-01T00:00:00Z","name_a2s":"Uncletopia | London | 6 | All Maps","protocol":17,"map":"cp_mountainlab","folder":"tf","game":"Team Fortress","app_id":440,"player_count":0,"max_players":24,"Bots":0,"server_type":"Dedicated","server_os":"Linux","password":true,"vac":true,"version":"7757534","steam_id":85568392924742830,"keywords":["cp","nocrits","nodmgspread","uncletopia"],"game_id":440,"stv_port":27066,"stv_name":"Uncletopia | London | 6 | All Maps | STV","players":null},{"server_id":40,"name":"Uncletopia | London | 7 | No Payload","name_short":"lon-7","host":"lon-1.uk.uncletopia.com","port":27075,"enabled":true,"region":"eu","cc":"gb","latitude":51.509865,"longitude":-0.118092,"reserved":0,"last_update":"0001-01-01T00:00:00Z","name_a2s":"Uncletopia | London | 7 | No Payload","protocol":17,"map":"pl_badwater","folder":"tf","game":"Team Fortress","app_id":440,"player_count":0,"max_players":24,"Bots":0,"server_type":"Dedicated","server_os":"Linux","password":true,"vac":true,"version":"7757534","steam_id":85568392924964314,"keywords":["nocrits","nodmgspread","payload","uncletopia"],"game_id":440,"stv_port":27076,"stv_name":"Uncletopia | London | 7 | No Payload | STV","players":null},{"server_id":41,"name":"Uncletopia | London | 8 | Community","name_short":"lon-8","host":"lon-1.uk.uncletopia.com","port":27085,"enabled":true,"region":"eu","cc":"gb","latitude":51.509865,"longitude":-0.118092,"reserved":0,"last_update":"0001-01-01T00:00:00Z","name_a2s":"Uncletopia | London | 8 | Community","protocol":17,"map":"pl_barnblitz","folder":"tf","game":"Team Fortress","app_id":440,"player_count":0,"max_players":24,"Bots":0,"server_type":"Dedicated","server_os":"Linux","password":true,"vac":true,"version":"7757534","steam_id":85568392924964315,"keywords":["nocrits","nodmgspread","payload","uncletopia"],"game_id":440,"stv_port":27086,"stv_name":"Uncletopia | London | 8 | Community | STV","players":null},{"server_id":300,"name":"Uncletopia | Montr√©al | 1 | All Maps","name_short":"mtl-1","host":"mtl-1.ca.uncletopia.com","port":27015,"enabled":true,"region":"us-east","cc":"ca","latitude":45.50889,"longitude":-73.56167,"reserved":0,"last_update":"0001-01-01T00:00:00Z","name_a2s":"Uncletopia | Montr√©al | 1 | All Maps","protocol":17,"map":"pl_upward","folder":"tf","game":"Team Fortress","app_id":440,"player_count":0,"max_players":24,"Bots":0,"server_type":"Dedicated","server_os":"Linux","password":true,"vac":true,"version":"7757534","steam_id":85568392924500087,"keywords":["nocrits","nodmgspread","payload","uncletopia"],"game_id":440,"stv_port":27016,"stv_name":"Uncletopia | Montr√©al | 1 | All Maps | STV","players":null},{"server_id":301,"name":"Uncletopia | Montr√©al | 2 | All Maps","name_short":"mtl-2","host":"mtl-1.ca.uncletopia.com","port":27025,"enabled":true,"region":"us-east","cc":"ca","latitude":45.50889,"longitude":-73.56167,"reserved":0,"last_update":"0001-01-01T00:00:00Z","name_a2s":"Uncletopia | Montr√©al | 2 | All Maps","protocol":17,"map":"pl_snowycoast","folder":"tf","game":"Team Fortress","app_id":440,"player_count":0,"max_players":24,"Bots":0,"server_type":"Dedicated","server_os":"Linux","password":true,"vac":true,"version":"7757534","steam_id":85568392924500088,"keywords":["nocrits","nodmgspread","payload","uncletopia"],"game_id":440,"stv_port":27026,"stv_name":"Uncletopia | Montr√©al | 2 | All Maps | STV","players":null},{"server_id":302,"name":"Uncletopia | Montr√©al | 3 | All Maps","name_short":"mtl-3","host":"mtl-1.ca.uncletopia.com","port":27035,"enabled":true,"region":"us-east","cc":"ca","latitude":45.50889,"longitude":-73.56167,"reserved":0,"last_update":"0001-01-01T00:00:00Z","name_a2s":"Uncletopia | Montr√©al | 3 | All Maps","protocol":17,"map":"pl_swiftwater_final1","folder":"tf","game":"Team Fortress","app_id":440,"player_count":0,"max_players":24,"Bots":0,"server_type":"Dedicated","server_os":"Linux","password":true,"vac":true,"version":"7757534","steam_id":85568392924500089,"keywords":["nocrits","nodmgspread","payload","uncletopia"],"game_id":440,"stv_port":27036,"stv_name":"Uncletopia | Montr√©al | 3 | All Maps | STV","players":null},{"server_id":303,"name":"Uncletopia | Montr√©al | 4 | No Payload","name_short":"mtl-4","host":"mtl-1.ca.uncletopia.com","port":27045,"enabled":true,"region":"us-east","cc":"ca","latitude":45.50889,"longitude":-73.56167,"reserved":0,"last_update":"0001-01-01T00:00:00Z","name_a2s":"Uncletopia | Montr√©al | 4 | No Payload","protocol":17,"map":"pl_pier","folder":"tf","game":"Team Fortress","app_id":440,"player_count":0,"max_players":24,"Bots":0,"server_type":"Dedicated","server_os":"Linux","password":true,"vac":true,"version":"7757534","steam_id":85568392924500090,"keywords":["nocrits","nodmgspread","payload","uncletopia"],"game_id":440,"stv_port":27046,"stv_name":"Uncletopia | Montr√©al | 4 | No Payload | STV","players":null},{"server_id":13,"name":"Uncletopia | New York City | 1 | All Maps","name_short":"nyc-1","host":"nyc-1.us.uncletopia.com","port":27015,"enabled":true,"region":"us-east","cc":"us","latitude":40.73061,"longitude":-73.93524,"reserved":0,"last_update":"0001-01-01T00:00:00Z","name_a2s":"Uncletopia | New York City | 1 | All Maps","protocol":17,"map":"pl_swiftwater_final1","folder":"tf","game":"Team Fortress","app_id":440,"player_count":0,"max_players":24,"Bots":0,"server_type":"Dedicated","server_os":"Linux","password":true,"vac":true,"version":"7757534","steam_id":85568392924469993,"keywords":["nocrits","nodmgspread","payload","uncletopia"],"game_id":440,"stv_port":27016,"stv_name":"Uncletopia | New York City | 1 | All Maps | STV","players":null},{"server_id":14,"name":"Uncletopia | New York City | 2 | All Maps","name_short":"nyc-2","host":"nyc-1.us.uncletopia.com","port":27025,"enabled":true,"region":"us-east","cc":"us","latitude":40.73061,"longitude":-73.93524,"reserved":0,"last_update":"0001-01-01T00:00:00Z","name_a2s":"Uncletopia | New York City | 2 | All Maps","protocol":17,"map":"cp_sunshine","folder":"tf","game":"Team Fortress","app_id":440,"player_count":0,"max_players":24,"Bots":0,"server_type":"Dedicated","server_os":"Linux","password":true,"vac":true,"version":"7757534","steam_id":85568392924469994,"keywords":["cp","nocrits","nodmgspread","uncletopia"],"game_id":440,"stv_port":27026,"stv_name":"Uncletopia | New York City | 2 | All Maps | STV","players":null},{"server_id":15,"name":"Uncletopia | New York City | 3 | Stopwatch Beta","name_short":"nyc-3","host":"nyc-1.us.uncletopia.com","port":27035,"enabled":true,"region":"us-east","cc":"us","latitude":40.73061,"longitude":-73.93524,"reserved":0,"last_update":"0001-01-01T00:00:00Z","name_a2s":"Uncletopia | New York City | 3 | Stopwatch Beta","protocol":17,"map":"pl_upward","folder":"tf","game":"Team Fortress","app_id":440,"player_count":0,"max_players":24,"Bots":0,"server_type":"Dedicated","server_os":"Linux","password":true,"vac":true,"version":"7757534","steam_id":85568392924742820,"keywords":["nocrits","nodmgspread","payload","uncletopia"],"game_id":440,"stv_port":27036,"stv_name":"Uncletopia | New York City | 3 | Stopwatch Beta | STV","players":null},{"server_id":16,"name":"Uncletopia | New York City | 4 | Community","name_short":"nyc-4","host":"nyc-1.us.uncletopia.com","port":27045,"enabled":true,"region":"us-east","cc":"us","latitude":40.73061,"longitude":-73.93524,"reserved":0,"last_update":"0001-01-01T00:00:00Z","name_a2s":"Uncletopia | New York City | 4 | Community","protocol":17,"map":"workshop/cp_reckoner_rc6.ugc674719999","folder":"tf","game":"Team Fortress","app_id":440,"player_count":0,"max_players":24,"Bots":0,"server_type":"Dedicated","server_os":"Linux","password":true,"vac":true,"version":"7757534","steam_id":85568392924742821,"keywords":["cp","nocrits","nodmgspread","uncletopia"],"game_id":440,"stv_port":27046,"stv_name":"Uncletopia | New York City | 4 | Community | STV","players":null},{"server_id":142,"name":"Uncletopia | S√£o Paulo | 1 | All Maps","name_short":"sao-1","host":"sao-1.br.uncletopia.com","port":27015,"enabled":true,"region":"sa","cc":"br","latitude":-23.533773,"longitude":-46.62529,"reserved":0,"last_update":"0001-01-01T00:00:00Z","name_a2s":"Uncletopia | S√£o Paulo | 1 | All Maps","protocol":17,"map":"koth_lakeside_final","folder":"tf","game":"Team Fortress","app_id":440,"player_count":0,"max_players":24,"Bots":0,"server_type":"Dedicated","server_os":"Linux","password":true,"vac":true,"version":"7757534","steam_id":85568392924469996,"keywords":["cp","nocrits","nodmgspread","uncletopia"],"game_id":440,"stv_port":27016,"stv_name":"Uncletopia | S√£o Paulo | 1 | All Maps | STV","players":null},{"server_id":143,"name":"Uncletopia | S√£o Paulo | 2 | All Maps","name_short":"sao-2","host":"sao-2.br.uncletopia.com","port":27015,"enabled":true,"region":"sa","cc":"br","latitude":-23.533773,"longitude":-46.62529,"reserved":0,"last_update":"0001-01-01T00:00:00Z","name_a2s":"Uncletopia | S√£o Paulo | 2 | All Maps","protocol":17,"map":"pl_snowycoast","folder":"tf","game":"Team Fortress","app_id":440,"player_count":0,"max_players":24,"Bots":0,"server_type":"Dedicated","server_os":"Linux","password":true,"vac":true,"version":"7757534","steam_id":85568392924485349,"keywords":["nocrits","nodmgspread","payload","uncletopia"],"game_id":440,"stv_port":27016,"stv_name":"Uncletopia | S√£o Paulo | 2 | All Maps | STV","players":null},{"server_id":7,"name":"Uncletopia | Seattle | 1 | All Maps","name_short":"sea-1","host":"sea-1.us.uncletopia.com","port":27015,"enabled":true,"region":"us-west","cc":"us","latitude":47.608013,"longitude":-122.33517,"reserved":0,"last_update":"0001-01-01T00:00:00Z","name_a2s":"Uncletopia | Seattle | 1 | All Maps","protocol":17,"map":"pl_borneo","folder":"tf","game":"Team Fortress","app_id":440,"player_count":24,"max_players":24,"Bots":0,"server_type":"Dedicated","server_os":"Linux","password":true,"vac":true,"version":"7757534","steam_id":85568392924469997,"keywords":["nocrits","nodmgspread","payload","uncletopia"],"game_id":440,"stv_port":27016,"stv_name":"Uncletopia | Seattle | 1 | All Maps | STV","players":[{"user_id":90,"name":"Adobe Premiere","steam_id":76561198411025724,"connected_time":3283000000000,"state":"active","ping":77},{"user_id":116,"name":"Sir Galahad","steam_id":76561198195999859,"connected_time":699000000000,"state":"active","ping":53},{"user_id":117,"name":"WaffleWithNoToppings","steam_id":76561199088280111,"connected_time":694000000000,"state":"active","ping":56},{"user_id":122,"name":"MisterManne","steam_id":76561198106598600,"connected_time":18000000000,"state":"spawning","ping":44},{"user_id":104,"name":"roryisonamobilehotspot","steam_id":76561198065825165,"connected_time":2198000000000,"state":"active","ping":95},{"user_id":47,"name":"fungi","steam_id":76561198169755734,"connected_time":7811000000000,"state":"active","ping":66},{"user_id":91,"name":"p9 delight","steam_id":76561197980280272,"connected_time":3272000000000,"state":"active","ping":45},{"user_id":106,"name":"goofy goober","steam_id":76561198189139590,"connected_time":2165000000000,"state":"active","ping":132},{"user_id":57,"name":"RiverMoot","steam_id":76561198081530179,"connected_time":6585000000000,"state":"active","ping":138},{"user_id":121,"name":"camp3r","steam_id":76561197992870439,"connected_time":359000000000,"state":"active","ping":34},{"user_id":93,"name":"toes","steam_id":76561198221151676,"connected_time":3101000000000,"state":"active","ping":50},{"user_id":56,"name":"cracky","steam_id":76561197971365444,"connected_time":6812000000000,"state":"active","ping":50},{"user_id":68,"name":"worker","steam_id":76561198039608940,"connected_time":5626000000000,"state":"active","ping":73},{"user_id":105,"name":"Furious George","steam_id":76561198405111646,"connected_time":2187000000000,"state":"active","ping":59},{"user_id":112,"name":"smeasly","steam_id":76561198028718812,"connected_time":1346000000000,"state":"active","ping":34},{"user_id":108,"name":"Florist","steam_id":76561198009121060,"connected_time":2148000000000,"state":"active","ping":46},{"user_id":87,"name":"gorlab","steam_id":76561198025089694,"connected_time":3491000000000,"state":"active","ping":62},{"user_id":53,"name":"mewtek","steam_id":76561198138599995,"connected_time":7233000000000,"state":"active","ping":87},{"user_id":100,"name":"Cunny Warrior 77","steam_id":76561198811760680,"connected_time":2610000000000,"state":"active","ping":118},{"user_id":118,"name":"cream team","steam_id":76561198139043953,"connected_time":529000000000,"state":"active","ping":97},{"user_id":119,"name":"p]","steam_id":76561198145784505,"connected_time":452000000000,"state":"active","ping":73},{"user_id":113,"name":"yachabosha imalaka... ah ah ah","steam_id":76561198971743530,"connected_time":1339000000000,"state":"active","ping":69},{"user_id":33,"name":"p9 jorts weed syrup","steam_id":76561199041179985,"connected_time":9921000000000,"state":"active","ping":60}]},{"server_id":119,"name":"Uncletopia | Seattle | 2 | All Maps","name_short":"sea-2","host":"sea-1.us.uncletopia.com","port":27025,"enabled":true,"region":"us-west","cc":"us","latitude":47.608013,"longitude":-122.33517,"reserved":0,"last_update":"0001-01-01T00:00:00Z","name_a2s":"Uncletopia | Seattle | 2 | All Maps","protocol":17,"map":"pl_thundermountain","folder":"tf","game":"Team Fortress","app_id":440,"player_count":24,"max_players":24,"Bots":0,"server_type":"Dedicated","server_os":"Linux","password":true,"vac":true,"version":"7757534","steam_id":85568392924469998,"keywords":["nocrits","nodmgspread","payload","uncletopia"],"game_id":440,"stv_port":27026,"stv_name":"Uncletopia | Seattle | 2 | All Maps | STV","players":[{"user_id":133,"name":"Arrythmia","steam_id":76561198093748123,"connected_time":1112000000000,"state":"active","ping":56},{"user_id":117,"name":"McDoreson McFloreson","steam_id":76561198272049926,"connected_time":2361000000000,"state":"active","ping":61},{"user_id":60,"name":"Seriously Bruh","steam_id":76561198070408485,"connected_time":7216000000000,"state":"active","ping":48},{"user_id":48,"name":"Amogous Supreme","steam_id":76561198025476774,"connected_time":8137000000000,"state":"active","ping":72},{"user_id":97,"name":"GgDionne","steam_id":76561198079684772,"connected_time":3438000000000,"state":"active","ping":58},{"user_id":126,"name":"DoctorVoid","steam_id":76561198154715380,"connected_time":1616000000000,"state":"active","ping":101},{"user_id":128,"name":"mango cafe","steam_id":76561198142328193,"connected_time":1407000000000,"state":"active","ping":41},{"user_id":130,"name":"mumbles","steam_id":76561197994528974,"connected_time":1266000000000,"state":"active","ping":78},{"user_id":132,"name":"Wonko","steam_id":76561198043914891,"connected_time":1159000000000,"state":"active","ping":91},{"user_id":124,"name":"Cpt. Dingle","steam_id":76561198025720199,"connected_time":2081000000000,"state":"active","ping":76},{"user_id":136,"name":"Gilded_Warrior","steam_id":76561199055082197,"connected_time":615000000000,"state":"active","ping":109},{"user_id":137,"name":"SuaveFrenchman","steam_id":76561198043762683,"connected_time":492000000000,"state":"active","ping":62},{"user_id":101,"name":"dunnydunjo","steam_id":76561198069605283,"connected_time":3204000000000,"state":"active","ping":76},{"user_id":102,"name":"Big tiddy goth medic gf","steam_id":76561198836316052,"connected_time":3201000000000,"state":"active","ping":89},{"user_id":103,"name":"Brock","steam_id":76561197998471141,"connected_time":3147000000000,"state":"active","ping":89},{"user_id":125,"name":"Frozynth","steam_id":76561198060524722,"connected_time":1717000000000,"state":"active","ping":44},{"user_id":138,"name":"Gustavo Fring","steam_id":76561198132807405,"connected_time":81000000000,"state":"active","ping":137},{"user_id":110,"name":"John Coltrane","steam_id":76561198037789297,"connected_time":2904000000000,"state":"active","ping":138},{"user_id":105,"name":"Soda","steam_id":76561198108363656,"connected_time":2971000000000,"state":"active","ping":93},{"user_id":127,"name":"kodynotcody","steam_id":76561198340685758,"connected_time":1415000000000,"state":"active","ping":57},{"user_id":140,"name":"Not Slavoj ≈Ωi≈æek","steam_id":76561198004619616,"connected_time":0,"state":"spawning","ping":0},{"user_id":109,"name":"tristan","steam_id":76561198188754881,"connected_time":2933000000000,"state":"active","ping":46},{"user_id":139,"name":"sora","steam_id":76561198094256973,"connected_time":22000000000,"state":"spawning","ping":59},{"user_id":82,"name":"laggy mcstab","steam_id":76561198106379962,"connected_time":6038000000000,"state":"active","ping":62}]},{"server_id":406,"name":"Uncletopia | Seattle | 3 | Stopwatch Beta","name_short":"sea-3","host":"sea-1.us.uncletopia.com","port":27035,"enabled":true,"region":"us-west","cc":"us","latitude":47.608013,"longitude":-122.33517,"reserved":0,"last_update":"0001-01-01T00:00:00Z","name_a2s":"Uncletopia | Seattle | 3 | Stopwatch Beta","protocol":17,"map":"workshop/pl_summercoast_rc8e.ugc1761528829","folder":"tf","game":"Team Fortress","app_id":440,"player_count":0,"max_players":24,"Bots":0,"server_type":"Dedicated","server_os":"Linux","password":true,"vac":true,"version":"7757534","steam_id":85568392924515217,"keywords":["nocrits","nodmgspread","payload","uncletopia"],"game_id":440,"stv_port":27036,"stv_name":"Uncletopia | Seattle | 3 | Stopwatch Beta | STV","players":null},{"server_id":17,"name":"Uncletopia | San Francisco | 1 | All Maps","name_short":"sfo-1","host":"sfo-1.us.uncletopia.com","port":27015,"enabled":true,"region":"us-west","cc":"us","latitude":37.77397,"longitude":-122.4313,"reserved":0,"last_update":"0001-01-01T00:00:00Z","name_a2s":"Uncletopia | San Francisco | 1 | All Maps","protocol":17,"map":"cp_sunshine","folder":"tf","game":"Team Fortress","app_id":440,"player_count":24,"max_players":24,"Bots":0,"server_type":"Dedicated","server_os":"Linux","password":true,"vac":true,"version":"7757534","steam_id":85568392924469999,"keywords":["cp","nocrits","nodmgspread","uncletopia"],"game_id":440,"stv_port":27016,"stv_name":"Uncletopia | San Francisco | 1 | All Maps | STV","players":[{"user_id":57,"name":"wait no stop dont do that","steam_id":76561199117157198,"connected_time":5846000000000,"state":"active","ping":81},{"user_id":116,"name":"bluetooth speaker","steam_id":76561198388724735,"connected_time":1908000000000,"state":"active","ping":120},{"user_id":128,"name":"crowe","steam_id":76561198142185527,"connected_time":1576000000000,"state":"active","ping":63},{"user_id":127,"name":"big fish","steam_id":76561198186479818,"connected_time":1604000000000,"state":"active","ping":66},{"user_id":100,"name":"sick, twisted, demented","steam_id":76561198799922000,"connected_time":2390000000000,"state":"active","ping":60},{"user_id":144,"name":"Resh420","steam_id":76561198066619792,"connected_time":376000000000,"state":"active","ping":87},{"user_id":143,"name":"(1)Red","steam_id":76561198041784302,"connected_time":652000000000,"state":"active","ping":86},{"user_id":103,"name":"Marloin","steam_id":76561198104314327,"connected_time":2276000000000,"state":"active","ping":122},{"user_id":133,"name":"Boobanator5000","steam_id":76561198393299316,"connected_time":1061000000000,"state":"active","ping":49},{"user_id":134,"name":"Kimi ·É¶","steam_id":76561199184879642,"connected_time":958000000000,"state":"active","ping":54},{"user_id":105,"name":"silly","steam_id":76561198311564850,"connected_time":2247000000000,"state":"active","ping":59},{"user_id":146,"name":"SleezeBaggerMcSwagger","steam_id":76561198397836238,"connected_time":332000000000,"state":"active","ping":46},{"user_id":135,"name":"_Coconut_","steam_id":76561198096874519,"connected_time":844000000000,"state":"active","ping":56},{"user_id":136,"name":"[Colorbomb]","steam_id":76561198006316527,"connected_time":841000000000,"state":"active","ping":69},{"user_id":111,"name":"Bony","steam_id":76561199001748822,"connected_time":2017000000000,"state":"active","ping":72},{"user_id":84,"name":"Just-Some-Menace","steam_id":76561198152324397,"connected_time":4035000000000,"state":"active","ping":137},{"user_id":95,"name":"Homo Ejectus","steam_id":76561197968701952,"connected_time":2543000000000,"state":"active","ping":77},{"user_id":123,"name":"jawnymac","steam_id":76561198179529599,"connected_time":1777000000000,"state":"active","ping":50},{"user_id":137,"name":"Magnus1738","steam_id":76561198330283667,"connected_time":837000000000,"state":"active","ping":70},{"user_id":129,"name":"Papa Panda","steam_id":76561198159061475,"connected_time":1516000000000,"state":"active","ping":59},{"user_id":141,"name":"just took estrogen ama ‚ô•‚âß\ufffd\ufffd","steam_id":76561198039225492,"connected_time":812000000000,"state":"active","ping":46},{"user_id":140,"name":"Renota","steam_id":76561198058224488,"connected_time":821000000000,"state":"active","ping":115},{"user_id":142,"name":"my monitor is off","steam_id":76561198074499537,"connected_time":801000000000,"state":"active","ping":70},{"user_id":74,"name":"TheSnoringMan0923","steam_id":76561198070136627,"connected_time":5305000000000,"state":"active","ping":59}]},{"server_id":18,"name":"Uncletopia | San Francisco | 2 | All Maps","name_short":"sfo-2","host":"sfo-1.us.uncletopia.com","port":27025,"enabled":true,"region":"us-west","cc":"us","latitude":37.77397,"longitude":-122.4313,"reserved":0,"last_update":"0001-01-01T00:00:00Z","name_a2s":"Uncletopia | San Francisco | 2 | All Maps","protocol":17,"map":"pl_frontier_final","folder":"tf","game":"Team Fortress","app_id":440,"player_count":24,"max_players":24,"Bots":0,"server_type":"Dedicated","server_os":"Linux","password":true,"vac":true,"version":"7757534","steam_id":85568392924470000,"keywords":["nocrits","nodmgspread","payload","uncletopia"],"game_id":440,"stv_port":27026,"stv_name":"Uncletopia | San Francisco | 2 | All Maps | STV","players":[{"user_id":149,"name":"endo","steam_id":76561197995204381,"connected_time":779000000000,"state":"active","ping":69},{"user_id":158,"name":"oz","steam_id":76561198994752511,"connected_time":498000000000,"state":"active","ping":38},{"user_id":151,"name":"A_Random_N3rd","steam_id":76561198052786104,"connected_time":672000000000,"state":"active","ping":78},{"user_id":159,"name":"Rust","steam_id":76561198063959574,"connected_time":435000000000,"state":"active","ping":126},{"user_id":128,"name":"hakken","steam_id":76561199102391736,"connected_time":2376000000000,"state":"active","ping":58},{"user_id":152,"name":"Liam McKendrick","steam_id":76561198077965553,"connected_time":656000000000,"state":"active","ping":115},{"user_id":146,"name":"raya","steam_id":76561198051504581,"connected_time":1132000000000,"state":"active","ping":85},{"user_id":10,"name":"Penguin","steam_id":76561198987947291,"connected_time":10011000000000,"state":"active","ping":62},{"user_id":153,"name":"A Blender","steam_id":76561198085439451,"connected_time":621000000000,"state":"active","ping":59},{"user_id":126,"name":"Shamrock Shake Oct.10.2020 @8pm","steam_id":76561198833313201,"connected_time":2795000000000,"state":"active","ping":66},{"user_id":154,"name":"Mentlegen","steam_id":76561198295280927,"connected_time":613000000000,"state":"active","ping":89},{"user_id":14,"name":"Lv. 5 Grunt","steam_id":76561198800334545,"connected_time":9894000000000,"state":"active","ping":52},{"user_id":125,"name":"Gilbert","steam_id":76561198124545020,"connected_time":2833000000000,"state":"active","ping":58},{"user_id":135,"name":"pengi","steam_id":76561198190217323,"connected_time":1708000000000,"state":"active","ping":69},{"user_id":118,"name":"Arizona Ranger Gaming","steam_id":76561199029855908,"connected_time":3207000000000,"state":"active","ping":69},{"user_id":147,"name":"Star","steam_id":76561198150115757,"connected_time":1001000000000,"state":"active","ping":62},{"user_id":104,"name":"snoogy woogy buggy","steam_id":76561198894676484,"connected_time":4084000000000,"state":"active","ping":54},{"user_id":139,"name":"The Super Mario Bros. Movie","steam_id":76561198871692156,"connected_time":1390000000000,"state":"active","ping":70},{"user_id":156,"name":"sleepyhead","steam_id":76561198070859040,"connected_time":553000000000,"state":"active","ping":69},{"user_id":155,"name":"deathstar0611","steam_id":76561198120476410,"connected_time":569000000000,"state":"active","ping":59},{"user_id":157,"name":"mmmBoyo","steam_id":76561198821360261,"connected_time":542000000000,"state":"active","ping":67},{"user_id":140,"name":"The Foolish Samurai","steam_id":76561198094494945,"connected_time":1368000000000,"state":"active","ping":80},{"user_id":90,"name":"NotAWeeb","steam_id":76561198165530739,"connected_time":5284000000000,"state":"active","ping":46},{"user_id":142,"name":"Triple Lizard","steam_id":76561198188459654,"connected_time":1292000000000,"state":"active","ping":119}]},{"server_id":19,"name":"Uncletopia | San Francisco | 3 | Stopwatch Beta","name_short":"sfo-3","host":"sfo-1.us.uncletopia.com","port":27035,"enabled":true,"region":"us-west","cc":"us","latitude":37.77397,"longitude":-122.4313,"reserved":0,"last_update":"0001-01-01T00:00:00Z","name_a2s":"Uncletopia | San Francisco | 3 | Stopwatch Beta","protocol":17,"map":"workshop/pl_summercoast_rc8e.ugc1761528829","folder":"tf","game":"Team Fortress","app_id":440,"player_count":0,"max_players":24,"Bots":0,"server_type":"Dedicated","server_os":"Linux","password":true,"vac":true,"version":"7757534","steam_id":85568392924742824,"keywords":["nocrits","nodmgspread","payload","uncletopia"],"game_id":440,"stv_port":27036,"stv_name":"Uncletopia | San Francisco | 3 | Stopwatch Beta | STV","players":null},{"server_id":20,"name":"Uncletopia | San Francisco | 4 | Community","name_short":"sfo-4","host":"sfo-1.us.uncletopia.com","port":27045,"enabled":true,"region":"us-west","cc":"us","latitude":37.77397,"longitude":-122.4313,"reserved":0,"last_update":"0001-01-01T00:00:00Z","name_a2s":"Uncletopia | San Francisco | 4 | Community","protocol":17,"map":"workshop/pl_barnblitz_pro7.ugc582280235","folder":"tf","game":"Team Fortress","app_id":440,"player_count":0,"max_players":24,"Bots":0,"server_type":"Dedicated","server_os":"Linux","password":true,"vac":true,"version":"7757534","steam_id":85568392924742826,"keywords":["nocrits","nodmgspread","payload","uncletopia"],"game_id":440,"stv_port":27046,"stv_name":"Uncletopia | San Francisco | 4 | Community | STV","players":null},{"server_id":141,"name":"Uncletopia | Sydney | 1 | All Maps","name_short":"syd-1","host":"syd-1.au.uncletopia.com","port":27015,"enabled":true,"region":"au","cc":"au","latitude":-33.865143,"longitude":151.2099,"reserved":0,"last_update":"0001-01-01T00:00:00Z","name_a2s":"Uncletopia | Sydney | 1 | All Maps","protocol":17,"map":"pl_barnblitz","folder":"tf","game":"Team Fortress","app_id":440,"player_count":24,"max_players":24,"Bots":0,"server_type":"Dedicated","server_os":"Linux","password":true,"vac":true,"version":"7757534","steam_id":85568392924470001,"keywords":["nocrits","nodmgspread","payload","uncletopia"],"game_id":440,"stv_port":27016,"stv_name":"Uncletopia | Sydney | 1 | All Maps | STV","players":[{"user_id":167,"name":"Jamie2Cool","steam_id":76561198155695809,"connected_time":1023000000000,"state":"active","ping":85},{"user_id":150,"name":"Livid","steam_id":76561198060024585,"connected_time":2287000000000,"state":"active","ping":42},{"user_id":180,"name":"Marsguard","steam_id":76561198113775091,"connected_time":51000000000,"state":"active","ping":58},{"user_id":145,"name":"Sneevil Gladiator (Level 2)","steam_id":76561198301282416,"connected_time":2638000000000,"state":"active","ping":52},{"user_id":159,"name":"Flat White","steam_id":76561198410190974,"connected_time":1519000000000,"state":"active","ping":78},{"user_id":135,"name":"BamBoozled","steam_id":76561199065491364,"connected_time":3234000000000,"state":"active","ping":69},{"user_id":177,"name":"Gasoline","steam_id":76561198879023728,"connected_time":120000000000,"state":"active","ping":93},{"user_id":155,"name":"Mr.Deathclaw","steam_id":76561198025419320,"connected_time":1979000000000,"state":"active","ping":44},{"user_id":175,"name":"Frog Friend","steam_id":76561198054505772,"connected_time":151000000000,"state":"active","ping":59},{"user_id":146,"name":"JBonesturtle","steam_id":76561199092667269,"connected_time":2625000000000,"state":"active","ping":89},{"user_id":165,"name":"L0g","steam_id":76561198127648718,"connected_time":1171000000000,"state":"active","ping":48},{"user_id":110,"name":"Jetfire","steam_id":76561198047370036,"connected_time":4929000000000,"state":"active","ping":73},{"user_id":173,"name":"bison","steam_id":76561198183851230,"connected_time":375000000000,"state":"active","ping":84},{"user_id":172,"name":"Zeron","steam_id":76561198125778202,"connected_time":466000000000,"state":"active","ping":56},{"user_id":161,"name":"first time dementia haver","steam_id":76561198083700749,"connected_time":1406000000000,"state":"active","ping":43},{"user_id":168,"name":"The Bisoneer TF2 (red)","steam_id":76561199446773766,"connected_time":938000000000,"state":"active","ping":92},{"user_id":179,"name":"TheCardboardKing (BLU)","steam_id":76561199099769110,"connected_time":68000000000,"state":"active","ping":50},{"user_id":182,"name":"BeefPuppy","steam_id":76561197971309642,"connected_time":2000000000,"state":"spawning","ping":55},{"user_id":147,"name":"Splooge Fellow","steam_id":76561198067993108,"connected_time":2527000000000,"state":"active","ping":54},{"user_id":88,"name":"itsjustmarvin77","steam_id":76561199375656301,"connected_time":6655000000000,"state":"active","ping":75},{"user_id":153,"name":"Fleetfoot","steam_id":76561198072845816,"connected_time":2123000000000,"state":"active","ping":52},{"user_id":174,"name":"Pompadouraus","steam_id":76561198327530525,"connected_time":175000000000,"state":"active","ping":75},{"user_id":170,"name":"Soop","steam_id":76561198396967853,"connected_time":659000000000,"state":"active","ping":44},{"user_id":59,"name":"Vasxus (BLU)","steam_id":76561198067733319,"connected_time":8358000000000,"state":"active","ping":67}]},{"server_id":123,"name":"Uncletopia | Sydney | 2 | All Maps","name_short":"syd-2","host":"syd-1.au.uncletopia.com","port":27025,"enabled":true,"region":"au","cc":"au","latitude":-33.865143,"longitude":151.2099,"reserved":0,"last_update":"0001-01-01T00:00:00Z","name_a2s":"Uncletopia | Sydney | 2 | All Maps","protocol":17,"map":"cp_altitude","folder":"tf","game":"Team Fortress","app_id":440,"player_count":0,"max_players":24,"Bots":0,"server_type":"Dedicated","server_os":"Linux","password":true,"vac":true,"version":"7757534","steam_id":85568392924470002,"keywords":["cp","nocrits","nodmgspread","uncletopia"],"game_id":440,"stv_port":27026,"stv_name":"Uncletopia | Sydney | 2 | All Maps | STV","players":null},{"server_id":395,"name":"Uncletopia | Sydney | 3 | All Maps","name_short":"syd-3","host":"syd-1.au.uncletopia.com","port":27035,"enabled":true,"region":"au","cc":"au","latitude":-33.865143,"longitude":151.2099,"reserved":0,"last_update":"0001-01-01T00:00:00Z","name_a2s":"Uncletopia | Sydney | 3 | All Maps","protocol":17,"map":"pl_swiftwater_final1","folder":"tf","game":"Team Fortress","app_id":440,"player_count":0,"max_players":24,"Bots":0,"server_type":"Dedicated","server_os":"Linux","password":true,"vac":true,"version":"7757534","steam_id":85568392925194467,"keywords":["nocrits","nodmgspread","payload","uncletopia"],"game_id":440,"stv_port":27036,"stv_name":"Uncletopia | Sydney | 3 | All Maps | STV","players":null},{"server_id":396,"name":"Uncletopia | Sydney | 4 | All Maps","name_short":"syd-4","host":"syd-1.au.uncletopia.com","port":27045,"enabled":true,"region":"au","cc":"au","latitude":-33.865143,"longitude":151.2099,"reserved":0,"last_update":"0001-01-01T00:00:00Z","name_a2s":"Uncletopia | Sydney | 4 | All Maps","protocol":17,"map":"koth_highpass","folder":"tf","game":"Team Fortress","app_id":440,"player_count":0,"max_players":24,"Bots":0,"server_type":"Dedicated","server_os":"Linux","password":true,"vac":true,"version":"7757534","steam_id":85568392925397958,"keywords":["cp","nocrits","nodmgspread","uncletopia"],"game_id":440,"stv_port":27046,"stv_name":"Uncletopia | Sydney | 4 | All Maps | STV","players":null},{"server_id":58,"name":"Uncletopia | Sydney | 5 | Stopwatch Beta","name_short":"syd-5","host":"syd-1.au.uncletopia.com","port":27055,"enabled":true,"region":"au","cc":"au","latitude":-33.865143,"longitude":151.2099,"reserved":0,"last_update":"0001-01-01T00:00:00Z","name_a2s":"Uncletopia | Sydney | 5 | Stopwatch Beta","protocol":17,"map":"koth_cascade","folder":"tf","game":"Team Fortress","app_id":440,"player_count":0,"max_players":24,"Bots":0,"server_type":"Dedicated","server_os":"Linux","password":true,"vac":true,"version":"7757534","steam_id":85568392925397959,"keywords":["cp","nocrits","nodmgspread","uncletopia"],"game_id":440,"stv_port":27056,"stv_name":"Uncletopia | Sydney | 5 | Stopwatch Beta | STV","players":null},{"server_id":59,"name":"Uncletopia | Sydney | 6 | Community","name_short":"syd-6","host":"syd-1.au.uncletopia.com","port":27065,"enabled":true,"region":"au","cc":"au","latitude":-33.865143,"longitude":151.2099,"reserved":0,"last_update":"0001-01-01T00:00:00Z","name_a2s":"Uncletopia | Sydney | 6 | Community","protocol":17,"map":"cp_snakewater_final1","folder":"tf","game":"Team Fortress","app_id":440,"player_count":0,"max_players":24,"Bots":0,"server_type":"Dedicated","server_os":"Linux","password":true,"vac":true,"version":"7757534","steam_id":85568392925397960,"keywords":["cp","nocrits","nodmgspread","uncletopia"],"game_id":440,"stv_port":27066,"stv_name":"Uncletopia | Sydney | 6 | Community | STV","players":null},{"server_id":49,"name":"Uncletopia | Warsaw | 1 | All Maps","name_short":"waw-1","host":"waw-1.pl.uncletopia.com","port":27015,"enabled":true,"region":"eu","cc":"pl","latitude":52.2297,"longitude":21.017532,"reserved":0,"last_update":"0001-01-01T00:00:00Z","name_a2s":"","protocol":0,"map":"","folder":"","game":"","app_id":0,"player_count":0,"max_players":0,"Bots":0,"server_type":"","server_os":"","password":false,"vac":false,"version":"","steam_id":0,"keywords":null,"game_id":0,"stv_port":0,"stv_name":"","players":null},{"server_id":50,"name":"Uncletopia | Warsaw | 2 | All Maps","name_short":"waw-2","host":"waw-1.pl.uncletopia.com","port":27025,"enabled":true,"region":"eu","cc":"pl","latitude":52.2297,"longitude":21.017532,"reserved":0,"last_update":"0001-01-01T00:00:00Z","name_a2s":"Uncletopia | Warsaw | 2 | All Maps","protocol":17,"map":"koth_viaduct","folder":"tf","game":"Team Fortress","app_id":440,"player_count":0,"max_players":24,"Bots":0,"server_type":"Dedicated","server_os":"Linux","password":true,"vac":true,"version":"7757534","steam_id":85568392925397851,"keywords":["cp","nocrits","nodmgspread","uncletopia"],"game_id":440,"stv_port":27026,"stv_name":"Uncletopia | Warsaw | 2 | All Maps | STV","players":null},{"server_id":51,"name":"Uncletopia | Warsaw | 3 | All Maps","name_short":"waw-3","host":"waw-1.pl.uncletopia.com","port":27035,"enabled":true,"region":"eu","cc":"pl","latitude":52.2297,"longitude":21.017532,"reserved":0,"last_update":"0001-01-01T00:00:00Z","name_a2s":"Uncletopia | Warsaw | 3 | All Maps","protocol":17,"map":"pl_badwater","folder":"tf","game":"Team Fortress","app_id":440,"player_count":0,"max_players":24,"Bots":0,"server_type":"Dedicated","server_os":"Linux","password":true,"vac":true,"version":"7757534","steam_id":85568392925397852,"keywords":["nocrits","nodmgspread","payload","uncletopia"],"game_id":440,"stv_port":27036,"stv_name":"Uncletopia | Warsaw | 3 | All Maps | STV","players":null},{"server_id":52,"name":"Uncletopia | Warsaw | 4 | All Maps","name_short":"waw-4","host":"waw-1.pl.uncletopia.com","port":27045,"enabled":true,"region":"eu","cc":"pl","latitude":52.2297,"longitude":21.017532,"reserved":0,"last_update":"0001-01-01T00:00:00Z","name_a2s":"Uncletopia | Warsaw | 4 | All Maps","protocol":17,"map":"koth_lakeside_final","folder":"tf","game":"Team Fortress","app_id":440,"player_count":0,"max_players":24,"Bots":0,"server_type":"Dedicated","server_os":"Linux","password":true,"vac":true,"version":"7757534","steam_id":85568392925397853,"keywords":["cp","nocrits","nodmgspread","uncletopia"],"game_id":440,"stv_port":27046,"stv_name":"Uncletopia | Warsaw | 4 | All Maps | STV","players":null},{"server_id":53,"name":"Uncletopia | Warsaw | 5 | Stopwatch Beta","name_short":"waw-5","host":"waw-1.pl.uncletopia.com","port":27055,"enabled":true,"region":"eu","cc":"pl","latitude":52.2297,"longitude":21.017532,"reserved":0,"last_update":"0001-01-01T00:00:00Z","name_a2s":"Uncletopia | Warsaw | 5 | Stopwatch Beta","protocol":17,"map":"pl_borneo","folder":"tf","game":"Team Fortress","app_id":440,"player_count":0,"max_players":24,"Bots":0,"server_type":"Dedicated","server_os":"Linux","password":true,"vac":true,"version":"7757534","steam_id":85568392925397854,"keywords":["nocrits","nodmgspread","payload","uncletopia"],"game_id":440,"stv_port":27056,"stv_name":"Uncletopia | Warsaw | 5 | Stopwatch Beta | STV","players":null},{"server_id":54,"name":"Uncletopia | Warsaw | 6 | Community","name_short":"waw-6","host":"waw-1.pl.uncletopia.com","port":27065,"enabled":true,"region":"eu","cc":"pl","latitude":52.2297,"longitude":21.017532,"reserved":0,"last_update":"0001-01-01T00:00:00Z","name_a2s":"Uncletopia | Warsaw | 6 | Community","protocol":17,"map":"koth_lakeside_final","folder":"tf","game":"Team Fortress","app_id":440,"player_count":0,"max_players":24,"Bots":0,"server_type":"Dedicated","server_os":"Linux","password":true,"vac":true,"version":"7757534","steam_id":85568392925397856,"keywords":["cp","nocrits","nodmgspread","uncletopia"],"game_id":440,"stv_port":27066,"stv_name":"Uncletopia | Warsaw | 6 | Community | STV","players":null}]}