{"status":true,"message":"","result":[{"server_id":9,"name":"Uncletopia | Atlanta | 1 | All Maps","name_short":"atl-1","host":"atl-1.us.uncletopia.com","port":27015,"enabled":true,"region":"us-east","cc":"us","latitude":33.753746,"longitude":-84.38633,"reserved":0,"last_update":"0001-01-01T00:00:00Z","name_a2s":"Uncletopia | Atlanta | 1 | All Maps","protocol":17,"map":"cp_sunshine","folder":"tf","game":"Team Fortress","app_id":440,"player_count":22,"max_players":24,"Bots":0,"server_type":"Dedicated","server_os":"Linux","password":true,"vac":true,"version":"7723704","steam_id":85568392924469982,"keywords":["cp","nocrits","nodmgspread","uncletopia"],"game_id":440,"stv_port":27016,"stv_name":"Uncletopia | Atlanta | 1 | All Maps | STV","players":[{"user_id":822,"name":"Deborp","steam_id":76561198118868430,"connected_time":1331000000000,"state":"active","ping":73},{"user_id":783,"name":"lu","steam_id":76561198080731872,"connected_time":3700000000000,"state":"active","ping":68},{"user_id":812,"name":"fuckterry","steam_id":76561198271957738,"connected_time":1787000000000,"state":"active","ping":47},{"user_id":791,"name":"Bottom Trans Cowgirl","steam_id":76561198304239680,"connected_time":2916000000000,"state":"active","ping":67},{"user_id":787,"name":"「Saint」","steam_id":76561198241943070,"connected_time":2922000000000,"state":"active","ping":72},{"user_id":788,"name":"starer","steam_id":76561199229966290,"connected_time":2919000000000,"state":"active","ping":56},{"user_id":814,"name":"Godfinger","steam_id":76561198426346549,"connected_time":1737000000000,"state":"active","ping":70},{"user_id":815,"name":"The Builder","steam_id":76561198093432863,"connected_time":1724000000000,"state":"active","ping":69},{"user_id":834,"name":"rose","steam_id":76561198048882285,"connected_time":126000000000,"state":"active","ping":59},{"user_id":827,"name":"NIGHTGAMER7","steam_id":76561198079419562,"connected_time":1151000000000,"state":"active","ping":61},{"user_id":823,"name":"Noisgamer02","steam_id":76561198129665722,"connected_time":1317000000000,"state":"active","ping":84},{"user_id":818,"name":"the weed santa","steam_id":76561198114603745,"connected_time":1521000000000,"state":"active","ping":103},{"user_id":819,"name":"melvyn","steam_id":76561198113226381,"connected_time":1491000000000,"state":"active","ping":56},{"user_id":832,"name":"Discourse","steam_id":76561198984286678,"connected_time":729000000000,"state":"active","ping":66},{"user_id":833,"name":"valtiel","steam_id":76561198165212575,"connected_time":490000000000,"state":"active","ping":79},{"user_id":829,"name":"atlas","steam_id":76561198184893754,"connected_time":1081000000000,"state":"active","ping":61},{"user_id":786,"name":"Jin","steam_id":76561198119873148,"connected_time":3362000000000,"state":"active","ping":63},{"user_id":799,"name":"Wee Bitty Bit","steam_id":76561198099453083,"connected_time":2735000000000,"state":"active","ping":68},{"user_id":835,"name":"festivities","steam_id":76561198069407799,"connected_time":118000000000,"state":"active","ping":45},{"user_id":825,"name":"joethefool","steam_id":76561199015436319,"connected_time":1242000000000,"state":"active","ping":67},{"user_id":836,"name":"ZombieRaichu","steam_id":76561198173250571,"connected_time":4000000000,"state":"spawning","ping":82},{"user_id":828,"name":"keffers | Chrimbus Time","steam_id":76561198202338796,"connected_time":1144000000000,"state":"active","ping":106}]},{"server_id":400,"name":"Uncletopia | Atlanta | 3 | All Maps","name_short":"atl-3","host":"atl-1.us.uncletopia.com","port":27035,"enabled":true,"region":"us-east","cc":"us","latitude":33.753746,"longitude":-84.38633,"reserved":0,"last_update":"0001-01-01T00:00:00Z","name_a2s":"Uncletopia | Atlanta | 3 | All Maps","protocol":17,"map":"pl_snowycoast","folder":"tf","game":"Team Fortress","app_id":440,"player_count":17,"max_players":24,"Bots":0,"server_type":"Dedicated","server_os":"Linux","password":true,"vac":true,"version":"7723704","steam_id":85568392924515187,"keywords":["nocrits","nodmgspread","payload","uncletopia"],"game_id":440,"stv_port":27036,"stv_name":"Uncletopia | Atlanta | 3 | All Maps | STV","players":[{"user_id":424,"name":"Monkey","steam_id":76561198031015186,"connected_time":1733000000000,"state":"active","ping":65},{"user_id":441,"name":"Pan Piotr","steam_id":76561198140016126,"connected_time":10000000000,"state":"spawning","ping":175},{"user_id":427,"name":"Vladikr1","steam_id":76561198401495362,"connected_time":1694000000000,"state":"active","ping":74},{"user_id":425,"name":"merry trapmas","steam_id":76561198402801140,"connected_time":1733000000000,"state":"active","ping":96},{"user_id":407,"name":"Battery","steam_id":76561199053078059,"connected_time":2350000000000,"state":"active","ping":82},{"user_id":436,"name":"The Grim Heaper","steam_id":76561197987759101,"connected_time":831000000000,"state":"active","ping":112},{"user_id":406,"name":"brian emo","steam_id":76561198109901138,"connected_time":2455000000000,"state":"active","ping":90},{"user_id":437,"name":"Gentlegen","steam_id":76561198257368619,"connected_time":831000000000,"state":"active","ping":56},{"user_id":428,"name":"Yoshimelon","steam_id":76561198253054325,"connected_time":1679000000000,"state":"active","ping":61},{"user_id":429,"name":"{[F.H]} Hydroida","steam_id":76561197999797274,"connected_time":1630000000000,"state":"active","ping":70},{"user_id":440,"name":"pelicAn","steam_id":76561197963422599,"connected_time":195000000000,"state":"active","ping":53},{"user_id":408,"name":"Aniz","steam_id":76561199226665024,"connected_time":2269000000000,"state":"active","ping":146},{"user_id":435,"name":"The Assistant Regional Manager","steam_id":76561199221484936,"connected_time":1433000000000,"state":"active","ping":111},{"user_id":439,"name":"For Mother Russia","steam_id":76561198078311469,"connected_time":512000000000,"state":"active","ping":61},{"user_id":418,"name":"MIRAESASINTENTALASRESBALONESAH","steam_id":76561198021308963,"connected_time":1881000000000,"state":"active","ping":75},{"user_id":417,"name":"Fisherman","steam_id":76561198071026825,"connected_time":1907000000000,"state":"active","ping":49},{"user_id":421,"name":"Parpa","steam_id":76561198066252787,"connected_time":1843000000000,"state":"active","ping":90}]},{"server_id":401,"name":"Uncletopia | Atlanta | 4 | No Payload","name_short":"atl-4","host":"atl-1.us.uncletopia.com","port":27045,"enabled":true,"region":"us-east","cc":"us","latitude":33.753746,"longitude":-84.38633,"reserved":0,"last_update":"0001-01-01T00:00:00Z","name_a2s":"Uncletopia | Atlanta | 4 | No Payload","protocol":17,"map":"cp_well","folder":"tf","game":"Team Fortress","app_id":440,"player_count":0,"max_players":24,"Bots":0,"server_type":"Dedicated","server_os":"Linux","password":true,"vac":true,"version":"7723704","steam_id":85568392924515188,"keywords":["cp","nocrits","nodmgspread","uncletopia"],"game_id":440,"stv_port":27046,"stv_name":"Uncletopia | Atlanta | 4 | No Payload | STV","players":null},{"server_id":2,"name":"Uncletopia | Chicago | 1 | All Maps","name_short":"chi-1","host":"chi-1.us.uncletopia.com","port":27015,"enabled":true,"region":"us-central","cc":"us","latitude":41.881832,"longitude":-87.62318,"reserved":0,"last_update":"0001-01-01T00:00:00Z","name_a2s":"Uncletopia | Chicago | 1 | All Maps","protocol":17,"map":"cp_altitude","folder":"tf","game":"Team Fortress","app_id":440,"player_count":0,"max_players":24,"Bots":0,"server_type":"Dedicated","server_os":"Linux","password":true,"vac":true,"version":"7723704","steam_id":85568392924469984,"keywords":["cp","nocrits","nodmgspread","uncletopia"],"game_id":440,"stv_port":27016,"stv_name":"Uncletopia | Chicago | 1 | All Maps | STV","players":null},{"server_id":106,"name":"Uncletopia | Chicago | 2 | All Maps","name_short":"chi-2","host":"chi-1.us.uncletopia.com","port":27025,"enabled":true,"region":"us-central","cc":"us","latitude":41.881832,"longitude":-87.62318,"reserved":0,"last_update":"0001-01-01T00:00:00Z","name_a2s":"Uncletopia | Chicago | 2 | All Maps","protocol":17,"map":"cp_snakewater_final1","folder":"tf","game":"Team Fortress","app_id":440,"player_count":0,"max_players":24,"Bots":0,"server_type":"Dedicated","server_os":"Linux","password":true,"vac":true,"version":"7723704","steam_id":85568392924469985,"keywords":["cp","nocrits","nodmgspread","uncletopia"],"game_id":440,"stv_port":27026,"stv_name":"Uncletopia | Chicago | 2 | All Maps | STV","players":null},{"server_id":402,"name":"Uncletopia | Chicago | 3 | All Maps","name_short":"chi-3","host":"chi-1.us.uncletopia.com","port":27035,"enabled":true,"region":"us-central","cc":"us","latitude":41.881832,"longitude":-87.62318,"reserved":0,"last_update":"0001-01-01T00:00:00Z","name_a2s":"Uncletopia | Chicago | 3 | All Maps","protocol":17,"map":"pl_frontier_final","folder":"tf","game":"Team Fortress","app_id":440,"player_count":0,"max_players":24,"Bots":0,"server_type":"Dedicated","server_os":"Linux","password":true,"vac":true,"version":"7723704","steam_id":85568392924515191,"keywords":["nocrits","nodmgspread","payload","uncletopia"],"game_id":440,"stv_port":27036,"stv_name":"Uncletopia | Chicago | 3 | All Maps | STV","players":null},{"server_id":403,"name":"Uncletopia | Chicago | 4 | All Maps","name_short":"chi-4","host":"chi-1.us.uncletopia.com","port":27045,"enabled":true,"region":"us-central","cc":"us","latitude":41.881832,"longitude":-87.62318,"reserved":0,"last_update":"0001-01-01T00:00:00Z","name_a2s":"Uncletopia | Chicago | 4 | All Maps","protocol":17,"map":"koth_viaduct","folder":"tf","game":"Team Fortress","app_id":440,"player_count":2,"max_players":24,"Bots":0,"server_type":"Dedicated","server_os":"Linux","password":true,"vac":true,"version":"7723704","steam_id":85568392924515193,"keywords":["cp","nocrits","nodmgspread","uncletopia"],"game_id":440,"stv_port":27046,"stv_name":"Uncletopia | Chicago | 4 | All Maps | STV","players":[{"user_id":752,"name":"LubeyLion","steam_id":76561198062454098,"connected_time":838000000000,"state":"active","ping":42},{"user_id":753,"name":"Hue","steam_id":76561198081253596,"connected_time":583000000000,"state":"active","ping":79}]},{"server_id":36,"name":"Uncletopia | Chicago | 5 | All Maps","name_short":"chi-5","host":"chi-2.us.uncletopia.com","port":27015,"enabled":true,"region":"us-central","cc":"us","latitude":41.881832,"longitude":-87.62318,"reserved":0,"last_update":"0001-01-01T00:00:00Z","name_a2s":"Uncletopia | Chicago | 5 | All Maps","protocol":17,"map":"pl_swiftwater_final1","folder":"tf","game":"Team Fortress","app_id":440,"player_count":24,"max_players":24,"Bots":0,"server_type":"Dedicated","server_os":"Linux","password":true,"vac":true,"version":"7723704","steam_id":85568392924866362,"keywords":["nocrits","nodmgspread","payload","uncletopia"],"game_id":440,"stv_port":27016,"stv_name":"Uncletopia | Chicago | 5 | All Maps | STV","players":[{"user_id":402,"name":"a shrieking cloud of bats","steam_id":76561198151363063,"connected_time":1700000000000,"state":"active","ping":69},{"user_id":396,"name":"Punished Shitster","steam_id":76561198150452857,"connected_time":2330000000000,"state":"active","ping":70},{"user_id":414,"name":"grey","steam_id":76561198050618142,"connected_time":1084000000000,"state":"active","ping":89},{"user_id":416,"name":"Zuexs","steam_id":76561198058846144,"connected_time":838000000000,"state":"active","ping":113},{"user_id":343,"name":"Apetometrist","steam_id":76561198045391635,"connected_time":6656000000000,"state":"active","ping":58},{"user_id":393,"name":"Inevitable","steam_id":76561198210050169,"connected_time":2530000000000,"state":"active","ping":63},{"user_id":353,"name":"Vitic","steam_id":76561198065971852,"connected_time":5919000000000,"state":"active","ping":113},{"user_id":386,"name":"san andreas police deparetment","steam_id":76561198411414903,"connected_time":3504000000000,"state":"active","ping":69},{"user_id":407,"name":"kev","steam_id":76561198046412946,"connected_time":1556000000000,"state":"active","ping":61},{"user_id":376,"name":"neonblack","steam_id":76561198060316801,"connected_time":3803000000000,"state":"active","ping":70},{"user_id":419,"name":"C∅RVUS","steam_id":76561198100640019,"connected_time":456000000000,"state":"active","ping":120},{"user_id":387,"name":"Hagor","steam_id":76561198069259686,"connected_time":3265000000000,"state":"active","ping":65},{"user_id":406,"name":"Novalmfao","steam_id":76561199149319743,"connected_time":1637000000000,"state":"active","ping":65},{"user_id":409,"name":"tokemaster69","steam_id":76561198083996924,"connected_time":1495000000000,"state":"active","ping":69},{"user_id":398,"name":"reis","steam_id":76561199232952016,"connected_time":2005000000000,"state":"active","ping":180},{"user_id":380,"name":"Aqua UwU","steam_id":76561198108784167,"connected_time":3627000000000,"state":"active","ping":48},{"user_id":381,"name":"Wintry_Fox","steam_id":76561198354118685,"connected_time":3605000000000,"state":"active","ping":63},{"user_id":400,"name":"Bap","steam_id":76561198071567126,"connected_time":1836000000000,"state":"active","ping":120},{"user_id":361,"name":"Sun Paladin","steam_id":76561198093533968,"connected_time":5510000000000,"state":"active","ping":108},{"user_id":385,"name":"i hate ui updates","steam_id":76561198145613915,"connected_time":3524000000000,"state":"active","ping":105},{"user_id":421,"name":"exotic","steam_id":76561198126466112,"connected_time":15000000000,"state":"active","ping":88},{"user_id":411,"name":"stop","steam_id":76561198268686419,"connected_time":1470000000000,"state":"active","ping":61},{"user_id":417,"name":"Cambonieboo","steam_id":76561198139174433,"connected_time":664000000000,"state":"active","ping":98},{"user_id":383,"name":"pakispot","steam_id":76561198860676239,"connected_time":3599000000000,"state":"active","ping":105}]},{"server_id":37,"name":"Uncletopia | Chicago | 6 | All Maps","name_short":"chi-6","host":"chi-2.us.uncletopia.com","port":27025,"enabled":true,"region":"us-central","cc":"us","latitude":41.881832,"longitude":-87.62318,"reserved":0,"last_update":"0001-01-01T00:00:00Z","name_a2s":"Uncletopia | Chicago | 6 | All Maps","protocol":17,"map":"koth_cascade","folder":"tf","game":"Team Fortress","app_id":440,"player_count":0,"max_players":24,"Bots":0,"server_type":"Dedicated","server_os":"Linux","password":true,"vac":true,"version":"7723704","steam_id":85568392924866363,"keywords":["cp","nocrits","nodmgspread","uncletopia"],"game_id":440,"stv_port":27026,"stv_name":"Uncletopia | Chicago | 6 | All Maps | STV","players":null},{"server_id":38,"name":"Uncletopia | Chicago | 7 | Stopwatch (test)","name_short":"chi-7","host":"chi-2.us.uncletopia.com","port":27035,"enabled":true,"region":"us-central","cc":"us","latitude":41.881832,"longitude":-87.62318,"reserved":0,"last_update":"0001-01-01T00:00:00Z","name_a2s":"Uncletopia | Chicago | 7 | Stopwatch (test)","protocol":17,"map":"workshop/koth_clearcut_b15.ugc2107050255","folder":"tf","game":"Team Fortress","app_id":440,"player_count":0,"max_players":24,"Bots":0,"server_type":"Dedicated","server_os":"Linux","password":true,"vac":true,"version":"7723704","steam_id":85568392924866364,"keywords":["cp","nocrits","nodmgspread","uncletopia"],"game_id":440,"stv_port":27036,"stv_name":"Uncletopia | Chicago | 7 | Stopwatch (test) | STV","players":null},{"server_id":39,"name":"Uncletopia | Chicago | 8 | Community","name_short":"chi-8","host":"chi-2.us.uncletopia.com","port":27045,"enabled":true,"region":"us-central","cc":"us","latitude":41.881832,"longitude":-87.62318,"reserved":0,"last_update":"0001-01-01T00:00:00Z","name_a2s":"Uncletopia | Chicago | 8 | Community","protocol":17,"map":"workshop/cp_sulfur_rc2.ugc619869471","folder":"tf","game":"Team Fortress","app_id":440,"player_count":0,"max_players":24,"Bots":0,"server_type":"Dedicated","server_os":"Linux","password":true,"vac":true,"version":"7723704","steam_id":85568392924866365,"keywords":["cp","nocrits","nodmgspread","uncletopia"],"game_id":440,"stv_port":27046,"stv_name":"Uncletopia | Chicago | 8 | Community | STV","players":null},{"server_id":8,"name":"Uncletopia | Dallas | 1 | All Maps","name_short":"dal-1","host":"dal-1.us.uncletopia.com","port":27015,"enabled":true,"region":"us-central","cc":"us","latitude":32.779167,"longitude":-96.80889,"reserved":0,"last_update":"0001-01-01T00:00:00Z","name_a2s":"Uncletopia | Dallas | 1 | All Maps","protocol":17,"map":"koth_cascade","folder":"tf","game":"Team Fortress","app_id":440,"player_count":0,"max_players":24,"Bots":0,"server_type":"Dedicated","server_os":"Linux","password":true,"vac":true,"version":"7723704","steam_id":85568392924469986,"keywords":["cp","nocrits","nodmgspread","uncletopia"],"game_id":440,"stv_port":27016,"stv_name":"Uncletopia | Dallas | 1 | All Maps | STV","players":null},{"server_id":108,"name":"Uncletopia | Dallas | 2 | All Maps","name_short":"dal-2","host":"dal-1.us.uncletopia.com","port":27025,"enabled":true,"region":"us-central","cc":"us","latitude":32.779167,"longitude":-96.80889,"reserved":0,"last_update":"0001-01-01T00:00:00Z","name_a2s":"Uncletopia | Dallas | 2 | All Maps","protocol":17,"map":"pl_wutville_event","folder":"tf","game":"Team Fortress","app_id":440,"player_count":8,"max_players":24,"Bots":0,"server_type":"Dedicated","server_os":"Linux","password":true,"vac":true,"version":"7723704","steam_id":85568392924469988,"keywords":["nocrits","nodmgspread","payload","uncletopia"],"game_id":440,"stv_port":27026,"stv_name":"Uncletopia | Dallas | 2 | All Maps | STV","players":[{"user_id":570,"name":"grape","steam_id":76561198150447896,"connected_time":12000000000,"state":"spawning","ping":89},{"user_id":566,"name":"bruh","steam_id":76561198120421485,"connected_time":696000000000,"state":"active","ping":60},{"user_id":568,"name":"Plains Phoenix","steam_id":76561198817161299,"connected_time":350000000000,"state":"active","ping":45},{"user_id":569,"name":"Daft Bonk","steam_id":76561198072862763,"connected_time":336000000000,"state":"active","ping":37},{"user_id":482,"name":"Fantastic","steam_id":76561198079088978,"connected_time":6346000000000,"state":"active","ping":53},{"user_id":549,"name":"kingofcans","steam_id":76561198119750339,"connected_time":2445000000000,"state":"active","ping":69},{"user_id":485,"name":"Yeshie the Dragon Layer","steam_id":76561198080214214,"connected_time":6299000000000,"state":"active","ping":63},{"user_id":536,"name":"the smiling zombie","steam_id":76561199246231090,"connected_time":2878000000000,"state":"active","ping":69}]},{"server_id":5,"name":"Uncletopia | Frankfurt | 1 | All Maps","name_short":"frk-1","host":"frk-1.de.uncletopia.com","port":27015,"enabled":true,"region":"eu","cc":"de","latitude":50.110924,"longitude":8.682127,"reserved":0,"last_update":"0001-01-01T00:00:00Z","name_a2s":"Uncletopia | Frankfurt | 1 | All Maps","protocol":17,"map":"koth_lakeside_final","folder":"tf","game":"Team Fortress","app_id":440,"player_count":0,"max_players":24,"Bots":0,"server_type":"Dedicated","server_os":"Linux","password":true,"vac":true,"version":"7723704","steam_id":85568392924469989,"keywords":["cp","nocrits","nodmgspread","uncletopia"],"game_id":440,"stv_port":27016,"stv_name":"Uncletopia | Frankfurt | 1 | All Maps | STV","players":null},{"server_id":110,"name":"Uncletopia | Frankfurt | 2 | All Maps","name_short":"frk-2","host":"frk-1.de.uncletopia.com","port":27025,"enabled":true,"region":"eu","cc":"de","latitude":50.110924,"longitude":8.682127,"reserved":0,"last_update":"0001-01-01T00:00:00Z","name_a2s":"Uncletopia | Frankfurt | 2 | All Maps","protocol":17,"map":"pl_pier","folder":"tf","game":"Team Fortress","app_id":440,"player_count":0,"max_players":24,"Bots":0,"server_type":"Dedicated","server_os":"Linux","password":true,"vac":true,"version":"7723704","steam_id":85568392924469990,"keywords":["nocrits","nodmgspread","payload","uncletopia"],"game_id":440,"stv_port":27026,"stv_name":"Uncletopia | Frankfurt | 2 | All Maps | STV","players":null},{"server_id":308,"name":"Uncletopia | Frankfurt | 3 | All Maps","name_short":"frk-3","host":"frk-1.de.uncletopia.com","port":27035,"enabled":true,"region":"eu","cc":"de","latitude":50.110924,"longitude":8.682127,"reserved":0,"last_update":"0001-01-01T00:00:00Z","name_a2s":"Uncletopia | Frankfurt | 3 | All Maps","protocol":17,"map":"pl_swiftwater_final1","folder":"tf","game":"Team Fortress","app_id":440,"player_count":0,"max_players":24,"Bots":0,"server_type":"Dedicated","server_os":"Linux","password":true,"vac":true,"version":"7723704","steam_id":85568392924504274,"keywords":["nocrits","nodmgspread","payload","uncletopia"],"game_id":440,"stv_port":27036,"stv_name":"Uncletopia | Frankfurt | 3 | All Maps | STV","players":null},{"server_id":309,"name":"Uncletopia | Frankfurt | 4 | All Maps","name_short":"frk-4","host":"frk-1.de.uncletopia.com","port":27045,"enabled":true,"region":"eu","cc":"de","latitude":50.110924,"longitude":8.682127,"reserved":0,"last_update":"0001-01-01T00:00:00Z","name_a2s":"Uncletopia | Frankfurt | 4 | All Maps","protocol":17,"map":"cp_altitude","folder":"tf","game":"Team Fortress","app_id":440,"player_count":0,"max_players":24,"Bots":0,"server_type":"Dedicated","server_os":"Linux","password":true,"vac":true,"version":"7723704","steam_id":85568392924504275,"keywords":["cp","nocrits","nodmgspread","uncletopia"],"game_id":440,"stv_port":27046,"stv_name":"Uncletopia | Frankfurt | 4 | All Maps | STV","players":null},{"server_id":310,"name":"Uncletopia | Frankfurt | 5 | All Maps","name_short":"frk-5","host":"frk-1.de.uncletopia.com","port":27055,"enabled":true,"region":"eu","cc":"de","latitude":50.110924,"longitude":8.682127,"reserved":0,"last_update":"0001-01-01T00:00:00Z","name_a2s":"Uncletopia | Frankfurt | 5 | All Maps","protocol":17,"map":"cp_process_final","folder":"tf","game":"Team Fortress","app_id":440,"player_count":0,"max_players":24,"Bots":0,"server_type":"Dedicated","server_os":"Linux","password":true,"vac":true,"version":"7723704","steam_id":85568392924504277,"keywords":["cp","nocrits","nodmgspread","uncletopia"],"game_id":440,"stv_port":27056,"stv_name":"Uncletopia | Frankfurt | 5 | All Maps | STV","players":null},{"server_id":311,"name":"Uncletopia | Frankfurt | 6 | All Maps","name_short":"frk-6","host":"frk-1.de.uncletopia.com","port":27065,"enabled":true,"region":"eu","cc":"de","latitude":50.110924,"longitude":8.682127,"reserved":0,"last_update":"0001-01-01T00:00:00Z","name_a2s":"Uncletopia | Frankfurt | 6 | All Maps","protocol":17,"map":"cp_snakewater_final1","folder":"tf","game":"Team Fortress","app_id":440,"player_count":0,"max_players":24,"Bots":0,"server_type":"Dedicated","server_os":"Linux","password":true,"vac":true,"version":"7723704","steam_id":85568392924504278,"keywords":["cp","nocrits","nodmgspread","uncletopia"],"game_id":440,"stv_port":27066,"stv_name":"Uncletopia | Frankfurt | 6 | All Maps | STV","players":null},{"server_id":23,"name":"Uncletopia | Frankfurt | 7 | No Payload","name_short":"frk-7","host":"frk-1.de.uncletopia.com","port":27075,"enabled":true,"region":"eu","cc":"de","latitude":50.110924,"longitude":8.682127,"reserved":0,"last_update":"0001-01-01T00:00:00Z","name_a2s":"Uncletopia | Frankfurt | 7 | No Payload","protocol":17,"map":"pl_upward","folder":"tf","game":"Team Fortress","app_id":440,"player_count":0,"max_players":24,"Bots":0,"server_type":"Dedicated","server_os":"Linux","password":true,"vac":true,"version":"7723704","steam_id":85568392924742827,"keywords":["nocrits","nodmgspread","payload","uncletopia"],"game_id":440,"stv_port":27076,"stv_name":"Uncletopia | Frankfurt | 7 | No Payload | STV","players":null},{"server_id":24,"name":"Uncletopia | Frankfurt | 8 | Community","name_short":"frk-8","host":"frk-1.de.uncletopia.com","port":27085,"enabled":true,"region":"eu","cc":"de","latitude":50.110924,"longitude":8.682127,"reserved":0,"last_update":"0001-01-01T00:00:00Z","name_a2s":"Uncletopia | Frankfurt | 8 | Community","protocol":17,"map":"workshop/koth_ramjam_v2_b2.ugc2865676487","folder":"tf","game":"Team Fortress","app_id":440,"player_count":0,"max_players":24,"Bots":0,"server_type":"Dedicated","server_os":"Linux","password":true,"vac":true,"version":"7723704","steam_id":85568392924742828,"keywords":["cp","nocrits","nodmgspread","uncletopia"],"game_id":440,"stv_port":27086,"stv_name":"Uncletopia | Frankfurt | 8 | Community | STV","players":null},{"server_id":202,"name":"Uncletopia | Hong Kong | 1 | All Maps","name_short":"hgk-1","host":"hgk-1.hk.uncletopia.com","port":27015,"enabled":true,"region":"asia","cc":"hk","latitude":22.302711,"longitude":114.177216,"reserved":0,"last_update":"0001-01-01T00:00:00Z","name_a2s":"Uncletopia | Hong Kong | 1 | All Maps","protocol":17,"map":"koth_sawmill","folder":"tf","game":"Team Fortress","app_id":440,"player_count":22,"max_players":24,"Bots":0,"server_type":"Dedicated","server_os":"Linux","password":true,"vac":true,"version":"7723704","steam_id":85568392924494504,"keywords":["cp","nocrits","nodmgspread","uncletopia"],"game_id":440,"stv_port":27016,"stv_name":"Uncletopia | Hong Kong | 1 | All Maps | STV","players":[{"user_id":40,"name":"iLikeMudrock ᗜ‸ᗜ","steam_id":76561199352285088,"connected_time":2479000000000,"state":"active","ping":71},{"user_id":75,"name":"Noyour","steam_id":76561198323259830,"connected_time":512000000000,"state":"active","ping":117},{"user_id":59,"name":"+","steam_id":76561198121311286,"connected_time":1262000000000,"state":"active","ping":171},{"user_id":68,"name":"PRing hnj  dejs","steam_id":76561198944322758,"connected_time":907000000000,"state":"active","ping":75},{"user_id":47,"name":"ducksaremean","steam_id":76561199093126935,"connected_time":1782000000000,"state":"active","ping":71},{"user_id":57,"name":"Agen1ඞ","steam_id":76561199015929817,"connected_time":1361000000000,"state":"active","ping":40},{"user_id":58,"name":"Raptorious","steam_id":76561199001335640,"connected_time":1355000000000,"state":"active","ping":88},{"user_id":60,"name":"LEGS","steam_id":76561199111623890,"connected_time":1228000000000,"state":"active","ping":76},{"user_id":66,"name":"bakabazooka(merrychrismas)","steam_id":76561198061628689,"connected_time":1036000000000,"state":"active","ping":47},{"user_id":62,"name":"Fluffy","steam_id":76561198316671856,"connected_time":1116000000000,"state":"active","ping":98},{"user_id":64,"name":"Nonexistent","steam_id":76561198980563251,"connected_time":1093000000000,"state":"active","ping":84},{"user_id":67,"name":"Scrumpy Dingle Berries","steam_id":76561198404523697,"connected_time":992000000000,"state":"spawning","ping":97},{"user_id":70,"name":"Sharp Shootin' Noid","steam_id":76561199096986019,"connected_time":772000000000,"state":"active","ping":80},{"user_id":71,"name":"scout vs tracer rap battle","steam_id":76561199107596818,"connected_time":627000000000,"state":"active","ping":114},{"user_id":72,"name":"oh shit i m sorry","steam_id":76561198307556869,"connected_time":558000000000,"state":"active","ping":41},{"user_id":80,"name":"im_0ff","steam_id":76561198339346695,"connected_time":357000000000,"state":"active","ping":122},{"user_id":76,"name":"it chrmis time","steam_id":76561198055553140,"connected_time":507000000000,"state":"active","ping":119},{"user_id":77,"name":"godhood","steam_id":76561198412329672,"connected_time":500000000000,"state":"active","ping":90},{"user_id":81,"name":"literally just a car","steam_id":76561199020600466,"connected_time":311000000000,"state":"spawning","ping":149},{"user_id":82,"name":"CACAPOOPOOPEEPEESHIRE","steam_id":76561199174449723,"connected_time":226000000000,"state":"active","ping":82},{"user_id":83,"name":"DC","steam_id":76561198837122605,"connected_time":180000000000,"state":"active","ping":54},{"user_id":84,"name":"zxcvbnm","steam_id":76561198866884809,"connected_time":69000000000,"state":"active","ping":176}]},{"server_id":1,"name":"Uncletopia | Los Angeles | 1 | All Maps","name_short":"lax-1","host":"lax-1.us.uncletopia.com","port":27015,"enabled":true,"region":"us-west","cc":"us","latitude":33.94279,"longitude":-118.41004,"reserved":0,"last_update":"0001-01-01T00:00:00Z","name_a2s":"Uncletopia | Los Angeles | 1 | All Maps","protocol":17,"map":"pl_swiftwater_final1","folder":"tf","game":"Team Fortress","app_id":440,"player_count":24,"max_players":24,"Bots":0,"server_type":"Dedicated","server_os":"Linux","password":true,"vac":true,"version":"7723704","steam_id":85568392924469991,"keywords":["nocrits","nodmgspread","payload","uncletopia"],"game_id":440,"stv_port":27016,"stv_name":"Uncletopia | Los Angeles | 1 | All Maps | STV","players":[{"user_id":348,"name":"Bär","steam_id":76561198072172678,"connected_time":469000000000,"state":"active","ping":74},{"user_id":349,"name":"XxChocola20xX","steam_id":76561199108579557,"connected_time":456000000000,"state":"active","ping":59},{"user_id":346,"name":"Squatter1","steam_id":76561198078987734,"connected_time":554000000000,"state":"active","ping":66},{"user_id":350,"name":"karbomb","steam_id":76561198120744480,"connected_time":346000000000,"state":"active","ping":75},{"user_id":347,"name":"Fox Jr banditcamp.com","steam_id":76561198033497191,"connected_time":515000000000,"state":"active","ping":75},{"user_id":357,"name":"Drive-By-Fish-Guy","steam_id":76561198105513652,"connected_time":275000000000,"state":"active","ping":56},{"user_id":341,"name":"Bob the Builder","steam_id":76561199069029812,"connected_time":825000000000,"state":"active","ping":122},{"user_id":327,"name":"Jacasola","steam_id":76561198055460402,"connected_time":1977000000000,"state":"active","ping":50},{"user_id":352,"name":"DooM","steam_id":76561198209881263,"connected_time":329000000000,"state":"active","ping":58},{"user_id":353,"name":"CheeseCake488","steam_id":76561199407617942,"connected_time":326000000000,"state":"active","ping":96},{"user_id":315,"name":"Super Mighty G","steam_id":76561198020932806,"connected_time":2622000000000,"state":"active","ping":46},{"user_id":302,"name":"vibin323","steam_id":76561198371660675,"connected_time":3585000000000,"state":"active","ping":46},{"user_id":345,"name":"タケシ","steam_id":76561198052397636,"connected_time":620000000000,"state":"active","ping":103},{"user_id":354,"name":"U LEE","steam_id":76561198008715362,"connected_time":322000000000,"state":"active","ping":63},{"user_id":337,"name":"mañ","steam_id":76561199179477466,"connected_time":1056000000000,"state":"active","ping":53},{"user_id":335,"name":"BrightOrangeMango","steam_id":76561198023144607,"connected_time":1294000000000,"state":"active","ping":57},{"user_id":333,"name":"Soap Man","steam_id":76561198000490235,"connected_time":1711000000000,"state":"active","ping":96},{"user_id":318,"name":"raya","steam_id":76561198051504581,"connected_time":2157000000000,"state":"active","ping":77},{"user_id":356,"name":"everythingrhymeswithorange","steam_id":76561198010306193,"connected_time":296000000000,"state":"active","ping":58},{"user_id":321,"name":"LazyDoll","steam_id":76561198053186338,"connected_time":2050000000000,"state":"active","ping":55},{"user_id":322,"name":"Murk Wahlberg","steam_id":76561198131467867,"connected_time":2024000000000,"state":"active","ping":44},{"user_id":334,"name":"spot","steam_id":76561198151135298,"connected_time":1329000000000,"state":"active","ping":31},{"user_id":304,"name":"taishang","steam_id":76561198065328284,"connected_time":3556000000000,"state":"active","ping":51},{"user_id":358,"name":"jrmadmallard","steam_id":76561198275994616,"connected_time":268000000000,"state":"active","ping":103}]},{"server_id":112,"name":"Uncletopia | Los Angeles | 2 | All Maps","name_short":"lax-2","host":"lax-1.us.uncletopia.com","port":27025,"enabled":true,"region":"us-west","cc":"us","latitude":33.94279,"longitude":-118.41004,"reserved":0,"last_update":"0001-01-01T00:00:00Z","name_a2s":"Uncletopia | Los Angeles | 2 | All Maps","protocol":17,"map":"pl_barnblitz","folder":"tf","game":"Team Fortress","app_id":440,"player_count":0,"max_players":24,"Bots":0,"server_type":"Dedicated","server_os":"Linux","password":true,"vac":true,"version":"7723704","steam_id":85568392924469992,"keywords":["nocrits","nodmgspread","payload","uncletopia"],"game_id":440,"stv_port":27026,"stv_name":"Uncletopia | Los Angeles | 2 | All Maps | STV","players":null},{"server_id":324,"name":"Uncletopia | Los Angeles | 3 | All Maps","name_short":"lax-3","host":"lax-1.us.uncletopia.com","port":27035,"enabled":true,"region":"us-west","cc":"us","latitude":33.94279,"longitude":-118.41004,"reserved":0,"last_update":"0001-01-01T00:00:00Z","name_a2s":"Uncletopia | Los Angeles | 3 | All Maps","protocol":17,"map":"ctf_well","folder":"tf","game":"Team Fortress","app_id":440,"player_count":0,"max_players":24,"Bots":0,"server_type":"Dedicated","server_os":"Linux","password":true,"vac":true,"version":"7723704","steam_id":85568392924510198,"keywords":["ctf","nocrits","nodmgspread","uncletopia"],"game_id":440,"stv_port":27036,"stv_name":"Uncletopia | Los Angeles | 3 | All Maps | STV","players":null},{"server_id":25,"name":"Uncletopia | Los Angeles | 4 | No Payload","name_short":"lax-4","host":"lax-1.us.uncletopia.com","port":27045,"enabled":true,"region":"us-west","cc":"us","latitude":33.94279,"longitude":-118.41004,"reserved":0,"last_update":"0001-01-01T00:00:00Z","name_a2s":"Uncletopia | Los Angeles | 4 | No Payload","protocol":17,"map":"cp_altitude","folder":"tf","game":"Team Fortress","app_id":440,"player_count":0,"max_players":24,"Bots":0,"server_type":"Dedicated","server_os":"Linux","password":true,"vac":true,"version":"7723704","steam_id":85568392924510199,"keywords":["cp","nocrits","nodmgspread","uncletopia"],"game_id":440,"stv_port":27046,"stv_name":"Uncletopia | Los Angeles | 4 | No Payload | STV","players":null},{"server_id":11,"name":"Uncletopia | London | 1 | All Maps","name_short":"lon-1","host":"lon-1.uk.uncletopia.com","port":27015,"enabled":true,"region":"eu","cc":"gb","latitude":51.509865,"longitude":-0.118092,"reserved":0,"last_update":"0001-01-01T00:00:00Z","name_a2s":"Uncletopia | London | 1 | All Maps","protocol":17,"map":"koth_viaduct","folder":"tf","game":"Team Fortress","app_id":440,"player_count":0,"max_players":24,"Bots":0,"server_type":"Dedicated","server_os":"Linux","password":true,"vac":true,"version":"7723704","steam_id":85568392924367362,"keywords":["cp","nocrits","nodmgspread","uncletopia"],"game_id":440,"stv_port":27016,"stv_name":"Uncletopia | London | 1 | All Maps | STV","players":null},{"server_id":114,"name":"Uncletopia | London | 2 | All Maps","name_short":"lon-2","host":"lon-1.uk.uncletopia.com","port":27025,"enabled":true,"region":"eu","cc":"gb","latitude":51.509865,"longitude":-0.118092,"reserved":0,"last_update":"0001-01-01T00:00:00Z","name_a2s":"Uncletopia | London | 2 | All Maps","protocol":17,"map":"pl_badwater","folder":"tf","game":"Team Fortress","app_id":440,"player_count":24,"max_players":24,"Bots":0,"server_type":"Dedicated","server_os":"Linux","password":true,"vac":true,"version":"7723704","steam_id":85568392924470941,"keywords":["nocrits","nodmgspread","payload","uncletopia"],"game_id":440,"stv_port":27026,"stv_name":"Uncletopia | London | 2 | All Maps | STV","players":[{"user_id":3,"name":"Fortezza","steam_id":76561198972539903,"connected_time":4384000000000,"state":"active","ping":62},{"user_id":46,"name":"StarWeevil","steam_id":76561198397028843,"connected_time":1832000000000,"state":"active","ping":159},{"user_id":5,"name":"dorak","steam_id":76561198818037965,"connected_time":4380000000000,"state":"active","ping":106},{"user_id":43,"name":"wieto","steam_id":76561198050626427,"connected_time":1938000000000,"state":"active","ping":67},{"user_id":19,"name":"WAY TO GO PALLY!","steam_id":76561199047091377,"connected_time":3811000000000,"state":"active","ping":52},{"user_id":47,"name":"zoro","steam_id":76561198083657017,"connected_time":1811000000000,"state":"active","ping":87},{"user_id":9,"name":"sokros","steam_id":76561198084082945,"connected_time":4362000000000,"state":"active","ping":62},{"user_id":55,"name":"Losty","steam_id":76561198453240974,"connected_time":1323000000000,"state":"active","ping":193},{"user_id":27,"name":"engie?","steam_id":76561198331852832,"connected_time":2845000000000,"state":"active","ping":92},{"user_id":61,"name":"Mex","steam_id":76561198108279631,"connected_time":601000000000,"state":"active","ping":78},{"user_id":56,"name":"sanji","steam_id":76561198028444359,"connected_time":1251000000000,"state":"active","ping":56},{"user_id":16,"name":"dairy","steam_id":76561198117033273,"connected_time":4174000000000,"state":"active","ping":59},{"user_id":17,"name":"rwota","steam_id":76561198385769722,"connected_time":4171000000000,"state":"active","ping":117},{"user_id":25,"name":"No talk to me, me angy","steam_id":76561198250257780,"connected_time":3051000000000,"state":"active","ping":161},{"user_id":63,"name":"Ryuuk","steam_id":76561197993018949,"connected_time":461000000000,"state":"active","ping":70},{"user_id":45,"name":"madman hesus","steam_id":76561198159702599,"connected_time":1862000000000,"state":"active","ping":72},{"user_id":38,"name":"weed fairy","steam_id":76561197998843096,"connected_time":2190000000000,"state":"active","ping":88},{"user_id":60,"name":"bucket of chicken","steam_id":76561198846784757,"connected_time":660000000000,"state":"active","ping":52},{"user_id":40,"name":"САНЯ ВОДІЛА","steam_id":76561198343380238,"connected_time":2149000000000,"state":"active","ping":77},{"user_id":51,"name":"val","steam_id":76561198324316160,"connected_time":1666000000000,"state":"active","ping":57},{"user_id":52,"name":"Iru","steam_id":76561198077602040,"connected_time":1662000000000,"state":"active","ping":60},{"user_id":53,"name":"Shlyk","steam_id":76561198333387103,"connected_time":1578000000000,"state":"active","ping":105},{"user_id":54,"name":"DOktor_STraus_","steam_id":76561199439664697,"connected_time":1553000000000,"state":"active","ping":163},{"user_id":64,"name":"heff","steam_id":76561198121744206,"connected_time":425000000000,"state":"active","ping":39}]},{"server_id":320,"name":"Uncletopia | London | 3 | All Maps","name_short":"lon-3","host":"lon-1.uk.uncletopia.com","port":27035,"enabled":true,"region":"eu","cc":"gb","latitude":51.509865,"longitude":-0.118092,"reserved":0,"last_update":"0001-01-01T00:00:00Z","name_a2s":"Uncletopia | London | 3 | All Maps","protocol":17,"map":"pl_barnblitz","folder":"tf","game":"Team Fortress","app_id":440,"player_count":0,"max_players":24,"Bots":0,"server_type":"Dedicated","server_os":"Linux","password":true,"vac":true,"version":"7723704","steam_id":85568392924510192,"keywords":["nocrits","nodmgspread","payload","uncletopia"],"game_id":440,"stv_port":27036,"stv_name":"Uncletopia | London | 3 | All Maps | STV","players":null},{"server_id":321,"name":"Uncletopia | London | 4 | All Maps","name_short":"lon-4","host":"lon-1.uk.uncletopia.com","port":27045,"enabled":true,"region":"eu","cc":"gb","latitude":51.509865,"longitude":-0.118092,"reserved":0,"last_update":"0001-01-01T00:00:00Z","name_a2s":"Uncletopia | London | 4 | All Maps","protocol":17,"map":"koth_highpass","folder":"tf","game":"Team Fortress","app_id":440,"player_count":0,"max_players":24,"Bots":0,"server_type":"Dedicated","server_os":"Linux","password":true,"vac":true,"version":"7723704","steam_id":85568392924510193,"keywords":["cp","nocrits","nodmgspread","uncletopia"],"game_id":440,"stv_port":27046,"stv_name":"Uncletopia | London | 4 | All Maps | STV","players":null},{"server_id":21,"name":"Uncletopia | London | 5 | All Maps","name_short":"lon-5","host":"lon-1.uk.uncletopia.com","port":27055,"enabled":true,"region":"eu","cc":"gb","latitude":51.509865,"longitude":-0.118092,"reserved":0,"last_update":"0001-01-01T00:00:00Z","name_a2s":"Uncletopia | London | 5 | All Maps","protocol":17,"map":"pl_badwater","folder":"tf","game":"Team Fortress","app_id":440,"player_count":0,"max_players":24,"Bots":0,"server_type":"Dedicated","server_os":"Linux","password":true,"vac":true,"version":"7723704","steam_id":85568392924742829,"keywords":["nocrits","nodmgspread","payload","uncletopia"],"game_id":440,"stv_port":27056,"stv_name":"Uncletopia | London | 5 | All Maps | STV","players":null},{"server_id":22,"name":"Uncletopia | London | 6 | All Maps","name_short":"lon-6","host":"lon-1.uk.uncletopia.com","port":27065,"enabled":true,"region":"eu","cc":"gb","latitude":51.509865,"longitude":-0.118092,"reserved":0,"last_update":"0001-01-01T00:00:00Z","name_a2s":"Uncletopia | London | 6 | All Maps","protocol":17,"map":"cp_altitude","folder":"tf","game":"Team Fortress","app_id":440,"player_count":0,"max_players":24,"Bots":0,"server_type":"Dedicated","server_os":"Linux","password":true,"vac":true,"version":"7723704","steam_id":85568392924742830,"keywords":["cp","nocrits","nodmgspread","uncletopia"],"game_id":440,"stv_port":27066,"stv_name":"Uncletopia | London | 6 | All Maps | STV","players":null},{"server_id":40,"name":"Uncletopia | London | 7 | No Payload","name_short":"lon-7","host":"lon-1.uk.uncletopia.com","port":27075,"enabled":true,"region":"eu","cc":"gb","latitude":51.509865,"longitude":-0.118092,"reserved":0,"last_update":"0001-01-01T00:00:00Z","name_a2s":"Uncletopia | London | 7 | No Payload","protocol":17,"map":"koth_cascade","folder":"tf","game":"Team Fortress","app_id":440,"player_count":0,"max_players":24,"Bots":0,"server_type":"Dedicated","server_os":"Linux","password":true,"vac":true,"version":"7723704","steam_id":85568392924964314,"keywords":["cp","nocrits","nodmgspread","uncletopia"],"game_id":440,"stv_port":27076,"stv_name":"Uncletopia | London | 7 | No Payload | STV","players":null},{"server_id":41,"name":"Uncletopia | London | 8 | Community","name_short":"lon-8","host":"lon-1.uk.uncletopia.com","port":27085,"enabled":true,"region":"eu","cc":"gb","latitude":51.509865,"longitude":-0.118092,"reserved":0,"last_update":"0001-01-01T00:00:00Z","name_a2s":"Uncletopia | London | 8 | Community","protocol":17,"map":"pl_snowycoast","folder":"tf","game":"Team Fortress","app_id":440,"player_count":0,"max_players":24,"Bots":0,"server_type":"Dedicated","server_os":"Linux","password":true,"vac":true,"version":"7723704","steam_id":85568392924964315,"keywords":["nocrits","nodmgspread","payload","uncletopia"],"game_id":440,"stv_port":27086,"stv_name":"Uncletopia | London | 8 | Community | STV","players":null},{"server_id":300,"name":"Uncletopia | Montréal | 1 | All Maps","name_short":"mtl-1","host":"mtl-1.ca.uncletopia.com","port":27015,"enabled":true,"region":"us-east","cc":"ca","latitude":45.50889,"longitude":-73.56167,"reserved":0,"last_update":"0001-01-01T00:00:00Z","name_a2s":"","protocol":0,"map":"","folder":"","game":"","app_id":0,"player_count":0,"max_players":0,"Bots":0,"server_type":"","server_os":"","password":false,"vac":false,"version":"","steam_id":0,"keywords":null,"game_id":0,"stv_port":0,"stv_name":"","players":null},{"server_id":301,"name":"Uncletopia | Montréal | 2 | All Maps","name_short":"mtl-2","host":"mtl-1.ca.uncletopia.com","port":27025,"enabled":true,"region":"us-east","cc":"ca","latitude":45.50889,"longitude":-73.56167,"reserved":0,"last_update":"0001-01-01T00:00:00Z","name_a2s":"","protocol":0,"map":"","folder":"","game":"","app_id":0,"player_count":0,"max_players":0,"Bots":0,"server_type":"","server_os":"","password":false,"vac":false,"version":"","steam_id":0,"keywords":null,"game_id":0,"stv_port":0,"stv_name":"","players":null},{"server_id":302,"name":"Uncletopia | Montréal | 3 | All Maps","name_short":"mtl-3","host":"mtl-1.ca.uncletopia.com","port":27035,"enabled":true,"region":"us-east","cc":"ca","latitude":45.50889,"longitude":-73.56167,"reserved":0,"last_update":"0001-01-01T00:00:00Z","name_a2s":"","protocol":0,"map":"","folder":"","game":"","app_id":0,"player_count":0,"max_players":0,"Bots":0,"server_type":"","server_os":"","password":false,"vac":false,"version":"","steam_id":0,"keywords":null,"game_id":0,"stv_port":0,"stv_name":"","players":null},{"server_id":303,"name":"Uncletopia | Montréal | 4 | No Payload","name_short":"mtl-4","host":"mtl-1.ca.uncletopia.com","port":27045,"enabled":true,"region":"us-east","cc":"ca","latitude":45.50889,"longitude":-73.56167,"reserved":0,"last_update":"0001-01-01T00:00:00Z","name_a2s":"","protocol":0,"map":"","folder":"","game":"","app_id":0,"player_count":0,"max_players":0,"Bots":0,"server_type":"","server_os":"","password":false,"vac":false,"version":"","steam_id":0,"keywords":null,"game_id":0,"stv_port":0,"stv_name":"","players":null},{"server_id":13,"name":"Uncletopia | New York City | 1 | All Maps","name_short":"nyc-1","host":"nyc-1.us.uncletopia.com","port":27015,"enabled":true,"region":"us-east","cc":"us","latitude":40.73061,"longitude":-73.93524,"reserved":0,"last_update":"0001-01-01T00:00:00Z","name_a2s":"Uncletopia | New York City | 1 | All Maps","protocol":17,"map":"pl_swiftwater_final1","folder":"tf","game":"Team Fortress","app_id":440,"player_count":22,"max_players":24,"Bots":0,"server_type":"Dedicated","server_os":"Linux","password":true,"vac":true,"version":"7723704","steam_id":85568392924469993,"keywords":["nocrits","nodmgspread","payload","uncletopia"],"game_id":440,"stv_port":27016,"stv_name":"Uncletopia | New York City | 1 | All Maps | STV","players":[{"user_id":727,"name":"100$ sushi roll","steam_id":76561198026589960,"connected_time":2239000000000,"state":"active","ping":61},{"user_id":713,"name":"ShockCoil","steam_id":76561197994567049,"connected_time":3053000000000,"state":"active","ping":46},{"user_id":736,"name":"bad spy player","steam_id":76561198873699671,"connected_time":1639000000000,"state":"active","ping":115},{"user_id":746,"name":"Rakk","steam_id":76561198855176174,"connected_time":2000000000,"state":"spawning","ping":106},{"user_id":710,"name":"noraneko","steam_id":76561198025418738,"connected_time":3357000000000,"state":"active","ping":105},{"user_id":711,"name":"Special K.","steam_id":76561198005342968,"connected_time":3344000000000,"state":"active","ping":54},{"user_id":739,"name":"Gamer Man","steam_id":76561198983776208,"connected_time":847000000000,"state":"active","ping":53},{"user_id":709,"name":"Flicky","steam_id":76561198012811546,"connected_time":3539000000000,"state":"active","ping":64},{"user_id":708,"name":"Ammy","steam_id":76561198368999744,"connected_time":3794000000000,"state":"active","ping":58},{"user_id":745,"name":"AliCat","steam_id":76561198308360862,"connected_time":147000000000,"state":"active","ping":93},{"user_id":738,"name":"boymilk","steam_id":76561199074208922,"connected_time":869000000000,"state":"active","ping":147},{"user_id":735,"name":"aversa","steam_id":76561198840460101,"connected_time":1677000000000,"state":"active","ping":46},{"user_id":717,"name":"The Famous Captain Smollet","steam_id":76561198051433818,"connected_time":2546000000000,"state":"active","ping":94},{"user_id":720,"name":"THAN0S_R3TURN3D","steam_id":76561198060145549,"connected_time":2475000000000,"state":"active","ping":72},{"user_id":721,"name":"JustForKicks96","steam_id":76561198055486814,"connected_time":2451000000000,"state":"active","ping":112},{"user_id":725,"name":"aaron","steam_id":76561198308883028,"connected_time":2321000000000,"state":"active","ping":117},{"user_id":723,"name":"mogan","steam_id":76561198071700821,"connected_time":2376000000000,"state":"active","ping":54},{"user_id":743,"name":"mbs","steam_id":76561198013079739,"connected_time":745000000000,"state":"active","ping":48},{"user_id":741,"name":"NataKilar","steam_id":76561198041274441,"connected_time":788000000000,"state":"active","ping":67},{"user_id":731,"name":"aeseu","steam_id":76561198066319618,"connected_time":2115000000000,"state":"active","ping":43},{"user_id":744,"name":"OKB-812","steam_id":76561199172118456,"connected_time":386000000000,"state":"active","ping":63},{"user_id":734,"name":"womthedom","steam_id":76561198088768287,"connected_time":2011000000000,"state":"active","ping":69}]},{"server_id":14,"name":"Uncletopia | New York City | 2 | All Maps","name_short":"nyc-2","host":"nyc-1.us.uncletopia.com","port":27025,"enabled":true,"region":"us-east","cc":"us","latitude":40.73061,"longitude":-73.93524,"reserved":0,"last_update":"0001-01-01T00:00:00Z","name_a2s":"Uncletopia | New York City | 2 | All Maps","protocol":17,"map":"pl_swiftwater_final1","folder":"tf","game":"Team Fortress","app_id":440,"player_count":24,"max_players":24,"Bots":0,"server_type":"Dedicated","server_os":"Linux","password":true,"vac":true,"version":"7723704","steam_id":85568392924469994,"keywords":["nocrits","nodmgspread","payload","uncletopia"],"game_id":440,"stv_port":27026,"stv_name":"Uncletopia | New York City | 2 | All Maps | STV","players":[{"user_id":486,"name":"nickell88","steam_id":76561198061661797,"connected_time":5606000000000,"state":"active","ping":60},{"user_id":538,"name":"Jaguar ringme","steam_id":76561197971152439,"connected_time":703000000000,"state":"active","ping":76},{"user_id":484,"name":"Chi3fRoss","steam_id":76561198134930867,"connected_time":5648000000000,"state":"active","ping":69},{"user_id":532,"name":"Medical Asshat","steam_id":76561198004584315,"connected_time":1251000000000,"state":"active","ping":91},{"user_id":508,"name":"Sabaman55","steam_id":76561198212267979,"connected_time":3273000000000,"state":"active","ping":50},{"user_id":530,"name":"Karma's Kringle Caper","steam_id":76561198059385185,"connected_time":1482000000000,"state":"active","ping":65},{"user_id":533,"name":"❤♡･ﾟBubbles･ﾟ♡❤","steam_id":76561198041057042,"connected_time":1241000000000,"state":"active","ping":86},{"user_id":534,"name":"your mom bought me a GPU","steam_id":76561198017748754,"connected_time":1231000000000,"state":"active","ping":57},{"user_id":540,"name":"EngineerGaming2010","steam_id":76561199139182003,"connected_time":409000000000,"state":"active","ping":40},{"user_id":475,"name":"KRELLAH","steam_id":76561198287045069,"connected_time":5983000000000,"state":"active","ping":61},{"user_id":467,"name":"Shagbark","steam_id":76561198173447342,"connected_time":6368000000000,"state":"active","ping":82},{"user_id":522,"name":"Uncle Sam","steam_id":76561197978674870,"connected_time":1868000000000,"state":"active","ping":63},{"user_id":531,"name":"skaj","steam_id":76561198082278586,"connected_time":1460000000000,"state":"active","ping":75},{"user_id":425,"name":"Zenith_","steam_id":76561198093948741,"connected_time":8428000000000,"state":"active","ping":81},{"user_id":511,"name":"Yongle","steam_id":76561198068591156,"connected_time":3122000000000,"state":"active","ping":64},{"user_id":537,"name":"mafioso","steam_id":76561198045604421,"connected_time":1016000000000,"state":"active","ping":56},{"user_id":489,"name":"GeighRide","steam_id":76561198073149171,"connected_time":5573000000000,"state":"active","ping":90},{"user_id":523,"name":"harmless","steam_id":76561197990799645,"connected_time":1825000000000,"state":"active","ping":91},{"user_id":459,"name":"Shmoopy","steam_id":76561198030459152,"connected_time":6654000000000,"state":"active","ping":75},{"user_id":526,"name":"Marc G","steam_id":76561198062650363,"connected_time":1747000000000,"state":"active","ping":86},{"user_id":527,"name":"gage","steam_id":76561197972937269,"connected_time":1695000000000,"state":"active","ping":99},{"user_id":539,"name":"Arrythmia","steam_id":76561198093748123,"connected_time":612000000000,"state":"active","ping":118},{"user_id":529,"name":"sweaterfan","steam_id":76561199389567214,"connected_time":1667000000000,"state":"active","ping":61},{"user_id":541,"name":"hedahman","steam_id":76561198052398134,"connected_time":197000000000,"state":"active","ping":109}]},{"server_id":15,"name":"Uncletopia | New York City | 3 | All Maps","name_short":"nyc-3","host":"nyc-1.us.uncletopia.com","port":27035,"enabled":true,"region":"us-east","cc":"us","latitude":40.73061,"longitude":-73.93524,"reserved":0,"last_update":"0001-01-01T00:00:00Z","name_a2s":"Uncletopia | New York City | 3 | All Maps","protocol":17,"map":"koth_cascade","folder":"tf","game":"Team Fortress","app_id":440,"player_count":0,"max_players":24,"Bots":0,"server_type":"Dedicated","server_os":"Linux","password":true,"vac":true,"version":"7723704","steam_id":85568392924742820,"keywords":["cp","nocrits","nodmgspread","uncletopia"],"game_id":440,"stv_port":27036,"stv_name":"Uncletopia | New York City | 3 | All Maps | STV","players":null},{"server_id":16,"name":"Uncletopia | New York City | 4 | Community","name_short":"nyc-4","host":"nyc-1.us.uncletopia.com","port":27045,"enabled":true,"region":"us-east","cc":"us","latitude":40.73061,"longitude":-73.93524,"reserved":0,"last_update":"0001-01-01T00:00:00Z","name_a2s":"Uncletopia | New York City | 4 | Community","protocol":17,"map":"workshop/koth_product_final.ugc454272353","folder":"tf","game":"Team Fortress","app_id":440,"player_count":0,"max_players":24,"Bots":0,"server_type":"Dedicated","server_os":"Linux","password":true,"vac":true,"version":"7723704","steam_id":85568392924742821,"keywords":["cp","nocrits","nodmgspread","uncletopia"],"game_id":440,"stv_port":27046,"stv_name":"Uncletopia | New York City | 4 | Community | STV","players":null},{"server_id":142,"name":"Uncletopia | São Paulo | 1 | All Maps","name_short":"sao-1","host":"sao-1.br.uncletopia.com","port":27015,"enabled":true,"region":"sa","cc":"br","latitude":-23.533773,"longitude":-46.62529,"reserved":0,"last_update":"0001-01-01T00:00:00Z","name_a2s":"Uncletopia | São Paulo | 1 | All Maps","protocol":17,"map":"pl_pier","folder":"tf","game":"Team Fortress","app_id":440,"player_count":0,"max_players":24,"Bots":0,"server_type":"Dedicated","server_os":"Linux","password":true,"vac":true,"version":"7723704","steam_id":85568392924469996,"keywords":["nocrits","nodmgspread","payload","uncletopia"],"game_id":440,"stv_port":27016,"stv_name":"Uncletopia | São Paulo | 1 | All Maps | STV","players":null},{"server_id":143,"name":"Uncletopia | São Paulo | 2 | All Maps","name_short":"sao-2","host":"sao-2.br.uncletopia.com","port":27015,"enabled":true,"region":"sa","cc":"br","latitude":-23.533773,"longitude":-46.62529,"reserved":0,"last_update":"0001-01-01T00:00:00Z","name_a2s":"Uncletopia | São Paulo | 2 | All Maps","protocol":17,"map":"koth_lakeside_final","folder":"tf","game":"Team Fortress","app_id":440,"player_count":0,"max_players":24,"Bots":0,"server_type":"Dedicated","server_os":"Linux","password":true,"vac":true,"version":"7723704","steam_id":85568392924485349,"keywords":["cp","nocrits","nodmgspread","uncletopia"],"game_id":440,"stv_port":27016,"stv_name":"Uncletopia | São Paulo | 2 | All Maps | STV","players":null},{"server_id":7,"name":"Uncletopia | Seattle | 1 | All Maps","name_short":"sea-1","host":"sea-1.us.uncletopia.com","port":27015,"enabled":true,"region":"us-west","cc":"us","latitude":47.608013,"longitude":-122.33517,"reserved":0,"last_update":"0001-01-01T00:00:00Z","name_a2s":"Uncletopia | Seattle | 1 | All Maps","protocol":17,"map":"pl_badwater","folder":"tf","game":"Team Fortress","app_id":440,"player_count":24,"max_players":24,"Bots":0,"server_type":"Dedicated","server_os":"Linux","password":true,"vac":true,"version":"7723704","steam_id":85568392924469997,"keywords":["nocrits","nodmgspread","payload","uncletopia"],"game_id":440,"stv_port":27016,"stv_name":"Uncletopia | Seattle | 1 | All Maps | STV","players":[{"user_id":535,"name":"level 7 firemancer","steam_id":76561198209571677,"connected_time":1227000000000,"state":"active","ping":127},{"user_id":520,"name":"Shah","steam_id":76561198047508851,"connected_time":2767000000000,"state":"active","ping":51},{"user_id":498,"name":"Tom Skirrett","steam_id":76561198014600788,"connected_time":3970000000000,"state":"active","ping":74},{"user_id":435,"name":"paj","steam_id":76561198080026026,"connected_time":8868000000000,"state":"active","ping":80},{"user_id":532,"name":"грустный","steam_id":76561198274550638,"connected_time":1863000000000,"state":"active","ping":107},{"user_id":509,"name":"soup","steam_id":76561198043209046,"connected_time":3419000000000,"state":"active","ping":78},{"user_id":537,"name":"Savant","steam_id":76561197969881916,"connected_time":1174000000000,"state":"active","ping":55},{"user_id":511,"name":"Seriously Bruh","steam_id":76561198070408485,"connected_time":3382000000000,"state":"active","ping":63},{"user_id":529,"name":"doopsies","steam_id":76561198083000867,"connected_time":2390000000000,"state":"active","ping":52},{"user_id":547,"name":"Infinitee","steam_id":76561198125409130,"connected_time":577000000000,"state":"active","ping":108},{"user_id":538,"name":"Bill Clinton, Orthodox Rabbi","steam_id":76561198301774048,"connected_time":1117000000000,"state":"active","ping":93},{"user_id":512,"name":"SmallErection","steam_id":76561198071770147,"connected_time":3381000000000,"state":"active","ping":58},{"user_id":454,"name":"Klone","steam_id":76561198854485605,"connected_time":6705000000000,"state":"active","ping":80},{"user_id":540,"name":"TeriyakiDynamite","steam_id":76561198050049346,"connected_time":1041000000000,"state":"active","ping":98},{"user_id":530,"name":"gorlab","steam_id":76561198025089694,"connected_time":1908000000000,"state":"active","ping":61},{"user_id":531,"name":"Halcyon","steam_id":76561197999409268,"connected_time":1891000000000,"state":"active","ping":116},{"user_id":514,"name":"Kobes' Pilot","steam_id":76561198068854822,"connected_time":3375000000000,"state":"active","ping":90},{"user_id":541,"name":"i am Im","steam_id":76561198001737373,"connected_time":1015000000000,"state":"active","ping":168},{"user_id":545,"name":"tempqeiuwqefk","steam_id":76561198142160712,"connected_time":761000000000,"state":"active","ping":91},{"user_id":542,"name":"LIMBS","steam_id":76561198101220604,"connected_time":1005000000000,"state":"active","ping":68},{"user_id":543,"name":"sp00kydoge","steam_id":76561198097465954,"connected_time":962000000000,"state":"active","ping":74},{"user_id":546,"name":"KellyKapoor","steam_id":76561198040828123,"connected_time":669000000000,"state":"active","ping":52},{"user_id":519,"name":"Blackbeard","steam_id":76561198046952265,"connected_time":2893000000000,"state":"active","ping":50},{"user_id":549,"name":"kirbothebrony","steam_id":76561198971911330,"connected_time":429000000000,"state":"active","ping":120}]},{"server_id":119,"name":"Uncletopia | Seattle | 2 | All Maps","name_short":"sea-2","host":"sea-1.us.uncletopia.com","port":27025,"enabled":true,"region":"us-west","cc":"us","latitude":47.608013,"longitude":-122.33517,"reserved":0,"last_update":"0001-01-01T00:00:00Z","name_a2s":"Uncletopia | Seattle | 2 | All Maps","protocol":17,"map":"pl_pier","folder":"tf","game":"Team Fortress","app_id":440,"player_count":24,"max_players":24,"Bots":0,"server_type":"Dedicated","server_os":"Linux","password":true,"vac":true,"version":"7723704","steam_id":85568392924469998,"keywords":["nocrits","nodmgspread","payload","uncletopia"],"game_id":440,"stv_port":27026,"stv_name":"Uncletopia | Seattle | 2 | All Maps | STV","players":[{"user_id":379,"name":"Vokani","steam_id":76561198186178423,"connected_time":3453000000000,"state":"active","ping":128},{"user_id":415,"name":"big car","steam_id":76561198067082350,"connected_time":944000000000,"state":"active","ping":62},{"user_id":424,"name":"-BRH- Tangled up in Bluegrass","steam_id":76561197987181139,"connected_time":257000000000,"state":"active","ping":101},{"user_id":425,"name":"mmmBoyo","steam_id":76561198821360261,"connected_time":236000000000,"state":"active","ping":44},{"user_id":405,"name":"htiaf","steam_id":76561198108938632,"connected_time":1437000000000,"state":"active","ping":90},{"user_id":406,"name":"Squirt City DJs","steam_id":76561198085755375,"connected_time":1357000000000,"state":"active","ping":123},{"user_id":388,"name":"Defeat","steam_id":76561198065203818,"connected_time":2847000000000,"state":"active","ping":43},{"user_id":401,"name":"Qwevum","steam_id":76561198118039751,"connected_time":1823000000000,"state":"active","ping":114},{"user_id":412,"name":"Dauntless Duelist","steam_id":76561198025056018,"connected_time":1206000000000,"state":"active","ping":50},{"user_id":422,"name":"🎶","steam_id":76561198018213050,"connected_time":415000000000,"state":"active","ping":90},{"user_id":427,"name":"MyMonkeyBaby","steam_id":76561198046896670,"connected_time":8000000000,"state":"spawning","ping":58},{"user_id":402,"name":"⛧Alkahestry","steam_id":76561198109641497,"connected_time":1681000000000,"state":"active","ping":78},{"user_id":409,"name":"bappo del taco","steam_id":76561199068510270,"connected_time":1332000000000,"state":"active","ping":60},{"user_id":391,"name":"2fort cryptid","steam_id":76561198369517354,"connected_time":2794000000000,"state":"active","ping":43},{"user_id":411,"name":"Kriber","steam_id":76561198219224099,"connected_time":1286000000000,"state":"active","ping":122},{"user_id":399,"name":"dacopee","steam_id":76561198273260338,"connected_time":1963000000000,"state":"active","ping":122},{"user_id":396,"name":"tyler","steam_id":76561198137421049,"connected_time":2102000000000,"state":"active","ping":117},{"user_id":426,"name":"LeTonzy","steam_id":76561198005806699,"connected_time":207000000000,"state":"active","ping":90},{"user_id":420,"name":"Fluffy","steam_id":76561198115952540,"connected_time":499000000000,"state":"active","ping":47},{"user_id":421,"name":"Lambchop","steam_id":76561198043900363,"connected_time":433000000000,"state":"active","ping":77},{"user_id":423,"name":"lag","steam_id":76561197963872739,"connected_time":296000000000,"state":"active","ping":60},{"user_id":398,"name":"Spooncan","steam_id":76561198159474173,"connected_time":2071000000000,"state":"active","ping":111},{"user_id":374,"name":"radio","steam_id":76561198010226481,"connected_time":3662000000000,"state":"active","ping":81}]},{"server_id":17,"name":"Uncletopia | San Francisco | 1 | All Maps","name_short":"sfo-1","host":"sfo-1.us.uncletopia.com","port":27015,"enabled":true,"region":"us-west","cc":"us","latitude":37.77397,"longitude":-122.4313,"reserved":0,"last_update":"0001-01-01T00:00:00Z","name_a2s":"Uncletopia | San Francisco | 1 | All Maps","protocol":17,"map":"pl_snowycoast","folder":"tf","game":"Team Fortress","app_id":440,"player_count":0,"max_players":24,"Bots":0,"server_type":"Dedicated","server_os":"Linux","password":true,"vac":true,"version":"7723704","steam_id":85568392924469999,"keywords":["nocrits","nodmgspread","payload","uncletopia"],"game_id":440,"stv_port":27016,"stv_name":"Uncletopia | San Francisco | 1 | All Maps | STV","players":null},{"server_id":18,"name":"Uncletopia | San Francisco | 2 | All Maps","name_short":"sfo-2","host":"sfo-1.us.uncletopia.com","port":27025,"enabled":true,"region":"us-west","cc":"us","latitude":37.77397,"longitude":-122.4313,"reserved":0,"last_update":"0001-01-01T00:00:00Z","name_a2s":"Uncletopia | San Francisco | 2 | All Maps","protocol":17,"map":"pl_upward","folder":"tf","game":"Team Fortress","app_id":440,"player_count":24,"max_players":24,"Bots":0,"server_type":"Dedicated","server_os":"Linux","password":true,"vac":true,"version":"7723704","steam_id":85568392924470000,"keywords":["nocrits","nodmgspread","payload","uncletopia"],"game_id":440,"stv_port":27026,"stv_name":"Uncletopia | San Francisco | 2 | All Maps | STV","players":[{"user_id":167,"name":"squinzi","steam_id":76561198086520846,"connected_time":805000000000,"state":"active","ping":53},{"user_id":148,"name":"Agent Q","steam_id":76561198830829003,"connected_time":1953000000000,"state":"active","ping":83},{"user_id":174,"name":"THIRDPIERCE","steam_id":76561198405366314,"connected_time":337000000000,"state":"active","ping":99},{"user_id":154,"name":"heat seeking missile","steam_id":76561198072515851,"connected_time":1907000000000,"state":"active","ping":55},{"user_id":156,"name":"Sir Galahad","steam_id":76561198195999859,"connected_time":1848000000000,"state":"active","ping":67},{"user_id":176,"name":"air fryer \u0026 hbo max","steam_id":76561197995357497,"connected_time":279000000000,"state":"active","ping":58},{"user_id":175,"name":"SuperBurgerBoy","steam_id":76561198856387197,"connected_time":336000000000,"state":"active","ping":61},{"user_id":179,"name":"Milkythesquid","steam_id":76561197996548713,"connected_time":208000000000,"state":"active","ping":129},{"user_id":172,"name":"Black Jesus","steam_id":76561198076148442,"connected_time":628000000000,"state":"active","ping":59},{"user_id":137,"name":"Can You Feel It Mr.Krabs","steam_id":76561198128302414,"connected_time":3112000000000,"state":"active","ping":57},{"user_id":166,"name":"top tree warlock","steam_id":76561198872339982,"connected_time":899000000000,"state":"active","ping":51},{"user_id":160,"name":"Madvillain","steam_id":76561198037734204,"connected_time":1627000000000,"state":"active","ping":56},{"user_id":139,"name":"Jack from Jack in The Box","steam_id":76561199083594971,"connected_time":2889000000000,"state":"active","ping":61},{"user_id":173,"name":"doombot","steam_id":76561198035778187,"connected_time":486000000000,"state":"active","ping":83},{"user_id":152,"name":"Captain Caber","steam_id":76561199157498505,"connected_time":1920000000000,"state":"active","ping":92},{"user_id":113,"name":"Satori Komeiji","steam_id":76561198158211423,"connected_time":4257000000000,"state":"active","ping":48},{"user_id":177,"name":"Luxarian","steam_id":76561198084657791,"connected_time":234000000000,"state":"active","ping":95},{"user_id":178,"name":"Brando","steam_id":76561198078306678,"connected_time":220000000000,"state":"active","ping":66},{"user_id":116,"name":"L. Ron Thuggard","steam_id":76561198048992536,"connected_time":4198000000000,"state":"active","ping":95},{"user_id":169,"name":"FlashyLily","steam_id":76561198110050476,"connected_time":711000000000,"state":"active","ping":74},{"user_id":133,"name":"TheyCallMeContra","steam_id":76561198008631902,"connected_time":3649000000000,"state":"active","ping":76},{"user_id":155,"name":"packson","steam_id":76561198222580424,"connected_time":1905000000000,"state":"active","ping":92},{"user_id":122,"name":"EatSomeBEES","steam_id":76561198047334307,"connected_time":4122000000000,"state":"active","ping":67},{"user_id":161,"name":"Tony Soprano","steam_id":76561198028381486,"connected_time":1364000000000,"state":"active","ping":52}]},{"server_id":19,"name":"Uncletopia | San Francisco | 3 | No Payload","name_short":"sfo-3","host":"sfo-1.us.uncletopia.com","port":27035,"enabled":true,"region":"us-west","cc":"us","latitude":37.77397,"longitude":-122.4313,"reserved":0,"last_update":"0001-01-01T00:00:00Z","name_a2s":"Uncletopia | San Francisco | 3 | No Payload","protocol":17,"map":"cp_foundry","folder":"tf","game":"Team Fortress","app_id":440,"player_count":0,"max_players":24,"Bots":0,"server_type":"Dedicated","server_os":"Linux","password":true,"vac":true,"version":"7723704","steam_id":85568392924742824,"keywords":["cp","nocrits","nodmgspread","uncletopia"],"game_id":440,"stv_port":27036,"stv_name":"Uncletopia | San Francisco | 3 | No Payload | STV","players":null},{"server_id":20,"name":"Uncletopia | San Francisco | 4 | Community","name_short":"sfo-4","host":"sfo-1.us.uncletopia.com","port":27045,"enabled":true,"region":"us-west","cc":"us","latitude":37.77397,"longitude":-122.4313,"reserved":0,"last_update":"0001-01-01T00:00:00Z","name_a2s":"Uncletopia | San Francisco | 4 | Community","protocol":17,"map":"workshop/cp_villa_b19.ugc2113052569","folder":"tf","game":"Team Fortress","app_id":440,"player_count":0,"max_players":24,"Bots":0,"server_type":"Dedicated","server_os":"Linux","password":true,"vac":true,"version":"7723704","steam_id":85568392924742826,"keywords":["cp","nocrits","nodmgspread","uncletopia"],"game_id":440,"stv_port":27046,"stv_name":"Uncletopia | San Francisco | 4 | Community | STV","players":null},{"server_id":141,"name":"Uncletopia | Sydney | 1 | All Maps","name_short":"syd-1","host":"syd-1.au.uncletopia.com","port":27015,"enabled":true,"region":"au","cc":"au","latitude":-33.865143,"longitude":151.2099,"reserved":0,"last_update":"0001-01-01T00:00:00Z","name_a2s":"Uncletopia | Sydney | 1 | All Maps","protocol":17,"map":"cp_dustbowl","folder":"tf","game":"Team Fortress","app_id":440,"player_count":24,"max_players":24,"Bots":0,"server_type":"Dedicated","server_os":"Linux","password":true,"vac":true,"version":"7723704","steam_id":85568392924470001,"keywords":["cp","nocrits","nodmgspread","uncletopia"],"game_id":440,"stv_port":27016,"stv_name":"Uncletopia | Sydney | 1 | All Maps | STV","players":[{"user_id":252,"name":"Wolf","steam_id":76561198067256350,"connected_time":4266000000000,"state":"active","ping":58},{"user_id":303,"name":"大きい男","steam_id":76561199089531604,"connected_time":426000000000,"state":"active","ping":63},{"user_id":281,"name":"bweegus wagoogus glumbus","steam_id":76561198063481761,"connected_time":1138000000000,"state":"active","ping":46},{"user_id":282,"name":"lemur","steam_id":76561198278239170,"connected_time":1136000000000,"state":"active","ping":79},{"user_id":277,"name":"Owmyn","steam_id":76561199239651098,"connected_time":1925000000000,"state":"active","ping":146},{"user_id":276,"name":"badmn","steam_id":76561198056462343,"connected_time":1932000000000,"state":"active","ping":46},{"user_id":290,"name":"rastaFROG730","steam_id":76561198058812647,"connected_time":1046000000000,"state":"active","ping":45},{"user_id":305,"name":"CypressFluff (She/Her)","steam_id":76561198174667818,"connected_time":136000000000,"state":"active","ping":45},{"user_id":300,"name":"Lychee","steam_id":76561198072845816,"connected_time":545000000000,"state":"active","ping":51},{"user_id":264,"name":"Solidmozza","steam_id":76561197976650325,"connected_time":2941000000000,"state":"active","ping":45},{"user_id":296,"name":"pissman","steam_id":76561199003846639,"connected_time":707000000000,"state":"active","ping":96},{"user_id":306,"name":"Aaeras","steam_id":76561199010662157,"connected_time":136000000000,"state":"active","ping":79},{"user_id":256,"name":"no teles 4 u","steam_id":76561198018478297,"connected_time":3517000000000,"state":"active","ping":65},{"user_id":241,"name":"Zoey","steam_id":76561198126153554,"connected_time":5195000000000,"state":"active","ping":75},{"user_id":292,"name":"helix","steam_id":76561198046509091,"connected_time":955000000000,"state":"active","ping":54},{"user_id":284,"name":"Kiwoo","steam_id":76561198097429186,"connected_time":1131000000000,"state":"active","ping":83},{"user_id":283,"name":"GODS WEAKEST JIHADI","steam_id":76561198164178971,"connected_time":1135000000000,"state":"active","ping":93},{"user_id":260,"name":"Pompadouraus","steam_id":76561198327530525,"connected_time":3316000000000,"state":"active","ping":75},{"user_id":301,"name":"ree boy","steam_id":76561199024189820,"connected_time":537000000000,"state":"active","ping":90},{"user_id":307,"name":"PsychoTy","steam_id":76561198806631730,"connected_time":136000000000,"state":"active","ping":56},{"user_id":304,"name":"electro599","steam_id":76561198058148858,"connected_time":372000000000,"state":"active","ping":51},{"user_id":288,"name":"Rant","steam_id":76561198949751771,"connected_time":1090000000000,"state":"active","ping":42},{"user_id":289,"name":"Rizeo","steam_id":76561198147901488,"connected_time":1079000000000,"state":"active","ping":61},{"user_id":176,"name":"Blazey 伊達 政宗","steam_id":76561197971082275,"connected_time":11787000000000,"state":"active","ping":116}]},{"server_id":123,"name":"Uncletopia | Sydney | 2 | All Maps","name_short":"syd-2","host":"syd-1.au.uncletopia.com","port":27025,"enabled":true,"region":"au","cc":"au","latitude":-33.865143,"longitude":151.2099,"reserved":0,"last_update":"0001-01-01T00:00:00Z","name_a2s":"Uncletopia | Sydney | 2 | All Maps","protocol":17,"map":"pl_upward","folder":"tf","game":"Team Fortress","app_id":440,"player_count":10,"max_players":24,"Bots":0,"server_type":"Dedicated","server_os":"Linux","password":true,"vac":true,"version":"7723704","steam_id":85568392924470002,"keywords":["nocrits","nodmgspread","payload","uncletopia"],"game_id":440,"stv_port":27026,"stv_name":"Uncletopia | Sydney | 2 | All Maps | STV","players":[{"user_id":45,"name":"Classy Doctor","steam_id":76561198257123968,"connected_time":2004000000000,"state":"active","ping":61},{"user_id":49,"name":"JohnJohnVonJohn","steam_id":76561199037714979,"connected_time":1195000000000,"state":"active","ping":54},{"user_id":50,"name":"Epic medic GF (Totally a woman)","steam_id":76561199387907037,"connected_time":1181000000000,"state":"active","ping":159},{"user_id":52,"name":"rattlesnake jake","steam_id":76561199121517901,"connected_time":1029000000000,"state":"active","ping":226},{"user_id":54,"name":"TrashGaming420","steam_id":76561198106039590,"connected_time":653000000000,"state":"active","ping":46},{"user_id":34,"name":"Catalyst is life","steam_id":76561199026240631,"connected_time":3022000000000,"state":"active","ping":68},{"user_id":55,"name":"The Inked Rabbit","steam_id":76561199158680285,"connected_time":345000000000,"state":"active","ping":37},{"user_id":37,"name":"Pongo","steam_id":76561197972265004,"connected_time":2698000000000,"state":"active","ping":32},{"user_id":56,"name":"Passance","steam_id":76561198156058724,"connected_time":96000000000,"state":"spawning","ping":89},{"user_id":57,"name":"bluebonkbloop","steam_id":76561198998430585,"connected_time":71000000000,"state":"spawning","ping":89}]},{"server_id":395,"name":"Uncletopia | Sydney | 3 | All Maps","name_short":"syd-3","host":"syd-1.au.uncletopia.com","port":27035,"enabled":true,"region":"au","cc":"au","latitude":-33.865143,"longitude":151.2099,"reserved":0,"last_update":"0001-01-01T00:00:00Z","name_a2s":"Uncletopia | Sydney | 3 | All Maps","protocol":17,"map":"koth_highpass","folder":"tf","game":"Team Fortress","app_id":440,"player_count":0,"max_players":24,"Bots":0,"server_type":"Dedicated","server_os":"Linux","password":true,"vac":true,"version":"7723704","steam_id":85568392925194467,"keywords":["cp","nocrits","nodmgspread","uncletopia"],"game_id":440,"stv_port":27036,"stv_name":"Uncletopia | Sydney | 3 | All Maps | STV","players":null},{"server_id":396,"name":"Uncletopia | Sydney | 4 | All Maps","name_short":"syd-4","host":"syd-1.au.uncletopia.com","port":27045,"enabled":true,"region":"au","cc":"au","latitude":-33.865143,"longitude":151.2099,"reserved":0,"last_update":"0001-01-01T00:00:00Z","name_a2s":"Uncletopia | Sydney | 4 | All Maps","protocol":17,"map":"pl_wutville_event","folder":"tf","game":"Team Fortress","app_id":440,"player_count":0,"max_players":24,"Bots":0,"server_type":"Dedicated","server_os":"Linux","password":true,"vac":true,"version":"7723704","steam_id":85568392925397958,"keywords":["nocrits","nodmgspread","payload","uncletopia"],"game_id":440,"stv_port":27046,"stv_name":"Uncletopia | Sydney | 4 | All Maps | STV","players":null},{"server_id":58,"name":"Uncletopia | Sydney | 5 | No Payload","name_short":"syd-5","host":"syd-1.au.uncletopia.com","port":27055,"enabled":true,"region":"au","cc":"au","latitude":-33.865143,"longitude":151.2099,"reserved":0,"last_update":"0001-01-01T00:00:00Z","name_a2s":"Uncletopia | Sydney | 5 | No Payload","protocol":17,"map":"koth_sawmill","folder":"tf","game":"Team Fortress","app_id":440,"player_count":0,"max_players":24,"Bots":0,"server_type":"Dedicated","server_os":"Linux","password":true,"vac":true,"version":"7723704","steam_id":85568392925397959,"keywords":["cp","nocrits","nodmgspread","uncletopia"],"game_id":440,"stv_port":27056,"stv_name":"Uncletopia | Sydney | 5 | No Payload | STV","players":null},{"server_id":59,"name":"Uncletopia | Sydney | 6 | Community","name_short":"syd-6","host":"syd-1.au.uncletopia.com","port":27065,"enabled":true,"region":"au","cc":"au","latitude":-33.865143,"longitude":151.2099,"reserved":0,"last_update":"0001-01-01T00:00:00Z","name_a2s":"Uncletopia | Sydney | 6 | Community","protocol":17,"map":"workshop/rd_asteroid_redux_rc9.ugc2154902912","folder":"tf","game":"Team Fortress","app_id":440,"player_count":0,"max_players":24,"Bots":0,"server_type":"Dedicated","server_os":"Linux","password":true,"vac":true,"version":"7723704","steam_id":85568392925397960,"keywords":["beta","nocrits","nodmgspread","rd","uncletopia"],"game_id":440,"stv_port":27066,"stv_name":"Uncletopia | Sydney | 6 | Community | STV","players":null},{"server_id":49,"name":"Uncletopia | Warsaw | 1 | All Maps","name_short":"waw-1","host":"waw-1.pl.uncletopia.com","port":27015,"enabled":true,"region":"eu","cc":"pl","latitude":52.2297,"longitude":21.017532,"reserved":0,"last_update":"0001-01-01T00:00:00Z","name_a2s":"Uncletopia | Warsaw | 1 | All Maps","protocol":17,"map":"cp_process_final","folder":"tf","game":"Team Fortress","app_id":440,"player_count":0,"max_players":24,"Bots":0,"server_type":"Dedicated","server_os":"Linux","password":true,"vac":true,"version":"7723704","steam_id":85568392925397850,"keywords":["cp","nocrits","nodmgspread","uncletopia"],"game_id":440,"stv_port":27016,"stv_name":"Uncletopia | Warsaw | 1 | All Maps | STV","players":null},{"server_id":50,"name":"Uncletopia | Warsaw | 2 | All Maps","name_short":"waw-2","host":"waw-1.pl.uncletopia.com","port":27025,"enabled":true,"region":"eu","cc":"pl","latitude":52.2297,"longitude":21.017532,"reserved":0,"last_update":"0001-01-01T00:00:00Z","name_a2s":"Uncletopia | Warsaw | 2 | All Maps","protocol":17,"map":"pl_snowycoast","folder":"tf","game":"Team Fortress","app_id":440,"player_count":0,"max_players":24,"Bots":0,"server_type":"Dedicated","server_os":"Linux","password":true,"vac":true,"version":"7723704","steam_id":85568392925397851,"keywords":["nocrits","nodmgspread","payload","uncletopia"],"game_id":440,"stv_port":27026,"stv_name":"Uncletopia | Warsaw | 2 | All Maps | STV","players":null},{"server_id":51,"name":"Uncletopia | Warsaw | 3 | All Maps","name_short":"waw-3","host":"waw-1.pl.uncletopia.com","port":27035,"enabled":true,"region":"eu","cc":"pl","latitude":52.2297,"longitude":21.017532,"reserved":0,"last_update":"0001-01-01T00:00:00Z","name_a2s":"Uncletopia | Warsaw | 3 | All Maps","protocol":17,"map":"koth_lakeside_final","folder":"tf","game":"Team Fortress","app_id":440,"player_count":0,"max_players":24,"Bots":0,"server_type":"Dedicated","server_os":"Linux","password":true,"vac":true,"version":"7723704","steam_id":85568392925397852,"keywords":["cp","nocrits","nodmgspread","uncletopia"],"game_id":440,"stv_port":27036,"stv_name":"Uncletopia | Warsaw | 3 | All Maps | STV","players":null},{"server_id":52,"name":"Uncletopia | Warsaw | 4 | All Maps","name_short":"waw-4","host":"waw-1.pl.uncletopia.com","port":27045,"enabled":true,"region":"eu","cc":"pl","latitude":52.2297,"longitude":21.017532,"reserved":0,"last_update":"0001-01-01T00:00:00Z","name_a2s":"Uncletopia | Warsaw | 4 | All Maps","protocol":17,"map":"cp_sunshine","folder":"tf","game":"Team Fortress","app_id":440,"player_count":0,"max_players":24,"Bots":0,"server_type":"Dedicated","server_os":"Linux","password":true,"vac":true,"version":"7723704","steam_id":85568392925397853,"keywords":["cp","nocrits","nodmgspread","uncletopia"],"game_id":440,"stv_port":27046,"stv_name":"Uncletopia | Warsaw | 4 | All Maps | STV","players":null},{"server_id":53,"name":"Uncletopia | Warsaw | 5 | No Payload","name_short":"waw-5","host":"waw-1.pl.uncletopia.com","port":27055,"enabled":true,"region":"eu","cc":"pl","latitude":52.2297,"longitude":21.017532,"reserved":0,"last_update":"0001-01-01T00:00:00Z","name_a2s":"Uncletopia | Warsaw | 5 | No Payload","protocol":17,"map":"koth_highpass","folder":"tf","game":"Team Fortress","app_id":440,"player_count":0,"max_players":24,"Bots":0,"server_type":"Dedicated","server_os":"Linux","password":true,"vac":true,"version":"7723704","steam_id":85568392925397854,"keywords":["cp","nocrits","nodmgspread","uncletopia"],"game_id":440,"stv_port":27056,"stv_name":"Uncletopia | Warsaw | 5 | No Payload | STV","players":null},{"server_id":54,"name":"Uncletopia | Warsaw | 6 | Community","name_short":"waw-6","host":"waw-1.pl.uncletopia.com","port":27065,"enabled":true,"region":"eu","cc":"pl","latitude":52.2297,"longitude":21.017532,"reserved":0,"last_update":"0001-01-01T00:00:00Z","name_a2s":"Uncletopia | Warsaw | 6 | Community","protocol":17,"map":"koth_viaduct","folder":"tf","game":"Team Fortress","app_id":440,"player_count":0,"max_players":24,"Bots":0,"server_type":"Dedicated","server_os":"Linux","password":true,"vac":true,"version":"7723704","steam_id":85568392925397856,"keywords":["cp","nocrits","nodmgspread","uncletopia"],"game_id":440,"stv_port":27066,"stv_name":"Uncletopia | Warsaw | 6 | Community | STV","players":null}]}