{"status":true,"message":"","result":[{"server_id":9,"name":"Uncletopia | Atlanta | 1 | All Maps","name_short":"atl-1","host":"atl-1.us.uncletopia.com","port":27015,"enabled":true,"region":"us-east","cc":"us","latitude":33.753746,"longitude":-84.38633,"reserved":0,"last_update":"0001-01-01T00:00:00Z","name_a2s":"Uncletopia | Atlanta | 1 | All Maps","protocol":17,"map":"pl_frontier_final","folder":"tf","game":"Team Fortress","app_id":440,"player_count":24,"max_players":24,"Bots":0,"server_type":"Dedicated","server_os":"Linux","password":true,"vac":true,"version":"7961495","steam_id":85568392924469982,"keywords":["nocrits","nodmgspread","payload","uncletopia"],"game_id":440,"stv_port":27016,"stv_name":"Uncletopia | Atlanta | 1 | All Maps | STV","players":[{"user_id":272,"name":"hayes","steam_id":76561198057101042,"connected_time":2213000000000,"state":"active","ping":74},{"user_id":333,"name":"JebusTheSavior","steam_id":76561197970083444,"connected_time":4000000000,"state":"spawning","ping":46},{"user_id":329,"name":"Heathcliff","steam_id":76561198044288534,"connected_time":16000000000,"state":"active","ping":74},{"user_id":212,"name":"DuckMann","steam_id":76561198197058638,"connected_time":7450000000000,"state":"active","ping":44},{"user_id":247,"name":"CrazyCow","steam_id":76561198097431272,"connected_time":4815000000000,"state":"active","ping":76},{"user_id":332,"name":"Ursus Ludius","steam_id":76561198025470722,"connected_time":9000000000,"state":"active","ping":85},{"user_id":330,"name":"retard salad","steam_id":76561198310555568,"connected_time":13000000000,"state":"spawning","ping":258},{"user_id":136,"name":"lynt","steam_id":76561198988333976,"connected_time":12474000000000,"state":"active","ping":36},{"user_id":319,"name":"zacmattsmith","steam_id":76561199027704149,"connected_time":338000000000,"state":"active","ping":72},{"user_id":264,"name":"Decolour","steam_id":76561199045608372,"connected_time":3113000000000,"state":"active","ping":55},{"user_id":277,"name":"Im High","steam_id":76561198049954886,"connected_time":1759000000000,"state":"active","ping":66},{"user_id":260,"name":"marguerite","steam_id":76561198170873495,"connected_time":3870000000000,"state":"active","ping":50},{"user_id":254,"name":"Boneless Blithen","steam_id":76561197989955619,"connected_time":3891000000000,"state":"active","ping":120},{"user_id":284,"name":"BoyWithTheBeanie","steam_id":76561199435079308,"connected_time":1203000000000,"state":"active","ping":141},{"user_id":305,"name":"lurid","steam_id":76561199134999203,"connected_time":609000000000,"state":"active","ping":58},{"user_id":326,"name":"EnDemoknight_TF2","steam_id":76561198136059961,"connected_time":134000000000,"state":"spawning","ping":46},{"user_id":289,"name":"AmC","steam_id":76561198109731140,"connected_time":750000000000,"state":"active","ping":107},{"user_id":328,"name":"HRTV","steam_id":76561198978457123,"connected_time":21000000000,"state":"spawning","ping":210},{"user_id":262,"name":"eish","steam_id":76561198089463603,"connected_time":3862000000000,"state":"active","ping":115},{"user_id":267,"name":"Oopsie Daisy ❋","steam_id":76561198042144492,"connected_time":3031000000000,"state":"active","ping":56},{"user_id":282,"name":"row","steam_id":76561198040946044,"connected_time":1399000000000,"state":"active","ping":70},{"user_id":288,"name":"e0e0","steam_id":76561198293839750,"connected_time":1000000000000,"state":"active","ping":52},{"user_id":263,"name":"Pango","steam_id":76561198069811545,"connected_time":3240000000000,"state":"active","ping":33},{"user_id":274,"name":"Bodhi (she/they)","steam_id":76561198103230995,"connected_time":2212000000000,"state":"active","ping":61}]},{"server_id":104,"name":"Uncletopia | Atlanta | 2 | All Maps","name_short":"atl-2","host":"atl-1.us.uncletopia.com","port":27025,"enabled":true,"region":"us-east","cc":"us","latitude":33.753746,"longitude":-84.38633,"reserved":0,"last_update":"0001-01-01T00:00:00Z","name_a2s":"Uncletopia | Atlanta | 2 | All Maps","protocol":17,"map":"ctf_2fort","folder":"tf","game":"Team Fortress","app_id":440,"player_count":1,"max_players":24,"Bots":0,"server_type":"Dedicated","server_os":"Linux","password":true,"vac":true,"version":"7961495","steam_id":85568392924469983,"keywords":["ctf","nocrits","nodmgspread","uncletopia"],"game_id":440,"stv_port":27026,"stv_name":"Uncletopia | Atlanta | 2 | All Maps | STV","players":[{"user_id":30,"name":"/-\\nika","steam_id":76561198276724202,"connected_time":61000000000,"state":"active","ping":60}]},{"server_id":400,"name":"Uncletopia | Atlanta | 3 | Stopwatch","name_short":"atl-3","host":"atl-1.us.uncletopia.com","port":27035,"enabled":true,"region":"us-east","cc":"us","latitude":33.753746,"longitude":-84.38633,"reserved":0,"last_update":"0001-01-01T00:00:00Z","name_a2s":"Uncletopia | Atlanta | 3 | Stopwatch","protocol":17,"map":"koth_lakeside_final","folder":"tf","game":"Team Fortress","app_id":440,"player_count":20,"max_players":24,"Bots":0,"server_type":"Dedicated","server_os":"Linux","password":true,"vac":true,"version":"7961495","steam_id":85568392924515187,"keywords":["cp","nocrits","nodmgspread","uncletopia"],"game_id":440,"stv_port":27036,"stv_name":"Uncletopia | Atlanta | 3 | Stopwatch | STV","players":[{"user_id":190,"name":"Amy Roxwell","steam_id":76561198303391830,"connected_time":765000000000,"state":"active","ping":104},{"user_id":150,"name":"turtlewho","steam_id":76561199071366637,"connected_time":3718000000000,"state":"active","ping":48},{"user_id":180,"name":"Guapo","steam_id":76561198075195948,"connected_time":1648000000000,"state":"active","ping":70},{"user_id":207,"name":"MegaMudkipz","steam_id":76561198354776000,"connected_time":163000000000,"state":"active","ping":84},{"user_id":162,"name":"indi","steam_id":76561198045917538,"connected_time":2572000000000,"state":"active","ping":75},{"user_id":203,"name":"atanasy","steam_id":76561199104614688,"connected_time":243000000000,"state":"active","ping":145},{"user_id":211,"name":"37 septillion tapeworms","steam_id":76561198186128723,"connected_time":27000000000,"state":"active","ping":71},{"user_id":142,"name":"jello","steam_id":76561199274158922,"connected_time":3899000000000,"state":"active","ping":103},{"user_id":170,"name":"I Have Huge Guts","steam_id":76561198103496593,"connected_time":2077000000000,"state":"active","ping":43},{"user_id":80,"name":"Man On Night Mode","steam_id":76561198012469076,"connected_time":7991000000000,"state":"active","ping":76},{"user_id":197,"name":"Salt Syndrome","steam_id":76561198046584592,"connected_time":546000000000,"state":"active","ping":66},{"user_id":194,"name":"Real","steam_id":76561198405830028,"connected_time":578000000000,"state":"active","ping":101},{"user_id":175,"name":"Zeelidox","steam_id":76561198110613375,"connected_time":1792000000000,"state":"active","ping":64},{"user_id":182,"name":"Blueseer","steam_id":76561198060326533,"connected_time":1621000000000,"state":"active","ping":51},{"user_id":196,"name":"Invictus","steam_id":76561198079517075,"connected_time":552000000000,"state":"active","ping":88},{"user_id":205,"name":"HasheM","steam_id":76561198090308879,"connected_time":189000000000,"state":"active","ping":112},{"user_id":149,"name":"Willy the Wonderdog","steam_id":76561198067089970,"connected_time":3740000000000,"state":"active","ping":58},{"user_id":188,"name":"Sergeant Snowflake","steam_id":76561198041474489,"connected_time":978000000000,"state":"active","ping":68},{"user_id":172,"name":"ṽ⧉ cookie","steam_id":76561197998884823,"connected_time":2014000000000,"state":"active","ping":76},{"user_id":152,"name":"IsleBound","steam_id":76561198278451717,"connected_time":3700000000000,"state":"active","ping":70}]},{"server_id":401,"name":"Uncletopia | Atlanta | 4 | Community","name_short":"atl-4","host":"atl-1.us.uncletopia.com","port":27045,"enabled":true,"region":"us-east","cc":"us","latitude":33.753746,"longitude":-84.38633,"reserved":0,"last_update":"0001-01-01T00:00:00Z","name_a2s":"Uncletopia | Atlanta | 4 | Community","protocol":17,"map":"workshop/pl_phoenix_b4a.ugc2969509359","folder":"tf","game":"Team Fortress","app_id":440,"player_count":1,"max_players":24,"Bots":0,"server_type":"Dedicated","server_os":"Linux","password":true,"vac":true,"version":"7961495","steam_id":85568392924515188,"keywords":["nocrits","nodmgspread","payload","uncletopia"],"game_id":440,"stv_port":27046,"stv_name":"Uncletopia | Atlanta | 4 | Community | STV","players":[{"user_id":8,"name":"think before you believe","steam_id":76561198857358730,"connected_time":230000000000,"state":"active","ping":38}]},{"server_id":2,"name":"Uncletopia | Chicago | 1 | All Maps","name_short":"chi-1","host":"chi-1.us.uncletopia.com","port":27015,"enabled":true,"region":"us-central","cc":"us","latitude":41.881832,"longitude":-87.62318,"reserved":0,"last_update":"0001-01-01T00:00:00Z","name_a2s":"Uncletopia | Chicago | 1 | All Maps","protocol":17,"map":"pl_upward","folder":"tf","game":"Team Fortress","app_id":440,"player_count":24,"max_players":24,"Bots":0,"server_type":"Dedicated","server_os":"Linux","password":true,"vac":true,"version":"7961495","steam_id":85568392924469984,"keywords":["nocrits","nodmgspread","payload","uncletopia"],"game_id":440,"stv_port":27016,"stv_name":"Uncletopia | Chicago | 1 | All Maps | STV","players":[{"user_id":138,"name":"Toxic Mercenary","steam_id":76561197988501611,"connected_time":2391000000000,"state":"active","ping":75},{"user_id":137,"name":"Jerry Bondle","steam_id":76561198337512213,"connected_time":2402000000000,"state":"active","ping":58},{"user_id":162,"name":"Milkmur","steam_id":76561198210043821,"connected_time":786000000000,"state":"active","ping":70},{"user_id":168,"name":"Tec-9 Fubar","steam_id":76561198403649648,"connected_time":212000000000,"state":"active","ping":50},{"user_id":163,"name":"Boofenshmirtz","steam_id":76561198071649858,"connected_time":782000000000,"state":"active","ping":65},{"user_id":159,"name":"Lee Surge (fishtank.live)","steam_id":76561198202272884,"connected_time":873000000000,"state":"active","ping":88},{"user_id":123,"name":"cheddar baked ruffles","steam_id":76561198799404824,"connected_time":3381000000000,"state":"active","ping":68},{"user_id":169,"name":"chef doober","steam_id":76561199102839784,"connected_time":203000000000,"state":"active","ping":90},{"user_id":136,"name":"Kola ✧","steam_id":76561198049995341,"connected_time":2589000000000,"state":"active","ping":51},{"user_id":170,"name":"rat eater","steam_id":76561199216874750,"connected_time":195000000000,"state":"active","ping":51},{"user_id":165,"name":"Pixler544","steam_id":76561198240575132,"connected_time":750000000000,"state":"active","ping":74},{"user_id":152,"name":"Forgeblazer","steam_id":76561198073710034,"connected_time":1790000000000,"state":"active","ping":62},{"user_id":164,"name":"Bonk Boy","steam_id":76561199241513961,"connected_time":772000000000,"state":"active","ping":99},{"user_id":160,"name":"Dan","steam_id":76561198205054883,"connected_time":844000000000,"state":"active","ping":103},{"user_id":151,"name":"Tala\u003c3","steam_id":76561198169200739,"connected_time":1829000000000,"state":"active","ping":48},{"user_id":158,"name":"MedRed™ #IATAH","steam_id":76561198002962970,"connected_time":1312000000000,"state":"active","ping":91},{"user_id":175,"name":"Im totally a hacker","steam_id":76561198888005736,"connected_time":0,"state":"connecting","ping":0},{"user_id":166,"name":"IV","steam_id":76561198061775515,"connected_time":600000000000,"state":"active","ping":53},{"user_id":172,"name":"baguette","steam_id":76561198209813328,"connected_time":160000000000,"state":"active","ping":52},{"user_id":173,"name":"goblin","steam_id":76561199004451589,"connected_time":140000000000,"state":"active","ping":73},{"user_id":141,"name":"Koishi","steam_id":76561198054541054,"connected_time":2280000000000,"state":"active","ping":57},{"user_id":167,"name":"TallBit","steam_id":76561199059748976,"connected_time":420000000000,"state":"active","ping":54},{"user_id":174,"name":"notmanhattan","steam_id":76561198143117561,"connected_time":136000000000,"state":"active","ping":82},{"user_id":157,"name":"hej","steam_id":76561197996366940,"connected_time":1348000000000,"state":"active","ping":61}]},{"server_id":106,"name":"Uncletopia | Chicago | 2 | All Maps","name_short":"chi-2","host":"chi-1.us.uncletopia.com","port":27025,"enabled":true,"region":"us-central","cc":"us","latitude":41.881832,"longitude":-87.62318,"reserved":0,"last_update":"0001-01-01T00:00:00Z","name_a2s":"Uncletopia | Chicago | 2 | All Maps","protocol":17,"map":"pl_swiftwater_final1","folder":"tf","game":"Team Fortress","app_id":440,"player_count":24,"max_players":24,"Bots":0,"server_type":"Dedicated","server_os":"Linux","password":true,"vac":true,"version":"7961495","steam_id":85568392924469985,"keywords":["nocrits","nodmgspread","payload","uncletopia"],"game_id":440,"stv_port":27026,"stv_name":"Uncletopia | Chicago | 2 | All Maps | STV","players":[{"user_id":180,"name":"Other Players, My One Weakness","steam_id":76561197989247588,"connected_time":1755000000000,"state":"active","ping":62},{"user_id":207,"name":"Hamlindigo Blue™","steam_id":76561198116337540,"connected_time":207000000000,"state":"active","ping":87},{"user_id":173,"name":"laptop_user431","steam_id":76561198420227358,"connected_time":2608000000000,"state":"active","ping":76},{"user_id":194,"name":"SomeRandomCat","steam_id":76561199107044061,"connected_time":1262000000000,"state":"active","ping":72},{"user_id":195,"name":"Toxic-Fluid","steam_id":76561198115530353,"connected_time":1235000000000,"state":"active","ping":69},{"user_id":203,"name":"non_ai","steam_id":76561198270951938,"connected_time":744000000000,"state":"active","ping":62},{"user_id":197,"name":"Davidicus_Paladin","steam_id":76561199508944394,"connected_time":1224000000000,"state":"active","ping":64},{"user_id":166,"name":"Ceige","steam_id":76561198068538473,"connected_time":2789000000000,"state":"active","ping":75},{"user_id":115,"name":"pineApple Zoo","steam_id":76561198013732450,"connected_time":6711000000000,"state":"active","ping":57},{"user_id":182,"name":"Chris P. Bacon","steam_id":76561198000851038,"connected_time":1711000000000,"state":"active","ping":82},{"user_id":80,"name":"Rornir","steam_id":76561198081829615,"connected_time":9896000000000,"state":"active","ping":39},{"user_id":208,"name":"kjc105","steam_id":76561198880364422,"connected_time":159000000000,"state":"active","ping":82},{"user_id":202,"name":"Nathan","steam_id":76561198127924646,"connected_time":810000000000,"state":"active","ping":89},{"user_id":186,"name":"᲼᲼᲼","steam_id":76561198845246815,"connected_time":1557000000000,"state":"active","ping":106},{"user_id":171,"name":"Sexy Kitten (toxic)","steam_id":76561197979056451,"connected_time":2774000000000,"state":"active","ping":98},{"user_id":206,"name":"Meh","steam_id":76561198078187920,"connected_time":279000000000,"state":"active","ping":84},{"user_id":183,"name":"Goomby","steam_id":76561198079416561,"connected_time":1710000000000,"state":"active","ping":110},{"user_id":174,"name":"Fluffeline","steam_id":76561198352909489,"connected_time":2607000000000,"state":"active","ping":141},{"user_id":184,"name":"Yamn Zaddy","steam_id":76561198074678001,"connected_time":1677000000000,"state":"active","ping":113},{"user_id":178,"name":"onionaid","steam_id":76561198065266282,"connected_time":1891000000000,"state":"active","ping":67},{"user_id":201,"name":"Debarro","steam_id":76561198452105948,"connected_time":1025000000000,"state":"active","ping":61},{"user_id":175,"name":"BEEEEEEEEEEEEEEEES","steam_id":76561199431280503,"connected_time":2537000000000,"state":"active","ping":76},{"user_id":156,"name":"D(b) Hell","steam_id":76561198067869016,"connected_time":4011000000000,"state":"active","ping":45},{"user_id":205,"name":"epic cheeseburger","steam_id":76561198041995180,"connected_time":289000000000,"state":"active","ping":84}]},{"server_id":402,"name":"Uncletopia | Chicago | 3 | All Maps","name_short":"chi-3","host":"chi-1.us.uncletopia.com","port":27035,"enabled":true,"region":"us-central","cc":"us","latitude":41.881832,"longitude":-87.62318,"reserved":0,"last_update":"0001-01-01T00:00:00Z","name_a2s":"Uncletopia | Chicago | 3 | All Maps","protocol":17,"map":"koth_cascade","folder":"tf","game":"Team Fortress","app_id":440,"player_count":0,"max_players":24,"Bots":0,"server_type":"Dedicated","server_os":"Linux","password":true,"vac":true,"version":"7961495","steam_id":85568392924515191,"keywords":["cp","nocrits","nodmgspread","uncletopia"],"game_id":440,"stv_port":27036,"stv_name":"Uncletopia | Chicago | 3 | All Maps | STV","players":null},{"server_id":403,"name":"Uncletopia | Chicago | 4 | All Maps","name_short":"chi-4","host":"chi-1.us.uncletopia.com","port":27045,"enabled":true,"region":"us-central","cc":"us","latitude":41.881832,"longitude":-87.62318,"reserved":0,"last_update":"0001-01-01T00:00:00Z","name_a2s":"Uncletopia | Chicago | 4 | All Maps","protocol":17,"map":"cp_gorge","folder":"tf","game":"Team Fortress","app_id":440,"player_count":24,"max_players":24,"Bots":0,"server_type":"Dedicated","server_os":"Linux","password":true,"vac":true,"version":"7961495","steam_id":85568392924515193,"keywords":["cp","nocrits","nodmgspread","uncletopia"],"game_id":440,"stv_port":27046,"stv_name":"Uncletopia | Chicago | 4 | All Maps | STV","players":[{"user_id":275,"name":"Meskoozy","steam_id":76561198102394479,"connected_time":2663000000000,"state":"active","ping":64},{"user_id":307,"name":"losing","steam_id":76561198003206947,"connected_time":739000000000,"state":"active","ping":63},{"user_id":293,"name":"battle clown","steam_id":76561198045788371,"connected_time":1874000000000,"state":"active","ping":69},{"user_id":316,"name":"Thequirka","steam_id":76561198968058652,"connected_time":429000000000,"state":"active","ping":95},{"user_id":308,"name":"marlow","steam_id":76561198094408360,"connected_time":657000000000,"state":"active","ping":74},{"user_id":309,"name":"homsar","steam_id":76561199031742838,"connected_time":647000000000,"state":"active","ping":66},{"user_id":310,"name":"Gorilla","steam_id":76561198353451603,"connected_time":597000000000,"state":"active","ping":75},{"user_id":314,"name":"BeautifulDeer","steam_id":76561198119588300,"connected_time":516000000000,"state":"active","ping":74},{"user_id":319,"name":"Comrade","steam_id":76561199056721863,"connected_time":352000000000,"state":"active","ping":77},{"user_id":305,"name":"asscastle","steam_id":76561198097330521,"connected_time":1168000000000,"state":"active","ping":156},{"user_id":288,"name":"Lain","steam_id":76561198029303534,"connected_time":2013000000000,"state":"active","ping":62},{"user_id":312,"name":"H0wlr","steam_id":76561198012332824,"connected_time":551000000000,"state":"active","ping":66},{"user_id":294,"name":"[El Fail] MR.BadassMCLee","steam_id":76561198043787818,"connected_time":1693000000000,"state":"active","ping":106},{"user_id":313,"name":"Yukiteru Amano","steam_id":76561198267480166,"connected_time":545000000000,"state":"active","ping":90},{"user_id":268,"name":"♥ Tomboy ♥","steam_id":76561198069881436,"connected_time":3137000000000,"state":"active","ping":74},{"user_id":291,"name":"heyCharn","steam_id":76561198058641350,"connected_time":1969000000000,"state":"active","ping":108},{"user_id":262,"name":"confield","steam_id":76561198004322265,"connected_time":3410000000000,"state":"active","ping":71},{"user_id":320,"name":"Brothir","steam_id":76561198202989120,"connected_time":183000000000,"state":"active","ping":90},{"user_id":317,"name":"Nixon Me, Dixon Me","steam_id":76561198126519537,"connected_time":396000000000,"state":"active","ping":80},{"user_id":274,"name":"Chanter","steam_id":76561198246701796,"connected_time":2779000000000,"state":"active","ping":76},{"user_id":292,"name":"A Loaf Of Fetus","steam_id":76561198058016214,"connected_time":1969000000000,"state":"active","ping":112},{"user_id":301,"name":"Viewie","steam_id":76561198280108853,"connected_time":1324000000000,"state":"active","ping":83},{"user_id":257,"name":"Gangsta monkey","steam_id":76561198282395338,"connected_time":3600000000000,"state":"active","ping":83},{"user_id":285,"name":"Maverick","steam_id":76561199160592961,"connected_time":2182000000000,"state":"active","ping":79}]},{"server_id":36,"name":"Uncletopia | Chicago | 5 | All Maps","name_short":"chi-5","host":"chi-2.us.uncletopia.com","port":27015,"enabled":true,"region":"us-central","cc":"us","latitude":41.881832,"longitude":-87.62318,"reserved":0,"last_update":"0001-01-01T00:00:00Z","name_a2s":"Uncletopia | Chicago | 5 | All Maps","protocol":17,"map":"cp_altitude","folder":"tf","game":"Team Fortress","app_id":440,"player_count":0,"max_players":24,"Bots":0,"server_type":"Dedicated","server_os":"Linux","password":true,"vac":true,"version":"7961495","steam_id":85568392924866362,"keywords":["cp","nocrits","nodmgspread","uncletopia"],"game_id":440,"stv_port":27016,"stv_name":"Uncletopia | Chicago | 5 | All Maps | STV","players":null},{"server_id":37,"name":"Uncletopia | Chicago | 6 | All Maps","name_short":"chi-6","host":"chi-2.us.uncletopia.com","port":27025,"enabled":true,"region":"us-central","cc":"us","latitude":41.881832,"longitude":-87.62318,"reserved":0,"last_update":"0001-01-01T00:00:00Z","name_a2s":"Uncletopia | Chicago | 6 | All Maps","protocol":17,"map":"pl_swiftwater_final1","folder":"tf","game":"Team Fortress","app_id":440,"player_count":24,"max_players":24,"Bots":0,"server_type":"Dedicated","server_os":"Linux","password":true,"vac":true,"version":"7961495","steam_id":85568392924866363,"keywords":["nocrits","nodmgspread","payload","uncletopia"],"game_id":440,"stv_port":27026,"stv_name":"Uncletopia | Chicago | 6 | All Maps | STV","players":[{"user_id":381,"name":"TerraPixel","steam_id":76561199220537574,"connected_time":1037000000000,"state":"active","ping":69},{"user_id":410,"name":"mild","steam_id":76561198082470182,"connected_time":35000000000,"state":"active","ping":90},{"user_id":400,"name":"ö¿rö  ù π (NGï○á x 21","steam_id":76561198069589278,"connected_time":444000000000,"state":"active","ping":141},{"user_id":393,"name":"JakeTheSnake2007","steam_id":76561199101642283,"connected_time":751000000000,"state":"active","ping":56},{"user_id":401,"name":"Junk","steam_id":76561198024382753,"connected_time":440000000000,"state":"active","ping":45},{"user_id":398,"name":"TONY SOPRANO","steam_id":76561198162029332,"connected_time":572000000000,"state":"active","ping":75},{"user_id":379,"name":"LargerThanAverageDragon","steam_id":76561198152036300,"connected_time":1098000000000,"state":"active","ping":65},{"user_id":389,"name":"Ott-er","steam_id":76561198858227126,"connected_time":835000000000,"state":"active","ping":85},{"user_id":380,"name":"poon","steam_id":76561198049740395,"connected_time":1062000000000,"state":"active","ping":54},{"user_id":371,"name":"TheMemeHead","steam_id":76561198351995227,"connected_time":1576000000000,"state":"active","ping":61},{"user_id":402,"name":"The Most Useless Scout","steam_id":76561199085768718,"connected_time":432000000000,"state":"active","ping":92},{"user_id":392,"name":"yaldabaoth","steam_id":76561198084606869,"connected_time":784000000000,"state":"active","ping":41},{"user_id":408,"name":"aurro","steam_id":76561198315692300,"connected_time":253000000000,"state":"active","ping":53},{"user_id":403,"name":"Skuth","steam_id":76561198041470939,"connected_time":420000000000,"state":"active","ping":66},{"user_id":384,"name":"i draw for tf2 keys","steam_id":76561198335777522,"connected_time":1001000000000,"state":"active","ping":70},{"user_id":385,"name":"megakronos479","steam_id":76561198867315071,"connected_time":996000000000,"state":"active","ping":94},{"user_id":405,"name":"Deez","steam_id":76561198881080524,"connected_time":312000000000,"state":"active","ping":145},{"user_id":302,"name":"Docthenotable","steam_id":76561199389114520,"connected_time":7769000000000,"state":"active","ping":61},{"user_id":406,"name":"GuyGoom","steam_id":76561198254522178,"connected_time":279000000000,"state":"active","ping":52},{"user_id":334,"name":"chickenenthusiast427","steam_id":76561198909415646,"connected_time":4846000000000,"state":"active","ping":82},{"user_id":407,"name":"Skudge Sister","steam_id":76561198041766766,"connected_time":272000000000,"state":"active","ping":77},{"user_id":395,"name":"The Idiot","steam_id":76561198049837377,"connected_time":726000000000,"state":"active","ping":49},{"user_id":396,"name":"the milk man","steam_id":76561199094547569,"connected_time":715000000000,"state":"active","ping":49},{"user_id":411,"name":"Ranger","steam_id":76561198064096654,"connected_time":19000000000,"state":"active","ping":45}]},{"server_id":38,"name":"Uncletopia | Chicago | 7 | Stopwatch","name_short":"chi-7","host":"chi-2.us.uncletopia.com","port":27035,"enabled":true,"region":"us-central","cc":"us","latitude":41.881832,"longitude":-87.62318,"reserved":0,"last_update":"0001-01-01T00:00:00Z","name_a2s":"Uncletopia | Chicago | 7 | Stopwatch","protocol":17,"map":"koth_lakeside_final","folder":"tf","game":"Team Fortress","app_id":440,"player_count":0,"max_players":24,"Bots":0,"server_type":"Dedicated","server_os":"Linux","password":true,"vac":true,"version":"7961495","steam_id":85568392924866364,"keywords":["cp","nocrits","nodmgspread","uncletopia"],"game_id":440,"stv_port":27036,"stv_name":"Uncletopia | Chicago | 7 | Stopwatch | STV","players":null},{"server_id":39,"name":"Uncletopia | Chicago | 8 | Community","name_short":"chi-8","host":"chi-2.us.uncletopia.com","port":27045,"enabled":true,"region":"us-central","cc":"us","latitude":41.881832,"longitude":-87.62318,"reserved":0,"last_update":"0001-01-01T00:00:00Z","name_a2s":"Uncletopia | Chicago | 8 | Community","protocol":17,"map":"workshop/cp_caldera_rc3.ugc2834196889","folder":"tf","game":"Team Fortress","app_id":440,"player_count":0,"max_players":24,"Bots":0,"server_type":"Dedicated","server_os":"Linux","password":true,"vac":true,"version":"7961495","steam_id":85568392924866365,"keywords":["cp","nocrits","nodmgspread","uncletopia"],"game_id":440,"stv_port":27046,"stv_name":"Uncletopia | Chicago | 8 | Community | STV","players":null},{"server_id":8,"name":"Uncletopia | Dallas | 1 | All Maps","name_short":"dal-1","host":"dal-1.us.uncletopia.com","port":27015,"enabled":true,"region":"us-central","cc":"us","latitude":32.779167,"longitude":-96.80889,"reserved":0,"last_update":"0001-01-01T00:00:00Z","name_a2s":"Uncletopia | Dallas | 1 | All Maps","protocol":17,"map":"cp_gorge","folder":"tf","game":"Team Fortress","app_id":440,"player_count":24,"max_players":24,"Bots":0,"server_type":"Dedicated","server_os":"Linux","password":true,"vac":true,"version":"7961495","steam_id":85568392924469986,"keywords":["cp","nocrits","nodmgspread","uncletopia"],"game_id":440,"stv_port":27016,"stv_name":"Uncletopia | Dallas | 1 | All Maps | STV","players":[{"user_id":31,"name":"Crλf227","steam_id":76561198196211121,"connected_time":3922000000000,"state":"active","ping":66},{"user_id":76,"name":"Certified Hood Classic","steam_id":76561199086159354,"connected_time":1385000000000,"state":"active","ping":57},{"user_id":80,"name":"nicholas","steam_id":76561198058211873,"connected_time":1185000000000,"state":"active","ping":56},{"user_id":88,"name":"Uh Oh!","steam_id":76561197981137624,"connected_time":531000000000,"state":"active","ping":78},{"user_id":86,"name":"Your Dinosaurs","steam_id":76561198392670237,"connected_time":636000000000,"state":"active","ping":90},{"user_id":84,"name":"owl","steam_id":76561198088403016,"connected_time":653000000000,"state":"active","ping":176},{"user_id":65,"name":"freesia","steam_id":76561198127525888,"connected_time":2309000000000,"state":"active","ping":53},{"user_id":42,"name":"Human_Duck_Box","steam_id":76561199216572071,"connected_time":3313000000000,"state":"active","ping":104},{"user_id":44,"name":"Capybara Enjoyer","steam_id":76561199147114434,"connected_time":2982000000000,"state":"active","ping":95},{"user_id":73,"name":"donkey kong master","steam_id":76561198142732734,"connected_time":1665000000000,"state":"active","ping":68},{"user_id":46,"name":"Whoops!","steam_id":76561198151315898,"connected_time":2933000000000,"state":"active","ping":64},{"user_id":90,"name":"a Salty Individual","steam_id":76561197979951077,"connected_time":178000000000,"state":"active","ping":115},{"user_id":48,"name":"Zycron0","steam_id":76561199122983789,"connected_time":2898000000000,"state":"active","ping":96},{"user_id":63,"name":"EMPTY WITCH","steam_id":76561198068800572,"connected_time":2534000000000,"state":"active","ping":83},{"user_id":91,"name":"Drew","steam_id":76561198991129355,"connected_time":159000000000,"state":"active","ping":97},{"user_id":51,"name":"Uncletopia Dallas 1 Player","steam_id":76561198230316868,"connected_time":2883000000000,"state":"active","ping":60},{"user_id":52,"name":"Catgirl Explise","steam_id":76561198044413891,"connected_time":2849000000000,"state":"active","ping":98},{"user_id":71,"name":"Glenn Quagmire","steam_id":76561199044705592,"connected_time":2238000000000,"state":"active","ping":112},{"user_id":55,"name":"shakoiwa","steam_id":76561199059441773,"connected_time":2770000000000,"state":"active","ping":80},{"user_id":79,"name":"fish","steam_id":76561198111396488,"connected_time":1213000000000,"state":"active","ping":46},{"user_id":61,"name":"ebbaxter13","steam_id":76561198839647688,"connected_time":2595000000000,"state":"active","ping":124},{"user_id":85,"name":"Firedust19","steam_id":76561198153238631,"connected_time":647000000000,"state":"active","ping":91},{"user_id":89,"name":"asm_ghost","steam_id":76561199205363547,"connected_time":261000000000,"state":"active","ping":104},{"user_id":60,"name":"Vroooooooooooooooom","steam_id":76561198139913628,"connected_time":2676000000000,"state":"active","ping":53}]},{"server_id":108,"name":"Uncletopia | Dallas | 2 | All Maps","name_short":"dal-2","host":"dal-1.us.uncletopia.com","port":27025,"enabled":true,"region":"us-central","cc":"us","latitude":32.779167,"longitude":-96.80889,"reserved":0,"last_update":"0001-01-01T00:00:00Z","name_a2s":"Uncletopia | Dallas | 2 | All Maps","protocol":17,"map":"pl_swiftwater_final1","folder":"tf","game":"Team Fortress","app_id":440,"player_count":24,"max_players":24,"Bots":0,"server_type":"Dedicated","server_os":"Linux","password":true,"vac":true,"version":"7961495","steam_id":85568392924469988,"keywords":["nocrits","nodmgspread","payload","uncletopia"],"game_id":440,"stv_port":27026,"stv_name":"Uncletopia | Dallas | 2 | All Maps | STV","players":[{"user_id":92,"name":"❤ Ashleyyy ❤","steam_id":76561198056428303,"connected_time":3218000000000,"state":"active","ping":75},{"user_id":138,"name":"spacetoven","steam_id":76561198115821131,"connected_time":924000000000,"state":"active","ping":88},{"user_id":162,"name":"mr poop","steam_id":76561199195196632,"connected_time":171000000000,"state":"active","ping":54},{"user_id":114,"name":"Prof. Eggnog","steam_id":76561198193389166,"connected_time":1403000000000,"state":"active","ping":94},{"user_id":17,"name":"Baconator","steam_id":76561198941700660,"connected_time":7938000000000,"state":"active","ping":105},{"user_id":141,"name":"Skab E²","steam_id":76561199126112357,"connected_time":781000000000,"state":"active","ping":76},{"user_id":107,"name":"Mr. Warcrimes (B.F.B.L)","steam_id":76561198154254733,"connected_time":1432000000000,"state":"active","ping":107},{"user_id":112,"name":"Xavibite","steam_id":76561198209380493,"connected_time":1412000000000,"state":"active","ping":83},{"user_id":106,"name":"The Anime Protagonist","steam_id":76561198131400543,"connected_time":1433000000000,"state":"active","ping":72},{"user_id":102,"name":"Arc","steam_id":76561198057246982,"connected_time":2200000000000,"state":"active","ping":56},{"user_id":143,"name":"Cambonieboo","steam_id":76561198139174433,"connected_time":707000000000,"state":"active","ping":76},{"user_id":103,"name":"mkl","steam_id":76561197986401685,"connected_time":2001000000000,"state":"active","ping":57},{"user_id":108,"name":"schmuck","steam_id":76561198143789773,"connected_time":1432000000000,"state":"active","ping":58},{"user_id":156,"name":"Jovyel","steam_id":76561198118777065,"connected_time":449000000000,"state":"active","ping":62},{"user_id":66,"name":"Sleepy","steam_id":76561198978688451,"connected_time":4988000000000,"state":"active","ping":83},{"user_id":62,"name":"K.O. Stradivarius","steam_id":76561198974913245,"connected_time":5192000000000,"state":"active","ping":83},{"user_id":64,"name":"ParchedPigeon9","steam_id":76561198257204226,"connected_time":5025000000000,"state":"active","ping":54},{"user_id":49,"name":"✧.*Remzy✧.*","steam_id":76561199239412094,"connected_time":6151000000000,"state":"active","ping":173},{"user_id":166,"name":"Platinum","steam_id":76561198052463484,"connected_time":99000000000,"state":"active","ping":106},{"user_id":157,"name":"Grapes","steam_id":76561198799237970,"connected_time":402000000000,"state":"active","ping":142},{"user_id":118,"name":"gru","steam_id":76561198208576396,"connected_time":1355000000000,"state":"active","ping":77},{"user_id":158,"name":"Xraverz","steam_id":76561198008891628,"connected_time":348000000000,"state":"active","ping":103},{"user_id":134,"name":"☼Barracuda☼","steam_id":76561198013022083,"connected_time":1048000000000,"state":"active","ping":62},{"user_id":121,"name":"purple yellow red \u0026 blue","steam_id":76561198188722751,"connected_time":1331000000000,"state":"active","ping":92}]},{"server_id":404,"name":"Uncletopia | Dallas | 3 | All Maps","name_short":"dal-3","host":"dal-1.us.uncletopia.com","port":27035,"enabled":true,"region":"us-central","cc":"us","latitude":32.779167,"longitude":-96.80889,"reserved":0,"last_update":"0001-01-01T00:00:00Z","name_a2s":"Uncletopia | Dallas | 3 | All Maps","protocol":17,"map":"ctf_2fort","folder":"tf","game":"Team Fortress","app_id":440,"player_count":4,"max_players":24,"Bots":0,"server_type":"Dedicated","server_os":"Linux","password":true,"vac":true,"version":"7961495","steam_id":85568392924515219,"keywords":["ctf","nocrits","nodmgspread","uncletopia"],"game_id":440,"stv_port":27036,"stv_name":"Uncletopia | Dallas | 3 | All Maps | STV","players":[{"user_id":11,"name":"Ros","steam_id":76561199055963822,"connected_time":339000000000,"state":"active","ping":60},{"user_id":12,"name":"banana97286","steam_id":76561199367847817,"connected_time":324000000000,"state":"active","ping":81},{"user_id":14,"name":"Stuff","steam_id":76561199229774519,"connected_time":59000000000,"state":"active","ping":59},{"user_id":15,"name":"KingKoa","steam_id":76561198963089548,"connected_time":44000000000,"state":"active","ping":87}]},{"server_id":405,"name":"Uncletopia | Dallas | 4 | Community","name_short":"dal-4","host":"dal-1.us.uncletopia.com","port":27045,"enabled":true,"region":"us-central","cc":"us","latitude":32.779167,"longitude":-96.80889,"reserved":0,"last_update":"0001-01-01T00:00:00Z","name_a2s":"Uncletopia | Dallas | 4 | Community","protocol":17,"map":"workshop/cp_croissant_final.ugc458840209","folder":"tf","game":"Team Fortress","app_id":440,"player_count":0,"max_players":24,"Bots":0,"server_type":"Dedicated","server_os":"Linux","password":true,"vac":true,"version":"7961495","steam_id":85568392924515220,"keywords":["cp","nocrits","nodmgspread","uncletopia"],"game_id":440,"stv_port":27046,"stv_name":"Uncletopia | Dallas | 4 | Community | STV","players":null},{"server_id":5,"name":"Uncletopia | Frankfurt | 1 | All Maps","name_short":"frk-1","host":"frk-1.de.uncletopia.com","port":27015,"enabled":true,"region":"eu","cc":"de","latitude":50.110924,"longitude":8.682127,"reserved":0,"last_update":"0001-01-01T00:00:00Z","name_a2s":"Uncletopia | Frankfurt | 1 | All Maps","protocol":17,"map":"pl_badwater","folder":"tf","game":"Team Fortress","app_id":440,"player_count":24,"max_players":24,"Bots":0,"server_type":"Dedicated","server_os":"Linux","password":true,"vac":true,"version":"7961495","steam_id":85568392924469989,"keywords":["nocrits","nodmgspread","payload","uncletopia"],"game_id":440,"stv_port":27016,"stv_name":"Uncletopia | Frankfurt | 1 | All Maps | STV","players":[{"user_id":557,"name":"cheriberry","steam_id":76561198093577036,"connected_time":5029000000000,"state":"active","ping":57},{"user_id":606,"name":"MrDrinkAlot","steam_id":76561198050377836,"connected_time":986000000000,"state":"active","ping":95},{"user_id":569,"name":"godmodule","steam_id":76561198165995444,"connected_time":3991000000000,"state":"active","ping":62},{"user_id":597,"name":"Rogernuke","steam_id":76561198312815194,"connected_time":1924000000000,"state":"active","ping":74},{"user_id":566,"name":"えななん","steam_id":76561199427679148,"connected_time":4237000000000,"state":"active","ping":60},{"user_id":568,"name":"lemoul","steam_id":76561198078099059,"connected_time":4021000000000,"state":"active","ping":60},{"user_id":585,"name":"Sch","steam_id":76561198071341689,"connected_time":2860000000000,"state":"active","ping":52},{"user_id":531,"name":"david zaydullin (Charles McGill","steam_id":76561198965191846,"connected_time":6871000000000,"state":"active","ping":75},{"user_id":602,"name":"kenzou","steam_id":76561199180054996,"connected_time":1201000000000,"state":"active","ping":63},{"user_id":591,"name":"DoodleBug","steam_id":76561198125395902,"connected_time":2225000000000,"state":"active","ping":71},{"user_id":592,"name":"snayke","steam_id":76561198077822932,"connected_time":2048000000000,"state":"active","ping":60},{"user_id":528,"name":"antihuman","steam_id":76561198116027948,"connected_time":7207000000000,"state":"active","ping":74},{"user_id":603,"name":"nyanezt","steam_id":76561198253734265,"connected_time":1200000000000,"state":"active","ping":94},{"user_id":588,"name":"MiguelYaBoy","steam_id":76561198406295464,"connected_time":2593000000000,"state":"active","ping":67},{"user_id":609,"name":"LEGEND FUMO.","steam_id":76561198061033903,"connected_time":261000000000,"state":"active","ping":45},{"user_id":567,"name":"Noodle","steam_id":76561198306486695,"connected_time":4183000000000,"state":"active","ping":57},{"user_id":551,"name":"S@wKa","steam_id":76561198200160028,"connected_time":5675000000000,"state":"active","ping":64},{"user_id":590,"name":"Luxotrics","steam_id":76561198053455161,"connected_time":2371000000000,"state":"active","ping":81},{"user_id":577,"name":"God is serb","steam_id":76561198966246028,"connected_time":3107000000000,"state":"active","ping":85},{"user_id":610,"name":"Mario Bazzuga","steam_id":76561198056690312,"connected_time":109000000000,"state":"active","ping":67},{"user_id":599,"name":"simp gamer","steam_id":76561198021854431,"connected_time":1219000000000,"state":"active","ping":67},{"user_id":555,"name":"Carl","steam_id":76561198045638738,"connected_time":5436000000000,"state":"active","ping":69},{"user_id":600,"name":"jmp","steam_id":76561198168283286,"connected_time":1219000000000,"state":"active","ping":75},{"user_id":608,"name":"Karma","steam_id":76561198162154135,"connected_time":445000000000,"state":"active","ping":91}]},{"server_id":110,"name":"Uncletopia | Frankfurt | 2 | All Maps","name_short":"frk-2","host":"frk-1.de.uncletopia.com","port":27025,"enabled":true,"region":"eu","cc":"de","latitude":50.110924,"longitude":8.682127,"reserved":0,"last_update":"0001-01-01T00:00:00Z","name_a2s":"Uncletopia | Frankfurt | 2 | All Maps","protocol":17,"map":"plr_bananabay","folder":"tf","game":"Team Fortress","app_id":440,"player_count":24,"max_players":24,"Bots":0,"server_type":"Dedicated","server_os":"Linux","password":true,"vac":true,"version":"7961495","steam_id":85568392924469990,"keywords":["nocrits","nodmgspread","payload","uncletopia"],"game_id":440,"stv_port":27026,"stv_name":"Uncletopia | Frankfurt | 2 | All Maps | STV","players":[{"user_id":521,"name":"↯","steam_id":76561198055389492,"connected_time":1565000000000,"state":"active","ping":60},{"user_id":517,"name":"Tea","steam_id":76561198799243030,"connected_time":1818000000000,"state":"active","ping":67},{"user_id":543,"name":"Chappi","steam_id":76561198075512843,"connected_time":354000000000,"state":"active","ping":80},{"user_id":541,"name":"ComatosePhoenix","steam_id":76561198071702821,"connected_time":525000000000,"state":"active","ping":144},{"user_id":506,"name":"Laru","steam_id":76561197998838438,"connected_time":2534000000000,"state":"active","ping":76},{"user_id":553,"name":"doctour","steam_id":76561198063964992,"connected_time":86000000000,"state":"active","ping":71},{"user_id":522,"name":"jonh","steam_id":76561198261853441,"connected_time":1554000000000,"state":"active","ping":60},{"user_id":532,"name":"monocle chicken","steam_id":76561199020106029,"connected_time":1172000000000,"state":"active","ping":82},{"user_id":547,"name":"RA1234526","steam_id":76561199245954610,"connected_time":229000000000,"state":"active","ping":130},{"user_id":554,"name":"Alyx","steam_id":76561198064654326,"connected_time":78000000000,"state":"active","ping":62},{"user_id":529,"name":"baver","steam_id":76561198135293142,"connected_time":1252000000000,"state":"active","ping":69},{"user_id":530,"name":"Ham","steam_id":76561199030215955,"connected_time":1246000000000,"state":"active","ping":97},{"user_id":527,"name":"go play rimworld","steam_id":76561199397932924,"connected_time":1473000000000,"state":"active","ping":64},{"user_id":551,"name":"Hypn0tic","steam_id":76561198120730525,"connected_time":110000000000,"state":"active","ping":85},{"user_id":523,"name":"gaggle","steam_id":76561197988226281,"connected_time":1553000000000,"state":"active","ping":60},{"user_id":550,"name":"Marley","steam_id":76561198067663021,"connected_time":188000000000,"state":"active","ping":59},{"user_id":524,"name":"didi_gaga","steam_id":76561198797688627,"connected_time":1550000000000,"state":"active","ping":78},{"user_id":511,"name":"camperboy","steam_id":76561198138410890,"connected_time":2027000000000,"state":"active","ping":58},{"user_id":548,"name":"Scout","steam_id":76561198992898803,"connected_time":228000000000,"state":"active","ping":68},{"user_id":555,"name":"Dezzebdragon","steam_id":76561198321268457,"connected_time":71000000000,"state":"active","ping":68},{"user_id":538,"name":"Johnson","steam_id":76561199382978934,"connected_time":908000000000,"state":"active","ping":96},{"user_id":556,"name":"racecar37","steam_id":76561198985675604,"connected_time":68000000000,"state":"active","ping":76},{"user_id":552,"name":"biden cart 15 dollars","steam_id":76561198253731826,"connected_time":105000000000,"state":"active","ping":159},{"user_id":475,"name":"Mayor Wank from Wanker Town","steam_id":76561197998253588,"connected_time":4352000000000,"state":"active","ping":47}]},{"server_id":308,"name":"Uncletopia | Frankfurt | 3 | All Maps","name_short":"frk-3","host":"frk-1.de.uncletopia.com","port":27035,"enabled":true,"region":"eu","cc":"de","latitude":50.110924,"longitude":8.682127,"reserved":0,"last_update":"0001-01-01T00:00:00Z","name_a2s":"Uncletopia | Frankfurt | 3 | All Maps","protocol":17,"map":"cp_process_final","folder":"tf","game":"Team Fortress","app_id":440,"player_count":23,"max_players":24,"Bots":0,"server_type":"Dedicated","server_os":"Linux","password":true,"vac":true,"version":"7961495","steam_id":85568392924504274,"keywords":["cp","nocrits","nodmgspread","uncletopia"],"game_id":440,"stv_port":27036,"stv_name":"Uncletopia | Frankfurt | 3 | All Maps | STV","players":[{"user_id":318,"name":"MeLoMeN","steam_id":76561199174657436,"connected_time":1035000000000,"state":"active","ping":78},{"user_id":328,"name":"Spinya","steam_id":76561198086653667,"connected_time":431000000000,"state":"active","ping":61},{"user_id":305,"name":"Vidrox","steam_id":76561199217854983,"connected_time":1403000000000,"state":"active","ping":91},{"user_id":287,"name":"shooryukami","steam_id":76561199466594692,"connected_time":2013000000000,"state":"active","ping":114},{"user_id":281,"name":"wasto-/-™","steam_id":76561198102888038,"connected_time":2061000000000,"state":"active","ping":45},{"user_id":303,"name":"TJ1212","steam_id":76561199013575313,"connected_time":1547000000000,"state":"active","ping":63},{"user_id":298,"name":"Domdmar","steam_id":76561198104649922,"connected_time":1629000000000,"state":"active","ping":111},{"user_id":333,"name":"bastard","steam_id":76561198993925146,"connected_time":24000000000,"state":"active","ping":87},{"user_id":283,"name":"AverageArchie","steam_id":76561198163246758,"connected_time":2055000000000,"state":"active","ping":63},{"user_id":311,"name":"ultim8","steam_id":76561198201501691,"connected_time":1278000000000,"state":"active","ping":54},{"user_id":332,"name":"Desnot","steam_id":76561198862581894,"connected_time":184000000000,"state":"active","ping":75},{"user_id":306,"name":"★poyo★","steam_id":76561198150078959,"connected_time":1402000000000,"state":"active","ping":62},{"user_id":309,"name":"swg","steam_id":76561198147246166,"connected_time":1379000000000,"state":"active","ping":74},{"user_id":294,"name":"duckington duck","steam_id":76561199157117063,"connected_time":1845000000000,"state":"active","ping":55},{"user_id":331,"name":"you will shit bricks","steam_id":76561198139303045,"connected_time":192000000000,"state":"active","ping":80},{"user_id":246,"name":"abra-kablam","steam_id":76561198195857751,"connected_time":5089000000000,"state":"active","ping":65},{"user_id":326,"name":"mr.resetti","steam_id":76561198974520642,"connected_time":518000000000,"state":"active","ping":63},{"user_id":325,"name":"pandeux","steam_id":76561198343527617,"connected_time":584000000000,"state":"active","ping":55},{"user_id":319,"name":"Ecton","steam_id":76561198025103720,"connected_time":1010000000000,"state":"active","ping":60},{"user_id":330,"name":"Lucan","steam_id":76561198219195135,"connected_time":389000000000,"state":"active","ping":59},{"user_id":327,"name":"shapeshifter","steam_id":76561198052898368,"connected_time":517000000000,"state":"active","ping":70},{"user_id":329,"name":"DudeoftheRock","steam_id":76561198059401865,"connected_time":426000000000,"state":"active","ping":64},{"user_id":278,"name":"pjena","steam_id":76561198207643025,"connected_time":2240000000000,"state":"active","ping":48}]},{"server_id":309,"name":"Uncletopia | Frankfurt | 4 | All Maps","name_short":"frk-4","host":"frk-1.de.uncletopia.com","port":27045,"enabled":true,"region":"eu","cc":"de","latitude":50.110924,"longitude":8.682127,"reserved":0,"last_update":"0001-01-01T00:00:00Z","name_a2s":"Uncletopia | Frankfurt | 4 | All Maps","protocol":17,"map":"cp_process_final","folder":"tf","game":"Team Fortress","app_id":440,"player_count":24,"max_players":24,"Bots":0,"server_type":"Dedicated","server_os":"Linux","password":true,"vac":true,"version":"7961495","steam_id":85568392924504275,"keywords":["cp","nocrits","nodmgspread","uncletopia"],"game_id":440,"stv_port":27046,"stv_name":"Uncletopia | Frankfurt | 4 | All Maps | STV","players":[{"user_id":382,"name":"Zazou","steam_id":76561198028076362,"connected_time":248000000000,"state":"active","ping":52},{"user_id":387,"name":"Farmercy","steam_id":76561198000038039,"connected_time":131000000000,"state":"active","ping":46},{"user_id":368,"name":"Milfshake","steam_id":76561198208740557,"connected_time":1613000000000,"state":"active","ping":45},{"user_id":359,"name":"HayLeX","steam_id":76561198130997343,"connected_time":2069000000000,"state":"active","ping":88},{"user_id":378,"name":"Hey, I´m Andy!","steam_id":76561198060337777,"connected_time":280000000000,"state":"active","ping":72},{"user_id":357,"name":"pretty dick peso","steam_id":76561198798177799,"connected_time":2160000000000,"state":"active","ping":72},{"user_id":388,"name":"asu","steam_id":76561197994492154,"connected_time":126000000000,"state":"active","ping":60},{"user_id":358,"name":"wavelength","steam_id":76561198154677956,"connected_time":2095000000000,"state":"active","ping":73},{"user_id":340,"name":"_Alonso","steam_id":76561198041893314,"connected_time":3167000000000,"state":"active","ping":60},{"user_id":347,"name":"the rizzard of oz","steam_id":76561198066631833,"connected_time":2415000000000,"state":"active","ping":71},{"user_id":351,"name":"Teo","steam_id":76561198030853412,"connected_time":2374000000000,"state":"active","ping":60},{"user_id":377,"name":"Seeeb420","steam_id":76561199062630322,"connected_time":291000000000,"state":"active","ping":51},{"user_id":375,"name":"adil jay","steam_id":76561198182233723,"connected_time":763000000000,"state":"active","ping":145},{"user_id":338,"name":"EoN","steam_id":76561198103660553,"connected_time":3303000000000,"state":"active","ping":89},{"user_id":381,"name":"magma core enjoyer","steam_id":76561199042470246,"connected_time":262000000000,"state":"active","ping":53},{"user_id":371,"name":"Germanium_Ge","steam_id":76561198130561775,"connected_time":1197000000000,"state":"active","ping":48},{"user_id":331,"name":"Godjan","steam_id":76561198077554447,"connected_time":3572000000000,"state":"active","ping":136},{"user_id":312,"name":"hubert's mistake","steam_id":76561198057722639,"connected_time":4846000000000,"state":"active","ping":74},{"user_id":367,"name":"A Kobold With a Large Gun","steam_id":76561198060638325,"connected_time":1773000000000,"state":"active","ping":44},{"user_id":389,"name":"Bobirulez","steam_id":76561198009125458,"connected_time":55000000000,"state":"active","ping":75},{"user_id":385,"name":"λ kuriibo","steam_id":76561198081151480,"connected_time":204000000000,"state":"active","ping":320},{"user_id":349,"name":"OMG! i am one damaje off lethal","steam_id":76561198104896547,"connected_time":2413000000000,"state":"active","ping":65},{"user_id":317,"name":"Kamanie","steam_id":76561198135448255,"connected_time":4798000000000,"state":"active","ping":46},{"user_id":376,"name":"9A6","steam_id":76561199192434258,"connected_time":472000000000,"state":"active","ping":80}]},{"server_id":310,"name":"Uncletopia | Frankfurt | 5 | All Maps","name_short":"frk-5","host":"frk-1.de.uncletopia.com","port":27055,"enabled":true,"region":"eu","cc":"de","latitude":50.110924,"longitude":8.682127,"reserved":0,"last_update":"0001-01-01T00:00:00Z","name_a2s":"Uncletopia | Frankfurt | 5 | All Maps","protocol":17,"map":"pl_snowycoast","folder":"tf","game":"Team Fortress","app_id":440,"player_count":24,"max_players":24,"Bots":0,"server_type":"Dedicated","server_os":"Linux","password":true,"vac":true,"version":"7961495","steam_id":85568392924504277,"keywords":["nocrits","nodmgspread","payload","uncletopia"],"game_id":440,"stv_port":27056,"stv_name":"Uncletopia | Frankfurt | 5 | All Maps | STV","players":[{"user_id":553,"name":"zak","steam_id":76561197998895428,"connected_time":962000000000,"state":"active","ping":59},{"user_id":548,"name":"Noxifoxis","steam_id":76561198838493783,"connected_time":1241000000000,"state":"active","ping":84},{"user_id":554,"name":"Carrot Arc","steam_id":76561198164957006,"connected_time":929000000000,"state":"active","ping":77},{"user_id":491,"name":"Cepakas","steam_id":76561198878369698,"connected_time":5658000000000,"state":"active","ping":85},{"user_id":522,"name":"Caliban","steam_id":76561197999696839,"connected_time":3805000000000,"state":"active","ping":104},{"user_id":486,"name":"Maya #transrights","steam_id":76561198290614621,"connected_time":6105000000000,"state":"active","ping":74},{"user_id":555,"name":"1ggy","steam_id":76561199051285912,"connected_time":920000000000,"state":"active","ping":77},{"user_id":556,"name":"Arasey","steam_id":76561198996948426,"connected_time":917000000000,"state":"active","ping":81},{"user_id":541,"name":"sAmasam","steam_id":76561198114953928,"connected_time":2082000000000,"state":"active","ping":56},{"user_id":557,"name":"lulu","steam_id":76561199147764133,"connected_time":912000000000,"state":"active","ping":73},{"user_id":538,"name":"Carry Krypl","steam_id":76561198136938121,"connected_time":2216000000000,"state":"active","ping":57},{"user_id":558,"name":"I jazzed myself","steam_id":76561198203016603,"connected_time":898000000000,"state":"active","ping":70},{"user_id":571,"name":"FilipeLuk","steam_id":76561198150675438,"connected_time":397000000000,"state":"active","ping":68},{"user_id":549,"name":"Rad","steam_id":76561198273632736,"connected_time":1090000000000,"state":"active","ping":94},{"user_id":534,"name":"ok","steam_id":76561198320042443,"connected_time":2906000000000,"state":"active","ping":99},{"user_id":539,"name":"Purple Soup :D","steam_id":76561198985100366,"connected_time":2208000000000,"state":"active","ping":98},{"user_id":527,"name":"orange","steam_id":76561198153181940,"connected_time":3067000000000,"state":"active","ping":73},{"user_id":449,"name":"yush","steam_id":76561198121688934,"connected_time":7636000000000,"state":"active","ping":76},{"user_id":569,"name":"Umbro","steam_id":76561198087930438,"connected_time":537000000000,"state":"active","ping":73},{"user_id":566,"name":"SovietSpaceDog","steam_id":76561198005876029,"connected_time":675000000000,"state":"active","ping":82},{"user_id":563,"name":"Mr. Awki","steam_id":76561198061676496,"connected_time":752000000000,"state":"active","ping":67},{"user_id":570,"name":"Keke","steam_id":76561199052783561,"connected_time":401000000000,"state":"active","ping":91},{"user_id":543,"name":"t0ksi","steam_id":76561198107240798,"connected_time":1880000000000,"state":"active","ping":68},{"user_id":568,"name":"Danger_665","steam_id":76561199075064273,"connected_time":589000000000,"state":"active","ping":77}]},{"server_id":311,"name":"Uncletopia | Frankfurt | 6 | All Maps","name_short":"frk-6","host":"frk-1.de.uncletopia.com","port":27065,"enabled":true,"region":"eu","cc":"de","latitude":50.110924,"longitude":8.682127,"reserved":0,"last_update":"0001-01-01T00:00:00Z","name_a2s":"Uncletopia | Frankfurt | 6 | All Maps","protocol":17,"map":"cp_gorge","folder":"tf","game":"Team Fortress","app_id":440,"player_count":24,"max_players":24,"Bots":0,"server_type":"Dedicated","server_os":"Linux","password":true,"vac":true,"version":"7961495","steam_id":85568392924504278,"keywords":["cp","nocrits","nodmgspread","uncletopia"],"game_id":440,"stv_port":27066,"stv_name":"Uncletopia | Frankfurt | 6 | All Maps | STV","players":[{"user_id":388,"name":"qiberino","steam_id":76561199014227778,"connected_time":163000000000,"state":"active","ping":68},{"user_id":360,"name":"Killroywashere","steam_id":76561198169854979,"connected_time":2549000000000,"state":"active","ping":96},{"user_id":288,"name":"Random Bagel","steam_id":76561198047213821,"connected_time":6950000000000,"state":"active","ping":68},{"user_id":352,"name":"Vibrátor (418 122 locomotive)","steam_id":76561198097789669,"connected_time":3226000000000,"state":"active","ping":58},{"user_id":345,"name":"Robo-Tavish","steam_id":76561198073284118,"connected_time":3603000000000,"state":"active","ping":59},{"user_id":363,"name":"Swiss_Nostalgia","steam_id":76561199159896259,"connected_time":2244000000000,"state":"active","ping":67},{"user_id":367,"name":"FiuffyDaisy!","steam_id":76561198241732704,"connected_time":1744000000000,"state":"active","ping":58},{"user_id":374,"name":"golfmastr","steam_id":76561198993144124,"connected_time":998000000000,"state":"active","ping":70},{"user_id":390,"name":"COCAINE BICEPS","steam_id":76561197993633944,"connected_time":31000000000,"state":"active","ping":62},{"user_id":337,"name":"DaLuigi","steam_id":76561198054486188,"connected_time":3969000000000,"state":"active","ping":45},{"user_id":389,"name":"Ryan","steam_id":76561198004943931,"connected_time":163000000000,"state":"active","ping":47},{"user_id":338,"name":"Technic","steam_id":76561198128096130,"connected_time":3956000000000,"state":"active","ping":50},{"user_id":375,"name":"silicon based life form","steam_id":76561199127121346,"connected_time":983000000000,"state":"active","ping":66},{"user_id":320,"name":"Purrplehaze","steam_id":76561198297604298,"connected_time":4403000000000,"state":"active","ping":60},{"user_id":335,"name":"GMsU | Rebikas","steam_id":76561198077053764,"connected_time":3980000000000,"state":"active","ping":37},{"user_id":347,"name":"Ziemniaczki","steam_id":76561198061866742,"connected_time":3527000000000,"state":"active","ping":60},{"user_id":377,"name":"Ściana","steam_id":76561198196617407,"connected_time":904000000000,"state":"active","ping":76},{"user_id":369,"name":"aaa","steam_id":76561198322459156,"connected_time":1622000000000,"state":"active","ping":53},{"user_id":382,"name":"shoras","steam_id":76561198019680159,"connected_time":811000000000,"state":"active","ping":77},{"user_id":386,"name":"DONK","steam_id":76561198109679698,"connected_time":350000000000,"state":"active","ping":60},{"user_id":383,"name":"Tomy two","steam_id":76561198021775885,"connected_time":805000000000,"state":"active","ping":55},{"user_id":336,"name":"GMsU | AuxiliusN","steam_id":76561198328216978,"connected_time":3978000000000,"state":"active","ping":45},{"user_id":384,"name":"cory beck","steam_id":76561198190073005,"connected_time":801000000000,"state":"active","ping":59},{"user_id":385,"name":"tiko","steam_id":76561199478948953,"connected_time":801000000000,"state":"active","ping":75}]},{"server_id":23,"name":"Uncletopia | Frankfurt | 7 | Stopwatch","name_short":"frk-7","host":"frk-1.de.uncletopia.com","port":27075,"enabled":true,"region":"eu","cc":"de","latitude":50.110924,"longitude":8.682127,"reserved":0,"last_update":"0001-01-01T00:00:00Z","name_a2s":"Uncletopia | Frankfurt | 7 | Stopwatch","protocol":17,"map":"workshop/koth_ashville_final.ugc2130459942","folder":"tf","game":"Team Fortress","app_id":440,"player_count":4,"max_players":24,"Bots":0,"server_type":"Dedicated","server_os":"Linux","password":true,"vac":true,"version":"7961495","steam_id":85568392924742827,"keywords":["cp","nocrits","nodmgspread","uncletopia"],"game_id":440,"stv_port":27076,"stv_name":"Uncletopia | Frankfurt | 7 | Stopwatch | STV","players":[{"user_id":20,"name":"Stabing spy","steam_id":76561198847888227,"connected_time":761000000000,"state":"active","ping":133},{"user_id":21,"name":"LEOdeo_lEON","steam_id":76561198908962054,"connected_time":749000000000,"state":"active","ping":54},{"user_id":22,"name":"ItsGertje","steam_id":76561199063680083,"connected_time":129000000000,"state":"active","ping":55},{"user_id":23,"name":"ItsSamson","steam_id":76561199074263107,"connected_time":126000000000,"state":"active","ping":71}]},{"server_id":24,"name":"Uncletopia | Frankfurt | 8 | Community","name_short":"frk-8","host":"frk-1.de.uncletopia.com","port":27085,"enabled":true,"region":"eu","cc":"de","latitude":50.110924,"longitude":8.682127,"reserved":0,"last_update":"0001-01-01T00:00:00Z","name_a2s":"Uncletopia | Frankfurt | 8 | Community","protocol":17,"map":"workshop/pl_oasis_rc3.ugc1366095901","folder":"tf","game":"Team Fortress","app_id":440,"player_count":0,"max_players":24,"Bots":0,"server_type":"Dedicated","server_os":"Linux","password":true,"vac":true,"version":"7961495","steam_id":85568392924742828,"keywords":["nocrits","nodmgspread","payload","uncletopia"],"game_id":440,"stv_port":27086,"stv_name":"Uncletopia | Frankfurt | 8 | Community | STV","players":null},{"server_id":202,"name":"Uncletopia | Hong Kong | 1 | All Maps","name_short":"hgk-1","host":"hgk-1.hk.uncletopia.com","port":27015,"enabled":true,"region":"asia","cc":"hk","latitude":22.302711,"longitude":114.177216,"reserved":0,"last_update":"0001-01-01T00:00:00Z","name_a2s":"Uncletopia | Hong Kong | 1 | All Maps","protocol":17,"map":"cp_dustbowl","folder":"tf","game":"Team Fortress","app_id":440,"player_count":0,"max_players":24,"Bots":0,"server_type":"Dedicated","server_os":"Linux","password":true,"vac":true,"version":"7961495","steam_id":85568392924494504,"keywords":["cp","nocrits","nodmgspread","uncletopia"],"game_id":440,"stv_port":27016,"stv_name":"Uncletopia | Hong Kong | 1 | All Maps | STV","players":null},{"server_id":1,"name":"Uncletopia | Los Angeles | 1 | All Maps","name_short":"lax-1","host":"lax-1.us.uncletopia.com","port":27015,"enabled":true,"region":"us-west","cc":"us","latitude":33.94279,"longitude":-118.41004,"reserved":0,"last_update":"0001-01-01T00:00:00Z","name_a2s":"Uncletopia | Los Angeles | 1 | All Maps","protocol":17,"map":"koth_lakeside_final","folder":"tf","game":"Team Fortress","app_id":440,"player_count":3,"max_players":24,"Bots":0,"server_type":"Dedicated","server_os":"Linux","password":true,"vac":true,"version":"7961495","steam_id":85568392924469991,"keywords":["cp","nocrits","nodmgspread","uncletopia"],"game_id":440,"stv_port":27016,"stv_name":"Uncletopia | Los Angeles | 1 | All Maps | STV","players":[{"user_id":14,"name":"FlexTape","steam_id":76561198871834867,"connected_time":76000000000,"state":"active","ping":59},{"user_id":15,"name":"harambe 101","steam_id":76561198366850003,"connected_time":63000000000,"state":"active","ping":64},{"user_id":16,"name":"Cowboyfos","steam_id":76561199055740230,"connected_time":25000000000,"state":"active","ping":47}]},{"server_id":112,"name":"Uncletopia | Los Angeles | 2 | All Maps","name_short":"lax-2","host":"lax-1.us.uncletopia.com","port":27025,"enabled":true,"region":"us-west","cc":"us","latitude":33.94279,"longitude":-118.41004,"reserved":0,"last_update":"0001-01-01T00:00:00Z","name_a2s":"Uncletopia | Los Angeles | 2 | All Maps","protocol":17,"map":"koth_lazarus","folder":"tf","game":"Team Fortress","app_id":440,"player_count":1,"max_players":24,"Bots":0,"server_type":"Dedicated","server_os":"Linux","password":true,"vac":true,"version":"7961495","steam_id":85568392924469992,"keywords":["cp","nocrits","nodmgspread","uncletopia"],"game_id":440,"stv_port":27026,"stv_name":"Uncletopia | Los Angeles | 2 | All Maps | STV","players":[{"user_id":4,"name":"fortzei","steam_id":76561198210920541,"connected_time":341000000000,"state":"active","ping":52}]},{"server_id":324,"name":"Uncletopia | Los Angeles | 3 | All Maps","name_short":"lax-3","host":"lax-1.us.uncletopia.com","port":27035,"enabled":true,"region":"us-west","cc":"us","latitude":33.94279,"longitude":-118.41004,"reserved":0,"last_update":"0001-01-01T00:00:00Z","name_a2s":"Uncletopia | Los Angeles | 3 | All Maps","protocol":17,"map":"pl_borneo","folder":"tf","game":"Team Fortress","app_id":440,"player_count":0,"max_players":24,"Bots":0,"server_type":"Dedicated","server_os":"Linux","password":true,"vac":true,"version":"7961495","steam_id":85568392924510198,"keywords":["nocrits","nodmgspread","payload","uncletopia"],"game_id":440,"stv_port":27036,"stv_name":"Uncletopia | Los Angeles | 3 | All Maps | STV","players":null},{"server_id":25,"name":"Uncletopia | Los Angeles | 4 | Stopwatch","name_short":"lax-4","host":"lax-1.us.uncletopia.com","port":27045,"enabled":true,"region":"us-west","cc":"us","latitude":33.94279,"longitude":-118.41004,"reserved":0,"last_update":"0001-01-01T00:00:00Z","name_a2s":"Uncletopia | Los Angeles | 4 | Stopwatch","protocol":17,"map":"pl_upward","folder":"tf","game":"Team Fortress","app_id":440,"player_count":0,"max_players":24,"Bots":0,"server_type":"Dedicated","server_os":"Linux","password":true,"vac":true,"version":"7961495","steam_id":85568392924510199,"keywords":["nocrits","nodmgspread","payload","uncletopia"],"game_id":440,"stv_port":27046,"stv_name":"Uncletopia | Los Angeles | 4 | Stopwatch | STV","players":null},{"server_id":11,"name":"Uncletopia | London | 1 | All Maps","name_short":"lon-1","host":"lon-1.uk.uncletopia.com","port":27015,"enabled":true,"region":"eu","cc":"gb","latitude":51.509865,"longitude":-0.118092,"reserved":0,"last_update":"0001-01-01T00:00:00Z","name_a2s":"Uncletopia | London | 1 | All Maps","protocol":17,"map":"pl_frontier_final","folder":"tf","game":"Team Fortress","app_id":440,"player_count":24,"max_players":24,"Bots":0,"server_type":"Dedicated","server_os":"Linux","password":true,"vac":true,"version":"7961495","steam_id":85568392924367362,"keywords":["nocrits","nodmgspread","payload","uncletopia"],"game_id":440,"stv_port":27016,"stv_name":"Uncletopia | London | 1 | All Maps | STV","players":[{"user_id":660,"name":".:TEAM:. Rusty™","steam_id":76561198042400381,"connected_time":3310000000000,"state":"active","ping":59},{"user_id":589,"name":"Healix","steam_id":76561198130270161,"connected_time":7719000000000,"state":"active","ping":59},{"user_id":616,"name":"hitbox criminal","steam_id":76561198079277466,"connected_time":4915000000000,"state":"active","ping":71},{"user_id":692,"name":"Viv","steam_id":76561198199110998,"connected_time":12000000000,"state":"spawning","ping":112},{"user_id":686,"name":"Smokio","steam_id":76561198069650580,"connected_time":378000000000,"state":"active","ping":88},{"user_id":615,"name":"bapab","steam_id":76561198307556377,"connected_time":4942000000000,"state":"active","ping":47},{"user_id":649,"name":"dec","steam_id":76561198009660168,"connected_time":3692000000000,"state":"active","ping":56},{"user_id":691,"name":"Bumblebee","steam_id":76561198033551105,"connected_time":64000000000,"state":"active","ping":72},{"user_id":602,"name":"itransition UKRAINE","steam_id":76561198080912087,"connected_time":6540000000000,"state":"active","ping":74},{"user_id":661,"name":"Watch The Matrix 1999 HD online","steam_id":76561198168207306,"connected_time":3168000000000,"state":"active","ping":103},{"user_id":628,"name":"Thinkpad X220","steam_id":76561198830840410,"connected_time":4326000000000,"state":"active","ping":90},{"user_id":677,"name":"flappi","steam_id":76561198072892783,"connected_time":1202000000000,"state":"active","ping":70},{"user_id":668,"name":"gibb (this game fucking sucks)","steam_id":76561198074097655,"connected_time":2487000000000,"state":"active","ping":65},{"user_id":690,"name":"doktor spiele","steam_id":76561199057953617,"connected_time":101000000000,"state":"active","ping":75},{"user_id":669,"name":"AFriendlyRacoon2","steam_id":76561198128231464,"connected_time":2144000000000,"state":"active","ping":55},{"user_id":689,"name":"Endi","steam_id":76561198914938199,"connected_time":343000000000,"state":"active","ping":97},{"user_id":676,"name":"The Goon","steam_id":76561198086913973,"connected_time":1237000000000,"state":"active","ping":71},{"user_id":560,"name":"Lyra","steam_id":76561198043601838,"connected_time":9388000000000,"state":"active","ping":75},{"user_id":565,"name":"wk ohw","steam_id":76561198106049954,"connected_time":9052000000000,"state":"active","ping":75},{"user_id":688,"name":"tapeworms!","steam_id":76561198069649097,"connected_time":357000000000,"state":"active","ping":46},{"user_id":683,"name":"naah you off the Google+ perc","steam_id":76561198190583242,"connected_time":484000000000,"state":"active","ping":78},{"user_id":685,"name":"jüri","steam_id":76561198107460765,"connected_time":411000000000,"state":"active","ping":48},{"user_id":681,"name":"bolsonaro","steam_id":76561198074917015,"connected_time":717000000000,"state":"active","ping":78},{"user_id":667,"name":"Solymr ibn Wali Barad","steam_id":76561198044008976,"connected_time":2614000000000,"state":"active","ping":71}]},{"server_id":114,"name":"Uncletopia | London | 2 | All Maps","name_short":"lon-2","host":"lon-1.uk.uncletopia.com","port":27025,"enabled":true,"region":"eu","cc":"gb","latitude":51.509865,"longitude":-0.118092,"reserved":0,"last_update":"0001-01-01T00:00:00Z","name_a2s":"Uncletopia | London | 2 | All Maps","protocol":17,"map":"cp_snakewater_final1","folder":"tf","game":"Team Fortress","app_id":440,"player_count":25,"max_players":24,"Bots":0,"server_type":"Dedicated","server_os":"Linux","password":true,"vac":true,"version":"7961495","steam_id":85568392924470941,"keywords":["cp","nocrits","nodmgspread","uncletopia"],"game_id":440,"stv_port":27026,"stv_name":"Uncletopia | London | 2 | All Maps | STV","players":[{"user_id":63,"name":"PAN Dan","steam_id":76561198259233354,"connected_time":1435000000000,"state":"active","ping":65},{"user_id":64,"name":"Johnny Law (Sad Style)","steam_id":76561198402829980,"connected_time":1402000000000,"state":"active","ping":72},{"user_id":65,"name":"Hungeryan","steam_id":76561198887299930,"connected_time":1208000000000,"state":"active","ping":92},{"user_id":66,"name":"captaincaptain","steam_id":76561198135644587,"connected_time":1187000000000,"state":"active","ping":167},{"user_id":72,"name":"skilltissues","steam_id":76561198025828664,"connected_time":846000000000,"state":"active","ping":50},{"user_id":68,"name":"hooty","steam_id":76561199043415746,"connected_time":1148000000000,"state":"active","ping":75},{"user_id":69,"name":"Deez nuts","steam_id":76561199429562693,"connected_time":1054000000000,"state":"active","ping":76},{"user_id":78,"name":"Joe Swanson","steam_id":76561198178175462,"connected_time":497000000000,"state":"active","ping":60},{"user_id":71,"name":"Kenny_killer_69","steam_id":76561199465207725,"connected_time":1005000000000,"state":"active","ping":65},{"user_id":91,"name":"melon","steam_id":76561198128854032,"connected_time":309000000000,"state":"active","ping":69},{"user_id":75,"name":"Ricey","steam_id":76561198832961307,"connected_time":603000000000,"state":"active","ping":45},{"user_id":76,"name":"Flavia ♥","steam_id":76561198108360671,"connected_time":597000000000,"state":"active","ping":109},{"user_id":100,"name":"frbuz (ع)","steam_id":76561198327135462,"connected_time":185000000000,"state":"active","ping":164},{"user_id":79,"name":"CyborgIsDum","steam_id":76561199126302519,"connected_time":489000000000,"state":"active","ping":180},{"user_id":96,"name":"tekt","steam_id":76561198044554387,"connected_time":243000000000,"state":"active","ping":91},{"user_id":83,"name":"The worst TF2 player(Real)","steam_id":76561199184873889,"connected_time":349000000000,"state":"active","ping":69},{"user_id":101,"name":"BTU_GiperNinja","steam_id":76561198888074280,"connected_time":179000000000,"state":"active","ping":90},{"user_id":103,"name":"LOBZIK","steam_id":76561198114830120,"connected_time":130000000000,"state":"active","ping":78},{"user_id":86,"name":"MeBandae","steam_id":76561198910770432,"connected_time":327000000000,"state":"active","ping":58},{"user_id":87,"name":"Milk","steam_id":76561198125876588,"connected_time":326000000000,"state":"active","ping":46},{"user_id":89,"name":"mean \u0026 gene","steam_id":76561198088201976,"connected_time":317000000000,"state":"active","ping":41},{"user_id":97,"name":"Shibe","steam_id":76561198071312153,"connected_time":243000000000,"state":"active","ping":72},{"user_id":104,"name":"FIRST TF2 GAME","steam_id":76561198112587264,"connected_time":105000000000,"state":"active","ping":42},{"user_id":106,"name":"i eat trash daily","steam_id":76561198154714698,"connected_time":53000000000,"state":"active","ping":51},{"user_id":102,"name":"chimpsawesome2000","steam_id":76561198854358215,"connected_time":179000000000,"state":"active","ping":59}]},{"server_id":320,"name":"Uncletopia | London | 3 | All Maps","name_short":"lon-3","host":"lon-1.uk.uncletopia.com","port":27035,"enabled":true,"region":"eu","cc":"gb","latitude":51.509865,"longitude":-0.118092,"reserved":0,"last_update":"0001-01-01T00:00:00Z","name_a2s":"Uncletopia | London | 3 | All Maps","protocol":17,"map":"cp_dustbowl","folder":"tf","game":"Team Fortress","app_id":440,"player_count":24,"max_players":24,"Bots":0,"server_type":"Dedicated","server_os":"Linux","password":true,"vac":true,"version":"7961495","steam_id":85568392924510192,"keywords":["cp","nocrits","nodmgspread","uncletopia"],"game_id":440,"stv_port":27036,"stv_name":"Uncletopia | London | 3 | All Maps | STV","players":[{"user_id":203,"name":"Vanilla Autismotron","steam_id":76561198278604277,"connected_time":302000000000,"state":"active","ping":53},{"user_id":148,"name":"Egor Pomidor","steam_id":76561199175688390,"connected_time":1937000000000,"state":"active","ping":87},{"user_id":196,"name":"Na'vi Misato (by popular demand","steam_id":76561198130860698,"connected_time":758000000000,"state":"active","ping":53},{"user_id":150,"name":"rockBustaz","steam_id":76561198088290698,"connected_time":1863000000000,"state":"active","ping":59},{"user_id":197,"name":"JustMayor","steam_id":76561198050515503,"connected_time":757000000000,"state":"active","ping":61},{"user_id":152,"name":"Voks_","steam_id":76561198159687785,"connected_time":1858000000000,"state":"active","ping":62},{"user_id":205,"name":"Stinky Whizzleteats","steam_id":76561197968945306,"connected_time":97000000000,"state":"active","ping":74},{"user_id":155,"name":"Serenity","steam_id":76561198170355609,"connected_time":1763000000000,"state":"active","ping":45},{"user_id":169,"name":"RedPyro2009","steam_id":76561198935824363,"connected_time":1623000000000,"state":"active","ping":66},{"user_id":179,"name":"Chief Engineer Michael","steam_id":76561198003537558,"connected_time":1341000000000,"state":"active","ping":78},{"user_id":200,"name":"Ady Pádlo","steam_id":76561198263104437,"connected_time":410000000000,"state":"active","ping":71},{"user_id":164,"name":"Wellink","steam_id":76561198854204494,"connected_time":1685000000000,"state":"active","ping":74},{"user_id":195,"name":"jjkun786","steam_id":76561199438517484,"connected_time":806000000000,"state":"active","ping":37},{"user_id":204,"name":"James","steam_id":76561198168882012,"connected_time":262000000000,"state":"active","ping":53},{"user_id":166,"name":"5UP3R TH30 B4G","steam_id":76561198852348375,"connected_time":1655000000000,"state":"active","ping":53},{"user_id":199,"name":"Coby","steam_id":76561198060876389,"connected_time":577000000000,"state":"active","ping":83},{"user_id":184,"name":"Theodore Argesh","steam_id":76561198122028307,"connected_time":1269000000000,"state":"active","ping":59},{"user_id":170,"name":"Shawty","steam_id":76561198256704286,"connected_time":1615000000000,"state":"active","ping":68},{"user_id":185,"name":"Mitrixie","steam_id":76561198842023498,"connected_time":1267000000000,"state":"active","ping":97},{"user_id":186,"name":"Jeff (♀)","steam_id":76561198280101970,"connected_time":1249000000000,"state":"active","ping":67},{"user_id":173,"name":"Zemo","steam_id":76561198079421552,"connected_time":1596000000000,"state":"active","ping":49},{"user_id":201,"name":"niandits","steam_id":76561198419798900,"connected_time":390000000000,"state":"active","ping":122},{"user_id":176,"name":"NodeOne","steam_id":76561197993040629,"connected_time":1572000000000,"state":"active","ping":77},{"user_id":188,"name":"OG loc","steam_id":76561198007477328,"connected_time":1223000000000,"state":"active","ping":48}]},{"server_id":321,"name":"Uncletopia | London | 4 | All Maps","name_short":"lon-4","host":"lon-1.uk.uncletopia.com","port":27045,"enabled":true,"region":"eu","cc":"gb","latitude":51.509865,"longitude":-0.118092,"reserved":0,"last_update":"0001-01-01T00:00:00Z","name_a2s":"Uncletopia | London | 4 | All Maps","protocol":17,"map":"pl_borneo","folder":"tf","game":"Team Fortress","app_id":440,"player_count":24,"max_players":24,"Bots":0,"server_type":"Dedicated","server_os":"Linux","password":true,"vac":true,"version":"7961495","steam_id":85568392924510193,"keywords":["nocrits","nodmgspread","payload","uncletopia"],"game_id":440,"stv_port":27046,"stv_name":"Uncletopia | London | 4 | All Maps | STV","players":[{"user_id":238,"name":"oskaroku00","steam_id":76561199025360128,"connected_time":1541000000000,"state":"active","ping":64},{"user_id":243,"name":"DemonBolt","steam_id":76561198190409861,"connected_time":925000000000,"state":"active","ping":77},{"user_id":245,"name":"Monsy","steam_id":76561198025735006,"connected_time":545000000000,"state":"active","ping":56},{"user_id":231,"name":"TheBeardedM1G","steam_id":76561198040208946,"connected_time":2132000000000,"state":"active","ping":48},{"user_id":259,"name":"This is bat country","steam_id":76561199067658590,"connected_time":116000000000,"state":"active","ping":151},{"user_id":191,"name":"çodar","steam_id":76561198235518444,"connected_time":4557000000000,"state":"active","ping":36},{"user_id":244,"name":"kirkan","steam_id":76561198029873185,"connected_time":579000000000,"state":"active","ping":59},{"user_id":202,"name":"(M.G)reg","steam_id":76561198063153881,"connected_time":4214000000000,"state":"active","ping":77},{"user_id":248,"name":"Nonok","steam_id":76561199480685498,"connected_time":510000000000,"state":"active","ping":57},{"user_id":206,"name":"McAtka","steam_id":76561198019759329,"connected_time":4030000000000,"state":"active","ping":71},{"user_id":218,"name":"Nox Equites","steam_id":76561198115438449,"connected_time":2629000000000,"state":"active","ping":83},{"user_id":239,"name":"Puro ♥","steam_id":76561198039016765,"connected_time":1294000000000,"state":"active","ping":92},{"user_id":240,"name":"caramel❤","steam_id":76561198819353867,"connected_time":1217000000000,"state":"active","ping":37},{"user_id":215,"name":"housing crisis#savetf2","steam_id":76561198119984382,"connected_time":2959000000000,"state":"active","ping":60},{"user_id":250,"name":"The legendery balls","steam_id":76561199139344747,"connected_time":500000000000,"state":"active","ping":102},{"user_id":226,"name":"gitlitwitit","steam_id":76561197980019054,"connected_time":2491000000000,"state":"active","ping":59},{"user_id":122,"name":"Miss Asstickles","steam_id":76561198030286622,"connected_time":10277000000000,"state":"active","ping":59},{"user_id":251,"name":"蓮 Lotus","steam_id":76561198083141117,"connected_time":486000000000,"state":"active","ping":60},{"user_id":253,"name":"hawkblob","steam_id":76561198803720565,"connected_time":473000000000,"state":"active","ping":76},{"user_id":255,"name":"dafydd","steam_id":76561198052200325,"connected_time":468000000000,"state":"active","ping":93},{"user_id":235,"name":"Mr. Hunts","steam_id":76561197981910397,"connected_time":1801000000000,"state":"active","ping":60},{"user_id":233,"name":"Biglet","steam_id":76561198077243439,"connected_time":1812000000000,"state":"active","ping":50},{"user_id":257,"name":"ラス","steam_id":76561198124320485,"connected_time":401000000000,"state":"active","ping":80}]},{"server_id":21,"name":"Uncletopia | London | 5 | All Maps","name_short":"lon-5","host":"lon-1.uk.uncletopia.com","port":27055,"enabled":true,"region":"eu","cc":"gb","latitude":51.509865,"longitude":-0.118092,"reserved":0,"last_update":"0001-01-01T00:00:00Z","name_a2s":"Uncletopia | London | 5 | All Maps","protocol":17,"map":"cp_powerhouse","folder":"tf","game":"Team Fortress","app_id":440,"player_count":24,"max_players":24,"Bots":0,"server_type":"Dedicated","server_os":"Linux","password":true,"vac":true,"version":"7961495","steam_id":85568392924742829,"keywords":["cp","nocrits","nodmgspread","uncletopia"],"game_id":440,"stv_port":27056,"stv_name":"Uncletopia | London | 5 | All Maps | STV","players":[{"user_id":550,"name":"Para Bellum","steam_id":76561198375413446,"connected_time":3593000000000,"state":"active","ping":47},{"user_id":533,"name":"literallyjasonx","steam_id":76561198835895387,"connected_time":4691000000000,"state":"active","ping":80},{"user_id":632,"name":"mt","steam_id":76561197961319303,"connected_time":251000000000,"state":"active","ping":54},{"user_id":508,"name":"tired","steam_id":76561198046838168,"connected_time":6269000000000,"state":"active","ping":57},{"user_id":579,"name":"SSAAMMII","steam_id":76561199168609647,"connected_time":1841000000000,"state":"active","ping":58},{"user_id":636,"name":"Zerfesh","steam_id":76561198117534358,"connected_time":188000000000,"state":"active","ping":98},{"user_id":509,"name":"lugi","steam_id":76561198026903673,"connected_time":6262000000000,"state":"active","ping":74},{"user_id":580,"name":"Skelet (zooted)","steam_id":76561198051685232,"connected_time":1774000000000,"state":"active","ping":45},{"user_id":605,"name":"Pan Pan","steam_id":76561199074670515,"connected_time":993000000000,"state":"active","ping":189},{"user_id":547,"name":"Rocket Queen's consort","steam_id":76561198092995429,"connected_time":3722000000000,"state":"active","ping":147},{"user_id":621,"name":"Esquiloz","steam_id":76561198075645336,"connected_time":504000000000,"state":"active","ping":69},{"user_id":627,"name":"faccboi","steam_id":76561198137816642,"connected_time":322000000000,"state":"active","ping":51},{"user_id":590,"name":"ALARM","steam_id":76561198120686521,"connected_time":1602000000000,"state":"active","ping":68},{"user_id":555,"name":"Dei Genetrix","steam_id":76561198305678122,"connected_time":3217000000000,"state":"active","ping":46},{"user_id":629,"name":"Finem Belli","steam_id":76561198227177976,"connected_time":312000000000,"state":"active","ping":46},{"user_id":635,"name":"Skaza","steam_id":76561198010292540,"connected_time":197000000000,"state":"active","ping":89},{"user_id":586,"name":"hoe","steam_id":76561198078902326,"connected_time":1697000000000,"state":"active","ping":45},{"user_id":564,"name":"AlfonsoM","steam_id":76561198138832894,"connected_time":2499000000000,"state":"active","ping":70},{"user_id":562,"name":"spy among us","steam_id":76561197972287320,"connected_time":2565000000000,"state":"active","ping":62},{"user_id":608,"name":"Salad Bar's medic","steam_id":76561199006455750,"connected_time":867000000000,"state":"active","ping":43},{"user_id":545,"name":"Qwertuss","steam_id":76561198026305366,"connected_time":3921000000000,"state":"active","ping":57},{"user_id":604,"name":"merc","steam_id":76561198377533237,"connected_time":1026000000000,"state":"active","ping":73},{"user_id":609,"name":"The_voices","steam_id":76561199095701143,"connected_time":857000000000,"state":"active","ping":87},{"user_id":597,"name":"thuke","steam_id":76561198093821065,"connected_time":1338000000000,"state":"active","ping":95}]},{"server_id":22,"name":"Uncletopia | London | 6 | All Maps","name_short":"lon-6","host":"lon-1.uk.uncletopia.com","port":27065,"enabled":true,"region":"eu","cc":"gb","latitude":51.509865,"longitude":-0.118092,"reserved":0,"last_update":"0001-01-01T00:00:00Z","name_a2s":"Uncletopia | London | 6 | All Maps","protocol":17,"map":"pl_pier","folder":"tf","game":"Team Fortress","app_id":440,"player_count":24,"max_players":24,"Bots":0,"server_type":"Dedicated","server_os":"Linux","password":true,"vac":true,"version":"7961495","steam_id":85568392924742830,"keywords":["nocrits","nodmgspread","payload","uncletopia"],"game_id":440,"stv_port":27066,"stv_name":"Uncletopia | London | 6 | All Maps | STV","players":[{"user_id":226,"name":"toomas2018(not racist)(real)","steam_id":76561199105796083,"connected_time":2913000000000,"state":"active","ping":70},{"user_id":230,"name":"un puie","steam_id":76561198084056439,"connected_time":2819000000000,"state":"active","ping":30},{"user_id":165,"name":"wee bit depresso","steam_id":76561198097507847,"connected_time":7166000000000,"state":"active","ping":89},{"user_id":245,"name":"Gay Potato","steam_id":76561198018859519,"connected_time":1786000000000,"state":"active","ping":63},{"user_id":246,"name":"the one who gibs","steam_id":76561199024168373,"connected_time":1711000000000,"state":"active","ping":110},{"user_id":253,"name":"Doctor Medic","steam_id":76561198100957443,"connected_time":711000000000,"state":"active","ping":74},{"user_id":248,"name":"Flarp von Karma","steam_id":76561198043855292,"connected_time":1523000000000,"state":"active","ping":49},{"user_id":242,"name":"generic alias","steam_id":76561198271607226,"connected_time":1990000000000,"state":"active","ping":86},{"user_id":178,"name":"xqc","steam_id":76561198047359132,"connected_time":6822000000000,"state":"active","ping":75},{"user_id":251,"name":"goku ピップ・ペタル","steam_id":76561198147668373,"connected_time":1022000000000,"state":"active","ping":73},{"user_id":169,"name":"Wee bit espresso","steam_id":76561198067204908,"connected_time":7013000000000,"state":"active","ping":59},{"user_id":224,"name":"Mizobau","steam_id":76561198965211894,"connected_time":3009000000000,"state":"active","ping":62},{"user_id":241,"name":"Dan Dan the Furious","steam_id":76561198091032527,"connected_time":2098000000000,"state":"active","ping":44},{"user_id":225,"name":"RAT BASTARD","steam_id":76561199195985387,"connected_time":2951000000000,"state":"active","ping":90},{"user_id":222,"name":"Voidbane","steam_id":76561198060591741,"connected_time":3572000000000,"state":"active","ping":166},{"user_id":194,"name":"TheEventGuy","steam_id":76561197972797744,"connected_time":5708000000000,"state":"active","ping":73},{"user_id":249,"name":"jeff","steam_id":76561198272815746,"connected_time":1432000000000,"state":"active","ping":59},{"user_id":259,"name":"Vytuzas","steam_id":76561198012868436,"connected_time":355000000000,"state":"active","ping":83},{"user_id":260,"name":"Vinicius Jr.","steam_id":76561199510047221,"connected_time":317000000000,"state":"active","ping":86},{"user_id":213,"name":"Mrbluuub","steam_id":76561199273847084,"connected_time":4149000000000,"state":"active","ping":82},{"user_id":256,"name":"Fofenho","steam_id":76561198436817109,"connected_time":373000000000,"state":"active","ping":48},{"user_id":221,"name":"Goofy ahh Penwin doin de griddy","steam_id":76561198809697283,"connected_time":3815000000000,"state":"active","ping":47},{"user_id":255,"name":"tWIn","steam_id":76561197989544103,"connected_time":696000000000,"state":"active","ping":59},{"user_id":258,"name":"Crayfry","steam_id":76561198146525237,"connected_time":369000000000,"state":"active","ping":138}]},{"server_id":40,"name":"Uncletopia | London | 7 | Stopwatch","name_short":"lon-7","host":"lon-1.uk.uncletopia.com","port":27075,"enabled":true,"region":"eu","cc":"gb","latitude":51.509865,"longitude":-0.118092,"reserved":0,"last_update":"0001-01-01T00:00:00Z","name_a2s":"Uncletopia | London | 7 | Stopwatch","protocol":17,"map":"workshop/koth_clearcut_b15.ugc2107050255","folder":"tf","game":"Team Fortress","app_id":440,"player_count":0,"max_players":24,"Bots":0,"server_type":"Dedicated","server_os":"Linux","password":true,"vac":true,"version":"7961495","steam_id":85568392924964314,"keywords":["cp","nocrits","nodmgspread","uncletopia"],"game_id":440,"stv_port":27076,"stv_name":"Uncletopia | London | 7 | Stopwatch | STV","players":null},{"server_id":41,"name":"Uncletopia | London | 8 | Community","name_short":"lon-8","host":"lon-1.uk.uncletopia.com","port":27085,"enabled":true,"region":"eu","cc":"gb","latitude":51.509865,"longitude":-0.118092,"reserved":0,"last_update":"0001-01-01T00:00:00Z","name_a2s":"Uncletopia | London | 8 | Community","protocol":17,"map":"workshop/koth_kemptown_rc1.ugc767410655","folder":"tf","game":"Team Fortress","app_id":440,"player_count":0,"max_players":24,"Bots":0,"server_type":"Dedicated","server_os":"Linux","password":true,"vac":true,"version":"7961495","steam_id":85568392924964315,"keywords":["cp","nocrits","nodmgspread","uncletopia"],"game_id":440,"stv_port":27086,"stv_name":"Uncletopia | London | 8 | Community | STV","players":null},{"server_id":300,"name":"Uncletopia | Montréal | 1 | One Thousand Uncles","name_short":"mtl-1","host":"mtl-1.ca.uncletopia.com","port":27015,"enabled":true,"region":"us-east","cc":"ca","latitude":45.50889,"longitude":-73.56167,"reserved":0,"last_update":"0001-01-01T00:00:00Z","name_a2s":"Uncletopia | Montréal | 1 | One Thousand Uncles","protocol":17,"map":"pl_badwater","folder":"tf","game":"Team Fortress","app_id":440,"player_count":24,"max_players":32,"Bots":20,"server_type":"Dedicated","server_os":"Linux","password":true,"vac":true,"version":"7961495","steam_id":85568392924500087,"keywords":["alltalk","bots","danepve","increased_maxplayers","norespawntime","payload","uncletopia"],"game_id":440,"stv_port":0,"stv_name":"","players":[{"user_id":68,"name":"Ata","steam_id":76561198349085545,"connected_time":4281000000000,"state":"active","ping":109},{"user_id":76,"name":"Just a BLU Toon","steam_id":76561198273199771,"connected_time":1899000000000,"state":"active","ping":65},{"user_id":101,"name":"put fentanyl back in pepsi","steam_id":76561198238592900,"connected_time":952000000000,"state":"active","ping":111},{"user_id":80,"name":"Turtlethantwigs","steam_id":76561199139558908,"connected_time":1184000000000,"state":"active","ping":119}]},{"server_id":301,"name":"Uncletopia | Montréal | 2 | One Thousand Uncles","name_short":"mtl-2","host":"mtl-1.ca.uncletopia.com","port":27025,"enabled":true,"region":"us-east","cc":"ca","latitude":45.50889,"longitude":-73.56167,"reserved":0,"last_update":"0001-01-01T00:00:00Z","name_a2s":"Uncletopia | Montréal | 2 | One Thousand Uncles","protocol":17,"map":"pl_swiftwater_final1","folder":"tf","game":"Team Fortress","app_id":440,"player_count":22,"max_players":32,"Bots":20,"server_type":"Dedicated","server_os":"Linux","password":true,"vac":true,"version":"7961495","steam_id":85568392924500088,"keywords":["alltalk","bots","danepve","increased_maxplayers","norespawntime","payload","uncletopia"],"game_id":440,"stv_port":0,"stv_name":"","players":[{"user_id":37,"name":"goobiestgoober","steam_id":76561199487899460,"connected_time":3130000000000,"state":"active","ping":535},{"user_id":81,"name":"barbecuesteve","steam_id":76561198048819671,"connected_time":184000000000,"state":"active","ping":78}]},{"server_id":302,"name":"Uncletopia | Montréal | 3 | One Thousand Uncles","name_short":"mtl-3","host":"mtl-1.ca.uncletopia.com","port":27035,"enabled":true,"region":"us-east","cc":"ca","latitude":45.50889,"longitude":-73.56167,"reserved":0,"last_update":"0001-01-01T00:00:00Z","name_a2s":"Uncletopia | Montréal | 3 | One Thousand Uncles","protocol":17,"map":"pl_swiftwater_final1","folder":"tf","game":"Team Fortress","app_id":440,"player_count":0,"max_players":32,"Bots":0,"server_type":"Dedicated","server_os":"Linux","password":true,"vac":true,"version":"7961495","steam_id":85568392924500089,"keywords":["alltalk","danepve","increased_maxplayers","norespawntime","payload","uncletopia"],"game_id":440,"stv_port":0,"stv_name":"","players":null},{"server_id":13,"name":"Uncletopia | New York City | 1 | All Maps","name_short":"nyc-1","host":"nyc-1.us.uncletopia.com","port":27015,"enabled":true,"region":"us-east","cc":"us","latitude":40.73061,"longitude":-73.93524,"reserved":0,"last_update":"0001-01-01T00:00:00Z","name_a2s":"Uncletopia | New York City | 1 | All Maps","protocol":17,"map":"cp_sunshine","folder":"tf","game":"Team Fortress","app_id":440,"player_count":24,"max_players":24,"Bots":0,"server_type":"Dedicated","server_os":"Linux","password":true,"vac":true,"version":"7961495","steam_id":85568392924469993,"keywords":["cp","nocrits","nodmgspread","uncletopia"],"game_id":440,"stv_port":27016,"stv_name":"Uncletopia | New York City | 1 | All Maps | STV","players":[{"user_id":309,"name":"Walmart Employee","steam_id":76561198840373909,"connected_time":750000000000,"state":"active","ping":96},{"user_id":315,"name":"ThreatLvl 9 (she/her)","steam_id":76561198079410533,"connected_time":542000000000,"state":"active","ping":59},{"user_id":285,"name":"King","steam_id":76561198039763676,"connected_time":2082000000000,"state":"active","ping":72},{"user_id":270,"name":"mG| Clippy","steam_id":76561198046403202,"connected_time":3737000000000,"state":"active","ping":130},{"user_id":308,"name":"Mr. Pink","steam_id":76561198065858172,"connected_time":1025000000000,"state":"active","ping":46},{"user_id":316,"name":"[DataRefracted]","steam_id":76561199262579270,"connected_time":526000000000,"state":"active","ping":71},{"user_id":266,"name":"milk","steam_id":76561198813251405,"connected_time":4237000000000,"state":"active","ping":53},{"user_id":277,"name":"Mattie43","steam_id":76561198012053433,"connected_time":2794000000000,"state":"active","ping":41},{"user_id":287,"name":"Cowabummer","steam_id":76561198272640432,"connected_time":2048000000000,"state":"active","ping":91},{"user_id":312,"name":"DualiTea","steam_id":76561198081733870,"connected_time":634000000000,"state":"active","ping":75},{"user_id":320,"name":"Silva Baq","steam_id":76561198025445281,"connected_time":276000000000,"state":"active","ping":49},{"user_id":314,"name":"comfy.","steam_id":76561198008818346,"connected_time":573000000000,"state":"active","ping":55},{"user_id":296,"name":"BB Lorexav","steam_id":76561198207565988,"connected_time":1895000000000,"state":"active","ping":70},{"user_id":305,"name":"Lost CS2 player","steam_id":76561198892387723,"connected_time":1308000000000,"state":"active","ping":55},{"user_id":318,"name":"leumas","steam_id":76561198240408540,"connected_time":405000000000,"state":"active","ping":61},{"user_id":279,"name":"CS 246 - Object Oriented Softwa","steam_id":76561198106967427,"connected_time":2381000000000,"state":"active","ping":59},{"user_id":307,"name":"Linguine Alfredo","steam_id":76561198022045816,"connected_time":1172000000000,"state":"active","ping":66},{"user_id":239,"name":"Chadmander","steam_id":76561197974136337,"connected_time":5518000000000,"state":"active","ping":58},{"user_id":117,"name":"CDBeans","steam_id":76561198046990367,"connected_time":14095000000000,"state":"active","ping":84},{"user_id":319,"name":"Cigtar","steam_id":76561198079842818,"connected_time":365000000000,"state":"active","ping":72},{"user_id":321,"name":"ᵘᶻʳ","steam_id":76561198799343084,"connected_time":274000000000,"state":"active","ping":115},{"user_id":323,"name":"Madame Meow Meow","steam_id":76561198111399111,"connected_time":58000000000,"state":"spawning","ping":189},{"user_id":278,"name":"feelsgoodman.jpg","steam_id":76561198046798273,"connected_time":2564000000000,"state":"active","ping":114},{"user_id":298,"name":"Gruko","steam_id":76561198282965665,"connected_time":1863000000000,"state":"active","ping":51}]},{"server_id":14,"name":"Uncletopia | New York City | 2 | All Maps","name_short":"nyc-2","host":"nyc-1.us.uncletopia.com","port":27025,"enabled":true,"region":"us-east","cc":"us","latitude":40.73061,"longitude":-73.93524,"reserved":0,"last_update":"0001-01-01T00:00:00Z","name_a2s":"Uncletopia | New York City | 2 | All Maps","protocol":17,"map":"pl_barnblitz","folder":"tf","game":"Team Fortress","app_id":440,"player_count":23,"max_players":24,"Bots":0,"server_type":"Dedicated","server_os":"Linux","password":true,"vac":true,"version":"7961495","steam_id":85568392924469994,"keywords":["nocrits","nodmgspread","payload","uncletopia"],"game_id":440,"stv_port":27026,"stv_name":"Uncletopia | New York City | 2 | All Maps | STV","players":[{"user_id":366,"name":"ZYKLONBased","steam_id":76561199005365607,"connected_time":3137000000000,"state":"active","ping":61},{"user_id":377,"name":"Digit","steam_id":76561198156589157,"connected_time":2135000000000,"state":"active","ping":60},{"user_id":384,"name":"KingShoop","steam_id":76561198060077597,"connected_time":1984000000000,"state":"active","ping":79},{"user_id":349,"name":"GordonKira","steam_id":76561199108345001,"connected_time":3732000000000,"state":"active","ping":76},{"user_id":374,"name":"microsoft solitaire expert","steam_id":76561199134895220,"connected_time":2239000000000,"state":"active","ping":53},{"user_id":387,"name":"Victoria Wood (as seen on TV)","steam_id":76561198066243851,"connected_time":1715000000000,"state":"active","ping":107},{"user_id":381,"name":"Jimbo","steam_id":76561198136560547,"connected_time":2080000000000,"state":"active","ping":76},{"user_id":368,"name":"SEGNO","steam_id":76561198102780113,"connected_time":2857000000000,"state":"active","ping":85},{"user_id":397,"name":"❋Pfc. BFS","steam_id":76561198326359972,"connected_time":896000000000,"state":"active","ping":59},{"user_id":388,"name":"Bullwinkle J. Moose","steam_id":76561198075977196,"connected_time":1590000000000,"state":"active","ping":92},{"user_id":393,"name":"Rat","steam_id":76561198128926034,"connected_time":1081000000000,"state":"active","ping":70},{"user_id":354,"name":"voltageG","steam_id":76561198107165710,"connected_time":3620000000000,"state":"active","ping":71},{"user_id":400,"name":"Underscorn","steam_id":76561198374209415,"connected_time":823000000000,"state":"active","ping":88},{"user_id":390,"name":"R{FITH}™Buddy Cat","steam_id":76561198094891050,"connected_time":1155000000000,"state":"active","ping":96},{"user_id":352,"name":"HungryPenguin","steam_id":76561198039803880,"connected_time":3632000000000,"state":"active","ping":58},{"user_id":385,"name":"Novu","steam_id":76561198886997024,"connected_time":1918000000000,"state":"active","ping":85},{"user_id":372,"name":"Jason","steam_id":76561198107058140,"connected_time":2510000000000,"state":"active","ping":56},{"user_id":348,"name":"Bubby Koromon the 4rd","steam_id":76561198398729993,"connected_time":3914000000000,"state":"active","ping":76},{"user_id":394,"name":"TheHumanTaco119","steam_id":76561198996107520,"connected_time":1080000000000,"state":"active","ping":122},{"user_id":395,"name":"Moofins","steam_id":76561198050291949,"connected_time":1052000000000,"state":"active","ping":80},{"user_id":396,"name":"rocket1714","steam_id":76561198255152396,"connected_time":1044000000000,"state":"active","ping":94},{"user_id":337,"name":"airballer","steam_id":76561198165899125,"connected_time":5241000000000,"state":"active","ping":46},{"user_id":402,"name":"nachopugz","steam_id":76561199120480873,"connected_time":165000000000,"state":"active","ping":136}]},{"server_id":15,"name":"Uncletopia | New York City | 3 | Stopwatch","name_short":"nyc-3","host":"nyc-1.us.uncletopia.com","port":27035,"enabled":true,"region":"us-east","cc":"us","latitude":40.73061,"longitude":-73.93524,"reserved":0,"last_update":"0001-01-01T00:00:00Z","name_a2s":"Uncletopia | New York City | 3 | Stopwatch","protocol":17,"map":"koth_lakeside_final","folder":"tf","game":"Team Fortress","app_id":440,"player_count":15,"max_players":24,"Bots":0,"server_type":"Dedicated","server_os":"Linux","password":true,"vac":true,"version":"7961495","steam_id":85568392924742820,"keywords":["cp","nocrits","nodmgspread","uncletopia"],"game_id":440,"stv_port":27036,"stv_name":"Uncletopia | New York City | 3 | Stopwatch | STV","players":[{"user_id":196,"name":"TrashCanGaming","steam_id":76561199150746424,"connected_time":48000000000,"state":"spawning","ping":88},{"user_id":185,"name":"graffiti","steam_id":76561198044594230,"connected_time":836000000000,"state":"active","ping":51},{"user_id":191,"name":"Annie","steam_id":76561198968646041,"connected_time":438000000000,"state":"active","ping":84},{"user_id":192,"name":"pete_the_cat_2014","steam_id":76561198199266047,"connected_time":307000000000,"state":"active","ping":45},{"user_id":197,"name":"Rhea","steam_id":76561198066626240,"connected_time":4000000000,"state":"spawning","ping":87},{"user_id":177,"name":"Shaunymon","steam_id":76561198089311104,"connected_time":1402000000000,"state":"active","ping":117},{"user_id":193,"name":"DaMultiversalist","steam_id":76561198239552412,"connected_time":215000000000,"state":"active","ping":84},{"user_id":194,"name":"Polaris","steam_id":76561198403708381,"connected_time":140000000000,"state":"active","ping":82},{"user_id":195,"name":"Gliitch","steam_id":76561198088601340,"connected_time":68000000000,"state":"active","ping":46},{"user_id":163,"name":"ItsThatBear","steam_id":76561198169617659,"connected_time":1869000000000,"state":"active","ping":63},{"user_id":148,"name":"Brenda Delam","steam_id":76561198006983771,"connected_time":3218000000000,"state":"active","ping":73},{"user_id":174,"name":"Krisles","steam_id":76561198312455096,"connected_time":1457000000000,"state":"active","ping":87},{"user_id":176,"name":"Username","steam_id":76561198198918781,"connected_time":1431000000000,"state":"active","ping":127},{"user_id":88,"name":"Ginger Jesus","steam_id":76561198052386458,"connected_time":6851000000000,"state":"active","ping":45},{"user_id":179,"name":"Yozzoy","steam_id":76561198027920369,"connected_time":1383000000000,"state":"active","ping":60}]},{"server_id":16,"name":"Uncletopia | New York City | 4 | Community","name_short":"nyc-4","host":"nyc-1.us.uncletopia.com","port":27045,"enabled":true,"region":"us-east","cc":"us","latitude":40.73061,"longitude":-73.93524,"reserved":0,"last_update":"0001-01-01T00:00:00Z","name_a2s":"Uncletopia | New York City | 4 | Community","protocol":17,"map":"workshop/cp_reckoner_rc6.ugc674719999","folder":"tf","game":"Team Fortress","app_id":440,"player_count":0,"max_players":24,"Bots":0,"server_type":"Dedicated","server_os":"Linux","password":true,"vac":true,"version":"7961495","steam_id":85568392924742821,"keywords":["cp","nocrits","nodmgspread","uncletopia"],"game_id":440,"stv_port":27046,"stv_name":"Uncletopia | New York City | 4 | Community | STV","players":null},{"server_id":142,"name":"Uncletopia | São Paulo | 1 | All Maps","name_short":"sao-1","host":"sao-1.br.uncletopia.com","port":27015,"enabled":true,"region":"sa","cc":"br","latitude":-23.533773,"longitude":-46.62529,"reserved":0,"last_update":"0001-01-01T00:00:00Z","name_a2s":"Uncletopia | São Paulo | 1 | All Maps","protocol":17,"map":"pl_borneo","folder":"tf","game":"Team Fortress","app_id":440,"player_count":9,"max_players":24,"Bots":0,"server_type":"Dedicated","server_os":"Linux","password":true,"vac":true,"version":"7961495","steam_id":85568392924469996,"keywords":["nocrits","nodmgspread","payload","uncletopia"],"game_id":440,"stv_port":27016,"stv_name":"Uncletopia | São Paulo | 1 | All Maps | STV","players":[{"user_id":4,"name":"churrasco","steam_id":76561199258316129,"connected_time":2233000000000,"state":"active","ping":55},{"user_id":5,"name":"Maddy","steam_id":76561198370075846,"connected_time":2213000000000,"state":"active","ping":32},{"user_id":9,"name":"rafiuskis9","steam_id":76561199098564093,"connected_time":1846000000000,"state":"active","ping":31},{"user_id":7,"name":"Adolf_Dripler_1945","steam_id":76561198963738808,"connected_time":1997000000000,"state":"active","ping":39},{"user_id":8,"name":"Gamer Prime","steam_id":76561199193370083,"connected_time":1975000000000,"state":"active","ping":51},{"user_id":11,"name":"Hazmat","steam_id":76561199188918789,"connected_time":1072000000000,"state":"active","ping":49},{"user_id":12,"name":"Mumia216","steam_id":76561199467438225,"connected_time":804000000000,"state":"active","ping":78},{"user_id":13,"name":"Only Lingott Rose","steam_id":76561199108239817,"connected_time":312000000000,"state":"active","ping":50},{"user_id":14,"name":"MGFP","steam_id":76561198887457028,"connected_time":167000000000,"state":"active","ping":74}]},{"server_id":143,"name":"Uncletopia | São Paulo | 2 | Community","name_short":"sao-2","host":"sao-2.br.uncletopia.com","port":27015,"enabled":true,"region":"sa","cc":"br","latitude":-23.533773,"longitude":-46.62529,"reserved":0,"last_update":"0001-01-01T00:00:00Z","name_a2s":"Uncletopia | São Paulo | 2 | Community","protocol":17,"map":"workshop/koth_slaughter_rc1.ugc1712845210","folder":"tf","game":"Team Fortress","app_id":440,"player_count":0,"max_players":24,"Bots":0,"server_type":"Dedicated","server_os":"Linux","password":true,"vac":true,"version":"7961495","steam_id":85568392924485349,"keywords":["cp","nocrits","nodmgspread","uncletopia"],"game_id":440,"stv_port":27016,"stv_name":"Uncletopia | São Paulo | 2 | Community | STV","players":null},{"server_id":7,"name":"Uncletopia | Seattle | 1 | All Maps","name_short":"sea-1","host":"sea-1.us.uncletopia.com","port":27015,"enabled":true,"region":"us-west","cc":"us","latitude":47.608013,"longitude":-122.33517,"reserved":0,"last_update":"0001-01-01T00:00:00Z","name_a2s":"Uncletopia | Seattle | 1 | All Maps","protocol":17,"map":"pl_snowycoast","folder":"tf","game":"Team Fortress","app_id":440,"player_count":24,"max_players":24,"Bots":0,"server_type":"Dedicated","server_os":"Linux","password":true,"vac":true,"version":"7961495","steam_id":85568392924469997,"keywords":["nocrits","nodmgspread","payload","uncletopia"],"game_id":440,"stv_port":27016,"stv_name":"Uncletopia | Seattle | 1 | All Maps | STV","players":[{"user_id":160,"name":"[TrC] Dackstrus","steam_id":76561197973518509,"connected_time":635000000000,"state":"active","ping":57},{"user_id":146,"name":"Whisper!","steam_id":76561198119609795,"connected_time":2804000000000,"state":"active","ping":76},{"user_id":169,"name":"Trisapiensaurus","steam_id":76561198243610560,"connected_time":12000000000,"state":"spawning","ping":83},{"user_id":18,"name":"SASUKE!!!!!!!","steam_id":76561198113616168,"connected_time":14267000000000,"state":"active","ping":71},{"user_id":156,"name":"HAT-WEARING™ Maggot Gamer Cat","steam_id":76561197973992705,"connected_time":1862000000000,"state":"active","ping":73},{"user_id":158,"name":"Dargoos","steam_id":76561198366212046,"connected_time":1680000000000,"state":"active","ping":68},{"user_id":142,"name":"USS Arizona","steam_id":76561198866629645,"connected_time":4052000000000,"state":"active","ping":61},{"user_id":70,"name":"uss saratoga","steam_id":76561198045218909,"connected_time":10886000000000,"state":"active","ping":41},{"user_id":159,"name":"Scout w/ a type 3 stair allergy","steam_id":76561198027321950,"connected_time":1374000000000,"state":"active","ping":40},{"user_id":92,"name":"YOU WHAT?!","steam_id":76561198418679471,"connected_time":9403000000000,"state":"active","ping":114},{"user_id":167,"name":"Mx. Headroom","steam_id":76561198310731946,"connected_time":518000000000,"state":"active","ping":87},{"user_id":168,"name":"zzrat","steam_id":76561198014925415,"connected_time":247000000000,"state":"active","ping":53},{"user_id":164,"name":"DaddyGalaxy","steam_id":76561198139697796,"connected_time":609000000000,"state":"active","ping":60},{"user_id":154,"name":"TÖZI","steam_id":76561198045268695,"connected_time":2459000000000,"state":"active","ping":129},{"user_id":151,"name":"Altruisticailuridae","steam_id":76561198335295596,"connected_time":2581000000000,"state":"active","ping":86},{"user_id":130,"name":"Pearl Harbor","steam_id":76561198116023052,"connected_time":5184000000000,"state":"active","ping":75},{"user_id":137,"name":"Imitation Caucasian","steam_id":76561198320536166,"connected_time":4199000000000,"state":"active","ping":97},{"user_id":110,"name":"undocumented war crimes","steam_id":76561198105924953,"connected_time":7429000000000,"state":"active","ping":66},{"user_id":152,"name":"The German Reich","steam_id":76561199247095754,"connected_time":2520000000000,"state":"active","ping":68},{"user_id":155,"name":"K2f","steam_id":76561198049600563,"connected_time":2402000000000,"state":"active","ping":75},{"user_id":141,"name":"Sagusky","steam_id":76561199020014535,"connected_time":4083000000000,"state":"active","ping":79},{"user_id":165,"name":"Vagrant","steam_id":76561198242536886,"connected_time":602000000000,"state":"active","ping":75},{"user_id":96,"name":"Unsuspecting Pentagon","steam_id":76561198255721392,"connected_time":9166000000000,"state":"active","ping":128},{"user_id":162,"name":"Oaky Loafs","steam_id":76561198317179010,"connected_time":629000000000,"state":"active","ping":51}]},{"server_id":119,"name":"Uncletopia | Seattle | 2 | All Maps","name_short":"sea-2","host":"sea-1.us.uncletopia.com","port":27025,"enabled":true,"region":"us-west","cc":"us","latitude":47.608013,"longitude":-122.33517,"reserved":0,"last_update":"0001-01-01T00:00:00Z","name_a2s":"Uncletopia | Seattle | 2 | All Maps","protocol":17,"map":"pl_badwater","folder":"tf","game":"Team Fortress","app_id":440,"player_count":0,"max_players":24,"Bots":0,"server_type":"Dedicated","server_os":"Linux","password":true,"vac":true,"version":"7961495","steam_id":85568392924469998,"keywords":["nocrits","nodmgspread","payload","uncletopia"],"game_id":440,"stv_port":27026,"stv_name":"Uncletopia | Seattle | 2 | All Maps | STV","players":null},{"server_id":406,"name":"Uncletopia | Seattle | 3 | Stopwatch","name_short":"sea-3","host":"sea-1.us.uncletopia.com","port":27035,"enabled":true,"region":"us-west","cc":"us","latitude":47.608013,"longitude":-122.33517,"reserved":0,"last_update":"0001-01-01T00:00:00Z","name_a2s":"Uncletopia | Seattle | 3 | Stopwatch","protocol":17,"map":"cp_gullywash_final1","folder":"tf","game":"Team Fortress","app_id":440,"player_count":0,"max_players":24,"Bots":0,"server_type":"Dedicated","server_os":"Linux","password":true,"vac":true,"version":"7961495","steam_id":85568392924515217,"keywords":["cp","nocrits","nodmgspread","uncletopia"],"game_id":440,"stv_port":27036,"stv_name":"Uncletopia | Seattle | 3 | Stopwatch | STV","players":null},{"server_id":17,"name":"Uncletopia | San Francisco | 1 | All Maps","name_short":"sfo-1","host":"sfo-1.us.uncletopia.com","port":27015,"enabled":true,"region":"us-west","cc":"us","latitude":37.77397,"longitude":-122.4313,"reserved":0,"last_update":"0001-01-01T00:00:00Z","name_a2s":"Uncletopia | San Francisco | 1 | All Maps","protocol":17,"map":"koth_viaduct","folder":"tf","game":"Team Fortress","app_id":440,"player_count":0,"max_players":24,"Bots":0,"server_type":"Dedicated","server_os":"Linux","password":true,"vac":true,"version":"7961495","steam_id":85568392924469999,"keywords":["cp","nocrits","nodmgspread","uncletopia"],"game_id":440,"stv_port":27016,"stv_name":"Uncletopia | San Francisco | 1 | All Maps | STV","players":null},{"server_id":18,"name":"Uncletopia | San Francisco | 2 | All Maps","name_short":"sfo-2","host":"sfo-1.us.uncletopia.com","port":27025,"enabled":true,"region":"us-west","cc":"us","latitude":37.77397,"longitude":-122.4313,"reserved":0,"last_update":"0001-01-01T00:00:00Z","name_a2s":"Uncletopia | San Francisco | 2 | All Maps","protocol":17,"map":"pl_hoodoo_final","folder":"tf","game":"Team Fortress","app_id":440,"player_count":0,"max_players":24,"Bots":0,"server_type":"Dedicated","server_os":"Linux","password":true,"vac":true,"version":"7961495","steam_id":85568392924470000,"keywords":["nocrits","nodmgspread","payload","uncletopia"],"game_id":440,"stv_port":27026,"stv_name":"Uncletopia | San Francisco | 2 | All Maps | STV","players":null},{"server_id":19,"name":"Uncletopia | San Francisco | 3 | Stopwatch","name_short":"sfo-3","host":"sfo-1.us.uncletopia.com","port":27035,"enabled":true,"region":"us-west","cc":"us","latitude":37.77397,"longitude":-122.4313,"reserved":0,"last_update":"0001-01-01T00:00:00Z","name_a2s":"Uncletopia | San Francisco | 3 | Stopwatch","protocol":17,"map":"workshop/koth_clearcut_b15.ugc2107050255","folder":"tf","game":"Team Fortress","app_id":440,"player_count":0,"max_players":24,"Bots":0,"server_type":"Dedicated","server_os":"Linux","password":true,"vac":true,"version":"7961495","steam_id":85568392924742824,"keywords":["cp","nocrits","nodmgspread","uncletopia"],"game_id":440,"stv_port":27036,"stv_name":"Uncletopia | San Francisco | 3 | Stopwatch | STV","players":null},{"server_id":20,"name":"Uncletopia | San Francisco | 4 | Community","name_short":"sfo-4","host":"sfo-1.us.uncletopia.com","port":27045,"enabled":true,"region":"us-west","cc":"us","latitude":37.77397,"longitude":-122.4313,"reserved":0,"last_update":"0001-01-01T00:00:00Z","name_a2s":"Uncletopia | San Francisco | 4 | Community","protocol":17,"map":"workshop/cp_reckoner_rc6.ugc674719999","folder":"tf","game":"Team Fortress","app_id":440,"player_count":0,"max_players":24,"Bots":0,"server_type":"Dedicated","server_os":"Linux","password":true,"vac":true,"version":"7961495","steam_id":85568392924742826,"keywords":["cp","nocrits","nodmgspread","uncletopia"],"game_id":440,"stv_port":27046,"stv_name":"Uncletopia | San Francisco | 4 | Community | STV","players":null},{"server_id":141,"name":"Uncletopia | Sydney | 1 | All Maps","name_short":"syd-1","host":"syd-1.au.uncletopia.com","port":27015,"enabled":true,"region":"au","cc":"au","latitude":-33.865143,"longitude":151.2099,"reserved":0,"last_update":"0001-01-01T00:00:00Z","name_a2s":"Uncletopia | Sydney | 1 | All Maps","protocol":17,"map":"cp_process_final","folder":"tf","game":"Team Fortress","app_id":440,"player_count":0,"max_players":24,"Bots":0,"server_type":"Dedicated","server_os":"Linux","password":true,"vac":true,"version":"7961495","steam_id":85568392924470001,"keywords":["cp","nocrits","nodmgspread","uncletopia"],"game_id":440,"stv_port":27016,"stv_name":"Uncletopia | Sydney | 1 | All Maps | STV","players":null},{"server_id":123,"name":"Uncletopia | Sydney | 2 | All Maps","name_short":"syd-2","host":"syd-1.au.uncletopia.com","port":27025,"enabled":true,"region":"au","cc":"au","latitude":-33.865143,"longitude":151.2099,"reserved":0,"last_update":"0001-01-01T00:00:00Z","name_a2s":"Uncletopia | Sydney | 2 | All Maps","protocol":17,"map":"koth_viaduct","folder":"tf","game":"Team Fortress","app_id":440,"player_count":0,"max_players":24,"Bots":0,"server_type":"Dedicated","server_os":"Linux","password":true,"vac":true,"version":"7961495","steam_id":85568392924470002,"keywords":["cp","nocrits","nodmgspread","uncletopia"],"game_id":440,"stv_port":27026,"stv_name":"Uncletopia | Sydney | 2 | All Maps | STV","players":null},{"server_id":395,"name":"Uncletopia | Sydney | 3 | All Maps","name_short":"syd-3","host":"syd-1.au.uncletopia.com","port":27035,"enabled":true,"region":"au","cc":"au","latitude":-33.865143,"longitude":151.2099,"reserved":0,"last_update":"0001-01-01T00:00:00Z","name_a2s":"Uncletopia | Sydney | 3 | All Maps","protocol":17,"map":"koth_lakeside_final","folder":"tf","game":"Team Fortress","app_id":440,"player_count":0,"max_players":24,"Bots":0,"server_type":"Dedicated","server_os":"Linux","password":true,"vac":true,"version":"7961495","steam_id":85568392925194467,"keywords":["cp","nocrits","nodmgspread","uncletopia"],"game_id":440,"stv_port":27036,"stv_name":"Uncletopia | Sydney | 3 | All Maps | STV","players":null},{"server_id":396,"name":"Uncletopia | Sydney | 4 | All Maps","name_short":"syd-4","host":"syd-1.au.uncletopia.com","port":27045,"enabled":true,"region":"au","cc":"au","latitude":-33.865143,"longitude":151.2099,"reserved":0,"last_update":"0001-01-01T00:00:00Z","name_a2s":"Uncletopia | Sydney | 4 | All Maps","protocol":17,"map":"cp_snakewater_final1","folder":"tf","game":"Team Fortress","app_id":440,"player_count":0,"max_players":24,"Bots":0,"server_type":"Dedicated","server_os":"Linux","password":true,"vac":true,"version":"7961495","steam_id":85568392925397958,"keywords":["cp","nocrits","nodmgspread","uncletopia"],"game_id":440,"stv_port":27046,"stv_name":"Uncletopia | Sydney | 4 | All Maps | STV","players":null},{"server_id":58,"name":"Uncletopia | Sydney | 5 | Stopwatch","name_short":"syd-5","host":"syd-1.au.uncletopia.com","port":27055,"enabled":true,"region":"au","cc":"au","latitude":-33.865143,"longitude":151.2099,"reserved":0,"last_update":"0001-01-01T00:00:00Z","name_a2s":"Uncletopia | Sydney | 5 | Stopwatch","protocol":17,"map":"workshop/pl_summercoast_rc8e.ugc1761528829","folder":"tf","game":"Team Fortress","app_id":440,"player_count":0,"max_players":24,"Bots":0,"server_type":"Dedicated","server_os":"Linux","password":true,"vac":true,"version":"7961495","steam_id":85568392925397959,"keywords":["nocrits","nodmgspread","payload","uncletopia"],"game_id":440,"stv_port":27056,"stv_name":"Uncletopia | Sydney | 5 | Stopwatch | STV","players":null},{"server_id":59,"name":"Uncletopia | Sydney | 6 | Community","name_short":"syd-6","host":"syd-1.au.uncletopia.com","port":27065,"enabled":true,"region":"au","cc":"au","latitude":-33.865143,"longitude":151.2099,"reserved":0,"last_update":"0001-01-01T00:00:00Z","name_a2s":"Uncletopia | Sydney | 6 | Community","protocol":17,"map":"workshop/koth_soot_final1.ugc2969540689","folder":"tf","game":"Team Fortress","app_id":440,"player_count":0,"max_players":24,"Bots":0,"server_type":"Dedicated","server_os":"Linux","password":true,"vac":true,"version":"7961495","steam_id":85568392925397960,"keywords":["cp","nocrits","nodmgspread","uncletopia"],"game_id":440,"stv_port":27066,"stv_name":"Uncletopia | Sydney | 6 | Community | STV","players":null},{"server_id":49,"name":"Uncletopia | Warsaw | 1 | One Thousand Uncles","name_short":"waw-1","host":"waw-1.pl.uncletopia.com","port":27015,"enabled":true,"region":"eu","cc":"pl","latitude":52.2297,"longitude":21.017532,"reserved":0,"last_update":"0001-01-01T00:00:00Z","name_a2s":"Uncletopia | Warsaw | 1 | One Thousand Uncles","protocol":17,"map":"cp_dustbowl","folder":"tf","game":"Team Fortress","app_id":440,"player_count":23,"max_players":32,"Bots":20,"server_type":"Dedicated","server_os":"Linux","password":true,"vac":true,"version":"7961495","steam_id":85568392925397850,"keywords":["alltalk","bots","cp","danepve","increased_maxplayers","norespawntime","uncletopia"],"game_id":440,"stv_port":0,"stv_name":"","players":[{"user_id":39,"name":"PuPuruPuruPumPu","steam_id":76561198391950490,"connected_time":7951000000000,"state":"active","ping":104},{"user_id":156,"name":"Grabek☁","steam_id":76561198312702702,"connected_time":2358000000000,"state":"active","ping":84},{"user_id":163,"name":"[HK]我係香港人","steam_id":76561198165376815,"connected_time":695000000000,"state":"active","ping":83}]},{"server_id":50,"name":"Uncletopia | Warsaw | 2 | One Thousand Uncles","name_short":"waw-2","host":"waw-1.pl.uncletopia.com","port":27025,"enabled":true,"region":"eu","cc":"pl","latitude":52.2297,"longitude":21.017532,"reserved":0,"last_update":"0001-01-01T00:00:00Z","name_a2s":"Uncletopia | Warsaw | 2 | One Thousand Uncles","protocol":17,"map":"cp_mercenarypark","folder":"tf","game":"Team Fortress","app_id":440,"player_count":31,"max_players":32,"Bots":20,"server_type":"Dedicated","server_os":"Linux","password":true,"vac":true,"version":"7961495","steam_id":85568392925397851,"keywords":["alltalk","bots","cp","danepve","increased_maxplayers","norespawntime","uncletopia"],"game_id":440,"stv_port":0,"stv_name":"","players":[{"user_id":537,"name":"The Boss","steam_id":76561198264576571,"connected_time":99000000000,"state":"active","ping":75},{"user_id":504,"name":"Sandvich Delivery Service","steam_id":76561199447202311,"connected_time":2243000000000,"state":"active","ping":185},{"user_id":512,"name":"digilith","steam_id":76561199106966802,"connected_time":1345000000000,"state":"active","ping":55},{"user_id":535,"name":"minecraft is my life!","steam_id":76561199213571483,"connected_time":786000000000,"state":"active","ping":72},{"user_id":454,"name":"judasz","steam_id":76561198057378108,"connected_time":7333000000000,"state":"active","ping":92},{"user_id":506,"name":"adv6","steam_id":76561198029789989,"connected_time":2109000000000,"state":"active","ping":82},{"user_id":500,"name":"rofflehouse","steam_id":76561198090470768,"connected_time":2557000000000,"state":"active","ping":161},{"user_id":507,"name":"The Troglodyte","steam_id":76561199119744358,"connected_time":2031000000000,"state":"active","ping":89},{"user_id":501,"name":"I have anxiety ;3","steam_id":76561198871081291,"connected_time":2443000000000,"state":"active","ping":226},{"user_id":464,"name":"John Noob","steam_id":76561197999170026,"connected_time":4832000000000,"state":"active","ping":104},{"user_id":503,"name":"Aflojack","steam_id":76561198156450269,"connected_time":2335000000000,"state":"active","ping":79}]},{"server_id":51,"name":"Uncletopia | Warsaw | 3 | All Maps","name_short":"waw-3","host":"waw-1.pl.uncletopia.com","port":27035,"enabled":true,"region":"eu","cc":"pl","latitude":52.2297,"longitude":21.017532,"reserved":0,"last_update":"0001-01-01T00:00:00Z","name_a2s":"Uncletopia | Warsaw | 3 | All Maps","protocol":17,"map":"pl_badwater","folder":"tf","game":"Team Fortress","app_id":440,"player_count":0,"max_players":24,"Bots":0,"server_type":"Dedicated","server_os":"Linux","password":true,"vac":true,"version":"7961495","steam_id":85568392925397852,"keywords":["nocrits","nodmgspread","payload","uncletopia"],"game_id":440,"stv_port":27036,"stv_name":"Uncletopia | Warsaw | 3 | All Maps | STV","players":null},{"server_id":52,"name":"Uncletopia | Warsaw | 4 | All Maps","name_short":"waw-4","host":"waw-1.pl.uncletopia.com","port":27045,"enabled":true,"region":"eu","cc":"pl","latitude":52.2297,"longitude":21.017532,"reserved":0,"last_update":"0001-01-01T00:00:00Z","name_a2s":"Uncletopia | Warsaw | 4 | All Maps","protocol":17,"map":"koth_viaduct","folder":"tf","game":"Team Fortress","app_id":440,"player_count":0,"max_players":24,"Bots":0,"server_type":"Dedicated","server_os":"Linux","password":true,"vac":true,"version":"7961495","steam_id":85568392925397853,"keywords":["cp","nocrits","nodmgspread","uncletopia"],"game_id":440,"stv_port":27046,"stv_name":"Uncletopia | Warsaw | 4 | All Maps | STV","players":null},{"server_id":53,"name":"Uncletopia | Warsaw | 5 | Stopwatch","name_short":"waw-5","host":"waw-1.pl.uncletopia.com","port":27055,"enabled":true,"region":"eu","cc":"pl","latitude":52.2297,"longitude":21.017532,"reserved":0,"last_update":"0001-01-01T00:00:00Z","name_a2s":"Uncletopia | Warsaw | 5 | Stopwatch","protocol":17,"map":"workshop/koth_clearcut_b15.ugc2107050255","folder":"tf","game":"Team Fortress","app_id":440,"player_count":0,"max_players":24,"Bots":0,"server_type":"Dedicated","server_os":"Linux","password":true,"vac":true,"version":"7961495","steam_id":85568392925397854,"keywords":["cp","nocrits","nodmgspread","uncletopia"],"game_id":440,"stv_port":27056,"stv_name":"Uncletopia | Warsaw | 5 | Stopwatch | STV","players":null},{"server_id":54,"name":"Uncletopia | Warsaw | 6 | Community","name_short":"waw-6","host":"waw-1.pl.uncletopia.com","port":27065,"enabled":true,"region":"eu","cc":"pl","latitude":52.2297,"longitude":21.017532,"reserved":0,"last_update":"0001-01-01T00:00:00Z","name_a2s":"Uncletopia | Warsaw | 6 | Community","protocol":17,"map":"workshop/pl_boundary_final1.ugc456799153","folder":"tf","game":"Team Fortress","app_id":440,"player_count":0,"max_players":24,"Bots":0,"server_type":"Dedicated","server_os":"Linux","password":true,"vac":true,"version":"7961495","steam_id":85568392925397856,"keywords":["nocrits","nodmgspread","payload","uncletopia"],"game_id":440,"stv_port":27066,"stv_name":"Uncletopia | Warsaw | 6 | Community | STV","players":null}]}