{"status":true,"message":"","result":[{"server_id":9,"name":"Uncletopia | Atlanta | 1 | All Maps","name_short":"atl-1","host":"atl-1.us.uncletopia.com","port":27015,"enabled":true,"region":"us-east","cc":"us","latitude":33.753746,"longitude":-84.38633,"reserved":0,"last_update":"0001-01-01T00:00:00Z","name_a2s":"Uncletopia | Atlanta | 1 | All Maps","protocol":17,"map":"pl_badwater","folder":"tf","game":"Team Fortress","app_id":440,"player_count":23,"max_players":24,"Bots":0,"server_type":"Dedicated","server_os":"Linux","password":true,"vac":true,"version":"7882260","steam_id":85568392924469982,"keywords":["nocrits","nodmgspread","payload","uncletopia"],"game_id":440,"stv_port":27016,"stv_name":"Uncletopia | Atlanta | 1 | All Maps | STV","players":[{"user_id":104,"name":"too funky ·óúÀ¨·óú","steam_id":76561199120399776,"connected_time":583000000000,"state":"active","ping":120},{"user_id":124,"name":"Romo","steam_id":76561198243101572,"connected_time":184000000000,"state":"active","ping":83},{"user_id":106,"name":"Yakuza shill","steam_id":76561198062875319,"connected_time":463000000000,"state":"active","ping":100},{"user_id":107,"name":"night","steam_id":76561199255144949,"connected_time":444000000000,"state":"active","ping":101},{"user_id":108,"name":"Ulrich Stern","steam_id":76561198101739682,"connected_time":439000000000,"state":"active","ping":118},{"user_id":54,"name":"Mr. Stockington","steam_id":76561198091354032,"connected_time":1498000000000,"state":"active","ping":110},{"user_id":103,"name":"help","steam_id":76561199056338917,"connected_time":592000000000,"state":"active","ping":115},{"user_id":121,"name":"A_Malebolgia","steam_id":76561198097722818,"connected_time":276000000000,"state":"active","ping":122},{"user_id":116,"name":"Foxawykirbo","steam_id":76561199385941909,"connected_time":375000000000,"state":"active","ping":116},{"user_id":111,"name":"TTV_ToryStream","steam_id":76561198421203977,"connected_time":417000000000,"state":"active","ping":145},{"user_id":132,"name":"jello_hey","steam_id":76561199176327650,"connected_time":16000000000,"state":"active","ping":210},{"user_id":100,"name":"Tealim","steam_id":76561198330085713,"connected_time":669000000000,"state":"active","ping":86},{"user_id":127,"name":"Shanks","steam_id":76561198200408161,"connected_time":72000000000,"state":"active","ping":126},{"user_id":133,"name":"Idk","steam_id":76561198971629959,"connected_time":13000000000,"state":"spawning","ping":165},{"user_id":114,"name":"DaBananaCatOfPower","steam_id":76561198169902353,"connected_time":402000000000,"state":"active","ping":109},{"user_id":128,"name":"Aeront","steam_id":76561198072032723,"connected_time":61000000000,"state":"active","ping":108},{"user_id":97,"name":"TheSecretNewbie","steam_id":76561198194671218,"connected_time":699000000000,"state":"active","ping":65},{"user_id":129,"name":"Degree","steam_id":76561198059812393,"connected_time":56000000000,"state":"active","ping":118},{"user_id":131,"name":"greg club","steam_id":76561198370506193,"connected_time":40000000000,"state":"active","ping":67},{"user_id":46,"name":"Amyxts36","steam_id":76561198872232094,"connected_time":1876000000000,"state":"active","ping":120},{"user_id":130,"name":"ATL1 | Kramer","steam_id":76561198083595936,"connected_time":55000000000,"state":"active","ping":111},{"user_id":119,"name":"BB Lorexav","steam_id":76561198207565988,"connected_time":336000000000,"state":"active","ping":95},{"user_id":90,"name":"cakgamin","steam_id":76561199088909749,"connected_time":848000000000,"state":"active","ping":117}]},{"server_id":104,"name":"Uncletopia | Atlanta | 2 | All Maps","name_short":"atl-2","host":"atl-1.us.uncletopia.com","port":27025,"enabled":true,"region":"us-east","cc":"us","latitude":33.753746,"longitude":-84.38633,"reserved":0,"last_update":"0001-01-01T00:00:00Z","name_a2s":"Uncletopia | Atlanta | 2 | All Maps","protocol":17,"map":"koth_highpass","folder":"tf","game":"Team Fortress","app_id":440,"player_count":3,"max_players":24,"Bots":0,"server_type":"Dedicated","server_os":"Linux","password":true,"vac":true,"version":"7882260","steam_id":85568392924469983,"keywords":["cp","nocrits","nodmgspread","uncletopia"],"game_id":440,"stv_port":27026,"stv_name":"Uncletopia | Atlanta | 2 | All Maps | STV","players":[{"user_id":3,"name":"superprogamerman2009","steam_id":76561199393831863,"connected_time":2639000000000,"state":"active","ping":125},{"user_id":15,"name":"Jazz hates Jazz","steam_id":76561199053475022,"connected_time":1063000000000,"state":"active","ping":718},{"user_id":21,"name":"john cinema","steam_id":76561198263314625,"connected_time":150000000000,"state":"active","ping":61}]},{"server_id":400,"name":"Uncletopia | Atlanta | 3 | Community","name_short":"atl-3","host":"atl-1.us.uncletopia.com","port":27035,"enabled":true,"region":"us-east","cc":"us","latitude":33.753746,"longitude":-84.38633,"reserved":0,"last_update":"0001-01-01T00:00:00Z","name_a2s":"Uncletopia | Atlanta | 3 | Community","protocol":17,"map":"pl_borneo","folder":"tf","game":"Team Fortress","app_id":440,"player_count":0,"max_players":24,"Bots":0,"server_type":"Dedicated","server_os":"Linux","password":true,"vac":true,"version":"7882260","steam_id":85568392924515187,"keywords":["nocrits","nodmgspread","payload","uncletopia"],"game_id":440,"stv_port":27036,"stv_name":"Uncletopia | Atlanta | 3 | Community | STV","players":null},{"server_id":401,"name":"Uncletopia | Atlanta | 4 | No Payload","name_short":"atl-4","host":"atl-1.us.uncletopia.com","port":27045,"enabled":true,"region":"us-east","cc":"us","latitude":33.753746,"longitude":-84.38633,"reserved":0,"last_update":"0001-01-01T00:00:00Z","name_a2s":"","protocol":0,"map":"","folder":"","game":"","app_id":0,"player_count":0,"max_players":0,"Bots":0,"server_type":"","server_os":"","password":false,"vac":false,"version":"","steam_id":0,"keywords":null,"game_id":0,"stv_port":0,"stv_name":"","players":null},{"server_id":2,"name":"Uncletopia | Chicago | 1 | All Maps","name_short":"chi-1","host":"chi-1.us.uncletopia.com","port":27015,"enabled":true,"region":"us-central","cc":"us","latitude":41.881832,"longitude":-87.62318,"reserved":0,"last_update":"0001-01-01T00:00:00Z","name_a2s":"Uncletopia | Chicago | 1 | All Maps","protocol":17,"map":"pl_upward","folder":"tf","game":"Team Fortress","app_id":440,"player_count":24,"max_players":24,"Bots":0,"server_type":"Dedicated","server_os":"Linux","password":true,"vac":true,"version":"7882260","steam_id":85568392924469984,"keywords":["nocrits","nodmgspread","payload","uncletopia"],"game_id":440,"stv_port":27016,"stv_name":"Uncletopia | Chicago | 1 | All Maps | STV","players":[{"user_id":343,"name":"Astoriae!","steam_id":76561199090168858,"connected_time":3283000000000,"state":"active","ping":72},{"user_id":341,"name":"Twissim","steam_id":76561198141842291,"connected_time":3360000000000,"state":"active","ping":100},{"user_id":372,"name":"smoking on bhutanese shadow pac","steam_id":76561198095313463,"connected_time":1937000000000,"state":"active","ping":58},{"user_id":277,"name":"Maverick","steam_id":76561198322829814,"connected_time":8484000000000,"state":"active","ping":83},{"user_id":386,"name":"Falkner Predict Up","steam_id":76561198341537452,"connected_time":717000000000,"state":"active","ping":75},{"user_id":363,"name":"?UZAN","steam_id":76561199484644402,"connected_time":2028000000000,"state":"active","ping":52},{"user_id":380,"name":"Zizen","steam_id":76561199011832069,"connected_time":816000000000,"state":"active","ping":94},{"user_id":389,"name":"[BU773T\u003e","steam_id":76561197991671942,"connected_time":557000000000,"state":"active","ping":97},{"user_id":387,"name":"a literal slave","steam_id":76561199389283507,"connected_time":714000000000,"state":"active","ping":71},{"user_id":336,"name":"LeadHickory","steam_id":76561198219756521,"connected_time":4338000000000,"state":"active","ping":87},{"user_id":381,"name":"the piss boiling machine","steam_id":76561198113716047,"connected_time":785000000000,"state":"active","ping":74},{"user_id":378,"name":"Doubting Dave","steam_id":76561198066410749,"connected_time":943000000000,"state":"active","ping":82},{"user_id":368,"name":"Fredrick","steam_id":76561197981419964,"connected_time":2003000000000,"state":"active","ping":69},{"user_id":388,"name":"AceDeuce","steam_id":76561198049904924,"connected_time":650000000000,"state":"active","ping":56},{"user_id":353,"name":"Discourse","steam_id":76561198984286678,"connected_time":2732000000000,"state":"active","ping":58},{"user_id":357,"name":"underworld","steam_id":76561198173047169,"connected_time":2421000000000,"state":"active","ping":60},{"user_id":361,"name":"üå∏Callie The Potatoüå∏","steam_id":76561198313463421,"connected_time":2227000000000,"state":"active","ping":71},{"user_id":382,"name":"Tile(s)","steam_id":76561198196660338,"connected_time":783000000000,"state":"active","ping":75},{"user_id":376,"name":"Acehay14","steam_id":76561198052373291,"connected_time":1559000000000,"state":"active","ping":62},{"user_id":371,"name":"Bheem","steam_id":76561198170453459,"connected_time":1967000000000,"state":"active","ping":82},{"user_id":373,"name":"Infineable","steam_id":76561198358100698,"connected_time":1935000000000,"state":"active","ping":68},{"user_id":354,"name":"anotherl2","steam_id":76561198354418895,"connected_time":2723000000000,"state":"active","ping":103},{"user_id":383,"name":"Lamination Sensation","steam_id":76561198362916241,"connected_time":780000000000,"state":"active","ping":85},{"user_id":384,"name":"mel","steam_id":76561198215559840,"connected_time":741000000000,"state":"active","ping":73}]},{"server_id":106,"name":"Uncletopia | Chicago | 2 | All Maps","name_short":"chi-2","host":"chi-1.us.uncletopia.com","port":27025,"enabled":true,"region":"us-central","cc":"us","latitude":41.881832,"longitude":-87.62318,"reserved":0,"last_update":"0001-01-01T00:00:00Z","name_a2s":"Uncletopia | Chicago | 2 | All Maps","protocol":17,"map":"koth_lakeside_final","folder":"tf","game":"Team Fortress","app_id":440,"player_count":24,"max_players":24,"Bots":0,"server_type":"Dedicated","server_os":"Linux","password":true,"vac":true,"version":"7882260","steam_id":85568392924469985,"keywords":["cp","nocrits","nodmgspread","uncletopia"],"game_id":440,"stv_port":27026,"stv_name":"Uncletopia | Chicago | 2 | All Maps | STV","players":[{"user_id":358,"name":"steve","steam_id":76561198207881077,"connected_time":1699000000000,"state":"active","ping":85},{"user_id":322,"name":"Zoot","steam_id":76561198121944243,"connected_time":5326000000000,"state":"active","ping":75},{"user_id":317,"name":"BookBurner23","steam_id":76561198034771185,"connected_time":5750000000000,"state":"active","ping":69},{"user_id":344,"name":"Foreskin Reattachment service","steam_id":76561198060342804,"connected_time":2967000000000,"state":"active","ping":70},{"user_id":312,"name":"ùïÆùñÜùñíùñäùñóùñîùñì \ufffd\ufffd","steam_id":76561198045826628,"connected_time":6381000000000,"state":"active","ping":119},{"user_id":371,"name":"olivia","steam_id":76561198288130849,"connected_time":541000000000,"state":"active","ping":88},{"user_id":364,"name":"Aiden939","steam_id":76561198860530097,"connected_time":1601000000000,"state":"active","ping":84},{"user_id":319,"name":"E4Estrogen","steam_id":76561198085813708,"connected_time":5694000000000,"state":"active","ping":58},{"user_id":348,"name":"Dongus","steam_id":76561197979056451,"connected_time":2842000000000,"state":"active","ping":97},{"user_id":360,"name":"SnazzyCelestial","steam_id":76561198328763813,"connected_time":1662000000000,"state":"active","ping":91},{"user_id":341,"name":"kermitcreeper(ZAZA)","steam_id":76561199222829972,"connected_time":3430000000000,"state":"active","ping":56},{"user_id":335,"name":"‚úøœâilliethepilloœâ‚úø","steam_id":76561198066161301,"connected_time":4158000000000,"state":"active","ping":90},{"user_id":345,"name":"GoofyAhGamingGuy","steam_id":76561199331315881,"connected_time":2899000000000,"state":"active","ping":75},{"user_id":355,"name":"Evan","steam_id":76561197972292926,"connected_time":2528000000000,"state":"active","ping":69},{"user_id":373,"name":"Rafl","steam_id":76561198055222756,"connected_time":135000000000,"state":"active","ping":71},{"user_id":338,"name":"westward (was/were)","steam_id":76561198805512350,"connected_time":3787000000000,"state":"active","ping":117},{"user_id":343,"name":"Famelegion","steam_id":76561198958341424,"connected_time":3119000000000,"state":"active","ping":92},{"user_id":370,"name":"I'm trying my best","steam_id":76561198886157874,"connected_time":588000000000,"state":"active","ping":60},{"user_id":363,"name":"8bean","steam_id":76561198239138132,"connected_time":1635000000000,"state":"active","ping":57},{"user_id":328,"name":"DarthEthanBoy","steam_id":76561198441643581,"connected_time":4350000000000,"state":"active","ping":70},{"user_id":350,"name":"Myn","steam_id":76561198055438857,"connected_time":2825000000000,"state":"active","ping":72},{"user_id":374,"name":"Dino Dude","steam_id":76561198799270016,"connected_time":51000000000,"state":"active","ping":38},{"user_id":357,"name":"Al Cabone","steam_id":76561198956823243,"connected_time":1940000000000,"state":"active","ping":69},{"user_id":366,"name":"TheSnipersHat","steam_id":76561198057684066,"connected_time":1095000000000,"state":"active","ping":55}]},{"server_id":402,"name":"Uncletopia | Chicago | 3 | All Maps","name_short":"chi-3","host":"chi-1.us.uncletopia.com","port":27035,"enabled":true,"region":"us-central","cc":"us","latitude":41.881832,"longitude":-87.62318,"reserved":0,"last_update":"0001-01-01T00:00:00Z","name_a2s":"Uncletopia | Chicago | 3 | All Maps","protocol":17,"map":"pl_frontier_final","folder":"tf","game":"Team Fortress","app_id":440,"player_count":24,"max_players":24,"Bots":0,"server_type":"Dedicated","server_os":"Linux","password":true,"vac":true,"version":"7882260","steam_id":85568392924515191,"keywords":["nocrits","nodmgspread","payload","uncletopia"],"game_id":440,"stv_port":27036,"stv_name":"Uncletopia | Chicago | 3 | All Maps | STV","players":[{"user_id":438,"name":"PyroEagle","steam_id":76561198296434231,"connected_time":888000000000,"state":"active","ping":67},{"user_id":440,"name":"Zetta","steam_id":76561198045710113,"connected_time":863000000000,"state":"active","ping":109},{"user_id":424,"name":"theycallmesoup","steam_id":76561198141514537,"connected_time":2234000000000,"state":"active","ping":70},{"user_id":439,"name":"aphexjh","steam_id":76561197985854658,"connected_time":883000000000,"state":"active","ping":56},{"user_id":455,"name":"Joe ELO From Progressive","steam_id":76561198336597038,"connected_time":141000000000,"state":"active","ping":88},{"user_id":425,"name":"GooniOoni","steam_id":76561198102154561,"connected_time":2110000000000,"state":"active","ping":44},{"user_id":446,"name":"seeyouauntie","steam_id":76561198045852999,"connected_time":564000000000,"state":"active","ping":56},{"user_id":451,"name":"Model of a Modern Major General","steam_id":76561198237304364,"connected_time":296000000000,"state":"active","ping":110},{"user_id":409,"name":"Begrip","steam_id":76561198091990094,"connected_time":2998000000000,"state":"active","ping":71},{"user_id":414,"name":"humanoiid","steam_id":76561199085322190,"connected_time":2975000000000,"state":"active","ping":79},{"user_id":445,"name":"Django","steam_id":76561197971158403,"connected_time":623000000000,"state":"active","ping":71},{"user_id":452,"name":"Fresh0c0","steam_id":76561198271933283,"connected_time":285000000000,"state":"active","ping":70},{"user_id":429,"name":"Bush.exe","steam_id":76561198124385307,"connected_time":1914000000000,"state":"active","ping":63},{"user_id":447,"name":"Space Lizard","steam_id":76561198056798193,"connected_time":549000000000,"state":"active","ping":71},{"user_id":444,"name":"Wigl","steam_id":76561198019324464,"connected_time":766000000000,"state":"active","ping":69},{"user_id":412,"name":"Missing Minus","steam_id":76561198120822928,"connected_time":2980000000000,"state":"active","ping":61},{"user_id":454,"name":"Master Of Whales","steam_id":76561198349104889,"connected_time":223000000000,"state":"active","ping":101},{"user_id":404,"name":"Freddy Fazbear","steam_id":76561198383502667,"connected_time":4030000000000,"state":"active","ping":77},{"user_id":431,"name":"Yellow Mellow","steam_id":76561198089697360,"connected_time":1872000000000,"state":"active","ping":78},{"user_id":448,"name":"stultus3","steam_id":76561198099104939,"connected_time":538000000000,"state":"active","ping":81},{"user_id":331,"name":"I came (up)","steam_id":76561198057745131,"connected_time":10250000000000,"state":"active","ping":55},{"user_id":442,"name":"MaxTheRetroGuy","steam_id":76561198845344731,"connected_time":838000000000,"state":"active","ping":66},{"user_id":443,"name":"ardentis","steam_id":76561198083721201,"connected_time":817000000000,"state":"active","ping":96},{"user_id":449,"name":"Xyverle","steam_id":76561198799726415,"connected_time":507000000000,"state":"active","ping":59}]},{"server_id":403,"name":"Uncletopia | Chicago | 4 | All Maps","name_short":"chi-4","host":"chi-1.us.uncletopia.com","port":27045,"enabled":true,"region":"us-central","cc":"us","latitude":41.881832,"longitude":-87.62318,"reserved":0,"last_update":"0001-01-01T00:00:00Z","name_a2s":"Uncletopia | Chicago | 4 | All Maps","protocol":17,"map":"cp_steel","folder":"tf","game":"Team Fortress","app_id":440,"player_count":24,"max_players":24,"Bots":0,"server_type":"Dedicated","server_os":"Linux","password":true,"vac":true,"version":"7882260","steam_id":85568392924515193,"keywords":["cp","nocrits","nodmgspread","uncletopia"],"game_id":440,"stv_port":27046,"stv_name":"Uncletopia | Chicago | 4 | All Maps | STV","players":[{"user_id":257,"name":"MrVegasAguitar","steam_id":76561198084466946,"connected_time":1758000000000,"state":"active","ping":96},{"user_id":265,"name":"pyokoryder","steam_id":76561198203399204,"connected_time":1247000000000,"state":"active","ping":60},{"user_id":243,"name":"N U T T","steam_id":76561198139661511,"connected_time":3051000000000,"state":"active","ping":72},{"user_id":255,"name":"Nephi","steam_id":76561198031525122,"connected_time":1937000000000,"state":"active","ping":77},{"user_id":222,"name":"Fatal Top Deficiency","steam_id":76561198141738612,"connected_time":4609000000000,"state":"active","ping":69},{"user_id":227,"name":"RiverEgg","steam_id":76561198888913405,"connected_time":3882000000000,"state":"active","ping":54},{"user_id":267,"name":"Bread","steam_id":76561198251896612,"connected_time":481000000000,"state":"active","ping":44},{"user_id":269,"name":"SpecialForce19","steam_id":76561198120974644,"connected_time":306000000000,"state":"active","ping":81},{"user_id":256,"name":"Hindmost","steam_id":76561199081837220,"connected_time":1819000000000,"state":"active","ping":85},{"user_id":270,"name":"CthulhusBSack","steam_id":76561199067224131,"connected_time":93000000000,"state":"active","ping":62},{"user_id":271,"name":"TSM NarutoUzumaki","steam_id":76561198044844522,"connected_time":92000000000,"state":"active","ping":67},{"user_id":238,"name":"ElElliot","steam_id":76561198842278840,"connected_time":3659000000000,"state":"active","ping":69},{"user_id":272,"name":"tesagi","steam_id":76561198026664629,"connected_time":46000000000,"state":"active","ping":46},{"user_id":231,"name":"PootisPowHAHA","steam_id":76561199023536209,"connected_time":3769000000000,"state":"active","ping":89},{"user_id":264,"name":"kjorbjort","steam_id":76561198855201444,"connected_time":1329000000000,"state":"active","ping":106},{"user_id":273,"name":"nude barber","steam_id":76561198254968823,"connected_time":38000000000,"state":"active","ping":89},{"user_id":251,"name":"BoneBoiWizard","steam_id":76561198088688531,"connected_time":2502000000000,"state":"active","ping":62},{"user_id":241,"name":"TheLlamaKang","steam_id":76561198125828837,"connected_time":3240000000000,"state":"active","ping":65},{"user_id":242,"name":"Am I Good At The Video Game?","steam_id":76561198046053281,"connected_time":3141000000000,"state":"active","ping":74},{"user_id":274,"name":"The Power","steam_id":76561198060566884,"connected_time":21000000000,"state":"active","ping":142},{"user_id":229,"name":"ThatGamingKiwi","steam_id":76561199170522237,"connected_time":3848000000000,"state":"active","ping":75},{"user_id":268,"name":"bruhmajorL69","steam_id":76561198870063561,"connected_time":404000000000,"state":"active","ping":88},{"user_id":237,"name":"nips slippin n slappin","steam_id":76561198051959007,"connected_time":3701000000000,"state":"active","ping":84},{"user_id":246,"name":"Oddball","steam_id":76561198040440984,"connected_time":2676000000000,"state":"active","ping":75}]},{"server_id":36,"name":"Uncletopia | Chicago | 5 | All Maps","name_short":"chi-5","host":"chi-2.us.uncletopia.com","port":27015,"enabled":true,"region":"us-central","cc":"us","latitude":41.881832,"longitude":-87.62318,"reserved":0,"last_update":"0001-01-01T00:00:00Z","name_a2s":"Uncletopia | Chicago | 5 | All Maps","protocol":17,"map":"koth_suijin","folder":"tf","game":"Team Fortress","app_id":440,"player_count":24,"max_players":24,"Bots":0,"server_type":"Dedicated","server_os":"Linux","password":true,"vac":true,"version":"7882260","steam_id":85568392924866362,"keywords":["cp","nocrits","nodmgspread","uncletopia"],"game_id":440,"stv_port":27016,"stv_name":"Uncletopia | Chicago | 5 | All Maps | STV","players":[{"user_id":291,"name":"scout blood","steam_id":76561199185354638,"connected_time":1413000000000,"state":"active","ping":124},{"user_id":277,"name":"Anor","steam_id":76561198356139775,"connected_time":2050000000000,"state":"active","ping":74},{"user_id":242,"name":"Jev | Ham Mafia |","steam_id":76561198115847299,"connected_time":4220000000000,"state":"active","ping":59},{"user_id":300,"name":"god's drunkest driver","steam_id":76561198069407799,"connected_time":536000000000,"state":"active","ping":82},{"user_id":310,"name":"drwwby","steam_id":76561198067741339,"connected_time":195000000000,"state":"active","ping":60},{"user_id":225,"name":"MgMaster7","steam_id":76561199229916638,"connected_time":4587000000000,"state":"active","ping":63},{"user_id":311,"name":"CyberZayne","steam_id":76561198002351356,"connected_time":193000000000,"state":"active","ping":84},{"user_id":293,"name":"Scita","steam_id":76561198066861559,"connected_time":984000000000,"state":"active","ping":73},{"user_id":305,"name":"Retro","steam_id":76561198805609382,"connected_time":422000000000,"state":"active","ping":86},{"user_id":284,"name":"glowskull","steam_id":76561198013650292,"connected_time":1900000000000,"state":"active","ping":103},{"user_id":283,"name":"99999999 Ë™¨Êòé„ÇíË¶ã„Å¶","steam_id":76561199163884669,"connected_time":1951000000000,"state":"active","ping":106},{"user_id":298,"name":"MeatBall","steam_id":76561199055196261,"connected_time":587000000000,"state":"active","ping":70},{"user_id":299,"name":"Peter Popoff","steam_id":76561198027171160,"connected_time":587000000000,"state":"active","ping":31},{"user_id":297,"name":"BobKnob","steam_id":76561198327333965,"connected_time":763000000000,"state":"active","ping":138},{"user_id":302,"name":"nailbxmb98","steam_id":76561199131463997,"connected_time":520000000000,"state":"active","ping":103},{"user_id":294,"name":"DavyC","steam_id":76561197988901502,"connected_time":984000000000,"state":"active","ping":56},{"user_id":309,"name":"·òè·ó¢ ·ó¢·òè","steam_id":76561199156968587,"connected_time":234000000000,"state":"active","ping":56},{"user_id":316,"name":"NUt","steam_id":76561198031007966,"connected_time":109000000000,"state":"active","ping":75},{"user_id":313,"name":"Haveltherock27","steam_id":76561199219844391,"connected_time":184000000000,"state":"active","ping":101},{"user_id":243,"name":"hardtack |HM/THWU|","steam_id":76561198860212406,"connected_time":4195000000000,"state":"active","ping":92},{"user_id":216,"name":"Nimro","steam_id":76561198049334200,"connected_time":5324000000000,"state":"active","ping":121},{"user_id":314,"name":"storm","steam_id":76561198091418867,"connected_time":163000000000,"state":"active","ping":65},{"user_id":308,"name":"oatmeal...","steam_id":76561198314165907,"connected_time":332000000000,"state":"active","ping":53},{"user_id":287,"name":"Dart Vadoor","steam_id":76561198336030917,"connected_time":1705000000000,"state":"active","ping":74}]},{"server_id":37,"name":"Uncletopia | Chicago | 6 | All Maps","name_short":"chi-6","host":"chi-2.us.uncletopia.com","port":27025,"enabled":true,"region":"us-central","cc":"us","latitude":41.881832,"longitude":-87.62318,"reserved":0,"last_update":"0001-01-01T00:00:00Z","name_a2s":"Uncletopia | Chicago | 6 | All Maps","protocol":17,"map":"pl_swiftwater_final1","folder":"tf","game":"Team Fortress","app_id":440,"player_count":22,"max_players":24,"Bots":0,"server_type":"Dedicated","server_os":"Linux","password":true,"vac":true,"version":"7882260","steam_id":85568392924866363,"keywords":["nocrits","nodmgspread","payload","uncletopia"],"game_id":440,"stv_port":27026,"stv_name":"Uncletopia | Chicago | 6 | All Maps | STV","players":[{"user_id":321,"name":"Ex-PFC Wintergreen","steam_id":76561198203851303,"connected_time":28000000000,"state":"active","ping":82},{"user_id":296,"name":"noah","steam_id":76561198173310157,"connected_time":2669000000000,"state":"active","ping":51},{"user_id":283,"name":"TheKromeDome","steam_id":76561198288951592,"connected_time":3722000000000,"state":"active","ping":175},{"user_id":308,"name":"Superplay64","steam_id":76561198172471162,"connected_time":1460000000000,"state":"active","ping":83},{"user_id":251,"name":"A Puppy","steam_id":76561198828184456,"connected_time":5713000000000,"state":"active","ping":60},{"user_id":232,"name":"RapBap Bird in Lap","steam_id":76561198105613110,"connected_time":7980000000000,"state":"active","ping":60},{"user_id":309,"name":"sfoster","steam_id":76561197993895857,"connected_time":1400000000000,"state":"active","ping":84},{"user_id":250,"name":"Flint","steam_id":76561198148412420,"connected_time":5761000000000,"state":"active","ping":74},{"user_id":318,"name":"Monty","steam_id":76561197993567253,"connected_time":466000000000,"state":"active","ping":96},{"user_id":233,"name":"scapegoat","steam_id":76561198188722751,"connected_time":7980000000000,"state":"active","ping":91},{"user_id":240,"name":"mario","steam_id":76561198148282278,"connected_time":7016000000000,"state":"active","ping":63},{"user_id":320,"name":"atserc","steam_id":76561197997570349,"connected_time":48000000000,"state":"active","ping":90},{"user_id":298,"name":"Mugenman88","steam_id":76561198041261388,"connected_time":1948000000000,"state":"active","ping":65},{"user_id":301,"name":"‚ù§ Ashley ‚ù§","steam_id":76561198056428303,"connected_time":1861000000000,"state":"active","ping":96},{"user_id":322,"name":"helen keller","steam_id":76561197979870540,"connected_time":18000000000,"state":"spawning","ping":350},{"user_id":289,"name":"rat","steam_id":76561199171889240,"connected_time":3369000000000,"state":"active","ping":74},{"user_id":317,"name":"HTML","steam_id":76561198099061153,"connected_time":471000000000,"state":"active","ping":96},{"user_id":279,"name":"Solstrom","steam_id":76561198313364985,"connected_time":4106000000000,"state":"active","ping":74},{"user_id":293,"name":"Smug Pug","steam_id":76561198059423334,"connected_time":3223000000000,"state":"active","ping":57},{"user_id":311,"name":"noque","steam_id":76561199439893118,"connected_time":1292000000000,"state":"active","ping":145},{"user_id":312,"name":"boy kisser","steam_id":76561198142129648,"connected_time":1019000000000,"state":"active","ping":70},{"user_id":273,"name":"bubbles","steam_id":76561198974276335,"connected_time":4731000000000,"state":"active","ping":57}]},{"server_id":38,"name":"Uncletopia | Chicago | 7 | Stopwatch Beta","name_short":"chi-7","host":"chi-2.us.uncletopia.com","port":27035,"enabled":true,"region":"us-central","cc":"us","latitude":41.881832,"longitude":-87.62318,"reserved":0,"last_update":"0001-01-01T00:00:00Z","name_a2s":"Uncletopia | Chicago | 7 | Stopwatch Beta","protocol":17,"map":"pl_upward","folder":"tf","game":"Team Fortress","app_id":440,"player_count":0,"max_players":24,"Bots":0,"server_type":"Dedicated","server_os":"Linux","password":true,"vac":true,"version":"7882260","steam_id":85568392924866364,"keywords":["nocrits","nodmgspread","payload","uncletopia"],"game_id":440,"stv_port":27036,"stv_name":"Uncletopia | Chicago | 7 | Stopwatch Beta | STV","players":null},{"server_id":39,"name":"Uncletopia | Chicago | 8 | Community","name_short":"chi-8","host":"chi-2.us.uncletopia.com","port":27045,"enabled":true,"region":"us-central","cc":"us","latitude":41.881832,"longitude":-87.62318,"reserved":0,"last_update":"0001-01-01T00:00:00Z","name_a2s":"Uncletopia | Chicago | 8 | Community","protocol":17,"map":"workshop/cp_croissant_final.ugc458840209","folder":"tf","game":"Team Fortress","app_id":440,"player_count":0,"max_players":24,"Bots":0,"server_type":"Dedicated","server_os":"Linux","password":true,"vac":true,"version":"7882260","steam_id":85568392924866365,"keywords":["cp","nocrits","nodmgspread","uncletopia"],"game_id":440,"stv_port":27046,"stv_name":"Uncletopia | Chicago | 8 | Community | STV","players":null},{"server_id":8,"name":"Uncletopia | Dallas | 1 | All Maps","name_short":"dal-1","host":"dal-1.us.uncletopia.com","port":27015,"enabled":true,"region":"us-central","cc":"us","latitude":32.779167,"longitude":-96.80889,"reserved":0,"last_update":"0001-01-01T00:00:00Z","name_a2s":"Uncletopia | Dallas | 1 | All Maps","protocol":17,"map":"pl_upward","folder":"tf","game":"Team Fortress","app_id":440,"player_count":24,"max_players":24,"Bots":0,"server_type":"Dedicated","server_os":"Linux","password":true,"vac":true,"version":"7882260","steam_id":85568392924469986,"keywords":["nocrits","nodmgspread","payload","uncletopia"],"game_id":440,"stv_port":27016,"stv_name":"Uncletopia | Dallas | 1 | All Maps | STV","players":[{"user_id":485,"name":"shitass | troutsupply.net","steam_id":76561198210572481,"connected_time":723000000000,"state":"active","ping":59},{"user_id":459,"name":"Zethalus","steam_id":76561197999613444,"connected_time":2032000000000,"state":"active","ping":59},{"user_id":476,"name":"Tommy Provolone","steam_id":76561198170062377,"connected_time":1016000000000,"state":"active","ping":69},{"user_id":490,"name":"Ice Teea","steam_id":76561198195673201,"connected_time":624000000000,"state":"active","ping":73},{"user_id":417,"name":"Op banana","steam_id":76561198303231451,"connected_time":4400000000000,"state":"active","ping":52},{"user_id":457,"name":"TF2TED","steam_id":76561199487712517,"connected_time":2135000000000,"state":"active","ping":93},{"user_id":481,"name":"Axities","steam_id":76561198278008225,"connected_time":807000000000,"state":"active","ping":78},{"user_id":483,"name":"c0ckn'ball gaming","steam_id":76561199012641732,"connected_time":776000000000,"state":"active","ping":181},{"user_id":473,"name":"barker bill","steam_id":76561198018451994,"connected_time":1406000000000,"state":"active","ping":60},{"user_id":497,"name":"SaxyThePhone","steam_id":76561199439167761,"connected_time":127000000000,"state":"active","ping":69},{"user_id":438,"name":"Moomin","steam_id":76561198072726213,"connected_time":3769000000000,"state":"active","ping":75},{"user_id":486,"name":"roryd","steam_id":76561198871309236,"connected_time":703000000000,"state":"active","ping":73},{"user_id":482,"name":"the spider is real","steam_id":76561198076693017,"connected_time":805000000000,"state":"active","ping":89},{"user_id":471,"name":"Minlit","steam_id":76561198205832799,"connected_time":1627000000000,"state":"active","ping":51},{"user_id":489,"name":"bobby cigarette","steam_id":76561198059780866,"connected_time":662000000000,"state":"active","ping":70},{"user_id":491,"name":"JellyParrot","steam_id":76561199190990163,"connected_time":616000000000,"state":"active","ping":75},{"user_id":435,"name":"MithStyck","steam_id":76561198071538489,"connected_time":3920000000000,"state":"active","ping":54},{"user_id":446,"name":"deb","steam_id":76561198414336279,"connected_time":2905000000000,"state":"active","ping":58},{"user_id":466,"name":"Chunk Stuffer","steam_id":76561198856508573,"connected_time":1767000000000,"state":"active","ping":39},{"user_id":498,"name":"pabbott123110","steam_id":76561199231739796,"connected_time":45000000000,"state":"active","ping":101},{"user_id":494,"name":"[BALLS] r30848","steam_id":76561199123984543,"connected_time":480000000000,"state":"active","ping":59},{"user_id":454,"name":"Buddy Christ","steam_id":76561198068914701,"connected_time":2373000000000,"state":"active","ping":79},{"user_id":496,"name":"RushHack","steam_id":76561198161169421,"connected_time":149000000000,"state":"active","ping":87},{"user_id":495,"name":"carrotcake","steam_id":76561198030997761,"connected_time":381000000000,"state":"active","ping":46}]},{"server_id":108,"name":"Uncletopia | Dallas | 2 | All Maps","name_short":"dal-2","host":"dal-1.us.uncletopia.com","port":27025,"enabled":true,"region":"us-central","cc":"us","latitude":32.779167,"longitude":-96.80889,"reserved":0,"last_update":"0001-01-01T00:00:00Z","name_a2s":"Uncletopia | Dallas | 2 | All Maps","protocol":17,"map":"pl_badwater","folder":"tf","game":"Team Fortress","app_id":440,"player_count":24,"max_players":24,"Bots":0,"server_type":"Dedicated","server_os":"Linux","password":true,"vac":true,"version":"7882260","steam_id":85568392924469988,"keywords":["nocrits","nodmgspread","payload","uncletopia"],"game_id":440,"stv_port":27026,"stv_name":"Uncletopia | Dallas | 2 | All Maps | STV","players":[{"user_id":236,"name":"FishGod","steam_id":76561198056156434,"connected_time":665000000000,"state":"active","ping":42},{"user_id":229,"name":"Aloha :3","steam_id":76561198148517055,"connected_time":1097000000000,"state":"active","ping":128},{"user_id":230,"name":"Soul Garg Plushy","steam_id":76561198044480181,"connected_time":1072000000000,"state":"active","ping":75},{"user_id":224,"name":"Jaxout","steam_id":76561198126194361,"connected_time":2133000000000,"state":"active","ping":89},{"user_id":190,"name":"sumi squad","steam_id":76561198084849541,"connected_time":5371000000000,"state":"active","ping":55},{"user_id":211,"name":"Doctor Emerald(real)","steam_id":76561199123003872,"connected_time":3274000000000,"state":"active","ping":90},{"user_id":212,"name":"0x01FE","steam_id":76561198838881917,"connected_time":2562000000000,"state":"active","ping":69},{"user_id":219,"name":"Osrio","steam_id":76561198083428069,"connected_time":2491000000000,"state":"active","ping":99},{"user_id":205,"name":"cringe oomfie","steam_id":76561198000522179,"connected_time":4059000000000,"state":"active","ping":94},{"user_id":213,"name":"just a gamer","steam_id":76561199208833695,"connected_time":2559000000000,"state":"active","ping":91},{"user_id":227,"name":"cloaker","steam_id":76561199453618642,"connected_time":1521000000000,"state":"active","ping":99},{"user_id":166,"name":"Punished \"Venom\" Snick","steam_id":76561198066566813,"connected_time":6594000000000,"state":"active","ping":113},{"user_id":215,"name":"Guardian","steam_id":76561199008367158,"connected_time":2556000000000,"state":"active","ping":94},{"user_id":231,"name":"stupid bastard","steam_id":76561199195104977,"connected_time":1069000000000,"state":"active","ping":82},{"user_id":220,"name":"Frog","steam_id":76561198170199881,"connected_time":2477000000000,"state":"active","ping":74},{"user_id":232,"name":"J.G. Klaus","steam_id":76561198001111196,"connected_time":1049000000000,"state":"active","ping":59},{"user_id":206,"name":"Crimson","steam_id":76561198129326627,"connected_time":4059000000000,"state":"active","ping":70},{"user_id":237,"name":"Asanez3","steam_id":76561198037381436,"connected_time":636000000000,"state":"active","ping":85},{"user_id":159,"name":"Mellou","steam_id":76561198212048740,"connected_time":7369000000000,"state":"active","ping":44},{"user_id":235,"name":"Zixzs","steam_id":76561198055504126,"connected_time":721000000000,"state":"active","ping":79},{"user_id":208,"name":"bass mongrel","steam_id":76561198081123470,"connected_time":4031000000000,"state":"active","ping":49},{"user_id":239,"name":"TF2C | fac -AA-","steam_id":76561198009818412,"connected_time":326000000000,"state":"active","ping":58},{"user_id":226,"name":"Landlord","steam_id":76561198987913057,"connected_time":1542000000000,"state":"active","ping":96},{"user_id":238,"name":"Saw Goodman","steam_id":76561198195318509,"connected_time":629000000000,"state":"active","ping":86}]},{"server_id":5,"name":"Uncletopia | Frankfurt | 1 | All Maps","name_short":"frk-1","host":"frk-1.de.uncletopia.com","port":27015,"enabled":true,"region":"eu","cc":"de","latitude":50.110924,"longitude":8.682127,"reserved":0,"last_update":"0001-01-01T00:00:00Z","name_a2s":"Uncletopia | Frankfurt | 1 | All Maps","protocol":17,"map":"ctf_2fort","folder":"tf","game":"Team Fortress","app_id":440,"player_count":5,"max_players":24,"Bots":0,"server_type":"Dedicated","server_os":"Linux","password":true,"vac":true,"version":"7882260","steam_id":85568392924469989,"keywords":["ctf","nocrits","nodmgspread","uncletopia"],"game_id":440,"stv_port":27016,"stv_name":"Uncletopia | Frankfurt | 1 | All Maps | STV","players":[{"user_id":591,"name":"Urfangonultasadana","steam_id":76561199389286151,"connected_time":4383000000000,"state":"active","ping":101},{"user_id":606,"name":"the engineer","steam_id":76561198798516824,"connected_time":2790000000000,"state":"active","ping":69},{"user_id":607,"name":"Ink in veins","steam_id":76561199082262091,"connected_time":2357000000000,"state":"active","ping":72},{"user_id":604,"name":"—Ç–æ–ª—è","steam_id":76561199098518615,"connected_time":3351000000000,"state":"active","ping":71},{"user_id":609,"name":"meow (they/them)","steam_id":76561198416657815,"connected_time":194000000000,"state":"active","ping":87}]},{"server_id":110,"name":"Uncletopia | Frankfurt | 2 | All Maps","name_short":"frk-2","host":"frk-1.de.uncletopia.com","port":27025,"enabled":true,"region":"eu","cc":"de","latitude":50.110924,"longitude":8.682127,"reserved":0,"last_update":"0001-01-01T00:00:00Z","name_a2s":"Uncletopia | Frankfurt | 2 | All Maps","protocol":17,"map":"pl_goldrush","folder":"tf","game":"Team Fortress","app_id":440,"player_count":24,"max_players":24,"Bots":0,"server_type":"Dedicated","server_os":"Linux","password":true,"vac":true,"version":"7882260","steam_id":85568392924469990,"keywords":["nocrits","nodmgspread","payload","uncletopia"],"game_id":440,"stv_port":27026,"stv_name":"Uncletopia | Frankfurt | 2 | All Maps | STV","players":[{"user_id":589,"name":"walokin","steam_id":76561198352951647,"connected_time":392000000000,"state":"active","ping":82},{"user_id":524,"name":"Bad Guy [‚áÑ] #SaveTF2","steam_id":76561199039772329,"connected_time":4676000000000,"state":"active","ping":119},{"user_id":405,"name":"finbar","steam_id":76561198056812396,"connected_time":12066000000000,"state":"active","ping":79},{"user_id":564,"name":"It's My Birthday!","steam_id":76561198406606196,"connected_time":1693000000000,"state":"active","ping":80},{"user_id":498,"name":"Adib al-asfar","steam_id":76561198095691592,"connected_time":6558000000000,"state":"active","ping":59},{"user_id":590,"name":"Trkl","steam_id":76561198027993026,"connected_time":199000000000,"state":"active","ping":45},{"user_id":527,"name":"Whiff","steam_id":76561198086264411,"connected_time":4633000000000,"state":"active","ping":80},{"user_id":591,"name":"Boris","steam_id":76561198032893399,"connected_time":106000000000,"state":"active","ping":84},{"user_id":573,"name":"Juiceydough","steam_id":76561197997323419,"connected_time":1419000000000,"state":"active","ping":88},{"user_id":530,"name":"MAMMA","steam_id":76561198044963767,"connected_time":4566000000000,"state":"active","ping":79},{"user_id":542,"name":"‚ôø.","steam_id":76561199201751058,"connected_time":3981000000000,"state":"active","ping":95},{"user_id":585,"name":"Burrito","steam_id":76561198023919089,"connected_time":538000000000,"state":"active","ping":87},{"user_id":549,"name":"Limonca","steam_id":76561198079029706,"connected_time":2769000000000,"state":"active","ping":50},{"user_id":582,"name":"Deacon Dracul","steam_id":76561198046880663,"connected_time":986000000000,"state":"active","ping":105},{"user_id":572,"name":"ScarredPixel123","steam_id":76561199165112703,"connected_time":1459000000000,"state":"active","ping":79},{"user_id":568,"name":"Tonne","steam_id":76561197970856766,"connected_time":1546000000000,"state":"active","ping":54},{"user_id":580,"name":"molderfaker","steam_id":76561199347900130,"connected_time":1184000000000,"state":"active","ping":93},{"user_id":586,"name":"Lennox","steam_id":76561198069063554,"connected_time":520000000000,"state":"active","ping":45},{"user_id":588,"name":"Joran","steam_id":76561198031090822,"connected_time":428000000000,"state":"active","ping":71},{"user_id":574,"name":"TeslaVet","steam_id":76561198027201872,"connected_time":1348000000000,"state":"active","ping":71},{"user_id":575,"name":"tone","steam_id":76561197975301462,"connected_time":1328000000000,"state":"active","ping":80},{"user_id":576,"name":"smittenkittenmittens","steam_id":76561198130900442,"connected_time":1279000000000,"state":"active","ping":178},{"user_id":581,"name":"beguilingfool","steam_id":76561199128745972,"connected_time":1178000000000,"state":"active","ping":178},{"user_id":578,"name":"BooceMaster","steam_id":76561198148520318,"connected_time":1263000000000,"state":"active","ping":154}]},{"server_id":308,"name":"Uncletopia | Frankfurt | 3 | All Maps","name_short":"frk-3","host":"frk-1.de.uncletopia.com","port":27035,"enabled":true,"region":"eu","cc":"de","latitude":50.110924,"longitude":8.682127,"reserved":0,"last_update":"0001-01-01T00:00:00Z","name_a2s":"Uncletopia | Frankfurt | 3 | All Maps","protocol":17,"map":"cp_dustbowl","folder":"tf","game":"Team Fortress","app_id":440,"player_count":11,"max_players":24,"Bots":0,"server_type":"Dedicated","server_os":"Linux","password":true,"vac":true,"version":"7882260","steam_id":85568392924504274,"keywords":["cp","nocrits","nodmgspread","uncletopia"],"game_id":440,"stv_port":27036,"stv_name":"Uncletopia | Frankfurt | 3 | All Maps | STV","players":[{"user_id":781,"name":"TAFI03","steam_id":76561198213082089,"connected_time":30000000000,"state":"active","ping":56},{"user_id":760,"name":"DarkStar","steam_id":76561197987794808,"connected_time":1931000000000,"state":"active","ping":75},{"user_id":763,"name":"r4s1","steam_id":76561198024034917,"connected_time":1869000000000,"state":"active","ping":48},{"user_id":765,"name":"MEGOS","steam_id":76561198172740637,"connected_time":1853000000000,"state":"active","ping":51},{"user_id":773,"name":"maxi","steam_id":76561198800637336,"connected_time":756000000000,"state":"active","ping":46},{"user_id":771,"name":"Cutter","steam_id":76561197960445835,"connected_time":914000000000,"state":"active","ping":57},{"user_id":774,"name":"Mega","steam_id":76561197970389664,"connected_time":714000000000,"state":"active","ping":45},{"user_id":770,"name":"BD[PL]","steam_id":76561198115995871,"connected_time":1205000000000,"state":"active","ping":68},{"user_id":755,"name":"Dominus Di Spiritus","steam_id":76561198200488383,"connected_time":2228000000000,"state":"active","ping":68},{"user_id":780,"name":"Crabi","steam_id":76561199138993597,"connected_time":131000000000,"state":"active","ping":69},{"user_id":777,"name":"leminsc8","steam_id":76561198825084995,"connected_time":551000000000,"state":"active","ping":46}]},{"server_id":309,"name":"Uncletopia | Frankfurt | 4 | All Maps","name_short":"frk-4","host":"frk-1.de.uncletopia.com","port":27045,"enabled":true,"region":"eu","cc":"de","latitude":50.110924,"longitude":8.682127,"reserved":0,"last_update":"0001-01-01T00:00:00Z","name_a2s":"Uncletopia | Frankfurt | 4 | All Maps","protocol":17,"map":"pl_borneo","folder":"tf","game":"Team Fortress","app_id":440,"player_count":24,"max_players":24,"Bots":0,"server_type":"Dedicated","server_os":"Linux","password":true,"vac":true,"version":"7882260","steam_id":85568392924504275,"keywords":["nocrits","nodmgspread","payload","uncletopia"],"game_id":440,"stv_port":27046,"stv_name":"Uncletopia | Frankfurt | 4 | All Maps | STV","players":[{"user_id":555,"name":"szmen","steam_id":76561198072569764,"connected_time":909000000000,"state":"active","ping":84},{"user_id":517,"name":"Gimmick","steam_id":76561197979603871,"connected_time":3543000000000,"state":"active","ping":69},{"user_id":558,"name":"Gnarville","steam_id":76561198006373329,"connected_time":429000000000,"state":"active","ping":61},{"user_id":559,"name":"sz(k)","steam_id":76561198118500940,"connected_time":390000000000,"state":"active","ping":60},{"user_id":548,"name":"peso enjoyer","steam_id":76561198798177799,"connected_time":1194000000000,"state":"active","ping":67},{"user_id":531,"name":"Nyhde","steam_id":76561198012771416,"connected_time":2335000000000,"state":"active","ping":102},{"user_id":549,"name":"ducksattack","steam_id":76561198074706076,"connected_time":1131000000000,"state":"active","ping":76},{"user_id":569,"name":"Rizz","steam_id":76561198192135953,"connected_time":174000000000,"state":"active","ping":93},{"user_id":561,"name":"ana","steam_id":76561197994492154,"connected_time":345000000000,"state":"active","ping":62},{"user_id":554,"name":"Harpenden, Harpenden, Harpenden","steam_id":76561198118138546,"connected_time":1028000000000,"state":"active","ping":57},{"user_id":550,"name":"Osmo","steam_id":76561199286764992,"connected_time":1118000000000,"state":"active","ping":74},{"user_id":537,"name":"Ott","steam_id":76561198276464481,"connected_time":2129000000000,"state":"active","ping":66},{"user_id":542,"name":"NeiroüëΩ·ó©YY ·í™·ó∞·ó©O","steam_id":76561198046743985,"connected_time":1840000000000,"state":"active","ping":76},{"user_id":543,"name":"Sabour","steam_id":76561197963965445,"connected_time":1748000000000,"state":"active","ping":66},{"user_id":551,"name":"Portal79","steam_id":76561198095499584,"connected_time":1118000000000,"state":"active","ping":66},{"user_id":552,"name":"The_Axe_Theory","steam_id":76561198424919706,"connected_time":1111000000000,"state":"active","ping":64},{"user_id":556,"name":"UwU","steam_id":76561198083969087,"connected_time":840000000000,"state":"active","ping":113},{"user_id":562,"name":"gŒ±–≤—î Œ∑œÉ√´‚Ñì","steam_id":76561198067342352,"connected_time":337000000000,"state":"active","ping":75},{"user_id":563,"name":"Sarah Obama Michella","steam_id":76561198078996559,"connected_time":328000000000,"state":"active","ping":75},{"user_id":484,"name":"5tv^","steam_id":76561198063129586,"connected_time":6568000000000,"state":"active","ping":60},{"user_id":564,"name":"Samplee","steam_id":76561198063406140,"connected_time":326000000000,"state":"active","ping":76},{"user_id":567,"name":"76531198198177417","steam_id":76561198086304421,"connected_time":263000000000,"state":"active","ping":104},{"user_id":566,"name":"Tin","steam_id":76561198022201818,"connected_time":286000000000,"state":"active","ping":59},{"user_id":529,"name":"badrobot","steam_id":76561198322878356,"connected_time":2695000000000,"state":"active","ping":97}]},{"server_id":310,"name":"Uncletopia | Frankfurt | 5 | All Maps","name_short":"frk-5","host":"frk-1.de.uncletopia.com","port":27055,"enabled":true,"region":"eu","cc":"de","latitude":50.110924,"longitude":8.682127,"reserved":0,"last_update":"0001-01-01T00:00:00Z","name_a2s":"Uncletopia | Frankfurt | 5 | All Maps","protocol":17,"map":"cp_dustbowl","folder":"tf","game":"Team Fortress","app_id":440,"player_count":0,"max_players":24,"Bots":0,"server_type":"Dedicated","server_os":"Linux","password":true,"vac":true,"version":"7882260","steam_id":85568392924504277,"keywords":["cp","nocrits","nodmgspread","uncletopia"],"game_id":440,"stv_port":27056,"stv_name":"Uncletopia | Frankfurt | 5 | All Maps | STV","players":null},{"server_id":311,"name":"Uncletopia | Frankfurt | 6 | All Maps","name_short":"frk-6","host":"frk-1.de.uncletopia.com","port":27065,"enabled":true,"region":"eu","cc":"de","latitude":50.110924,"longitude":8.682127,"reserved":0,"last_update":"0001-01-01T00:00:00Z","name_a2s":"Uncletopia | Frankfurt | 6 | All Maps","protocol":17,"map":"cp_mountainlab","folder":"tf","game":"Team Fortress","app_id":440,"player_count":0,"max_players":24,"Bots":0,"server_type":"Dedicated","server_os":"Linux","password":true,"vac":true,"version":"7882260","steam_id":85568392924504278,"keywords":["cp","nocrits","nodmgspread","uncletopia"],"game_id":440,"stv_port":27066,"stv_name":"Uncletopia | Frankfurt | 6 | All Maps | STV","players":null},{"server_id":23,"name":"Uncletopia | Frankfurt | 7 | Stopwatch Beta","name_short":"frk-7","host":"frk-1.de.uncletopia.com","port":27075,"enabled":true,"region":"eu","cc":"de","latitude":50.110924,"longitude":8.682127,"reserved":0,"last_update":"0001-01-01T00:00:00Z","name_a2s":"Uncletopia | Frankfurt | 7 | Stopwatch Beta","protocol":17,"map":"pl_swiftwater_final1","folder":"tf","game":"Team Fortress","app_id":440,"player_count":0,"max_players":24,"Bots":0,"server_type":"Dedicated","server_os":"Linux","password":true,"vac":true,"version":"7882260","steam_id":85568392924742827,"keywords":["nocrits","nodmgspread","payload","uncletopia"],"game_id":440,"stv_port":27076,"stv_name":"Uncletopia | Frankfurt | 7 | Stopwatch Beta | STV","players":null},{"server_id":24,"name":"Uncletopia | Frankfurt | 8 | Community","name_short":"frk-8","host":"frk-1.de.uncletopia.com","port":27085,"enabled":true,"region":"eu","cc":"de","latitude":50.110924,"longitude":8.682127,"reserved":0,"last_update":"0001-01-01T00:00:00Z","name_a2s":"Uncletopia | Frankfurt | 8 | Community","protocol":17,"map":"workshop/koth_kemptown_rc1.ugc767410655","folder":"tf","game":"Team Fortress","app_id":440,"player_count":0,"max_players":24,"Bots":0,"server_type":"Dedicated","server_os":"Linux","password":true,"vac":true,"version":"7882260","steam_id":85568392924742828,"keywords":["cp","nocrits","nodmgspread","uncletopia"],"game_id":440,"stv_port":27086,"stv_name":"Uncletopia | Frankfurt | 8 | Community | STV","players":null},{"server_id":202,"name":"Uncletopia | Hong Kong | 1 | All Maps","name_short":"hgk-1","host":"hgk-1.hk.uncletopia.com","port":27015,"enabled":true,"region":"asia","cc":"hk","latitude":22.302711,"longitude":114.177216,"reserved":0,"last_update":"0001-01-01T00:00:00Z","name_a2s":"Uncletopia | Hong Kong | 1 | All Maps","protocol":17,"map":"koth_viaduct","folder":"tf","game":"Team Fortress","app_id":440,"player_count":0,"max_players":24,"Bots":0,"server_type":"Dedicated","server_os":"Linux","password":true,"vac":true,"version":"7882260","steam_id":85568392924494504,"keywords":["cp","nocrits","nodmgspread","uncletopia"],"game_id":440,"stv_port":27016,"stv_name":"Uncletopia | Hong Kong | 1 | All Maps | STV","players":null},{"server_id":1,"name":"Uncletopia | Los Angeles | 1 | All Maps","name_short":"lax-1","host":"lax-1.us.uncletopia.com","port":27015,"enabled":true,"region":"us-west","cc":"us","latitude":33.94279,"longitude":-118.41004,"reserved":0,"last_update":"0001-01-01T00:00:00Z","name_a2s":"Uncletopia | Los Angeles | 1 | All Maps","protocol":17,"map":"cp_process_final","folder":"tf","game":"Team Fortress","app_id":440,"player_count":18,"max_players":24,"Bots":0,"server_type":"Dedicated","server_os":"Linux","password":true,"vac":true,"version":"7882260","steam_id":85568392924469991,"keywords":["cp","nocrits","nodmgspread","uncletopia"],"game_id":440,"stv_port":27016,"stv_name":"Uncletopia | Los Angeles | 1 | All Maps | STV","players":[{"user_id":396,"name":"GlizzLord","steam_id":76561198321010427,"connected_time":148000000000,"state":"active","ping":78},{"user_id":398,"name":"An00bis","steam_id":76561198044084508,"connected_time":114000000000,"state":"active","ping":45},{"user_id":400,"name":"Ellis Ladin","steam_id":76561198395020543,"connected_time":27000000000,"state":"active","ping":46},{"user_id":386,"name":"a chicken","steam_id":76561198313121580,"connected_time":1540000000000,"state":"active","ping":46},{"user_id":291,"name":"Why Me...","steam_id":76561199124019937,"connected_time":9689000000000,"state":"active","ping":60},{"user_id":390,"name":"Prime","steam_id":76561198218218705,"connected_time":780000000000,"state":"active","ping":53},{"user_id":395,"name":"ÀóÀèÀãSpine Snatcher¬¥ÀéÀó","steam_id":76561198102045762,"connected_time":206000000000,"state":"active","ping":121},{"user_id":399,"name":"loreson","steam_id":76561198179567291,"connected_time":81000000000,"state":"active","ping":53},{"user_id":334,"name":"Mr Baseball","steam_id":76561198960521363,"connected_time":5968000000000,"state":"active","ping":74},{"user_id":392,"name":"Cephus Clementine","steam_id":76561198051616613,"connected_time":612000000000,"state":"active","ping":104},{"user_id":389,"name":"Forte (149cm)","steam_id":76561198063669632,"connected_time":1094000000000,"state":"active","ping":87},{"user_id":339,"name":"Grim","steam_id":76561198016978310,"connected_time":5263000000000,"state":"active","ping":66},{"user_id":375,"name":"ancientfunland","steam_id":76561199220174291,"connected_time":2700000000000,"state":"active","ping":111},{"user_id":385,"name":"BrockSpread","steam_id":76561198145924402,"connected_time":1666000000000,"state":"active","ping":95},{"user_id":382,"name":"Jimmy","steam_id":76561198857959855,"connected_time":2076000000000,"state":"active","ping":46},{"user_id":379,"name":"Heisenburg","steam_id":76561198126561438,"connected_time":2577000000000,"state":"active","ping":41},{"user_id":383,"name":"VELOURIA","steam_id":76561198116550170,"connected_time":1971000000000,"state":"active","ping":50},{"user_id":354,"name":"Dimmerswitch","steam_id":76561198034782177,"connected_time":4712000000000,"state":"active","ping":36}]},{"server_id":112,"name":"Uncletopia | Los Angeles | 2 | All Maps","name_short":"lax-2","host":"lax-1.us.uncletopia.com","port":27025,"enabled":true,"region":"us-west","cc":"us","latitude":33.94279,"longitude":-118.41004,"reserved":0,"last_update":"0001-01-01T00:00:00Z","name_a2s":"Uncletopia | Los Angeles | 2 | All Maps","protocol":17,"map":"pl_swiftwater_final1","folder":"tf","game":"Team Fortress","app_id":440,"player_count":24,"max_players":24,"Bots":0,"server_type":"Dedicated","server_os":"Linux","password":true,"vac":true,"version":"7882260","steam_id":85568392924469992,"keywords":["nocrits","nodmgspread","payload","uncletopia"],"game_id":440,"stv_port":27026,"stv_name":"Uncletopia | Los Angeles | 2 | All Maps | STV","players":[{"user_id":106,"name":"the hunchback of gay paris","steam_id":76561197987056308,"connected_time":2419000000000,"state":"active","ping":52},{"user_id":114,"name":"BoomFiend","steam_id":76561199223831021,"connected_time":1910000000000,"state":"active","ping":58},{"user_id":109,"name":"FlashofAsh","steam_id":76561198400422981,"connected_time":2310000000000,"state":"active","ping":70},{"user_id":139,"name":"Overmeme","steam_id":76561199455124144,"connected_time":145000000000,"state":"active","ping":102},{"user_id":131,"name":"dust | she/it","steam_id":76561198045218909,"connected_time":274000000000,"state":"active","ping":72},{"user_id":141,"name":"Infentdegree211","steam_id":76561198385234127,"connected_time":5000000000,"state":"spawning","ping":53},{"user_id":133,"name":"TobyTurner32","steam_id":76561198018801418,"connected_time":258000000000,"state":"active","ping":77},{"user_id":107,"name":"The Dumptruck of Notre-Dame","steam_id":76561198004815026,"connected_time":2314000000000,"state":"active","ping":52},{"user_id":99,"name":"MrManlet","steam_id":76561198148597989,"connected_time":3047000000000,"state":"active","ping":98},{"user_id":115,"name":"el wokismo","steam_id":76561198058617608,"connected_time":1762000000000,"state":"active","ping":48},{"user_id":34,"name":"A UsedNom","steam_id":76561198402832756,"connected_time":8484000000000,"state":"active","ping":46},{"user_id":135,"name":"i want to be there","steam_id":76561198868600487,"connected_time":229000000000,"state":"active","ping":109},{"user_id":113,"name":"June","steam_id":76561198141803658,"connected_time":1993000000000,"state":"active","ping":47},{"user_id":136,"name":"terrapieseven","steam_id":76561198072062415,"connected_time":227000000000,"state":"active","ping":121},{"user_id":137,"name":"Sheev Palpatine","steam_id":76561198252332430,"connected_time":209000000000,"state":"active","ping":88},{"user_id":128,"name":"nascarfan1966","steam_id":76561198046972750,"connected_time":687000000000,"state":"active","ping":59},{"user_id":129,"name":"Re:Lie","steam_id":76561198125401588,"connected_time":638000000000,"state":"active","ping":59},{"user_id":119,"name":"The Assistant Regional Manager","steam_id":76561199221484936,"connected_time":1457000000000,"state":"active","ping":64},{"user_id":121,"name":"_cza","steam_id":76561198079793576,"connected_time":1442000000000,"state":"active","ping":76},{"user_id":138,"name":"Oracle Navi","steam_id":76561198160552593,"connected_time":170000000000,"state":"active","ping":54},{"user_id":97,"name":"scamchez","steam_id":76561198447562701,"connected_time":3215000000000,"state":"active","ping":69},{"user_id":94,"name":"Ashes!","steam_id":76561197998475441,"connected_time":3278000000000,"state":"active","ping":121},{"user_id":112,"name":"bonehead","steam_id":76561199201489468,"connected_time":2289000000000,"state":"active","ping":85},{"user_id":67,"name":"SilentScott","steam_id":76561198236688652,"connected_time":6240000000000,"state":"active","ping":78}]},{"server_id":324,"name":"Uncletopia | Los Angeles | 3 | All Maps","name_short":"lax-3","host":"lax-1.us.uncletopia.com","port":27035,"enabled":true,"region":"us-west","cc":"us","latitude":33.94279,"longitude":-118.41004,"reserved":0,"last_update":"0001-01-01T00:00:00Z","name_a2s":"Uncletopia | Los Angeles | 3 | All Maps","protocol":17,"map":"pl_pier","folder":"tf","game":"Team Fortress","app_id":440,"player_count":0,"max_players":24,"Bots":0,"server_type":"Dedicated","server_os":"Linux","password":true,"vac":true,"version":"7882260","steam_id":85568392924510198,"keywords":["nocrits","nodmgspread","payload","uncletopia"],"game_id":440,"stv_port":27036,"stv_name":"Uncletopia | Los Angeles | 3 | All Maps | STV","players":null},{"server_id":25,"name":"Uncletopia | Los Angeles | 4 | Stopwatch Beta","name_short":"lax-4","host":"lax-1.us.uncletopia.com","port":27045,"enabled":true,"region":"us-west","cc":"us","latitude":33.94279,"longitude":-118.41004,"reserved":0,"last_update":"0001-01-01T00:00:00Z","name_a2s":"Uncletopia | Los Angeles | 4 | Stopwatch Beta","protocol":17,"map":"koth_viaduct","folder":"tf","game":"Team Fortress","app_id":440,"player_count":0,"max_players":24,"Bots":0,"server_type":"Dedicated","server_os":"Linux","password":true,"vac":true,"version":"7882260","steam_id":85568392924510199,"keywords":["cp","nocrits","nodmgspread","uncletopia"],"game_id":440,"stv_port":27046,"stv_name":"Uncletopia | Los Angeles | 4 | Stopwatch Beta | STV","players":null},{"server_id":11,"name":"Uncletopia | London | 1 | All Maps","name_short":"lon-1","host":"lon-1.uk.uncletopia.com","port":27015,"enabled":true,"region":"eu","cc":"gb","latitude":51.509865,"longitude":-0.118092,"reserved":0,"last_update":"0001-01-01T00:00:00Z","name_a2s":"Uncletopia | London | 1 | All Maps","protocol":17,"map":"cp_badlands","folder":"tf","game":"Team Fortress","app_id":440,"player_count":22,"max_players":24,"Bots":0,"server_type":"Dedicated","server_os":"Linux","password":true,"vac":true,"version":"7882260","steam_id":85568392924367362,"keywords":["cp","nocrits","nodmgspread","uncletopia"],"game_id":440,"stv_port":27016,"stv_name":"Uncletopia | London | 1 | All Maps | STV","players":[{"user_id":875,"name":"Some Guy","steam_id":76561198137335527,"connected_time":9000000000,"state":"active","ping":216},{"user_id":870,"name":"David Asura","steam_id":76561198017852330,"connected_time":697000000000,"state":"active","ping":74},{"user_id":852,"name":"snowycoast","steam_id":76561198346638308,"connected_time":1845000000000,"state":"active","ping":52},{"user_id":807,"name":"Aubribac","steam_id":76561198057689763,"connected_time":6478000000000,"state":"active","ping":59},{"user_id":869,"name":"DJPNK","steam_id":76561197989948420,"connected_time":736000000000,"state":"active","ping":64},{"user_id":866,"name":"Herb","steam_id":76561198205266944,"connected_time":1301000000000,"state":"active","ping":55},{"user_id":825,"name":"‚ô•aura‚ô•","steam_id":76561198066258544,"connected_time":5245000000000,"state":"active","ping":64},{"user_id":854,"name":"Purps","steam_id":76561198053886680,"connected_time":1782000000000,"state":"active","ping":47},{"user_id":862,"name":"BreadBubbles","steam_id":76561198174332826,"connected_time":1463000000000,"state":"active","ping":54},{"user_id":857,"name":"Wazz","steam_id":76561198042352948,"connected_time":1718000000000,"state":"active","ping":55},{"user_id":858,"name":"rozen","steam_id":76561198119167317,"connected_time":1716000000000,"state":"active","ping":49},{"user_id":841,"name":"Meddler","steam_id":76561198033001402,"connected_time":3935000000000,"state":"active","ping":33},{"user_id":848,"name":"teddy","steam_id":76561198007436837,"connected_time":3066000000000,"state":"active","ping":31},{"user_id":873,"name":"Gary_Stuart","steam_id":76561198860008488,"connected_time":37000000000,"state":"active","ping":39},{"user_id":828,"name":"jimmy bob","steam_id":76561198319583692,"connected_time":4715000000000,"state":"active","ping":57},{"user_id":834,"name":"Xiqui","steam_id":76561198818386611,"connected_time":4368000000000,"state":"active","ping":85},{"user_id":874,"name":"SOPHIIEE","steam_id":76561198443798981,"connected_time":18000000000,"state":"active","ping":55},{"user_id":827,"name":"Aroo","steam_id":76561198132601368,"connected_time":5122000000000,"state":"active","ping":76},{"user_id":850,"name":"i put rocks in your mattress","steam_id":76561198072892783,"connected_time":2508000000000,"state":"active","ping":64},{"user_id":861,"name":"The Lady","steam_id":76561198029895809,"connected_time":1563000000000,"state":"active","ping":85},{"user_id":872,"name":"Joxaren","steam_id":76561198049407893,"connected_time":89000000000,"state":"active","ping":58},{"user_id":860,"name":"gagalak","steam_id":76561198089979108,"connected_time":1674000000000,"state":"active","ping":94}]},{"server_id":114,"name":"Uncletopia | London | 2 | All Maps","name_short":"lon-2","host":"lon-1.uk.uncletopia.com","port":27025,"enabled":true,"region":"eu","cc":"gb","latitude":51.509865,"longitude":-0.118092,"reserved":0,"last_update":"0001-01-01T00:00:00Z","name_a2s":"Uncletopia | London | 2 | All Maps","protocol":17,"map":"cp_snakewater_final1","folder":"tf","game":"Team Fortress","app_id":440,"player_count":24,"max_players":24,"Bots":0,"server_type":"Dedicated","server_os":"Linux","password":true,"vac":true,"version":"7882260","steam_id":85568392924470941,"keywords":["cp","nocrits","nodmgspread","uncletopia"],"game_id":440,"stv_port":27026,"stv_name":"Uncletopia | London | 2 | All Maps | STV","players":[{"user_id":208,"name":"Weebot00","steam_id":76561199479204459,"connected_time":1586000000000,"state":"active","ping":63},{"user_id":149,"name":"jones","steam_id":76561198044434971,"connected_time":5227000000000,"state":"active","ping":58},{"user_id":145,"name":"Dirty Joe","steam_id":76561198142418870,"connected_time":5336000000000,"state":"active","ping":44},{"user_id":177,"name":"Charles Darwin","steam_id":76561197973496139,"connected_time":3927000000000,"state":"active","ping":63},{"user_id":130,"name":"Piquesque","steam_id":76561198286763046,"connected_time":6334000000000,"state":"active","ping":106},{"user_id":148,"name":"COW MANGLING UR MOM","steam_id":76561198062171002,"connected_time":5278000000000,"state":"active","ping":37},{"user_id":218,"name":"I may be stupid but","steam_id":76561198060638325,"connected_time":1357000000000,"state":"active","ping":46},{"user_id":205,"name":"mossad sponsored intel backdoor","steam_id":76561198071882999,"connected_time":1791000000000,"state":"active","ping":51},{"user_id":151,"name":"Mafew","steam_id":76561198119993886,"connected_time":5198000000000,"state":"active","ping":58},{"user_id":224,"name":"mumbler","steam_id":76561197970641239,"connected_time":380000000000,"state":"active","ping":52},{"user_id":181,"name":"stuntz","steam_id":76561197974814348,"connected_time":3561000000000,"state":"active","ping":75},{"user_id":214,"name":"Wattoz","steam_id":76561198127779511,"connected_time":1445000000000,"state":"active","ping":58},{"user_id":186,"name":"Rolloden","steam_id":76561198069414404,"connected_time":2940000000000,"state":"active","ping":69},{"user_id":215,"name":"big poo","steam_id":76561198129157178,"connected_time":1443000000000,"state":"active","ping":98},{"user_id":175,"name":"the honey monster","steam_id":76561198012351808,"connected_time":4073000000000,"state":"active","ping":56},{"user_id":225,"name":"mullanliam","steam_id":76561197989509447,"connected_time":132000000000,"state":"active","ping":54},{"user_id":216,"name":"Tibalt Nyahuma","steam_id":76561198034779431,"connected_time":1421000000000,"state":"active","ping":146},{"user_id":192,"name":"Emily (trans rights)","steam_id":76561198393596975,"connected_time":2486000000000,"state":"active","ping":46},{"user_id":185,"name":"FuncleDank","steam_id":76561198121683425,"connected_time":3064000000000,"state":"active","ping":59},{"user_id":220,"name":"Pai Greg√≥rio","steam_id":76561197998349793,"connected_time":1316000000000,"state":"active","ping":66},{"user_id":219,"name":"THE MENACE","steam_id":76561198208740557,"connected_time":1338000000000,"state":"active","ping":61},{"user_id":223,"name":"josh the fragger the killer","steam_id":76561198088367808,"connected_time":1163000000000,"state":"active","ping":70},{"user_id":222,"name":"screenshot2020-25-09","steam_id":76561198255275650,"connected_time":1288000000000,"state":"active","ping":56},{"user_id":200,"name":"cock","steam_id":76561198307522022,"connected_time":2208000000000,"state":"active","ping":51}]},{"server_id":320,"name":"Uncletopia | London | 3 | All Maps","name_short":"lon-3","host":"lon-1.uk.uncletopia.com","port":27035,"enabled":true,"region":"eu","cc":"gb","latitude":51.509865,"longitude":-0.118092,"reserved":0,"last_update":"0001-01-01T00:00:00Z","name_a2s":"Uncletopia | London | 3 | All Maps","protocol":17,"map":"pl_borneo","folder":"tf","game":"Team Fortress","app_id":440,"player_count":24,"max_players":24,"Bots":0,"server_type":"Dedicated","server_os":"Linux","password":true,"vac":true,"version":"7882260","steam_id":85568392924510192,"keywords":["nocrits","nodmgspread","payload","uncletopia"],"game_id":440,"stv_port":27036,"stv_name":"Uncletopia | London | 3 | All Maps | STV","players":[{"user_id":243,"name":"frank","steam_id":76561198214063660,"connected_time":3052000000000,"state":"active","ping":75},{"user_id":240,"name":"Nameless","steam_id":76561198084215731,"connected_time":3752000000000,"state":"active","ping":41},{"user_id":260,"name":"BuzzBees ‚ù§","steam_id":76561198101502273,"connected_time":1146000000000,"state":"active","ping":57},{"user_id":270,"name":"Cabbch","steam_id":76561198045955679,"connected_time":118000000000,"state":"active","ping":52},{"user_id":185,"name":"LarsInABox","steam_id":76561198028329262,"connected_time":10645000000000,"state":"active","ping":71},{"user_id":123,"name":"Jon","steam_id":76561199380849468,"connected_time":15628000000000,"state":"active","ping":60},{"user_id":268,"name":"wouris","steam_id":76561198876188003,"connected_time":506000000000,"state":"active","ping":74},{"user_id":166,"name":"Son Goku","steam_id":76561199383437138,"connected_time":12195000000000,"state":"active","ping":123},{"user_id":257,"name":"KittyKate ‚ù§","steam_id":76561198116340817,"connected_time":1571000000000,"state":"active","ping":61},{"user_id":258,"name":"john stick","steam_id":76561198165998678,"connected_time":1481000000000,"state":"active","ping":70},{"user_id":230,"name":"OPUR \u003e:(","steam_id":76561197993123284,"connected_time":5248000000000,"state":"active","ping":79},{"user_id":264,"name":"Virgil","steam_id":76561198248786778,"connected_time":819000000000,"state":"active","ping":119},{"user_id":262,"name":"ack","steam_id":76561198139796077,"connected_time":1080000000000,"state":"active","ping":45},{"user_id":246,"name":"Lethal","steam_id":76561198452042648,"connected_time":2872000000000,"state":"active","ping":71},{"user_id":248,"name":"slippin jimmy","steam_id":76561198090788590,"connected_time":2522000000000,"state":"active","ping":46},{"user_id":249,"name":"man in da club","steam_id":76561198090580368,"connected_time":2121000000000,"state":"active","ping":68},{"user_id":247,"name":"Giggen","steam_id":76561198070986689,"connected_time":2867000000000,"state":"active","ping":51},{"user_id":267,"name":"Antimation","steam_id":76561198125649544,"connected_time":712000000000,"state":"active","ping":46},{"user_id":255,"name":"Penis Contortionist","steam_id":76561198073663784,"connected_time":1873000000000,"state":"active","ping":44},{"user_id":231,"name":"Xanshi","steam_id":76561198152392309,"connected_time":5096000000000,"state":"active","ping":45},{"user_id":213,"name":"Fat Pigeon","steam_id":76561198817940142,"connected_time":7410000000000,"state":"active","ping":52},{"user_id":269,"name":"AudioFall","steam_id":76561198208814216,"connected_time":373000000000,"state":"active","ping":51},{"user_id":189,"name":"Lyncurion","steam_id":76561199260022725,"connected_time":10144000000000,"state":"active","ping":88},{"user_id":263,"name":"‚òûLaZe‚òú","steam_id":76561198202191400,"connected_time":866000000000,"state":"active","ping":50}]},{"server_id":321,"name":"Uncletopia | London | 4 | All Maps","name_short":"lon-4","host":"lon-1.uk.uncletopia.com","port":27045,"enabled":true,"region":"eu","cc":"gb","latitude":51.509865,"longitude":-0.118092,"reserved":0,"last_update":"0001-01-01T00:00:00Z","name_a2s":"Uncletopia | London | 4 | All Maps","protocol":17,"map":"cp_altitude","folder":"tf","game":"Team Fortress","app_id":440,"player_count":0,"max_players":24,"Bots":0,"server_type":"Dedicated","server_os":"Linux","password":true,"vac":true,"version":"7882260","steam_id":85568392924510193,"keywords":["cp","nocrits","nodmgspread","uncletopia"],"game_id":440,"stv_port":27046,"stv_name":"Uncletopia | London | 4 | All Maps | STV","players":null},{"server_id":21,"name":"Uncletopia | London | 5 | All Maps","name_short":"lon-5","host":"lon-1.uk.uncletopia.com","port":27055,"enabled":true,"region":"eu","cc":"gb","latitude":51.509865,"longitude":-0.118092,"reserved":0,"last_update":"0001-01-01T00:00:00Z","name_a2s":"Uncletopia | London | 5 | All Maps","protocol":17,"map":"cp_mountainlab","folder":"tf","game":"Team Fortress","app_id":440,"player_count":21,"max_players":24,"Bots":0,"server_type":"Dedicated","server_os":"Linux","password":true,"vac":true,"version":"7882260","steam_id":85568392924742829,"keywords":["cp","nocrits","nodmgspread","uncletopia"],"game_id":440,"stv_port":27056,"stv_name":"Uncletopia | London | 5 | All Maps | STV","players":[{"user_id":800,"name":"harryhux","steam_id":76561198228052940,"connected_time":838000000000,"state":"active","ping":42},{"user_id":796,"name":"Teacup","steam_id":76561198190654091,"connected_time":1118000000000,"state":"active","ping":51},{"user_id":806,"name":"Seail_M","steam_id":76561198002405605,"connected_time":15000000000,"state":"active","ping":61},{"user_id":782,"name":"Grillem Dafoe","steam_id":76561198306874574,"connected_time":1591000000000,"state":"active","ping":57},{"user_id":775,"name":"1 toke 4 mars bars","steam_id":76561198056460000,"connected_time":1865000000000,"state":"active","ping":46},{"user_id":791,"name":"whyamialive","steam_id":76561199070008862,"connected_time":1179000000000,"state":"active","ping":30},{"user_id":797,"name":"Gravy","steam_id":76561198029548074,"connected_time":1035000000000,"state":"active","ping":52},{"user_id":778,"name":"rummy","steam_id":76561197997573379,"connected_time":1795000000000,"state":"active","ping":41},{"user_id":784,"name":"C.H.E.R.E.P.","steam_id":76561198026938595,"connected_time":1433000000000,"state":"active","ping":74},{"user_id":786,"name":"reagan 2024","steam_id":76561198057157554,"connected_time":1284000000000,"state":"active","ping":118},{"user_id":769,"name":"Bobo2037","steam_id":76561198037342489,"connected_time":2279000000000,"state":"active","ping":56},{"user_id":752,"name":"spyalex3","steam_id":76561198167527730,"connected_time":3189000000000,"state":"active","ping":63},{"user_id":787,"name":"8 Ball","steam_id":76561197960988736,"connected_time":1271000000000,"state":"active","ping":46},{"user_id":805,"name":"hai","steam_id":76561198074743037,"connected_time":406000000000,"state":"active","ping":75},{"user_id":743,"name":"Sir Dong","steam_id":76561198137201972,"connected_time":3337000000000,"state":"active","ping":51},{"user_id":804,"name":"Flonne","steam_id":76561198080168182,"connected_time":494000000000,"state":"active","ping":80},{"user_id":795,"name":"Jam","steam_id":76561198010277932,"connected_time":1142000000000,"state":"active","ping":54},{"user_id":748,"name":"Sicko","steam_id":76561198065475799,"connected_time":3299000000000,"state":"active","ping":51},{"user_id":749,"name":"Mr Gnash","steam_id":76561198007410990,"connected_time":3298000000000,"state":"active","ping":58},{"user_id":766,"name":"RuneShine","steam_id":76561198007098323,"connected_time":2631000000000,"state":"active","ping":34},{"user_id":801,"name":"hallu","steam_id":76561198198581079,"connected_time":822000000000,"state":"active","ping":99}]},{"server_id":22,"name":"Uncletopia | London | 6 | All Maps","name_short":"lon-6","host":"lon-1.uk.uncletopia.com","port":27065,"enabled":true,"region":"eu","cc":"gb","latitude":51.509865,"longitude":-0.118092,"reserved":0,"last_update":"0001-01-01T00:00:00Z","name_a2s":"Uncletopia | London | 6 | All Maps","protocol":17,"map":"pl_borneo","folder":"tf","game":"Team Fortress","app_id":440,"player_count":24,"max_players":24,"Bots":0,"server_type":"Dedicated","server_os":"Linux","password":true,"vac":true,"version":"7882260","steam_id":85568392924742830,"keywords":["nocrits","nodmgspread","payload","uncletopia"],"game_id":440,"stv_port":27066,"stv_name":"Uncletopia | London | 6 | All Maps | STV","players":[{"user_id":610,"name":"neb√º","steam_id":76561198307037169,"connected_time":81000000000,"state":"active","ping":46},{"user_id":590,"name":"avalon","steam_id":76561198003212528,"connected_time":903000000000,"state":"active","ping":65},{"user_id":574,"name":"Nintails","steam_id":76561198075157560,"connected_time":2588000000000,"state":"active","ping":44},{"user_id":534,"name":"Sippie","steam_id":76561198130393388,"connected_time":5035000000000,"state":"active","ping":68},{"user_id":591,"name":"Oscar The Grouch (real)","steam_id":76561199174779667,"connected_time":818000000000,"state":"active","ping":155},{"user_id":592,"name":"lithium tremors","steam_id":76561198280834819,"connected_time":800000000000,"state":"active","ping":61},{"user_id":595,"name":"BallaZz","steam_id":76561198063648740,"connected_time":726000000000,"state":"active","ping":57},{"user_id":603,"name":"r06u3","steam_id":76561198254099253,"connected_time":405000000000,"state":"active","ping":178},{"user_id":529,"name":"Cataleptic","steam_id":76561197997966949,"connected_time":5196000000000,"state":"active","ping":59},{"user_id":605,"name":"European_Fox","steam_id":76561198053691182,"connected_time":322000000000,"state":"active","ping":78},{"user_id":604,"name":"Schmuck","steam_id":76561197986743887,"connected_time":400000000000,"state":"active","ping":42},{"user_id":599,"name":"NANI?!?!?!","steam_id":76561198172078559,"connected_time":618000000000,"state":"active","ping":84},{"user_id":600,"name":"Paint","steam_id":76561198166823873,"connected_time":470000000000,"state":"active","ping":54},{"user_id":601,"name":"Bonca","steam_id":76561198137503531,"connected_time":459000000000,"state":"active","ping":74},{"user_id":602,"name":"Potato","steam_id":76561198184310425,"connected_time":443000000000,"state":"active","ping":129},{"user_id":606,"name":"Avarus","steam_id":76561198040324008,"connected_time":243000000000,"state":"active","ping":59},{"user_id":607,"name":"poopoocum","steam_id":76561198180641206,"connected_time":236000000000,"state":"active","ping":58},{"user_id":608,"name":"Strix","steam_id":76561198015322735,"connected_time":166000000000,"state":"active","ping":70},{"user_id":609,"name":"PIZZAMAN","steam_id":76561198296484184,"connected_time":128000000000,"state":"active","ping":64},{"user_id":611,"name":"nightcore car crash","steam_id":76561198088624259,"connected_time":77000000000,"state":"active","ping":59},{"user_id":612,"name":"Jonno","steam_id":76561198023443744,"connected_time":77000000000,"state":"active","ping":56},{"user_id":480,"name":"N.M.E","steam_id":76561198012351470,"connected_time":9164000000000,"state":"active","ping":34},{"user_id":613,"name":"the contraption","steam_id":76561198798803845,"connected_time":74000000000,"state":"active","ping":51},{"user_id":614,"name":"Salty dodo","steam_id":76561198992829873,"connected_time":74000000000,"state":"active","ping":89}]},{"server_id":40,"name":"Uncletopia | London | 7 | No Payload","name_short":"lon-7","host":"lon-1.uk.uncletopia.com","port":27075,"enabled":true,"region":"eu","cc":"gb","latitude":51.509865,"longitude":-0.118092,"reserved":0,"last_update":"0001-01-01T00:00:00Z","name_a2s":"Uncletopia | London | 7 | No Payload","protocol":17,"map":"koth_suijin","folder":"tf","game":"Team Fortress","app_id":440,"player_count":3,"max_players":24,"Bots":0,"server_type":"Dedicated","server_os":"Linux","password":true,"vac":true,"version":"7882260","steam_id":85568392924964314,"keywords":["cp","nocrits","nodmgspread","uncletopia"],"game_id":440,"stv_port":27076,"stv_name":"Uncletopia | London | 7 | No Payload | STV","players":[{"user_id":527,"name":"Tx_madmash","steam_id":76561198924656512,"connected_time":1253000000000,"state":"active","ping":64},{"user_id":522,"name":"‚ù§ Delta ‚ù§","steam_id":76561198296456996,"connected_time":2106000000000,"state":"active","ping":81},{"user_id":511,"name":"Envy","steam_id":76561198132723219,"connected_time":3571000000000,"state":"active","ping":109}]},{"server_id":41,"name":"Uncletopia | London | 8 | Community","name_short":"lon-8","host":"lon-1.uk.uncletopia.com","port":27085,"enabled":true,"region":"eu","cc":"gb","latitude":51.509865,"longitude":-0.118092,"reserved":0,"last_update":"0001-01-01T00:00:00Z","name_a2s":"Uncletopia | London | 8 | Community","protocol":17,"map":"workshop/koth_slaughter_rc1.ugc1712845210","folder":"tf","game":"Team Fortress","app_id":440,"player_count":0,"max_players":24,"Bots":0,"server_type":"Dedicated","server_os":"Linux","password":true,"vac":true,"version":"7882260","steam_id":85568392924964315,"keywords":["cp","nocrits","nodmgspread","uncletopia"],"game_id":440,"stv_port":27086,"stv_name":"Uncletopia | London | 8 | Community | STV","players":null},{"server_id":300,"name":"Uncletopia | Montr√©al | 1 | All Maps","name_short":"mtl-1","host":"mtl-1.ca.uncletopia.com","port":27015,"enabled":true,"region":"us-east","cc":"ca","latitude":45.50889,"longitude":-73.56167,"reserved":0,"last_update":"0001-01-01T00:00:00Z","name_a2s":"Uncletopia | Montr√©al | 1 | All Maps","protocol":17,"map":"pl_pier","folder":"tf","game":"Team Fortress","app_id":440,"player_count":24,"max_players":24,"Bots":0,"server_type":"Dedicated","server_os":"Linux","password":true,"vac":true,"version":"7882260","steam_id":85568392924500087,"keywords":["nocrits","nodmgspread","payload","uncletopia"],"game_id":440,"stv_port":27016,"stv_name":"Uncletopia | Montr√©al | 1 | All Maps | STV","players":[{"user_id":63,"name":"schnedwob","steam_id":76561197999146588,"connected_time":1808000000000,"state":"active","ping":97},{"user_id":64,"name":"Matt","steam_id":76561198008108521,"connected_time":1793000000000,"state":"active","ping":74},{"user_id":65,"name":"Tankless Water Heater","steam_id":76561198014574925,"connected_time":1787000000000,"state":"active","ping":73},{"user_id":80,"name":"Abusive Father","steam_id":76561199123118241,"connected_time":907000000000,"state":"active","ping":126},{"user_id":90,"name":"n_sacco","steam_id":76561198432818448,"connected_time":239000000000,"state":"active","ping":64},{"user_id":68,"name":"Cat in Your Backyard","steam_id":76561197979078330,"connected_time":1738000000000,"state":"active","ping":58},{"user_id":88,"name":"April","steam_id":76561198170239750,"connected_time":260000000000,"state":"active","ping":61},{"user_id":84,"name":"Fuzzy Toast","steam_id":76561198028067781,"connected_time":532000000000,"state":"active","ping":55},{"user_id":69,"name":"Penis but it rhymes with Venice","steam_id":76561197986420836,"connected_time":1695000000000,"state":"active","ping":59},{"user_id":81,"name":"gravid baby","steam_id":76561198318646867,"connected_time":725000000000,"state":"active","ping":47},{"user_id":70,"name":"dudescore","steam_id":76561199091453555,"connected_time":1693000000000,"state":"active","ping":116},{"user_id":82,"name":"Juan Pablo Gonzalez 2023","steam_id":76561199197961413,"connected_time":691000000000,"state":"active","ping":51},{"user_id":49,"name":"VenANON","steam_id":76561198055676240,"connected_time":2984000000000,"state":"active","ping":44},{"user_id":51,"name":"ÎùºÎãà","steam_id":76561198399201495,"connected_time":2778000000000,"state":"active","ping":101},{"user_id":85,"name":"Combatspok","steam_id":76561197971598115,"connected_time":484000000000,"state":"active","ping":54},{"user_id":36,"name":"Pootis Pie¬Æ","steam_id":76561199058049384,"connected_time":3250000000000,"state":"active","ping":73},{"user_id":37,"name":"Steve Greentop","steam_id":76561198119426892,"connected_time":3196000000000,"state":"active","ping":50},{"user_id":86,"name":"niprip","steam_id":76561198091929681,"connected_time":478000000000,"state":"active","ping":77},{"user_id":83,"name":"WANNA SPOON TONIGHT?","steam_id":76561199039152146,"connected_time":598000000000,"state":"active","ping":49},{"user_id":74,"name":"Feramansa","steam_id":76561198321286847,"connected_time":1456000000000,"state":"active","ping":160},{"user_id":87,"name":"HOOPLA","steam_id":76561198993451858,"connected_time":276000000000,"state":"active","ping":59},{"user_id":46,"name":"Nooblord","steam_id":76561199105123730,"connected_time":3053000000000,"state":"active","ping":140},{"user_id":58,"name":"Cream Corn","steam_id":76561198043791586,"connected_time":2451000000000,"state":"active","ping":59},{"user_id":89,"name":"Stressmelo","steam_id":76561199204445185,"connected_time":247000000000,"state":"active","ping":102}]},{"server_id":301,"name":"Uncletopia | Montr√©al | 2 | All Maps","name_short":"mtl-2","host":"mtl-1.ca.uncletopia.com","port":27025,"enabled":true,"region":"us-east","cc":"ca","latitude":45.50889,"longitude":-73.56167,"reserved":0,"last_update":"0001-01-01T00:00:00Z","name_a2s":"Uncletopia | Montr√©al | 2 | All Maps","protocol":17,"map":"koth_cascade","folder":"tf","game":"Team Fortress","app_id":440,"player_count":1,"max_players":24,"Bots":0,"server_type":"Dedicated","server_os":"Linux","password":true,"vac":true,"version":"7882260","steam_id":85568392924500088,"keywords":["cp","nocrits","nodmgspread","uncletopia"],"game_id":440,"stv_port":27026,"stv_name":"Uncletopia | Montr√©al | 2 | All Maps | STV","players":[{"user_id":6,"name":"TheQuietKid","steam_id":76561198964124943,"connected_time":192000000000,"state":"active","ping":106}]},{"server_id":302,"name":"Uncletopia | Montr√©al | 3 | All Maps","name_short":"mtl-3","host":"mtl-1.ca.uncletopia.com","port":27035,"enabled":true,"region":"us-east","cc":"ca","latitude":45.50889,"longitude":-73.56167,"reserved":0,"last_update":"0001-01-01T00:00:00Z","name_a2s":"Uncletopia | Montr√©al | 3 | All Maps","protocol":17,"map":"koth_highpass","folder":"tf","game":"Team Fortress","app_id":440,"player_count":0,"max_players":24,"Bots":0,"server_type":"Dedicated","server_os":"Linux","password":true,"vac":true,"version":"7882260","steam_id":85568392924500089,"keywords":["cp","nocrits","nodmgspread","uncletopia"],"game_id":440,"stv_port":27036,"stv_name":"Uncletopia | Montr√©al | 3 | All Maps | STV","players":null},{"server_id":303,"name":"Uncletopia | Montr√©al | 4 | No Payload","name_short":"mtl-4","host":"mtl-1.ca.uncletopia.com","port":27045,"enabled":true,"region":"us-east","cc":"ca","latitude":45.50889,"longitude":-73.56167,"reserved":0,"last_update":"0001-01-01T00:00:00Z","name_a2s":"Uncletopia | Montr√©al | 4 | No Payload","protocol":17,"map":"koth_highpass","folder":"tf","game":"Team Fortress","app_id":440,"player_count":0,"max_players":24,"Bots":0,"server_type":"Dedicated","server_os":"Linux","password":true,"vac":true,"version":"7882260","steam_id":85568392924500090,"keywords":["cp","nocrits","nodmgspread","uncletopia"],"game_id":440,"stv_port":27046,"stv_name":"Uncletopia | Montr√©al | 4 | No Payload | STV","players":null},{"server_id":13,"name":"Uncletopia | New York City | 1 | All Maps","name_short":"nyc-1","host":"nyc-1.us.uncletopia.com","port":27015,"enabled":true,"region":"us-east","cc":"us","latitude":40.73061,"longitude":-73.93524,"reserved":0,"last_update":"0001-01-01T00:00:00Z","name_a2s":"Uncletopia | New York City | 1 | All Maps","protocol":17,"map":"cp_metalworks","folder":"tf","game":"Team Fortress","app_id":440,"player_count":23,"max_players":24,"Bots":0,"server_type":"Dedicated","server_os":"Linux","password":true,"vac":true,"version":"7882260","steam_id":85568392924469993,"keywords":["cp","nocrits","nodmgspread","uncletopia"],"game_id":440,"stv_port":27016,"stv_name":"Uncletopia | New York City | 1 | All Maps | STV","players":[{"user_id":175,"name":"White Boy Freestyle #337","steam_id":76561198880396651,"connected_time":4027000000000,"state":"active","ping":86},{"user_id":215,"name":"portablestove","steam_id":76561197999392355,"connected_time":418000000000,"state":"active","ping":70},{"user_id":133,"name":"Yummy Kabobz","steam_id":76561198067661705,"connected_time":6830000000000,"state":"active","ping":50},{"user_id":208,"name":"INFINITE","steam_id":76561197971285557,"connected_time":1239000000000,"state":"active","ping":55},{"user_id":216,"name":"TheMakoshark","steam_id":76561198332393945,"connected_time":367000000000,"state":"active","ping":47},{"user_id":198,"name":"Hertz","steam_id":76561198310927351,"connected_time":2191000000000,"state":"active","ping":142},{"user_id":222,"name":"Cheesemelt","steam_id":76561198008221847,"connected_time":119000000000,"state":"active","ping":57},{"user_id":189,"name":"James","steam_id":76561198081313916,"connected_time":2600000000000,"state":"active","ping":70},{"user_id":206,"name":"AreYouMyMummy?","steam_id":76561197995101745,"connected_time":1421000000000,"state":"active","ping":74},{"user_id":192,"name":"Makina","steam_id":76561198057475567,"connected_time":2584000000000,"state":"active","ping":94},{"user_id":218,"name":"Orange Triangle","steam_id":76561198320498182,"connected_time":208000000000,"state":"active","ping":81},{"user_id":219,"name":"TheLonliestThelonius","steam_id":76561198097657243,"connected_time":203000000000,"state":"active","ping":73},{"user_id":193,"name":"l4d2 marshall","steam_id":76561198042570322,"connected_time":2569000000000,"state":"active","ping":77},{"user_id":221,"name":"HundchenTanque","steam_id":76561198122692754,"connected_time":142000000000,"state":"active","ping":39},{"user_id":209,"name":"Moody","steam_id":76561199013442105,"connected_time":759000000000,"state":"active","ping":50},{"user_id":196,"name":"space mann","steam_id":76561198174447043,"connected_time":2328000000000,"state":"active","ping":37},{"user_id":220,"name":"inphlate","steam_id":76561199016973013,"connected_time":185000000000,"state":"active","ping":66},{"user_id":177,"name":"ManLivingWithEDIn2003","steam_id":76561198313181232,"connected_time":3623000000000,"state":"active","ping":77},{"user_id":178,"name":"Naffty","steam_id":76561198119734981,"connected_time":3531000000000,"state":"active","ping":83},{"user_id":217,"name":"-œÄ- BakaD","steam_id":76561197960559169,"connected_time":350000000000,"state":"active","ping":43},{"user_id":194,"name":"Pizza","steam_id":76561198118748364,"connected_time":2568000000000,"state":"active","ping":75},{"user_id":223,"name":"Syphal","steam_id":76561198149093386,"connected_time":60000000000,"state":"active","ping":60},{"user_id":224,"name":"Numanis","steam_id":76561199229661082,"connected_time":58000000000,"state":"active","ping":73}]},{"server_id":14,"name":"Uncletopia | New York City | 2 | All Maps","name_short":"nyc-2","host":"nyc-1.us.uncletopia.com","port":27025,"enabled":true,"region":"us-east","cc":"us","latitude":40.73061,"longitude":-73.93524,"reserved":0,"last_update":"0001-01-01T00:00:00Z","name_a2s":"Uncletopia | New York City | 2 | All Maps","protocol":17,"map":"pl_goldrush","folder":"tf","game":"Team Fortress","app_id":440,"player_count":24,"max_players":24,"Bots":0,"server_type":"Dedicated","server_os":"Linux","password":true,"vac":true,"version":"7882260","steam_id":85568392924469994,"keywords":["nocrits","nodmgspread","payload","uncletopia"],"game_id":440,"stv_port":27026,"stv_name":"Uncletopia | New York City | 2 | All Maps | STV","players":[{"user_id":153,"name":"Butters495","steam_id":76561197998689042,"connected_time":3318000000000,"state":"active","ping":70},{"user_id":140,"name":"Terry Aki","steam_id":76561199212875471,"connected_time":4532000000000,"state":"active","ping":73},{"user_id":159,"name":"Squiliam","steam_id":76561198025278006,"connected_time":3184000000000,"state":"active","ping":74},{"user_id":94,"name":"all_classics","steam_id":76561198012738913,"connected_time":8294000000000,"state":"active","ping":80},{"user_id":158,"name":"evnobev","steam_id":76561198038966462,"connected_time":3218000000000,"state":"active","ping":37},{"user_id":131,"name":"bitch im coolin","steam_id":76561198203732449,"connected_time":4931000000000,"state":"active","ping":63},{"user_id":172,"name":"AudioMedic","steam_id":76561198333939032,"connected_time":1837000000000,"state":"active","ping":52},{"user_id":165,"name":"Wang of Wall St","steam_id":76561198047460598,"connected_time":2325000000000,"state":"active","ping":63},{"user_id":179,"name":"Ian","steam_id":76561199078852180,"connected_time":852000000000,"state":"active","ping":57},{"user_id":181,"name":"Braamklauw","steam_id":76561198283287697,"connected_time":380000000000,"state":"active","ping":148},{"user_id":122,"name":"Goomby","steam_id":76561198079416561,"connected_time":5887000000000,"state":"active","ping":77},{"user_id":184,"name":"meat glasses","steam_id":76561198046742645,"connected_time":210000000000,"state":"active","ping":60},{"user_id":156,"name":"xXMLGDOODXx","steam_id":76561198080758365,"connected_time":3266000000000,"state":"active","ping":45},{"user_id":145,"name":"OneMisguidedSlyGuy","steam_id":76561198372243261,"connected_time":3867000000000,"state":"active","ping":108},{"user_id":148,"name":"uberslak","steam_id":76561198064715241,"connected_time":3546000000000,"state":"active","ping":113},{"user_id":174,"name":"glue sniffer","steam_id":76561198044689778,"connected_time":1818000000000,"state":"active","ping":47},{"user_id":150,"name":"Dr.Holiday","steam_id":76561198353465692,"connected_time":3509000000000,"state":"active","ping":66},{"user_id":176,"name":"GravyPouch","steam_id":76561198067539038,"connected_time":1480000000000,"state":"active","ping":75},{"user_id":175,"name":"Temujin","steam_id":76561198030936583,"connected_time":1646000000000,"state":"active","ping":39},{"user_id":146,"name":"King Sans","steam_id":76561198294198517,"connected_time":3854000000000,"state":"active","ping":43},{"user_id":152,"name":"dieling","steam_id":76561198831902966,"connected_time":3362000000000,"state":"active","ping":64},{"user_id":171,"name":"Chris P. Bacon","steam_id":76561198000851038,"connected_time":1850000000000,"state":"active","ping":57},{"user_id":178,"name":"agleeps","steam_id":76561198810128404,"connected_time":992000000000,"state":"active","ping":59},{"user_id":183,"name":"gus","steam_id":76561199221202455,"connected_time":228000000000,"state":"active","ping":77}]},{"server_id":15,"name":"Uncletopia | New York City | 3 | Stopwatch Beta","name_short":"nyc-3","host":"nyc-1.us.uncletopia.com","port":27035,"enabled":true,"region":"us-east","cc":"us","latitude":40.73061,"longitude":-73.93524,"reserved":0,"last_update":"0001-01-01T00:00:00Z","name_a2s":"Uncletopia | New York City | 3 | Stopwatch Beta","protocol":17,"map":"pl_borneo","folder":"tf","game":"Team Fortress","app_id":440,"player_count":0,"max_players":24,"Bots":0,"server_type":"Dedicated","server_os":"Linux","password":true,"vac":true,"version":"7882260","steam_id":85568392924742820,"keywords":["nocrits","nodmgspread","payload","uncletopia"],"game_id":440,"stv_port":27036,"stv_name":"Uncletopia | New York City | 3 | Stopwatch Beta | STV","players":null},{"server_id":16,"name":"Uncletopia | New York City | 4 | Community","name_short":"nyc-4","host":"nyc-1.us.uncletopia.com","port":27045,"enabled":true,"region":"us-east","cc":"us","latitude":40.73061,"longitude":-73.93524,"reserved":0,"last_update":"0001-01-01T00:00:00Z","name_a2s":"Uncletopia | New York City | 4 | Community","protocol":17,"map":"workshop/koth_ashville_final.ugc2130459942","folder":"tf","game":"Team Fortress","app_id":440,"player_count":0,"max_players":24,"Bots":0,"server_type":"Dedicated","server_os":"Linux","password":true,"vac":true,"version":"7882260","steam_id":85568392924742821,"keywords":["cp","nocrits","nodmgspread","uncletopia"],"game_id":440,"stv_port":27046,"stv_name":"Uncletopia | New York City | 4 | Community | STV","players":null},{"server_id":142,"name":"Uncletopia | S√£o Paulo | 1 | All Maps","name_short":"sao-1","host":"sao-1.br.uncletopia.com","port":27015,"enabled":true,"region":"sa","cc":"br","latitude":-23.533773,"longitude":-46.62529,"reserved":0,"last_update":"0001-01-01T00:00:00Z","name_a2s":"Uncletopia | S√£o Paulo | 1 | All Maps","protocol":17,"map":"koth_cascade","folder":"tf","game":"Team Fortress","app_id":440,"player_count":0,"max_players":24,"Bots":0,"server_type":"Dedicated","server_os":"Linux","password":true,"vac":true,"version":"7882260","steam_id":85568392924469996,"keywords":["cp","nocrits","nodmgspread","uncletopia"],"game_id":440,"stv_port":27016,"stv_name":"Uncletopia | S√£o Paulo | 1 | All Maps | STV","players":null},{"server_id":143,"name":"Uncletopia | S√£o Paulo | 2 | All Maps","name_short":"sao-2","host":"sao-2.br.uncletopia.com","port":27015,"enabled":true,"region":"sa","cc":"br","latitude":-23.533773,"longitude":-46.62529,"reserved":0,"last_update":"0001-01-01T00:00:00Z","name_a2s":"Uncletopia | S√£o Paulo | 2 | All Maps","protocol":17,"map":"pl_upward","folder":"tf","game":"Team Fortress","app_id":440,"player_count":18,"max_players":24,"Bots":0,"server_type":"Dedicated","server_os":"Linux","password":true,"vac":true,"version":"7882260","steam_id":85568392924485349,"keywords":["nocrits","nodmgspread","payload","uncletopia"],"game_id":440,"stv_port":27016,"stv_name":"Uncletopia | S√£o Paulo | 2 | All Maps | STV","players":[{"user_id":321,"name":"starm0nster","steam_id":76561199016975635,"connected_time":7799000000000,"state":"active","ping":38},{"user_id":418,"name":"Punga","steam_id":76561198083529226,"connected_time":916000000000,"state":"active","ping":42},{"user_id":435,"name":"[[POLITO]]","steam_id":76561198401755786,"connected_time":382000000000,"state":"active","ping":39},{"user_id":441,"name":"santo","steam_id":76561198325492664,"connected_time":50000000000,"state":"active","ping":52},{"user_id":437,"name":"R√¢ndrey","steam_id":76561198302119344,"connected_time":207000000000,"state":"active","ping":114},{"user_id":393,"name":"SwearsGamers","steam_id":76561198985449294,"connected_time":2191000000000,"state":"active","ping":41},{"user_id":417,"name":"Sanches","steam_id":76561198006932156,"connected_time":1011000000000,"state":"active","ping":75},{"user_id":380,"name":"‚úìRodrigo_hamb√∫rguers‚úì","steam_id":76561199063941794,"connected_time":3600000000000,"state":"active","ping":35},{"user_id":360,"name":"matheus_lanches","steam_id":76561199359501901,"connected_time":5518000000000,"state":"active","ping":40},{"user_id":388,"name":"hadinode","steam_id":76561198191475573,"connected_time":2818000000000,"state":"active","ping":54},{"user_id":439,"name":"Mr.AAPN","steam_id":76561198073763769,"connected_time":183000000000,"state":"active","ping":80},{"user_id":433,"name":"CowBoy Slayer","steam_id":76561198886896159,"connected_time":604000000000,"state":"active","ping":86},{"user_id":401,"name":"URSS","steam_id":76561198950413602,"connected_time":1753000000000,"state":"active","ping":30},{"user_id":411,"name":"Stoopid","steam_id":76561198126485401,"connected_time":1157000000000,"state":"active","ping":57},{"user_id":422,"name":"Jordan B. Peterson","steam_id":76561198112575674,"connected_time":793000000000,"state":"active","ping":77},{"user_id":434,"name":"//hd","steam_id":76561199098715784,"connected_time":578000000000,"state":"active","ping":81},{"user_id":426,"name":"a genuine neanderthal","steam_id":76561199002466773,"connected_time":754000000000,"state":"active","ping":90},{"user_id":427,"name":"Tio KillerParty","steam_id":76561198067918814,"connected_time":728000000000,"state":"active","ping":60}]},{"server_id":7,"name":"Uncletopia | Seattle | 1 | All Maps","name_short":"sea-1","host":"sea-1.us.uncletopia.com","port":27015,"enabled":true,"region":"us-west","cc":"us","latitude":47.608013,"longitude":-122.33517,"reserved":0,"last_update":"0001-01-01T00:00:00Z","name_a2s":"Uncletopia | Seattle | 1 | All Maps","protocol":17,"map":"pl_badwater","folder":"tf","game":"Team Fortress","app_id":440,"player_count":24,"max_players":24,"Bots":0,"server_type":"Dedicated","server_os":"Linux","password":true,"vac":true,"version":"7882260","steam_id":85568392924469997,"keywords":["nocrits","nodmgspread","payload","uncletopia"],"game_id":440,"stv_port":27016,"stv_name":"Uncletopia | Seattle | 1 | All Maps | STV","players":[{"user_id":259,"name":"lasky","steam_id":76561198017030029,"connected_time":4862000000000,"state":"active","ping":84},{"user_id":345,"name":"26O3 Ê•µÂÖâÈù¢Á¥ó","steam_id":76561198964074985,"connected_time":3096000000000,"state":"active","ping":63},{"user_id":474,"name":"Syrix","steam_id":76561198017328672,"connected_time":1285000000000,"state":"active","ping":111},{"user_id":285,"name":"Kc","steam_id":76561198210734407,"connected_time":4248000000000,"state":"active","ping":119},{"user_id":471,"name":"Captain anus fiddle","steam_id":76561198100777371,"connected_time":1335000000000,"state":"active","ping":122},{"user_id":485,"name":"john coltrane fan","steam_id":76561199191855486,"connected_time":879000000000,"state":"active","ping":50},{"user_id":475,"name":"The Super Mario Bros. Movie","steam_id":76561198871692156,"connected_time":1276000000000,"state":"active","ping":47},{"user_id":107,"name":"ZEKKER","steam_id":76561197967968980,"connected_time":14594000000000,"state":"active","ping":51},{"user_id":476,"name":"Mediarch","steam_id":76561198050765729,"connected_time":1268000000000,"state":"active","ping":53},{"user_id":297,"name":"Alltrex","steam_id":76561198202254225,"connected_time":4034000000000,"state":"active","ping":46},{"user_id":310,"name":"BlazedBunny","steam_id":76561198243610560,"connected_time":3669000000000,"state":"active","ping":76},{"user_id":419,"name":"jayeskae","steam_id":76561198144220801,"connected_time":2092000000000,"state":"active","ping":46},{"user_id":486,"name":"Saint Pablo","steam_id":76561198083300159,"connected_time":628000000000,"state":"active","ping":66},{"user_id":477,"name":"Peppy","steam_id":76561198866629645,"connected_time":1256000000000,"state":"active","ping":56},{"user_id":421,"name":"hope","steam_id":76561198047813960,"connected_time":2078000000000,"state":"active","ping":31},{"user_id":482,"name":"HeavyB1rd","steam_id":76561198966550815,"connected_time":1143000000000,"state":"active","ping":99},{"user_id":478,"name":"CrazyKermitRubes","steam_id":76561198009065204,"connected_time":1255000000000,"state":"active","ping":133},{"user_id":340,"name":"Pugzilla","steam_id":76561198108088960,"connected_time":3156000000000,"state":"active","ping":105},{"user_id":481,"name":"Fh","steam_id":76561198000903511,"connected_time":1227000000000,"state":"active","ping":61},{"user_id":483,"name":"RURU","steam_id":76561198039758987,"connected_time":1100000000000,"state":"active","ping":50},{"user_id":316,"name":"Brain Issue","steam_id":76561198068324695,"connected_time":3525000000000,"state":"active","ping":66},{"user_id":487,"name":"lili","steam_id":76561199391478575,"connected_time":109000000000,"state":"active","ping":55},{"user_id":366,"name":"Themasterman75","steam_id":76561199385573293,"connected_time":2814000000000,"state":"active","ping":73},{"user_id":167,"name":"forest (italian)","steam_id":76561198157960257,"connected_time":9384000000000,"state":"active","ping":37}]},{"server_id":119,"name":"Uncletopia | Seattle | 2 | All Maps","name_short":"sea-2","host":"sea-1.us.uncletopia.com","port":27025,"enabled":true,"region":"us-west","cc":"us","latitude":47.608013,"longitude":-122.33517,"reserved":0,"last_update":"0001-01-01T00:00:00Z","name_a2s":"Uncletopia | Seattle | 2 | All Maps","protocol":17,"map":"pl_frontier_final","folder":"tf","game":"Team Fortress","app_id":440,"player_count":24,"max_players":24,"Bots":0,"server_type":"Dedicated","server_os":"Linux","password":true,"vac":true,"version":"7882260","steam_id":85568392924469998,"keywords":["nocrits","nodmgspread","payload","uncletopia"],"game_id":440,"stv_port":27026,"stv_name":"Uncletopia | Seattle | 2 | All Maps | STV","players":[{"user_id":31,"name":"spiderland","steam_id":76561198335992132,"connected_time":2797000000000,"state":"active","ping":52},{"user_id":62,"name":"Alabit","steam_id":76561198065578560,"connected_time":1145000000000,"state":"active","ping":83},{"user_id":59,"name":"EngarDew","steam_id":76561198052648471,"connected_time":1199000000000,"state":"active","ping":84},{"user_id":37,"name":"mrthugpug1732","steam_id":76561198881200768,"connected_time":2523000000000,"state":"active","ping":89},{"user_id":38,"name":"Petrivus","steam_id":76561198202152453,"connected_time":2517000000000,"state":"active","ping":54},{"user_id":53,"name":"Trainman222","steam_id":76561198079498265,"connected_time":1530000000000,"state":"active","ping":122},{"user_id":67,"name":"Arizona Killer","steam_id":76561198110345484,"connected_time":1074000000000,"state":"active","ping":67},{"user_id":79,"name":"Wookie","steam_id":76561198019780053,"connected_time":85000000000,"state":"active","ping":158},{"user_id":69,"name":"Spats","steam_id":76561198064366240,"connected_time":988000000000,"state":"active","ping":73},{"user_id":46,"name":"YahYeeterson","steam_id":76561198120480906,"connected_time":2130000000000,"state":"active","ping":60},{"user_id":55,"name":"Skippy Dinglechalk","steam_id":76561198426726484,"connected_time":1462000000000,"state":"active","ping":107},{"user_id":54,"name":"GoGoX1","steam_id":76561198169591383,"connected_time":1475000000000,"state":"active","ping":94},{"user_id":56,"name":"Perry the Platypus #savetf2","steam_id":76561198273045773,"connected_time":1376000000000,"state":"active","ping":66},{"user_id":76,"name":"Ice cream sandwich","steam_id":76561198172748357,"connected_time":820000000000,"state":"active","ping":66},{"user_id":63,"name":"Sudsen","steam_id":76561198370603787,"connected_time":1137000000000,"state":"active","ping":62},{"user_id":64,"name":"Coolbreadguy","steam_id":76561198139544202,"connected_time":1137000000000,"state":"active","ping":77},{"user_id":65,"name":"moneymoneyganggang464","steam_id":76561199228490429,"connected_time":1127000000000,"state":"active","ping":62},{"user_id":77,"name":"vfa","steam_id":76561198055729118,"connected_time":369000000000,"state":"active","ping":58},{"user_id":68,"name":"WolfNinja","steam_id":76561199218099629,"connected_time":1065000000000,"state":"active","ping":194},{"user_id":70,"name":"Meepster","steam_id":76561198146305159,"connected_time":976000000000,"state":"active","ping":76},{"user_id":71,"name":"Lawyer","steam_id":76561197974126447,"connected_time":949000000000,"state":"active","ping":84},{"user_id":72,"name":"All Smiles","steam_id":76561198033317990,"connected_time":944000000000,"state":"active","ping":75},{"user_id":80,"name":"charley","steam_id":76561198828238339,"connected_time":55000000000,"state":"active","ping":136},{"user_id":74,"name":"·¥ø·¥∫·¥≥ Grimvibes","steam_id":76561198065621941,"connected_time":887000000000,"state":"active","ping":50}]},{"server_id":406,"name":"Uncletopia | Seattle | 3 | Stopwatch Beta","name_short":"sea-3","host":"sea-1.us.uncletopia.com","port":27035,"enabled":true,"region":"us-west","cc":"us","latitude":47.608013,"longitude":-122.33517,"reserved":0,"last_update":"0001-01-01T00:00:00Z","name_a2s":"Uncletopia | Seattle | 3 | Stopwatch Beta","protocol":17,"map":"koth_viaduct","folder":"tf","game":"Team Fortress","app_id":440,"player_count":0,"max_players":24,"Bots":0,"server_type":"Dedicated","server_os":"Linux","password":true,"vac":true,"version":"7882260","steam_id":85568392924515217,"keywords":["cp","nocrits","nodmgspread","uncletopia"],"game_id":440,"stv_port":27036,"stv_name":"Uncletopia | Seattle | 3 | Stopwatch Beta | STV","players":null},{"server_id":17,"name":"Uncletopia | San Francisco | 1 | All Maps","name_short":"sfo-1","host":"sfo-1.us.uncletopia.com","port":27015,"enabled":true,"region":"us-west","cc":"us","latitude":37.77397,"longitude":-122.4313,"reserved":0,"last_update":"0001-01-01T00:00:00Z","name_a2s":"Uncletopia | San Francisco | 1 | All Maps","protocol":17,"map":"koth_highpass","folder":"tf","game":"Team Fortress","app_id":440,"player_count":5,"max_players":24,"Bots":0,"server_type":"Dedicated","server_os":"Linux","password":true,"vac":true,"version":"7882260","steam_id":85568392924469999,"keywords":["cp","nocrits","nodmgspread","uncletopia"],"game_id":440,"stv_port":27016,"stv_name":"Uncletopia | San Francisco | 1 | All Maps | STV","players":[{"user_id":22,"name":"great1photo","steam_id":76561198085481933,"connected_time":2215000000000,"state":"active","ping":117},{"user_id":23,"name":"Karl","steam_id":76561198115714484,"connected_time":1970000000000,"state":"active","ping":61},{"user_id":25,"name":"StarlightProphet","steam_id":76561199468985137,"connected_time":1326000000000,"state":"active","ping":164},{"user_id":26,"name":"CrackedSanity","steam_id":76561198279841251,"connected_time":1163000000000,"state":"active","ping":45},{"user_id":28,"name":"Takareer","steam_id":76561198001751765,"connected_time":259000000000,"state":"active","ping":109}]},{"server_id":18,"name":"Uncletopia | San Francisco | 2 | All Maps","name_short":"sfo-2","host":"sfo-1.us.uncletopia.com","port":27025,"enabled":true,"region":"us-west","cc":"us","latitude":37.77397,"longitude":-122.4313,"reserved":0,"last_update":"0001-01-01T00:00:00Z","name_a2s":"Uncletopia | San Francisco | 2 | All Maps","protocol":17,"map":"koth_highpass","folder":"tf","game":"Team Fortress","app_id":440,"player_count":0,"max_players":24,"Bots":0,"server_type":"Dedicated","server_os":"Linux","password":true,"vac":true,"version":"7882260","steam_id":85568392924470000,"keywords":["cp","nocrits","nodmgspread","uncletopia"],"game_id":440,"stv_port":27026,"stv_name":"Uncletopia | San Francisco | 2 | All Maps | STV","players":null},{"server_id":19,"name":"Uncletopia | San Francisco | 3 | Stopwatch Beta","name_short":"sfo-3","host":"sfo-1.us.uncletopia.com","port":27035,"enabled":true,"region":"us-west","cc":"us","latitude":37.77397,"longitude":-122.4313,"reserved":0,"last_update":"0001-01-01T00:00:00Z","name_a2s":"Uncletopia | San Francisco | 3 | Stopwatch Beta","protocol":17,"map":"pl_snowycoast","folder":"tf","game":"Team Fortress","app_id":440,"player_count":0,"max_players":24,"Bots":0,"server_type":"Dedicated","server_os":"Linux","password":true,"vac":true,"version":"7882260","steam_id":85568392924742824,"keywords":["nocrits","nodmgspread","payload","uncletopia"],"game_id":440,"stv_port":27036,"stv_name":"Uncletopia | San Francisco | 3 | Stopwatch Beta | STV","players":null},{"server_id":20,"name":"Uncletopia | San Francisco | 4 | Community","name_short":"sfo-4","host":"sfo-1.us.uncletopia.com","port":27045,"enabled":true,"region":"us-west","cc":"us","latitude":37.77397,"longitude":-122.4313,"reserved":0,"last_update":"0001-01-01T00:00:00Z","name_a2s":"Uncletopia | San Francisco | 4 | Community","protocol":17,"map":"workshop/pl_eruption_b9a.ugc2807898013","folder":"tf","game":"Team Fortress","app_id":440,"player_count":21,"max_players":24,"Bots":0,"server_type":"Dedicated","server_os":"Linux","password":true,"vac":true,"version":"7882260","steam_id":85568392924742826,"keywords":["nocrits","nodmgspread","payload","uncletopia"],"game_id":440,"stv_port":27046,"stv_name":"Uncletopia | San Francisco | 4 | Community | STV","players":[{"user_id":250,"name":"American freedom bird","steam_id":76561198366142388,"connected_time":262000000000,"state":"active","ping":65},{"user_id":228,"name":"Scud","steam_id":76561198079364693,"connected_time":2258000000000,"state":"active","ping":115},{"user_id":224,"name":"this","steam_id":76561198170195505,"connected_time":2347000000000,"state":"active","ping":35},{"user_id":243,"name":"SCUD missile up your ass","steam_id":76561198066452726,"connected_time":610000000000,"state":"active","ping":58},{"user_id":244,"name":"Simply_Komeiji","steam_id":76561198354177703,"connected_time":537000000000,"state":"active","ping":89},{"user_id":230,"name":"Dynamo","steam_id":76561198057875639,"connected_time":1867000000000,"state":"active","ping":59},{"user_id":163,"name":"BlindingLight","steam_id":76561198289560742,"connected_time":6464000000000,"state":"active","ping":95},{"user_id":182,"name":"Bea!!!!","steam_id":76561198042003086,"connected_time":4451000000000,"state":"active","ping":106},{"user_id":246,"name":"SnoGh√ºl","steam_id":76561199210968300,"connected_time":429000000000,"state":"active","ping":106},{"user_id":236,"name":"wis spy","steam_id":76561198094512992,"connected_time":1117000000000,"state":"active","ping":98},{"user_id":197,"name":"Tom Cr√∫aich","steam_id":76561197999439911,"connected_time":3357000000000,"state":"active","ping":75},{"user_id":248,"name":"Big tiddy goth medic gf","steam_id":76561198836316052,"connected_time":343000000000,"state":"active","ping":64},{"user_id":232,"name":"SanitysEdge","steam_id":76561198130732813,"connected_time":1465000000000,"state":"active","ping":55},{"user_id":249,"name":"dunnydunjo","steam_id":76561198069605283,"connected_time":339000000000,"state":"active","ping":48},{"user_id":253,"name":"Some Genius","steam_id":76561198101868089,"connected_time":46000000000,"state":"active","ping":45},{"user_id":156,"name":"green bean","steam_id":76561198113099204,"connected_time":6693000000000,"state":"active","ping":32},{"user_id":240,"name":"TheRealChizz","steam_id":76561198016055769,"connected_time":1046000000000,"state":"active","ping":58},{"user_id":251,"name":"LocalShowerShitter","steam_id":76561198984737182,"connected_time":181000000000,"state":"active","ping":85},{"user_id":225,"name":"machineclone","steam_id":76561198076320219,"connected_time":2303000000000,"state":"active","ping":112},{"user_id":241,"name":"samantha","steam_id":76561198049258493,"connected_time":1020000000000,"state":"active","ping":68},{"user_id":226,"name":"Mico (Mico)","steam_id":76561198125462953,"connected_time":2300000000000,"state":"active","ping":68}]},{"server_id":141,"name":"Uncletopia | Sydney | 1 | All Maps","name_short":"syd-1","host":"syd-1.au.uncletopia.com","port":27015,"enabled":true,"region":"au","cc":"au","latitude":-33.865143,"longitude":151.2099,"reserved":0,"last_update":"0001-01-01T00:00:00Z","name_a2s":"Uncletopia | Sydney | 1 | All Maps","protocol":17,"map":"cp_altitude","folder":"tf","game":"Team Fortress","app_id":440,"player_count":0,"max_players":24,"Bots":0,"server_type":"Dedicated","server_os":"Linux","password":true,"vac":true,"version":"7882260","steam_id":85568392924470001,"keywords":["cp","nocrits","nodmgspread","uncletopia"],"game_id":440,"stv_port":27016,"stv_name":"Uncletopia | Sydney | 1 | All Maps | STV","players":null},{"server_id":123,"name":"Uncletopia | Sydney | 2 | All Maps","name_short":"syd-2","host":"syd-1.au.uncletopia.com","port":27025,"enabled":true,"region":"au","cc":"au","latitude":-33.865143,"longitude":151.2099,"reserved":0,"last_update":"0001-01-01T00:00:00Z","name_a2s":"Uncletopia | Sydney | 2 | All Maps","protocol":17,"map":"pl_pier","folder":"tf","game":"Team Fortress","app_id":440,"player_count":1,"max_players":24,"Bots":0,"server_type":"Dedicated","server_os":"Linux","password":true,"vac":true,"version":"7882260","steam_id":85568392924470002,"keywords":["nocrits","nodmgspread","payload","uncletopia"],"game_id":440,"stv_port":27026,"stv_name":"Uncletopia | Sydney | 2 | All Maps | STV","players":[{"user_id":4,"name":"Nykane Mundoe","steam_id":76561198088054570,"connected_time":128000000000,"state":"spawning","ping":305}]},{"server_id":395,"name":"Uncletopia | Sydney | 3 | All Maps","name_short":"syd-3","host":"syd-1.au.uncletopia.com","port":27035,"enabled":true,"region":"au","cc":"au","latitude":-33.865143,"longitude":151.2099,"reserved":0,"last_update":"0001-01-01T00:00:00Z","name_a2s":"Uncletopia | Sydney | 3 | All Maps","protocol":17,"map":"pl_badwater","folder":"tf","game":"Team Fortress","app_id":440,"player_count":0,"max_players":24,"Bots":0,"server_type":"Dedicated","server_os":"Linux","password":true,"vac":true,"version":"7882260","steam_id":85568392925194467,"keywords":["nocrits","nodmgspread","payload","uncletopia"],"game_id":440,"stv_port":27036,"stv_name":"Uncletopia | Sydney | 3 | All Maps | STV","players":null},{"server_id":396,"name":"Uncletopia | Sydney | 4 | All Maps","name_short":"syd-4","host":"syd-1.au.uncletopia.com","port":27045,"enabled":true,"region":"au","cc":"au","latitude":-33.865143,"longitude":151.2099,"reserved":0,"last_update":"0001-01-01T00:00:00Z","name_a2s":"Uncletopia | Sydney | 4 | All Maps","protocol":17,"map":"cp_altitude","folder":"tf","game":"Team Fortress","app_id":440,"player_count":0,"max_players":24,"Bots":0,"server_type":"Dedicated","server_os":"Linux","password":true,"vac":true,"version":"7882260","steam_id":85568392925397958,"keywords":["cp","nocrits","nodmgspread","uncletopia"],"game_id":440,"stv_port":27046,"stv_name":"Uncletopia | Sydney | 4 | All Maps | STV","players":null},{"server_id":58,"name":"Uncletopia | Sydney | 5 | Stopwatch Beta","name_short":"syd-5","host":"syd-1.au.uncletopia.com","port":27055,"enabled":true,"region":"au","cc":"au","latitude":-33.865143,"longitude":151.2099,"reserved":0,"last_update":"0001-01-01T00:00:00Z","name_a2s":"Uncletopia | Sydney | 5 | Stopwatch Beta","protocol":17,"map":"koth_viaduct","folder":"tf","game":"Team Fortress","app_id":440,"player_count":0,"max_players":24,"Bots":0,"server_type":"Dedicated","server_os":"Linux","password":true,"vac":true,"version":"7882260","steam_id":85568392925397959,"keywords":["cp","nocrits","nodmgspread","uncletopia"],"game_id":440,"stv_port":27056,"stv_name":"Uncletopia | Sydney | 5 | Stopwatch Beta | STV","players":null},{"server_id":59,"name":"Uncletopia | Sydney | 6 | Community","name_short":"syd-6","host":"syd-1.au.uncletopia.com","port":27065,"enabled":true,"region":"au","cc":"au","latitude":-33.865143,"longitude":151.2099,"reserved":0,"last_update":"0001-01-01T00:00:00Z","name_a2s":"Uncletopia | Sydney | 6 | Community","protocol":17,"map":"workshop/pl_divulgence_b4b.ugc2884808746","folder":"tf","game":"Team Fortress","app_id":440,"player_count":0,"max_players":24,"Bots":0,"server_type":"Dedicated","server_os":"Linux","password":true,"vac":true,"version":"7882260","steam_id":85568392925397960,"keywords":["nocrits","nodmgspread","payload","uncletopia"],"game_id":440,"stv_port":27066,"stv_name":"Uncletopia | Sydney | 6 | Community | STV","players":null},{"server_id":49,"name":"Uncletopia | Warsaw | 1 | All Maps","name_short":"waw-1","host":"waw-1.pl.uncletopia.com","port":27015,"enabled":true,"region":"eu","cc":"pl","latitude":52.2297,"longitude":21.017532,"reserved":0,"last_update":"0001-01-01T00:00:00Z","name_a2s":"","protocol":0,"map":"","folder":"","game":"","app_id":0,"player_count":0,"max_players":0,"Bots":0,"server_type":"","server_os":"","password":false,"vac":false,"version":"","steam_id":0,"keywords":null,"game_id":0,"stv_port":0,"stv_name":"","players":null},{"server_id":50,"name":"Uncletopia | Warsaw | 2 | All Maps","name_short":"waw-2","host":"waw-1.pl.uncletopia.com","port":27025,"enabled":true,"region":"eu","cc":"pl","latitude":52.2297,"longitude":21.017532,"reserved":0,"last_update":"0001-01-01T00:00:00Z","name_a2s":"Uncletopia | Warsaw | 2 | All Maps","protocol":17,"map":"koth_viaduct","folder":"tf","game":"Team Fortress","app_id":440,"player_count":0,"max_players":24,"Bots":0,"server_type":"Dedicated","server_os":"Linux","password":true,"vac":true,"version":"7882260","steam_id":85568392925397851,"keywords":["cp","nocrits","nodmgspread","uncletopia"],"game_id":440,"stv_port":27026,"stv_name":"Uncletopia | Warsaw | 2 | All Maps | STV","players":null},{"server_id":51,"name":"Uncletopia | Warsaw | 3 | All Maps","name_short":"waw-3","host":"waw-1.pl.uncletopia.com","port":27035,"enabled":true,"region":"eu","cc":"pl","latitude":52.2297,"longitude":21.017532,"reserved":0,"last_update":"0001-01-01T00:00:00Z","name_a2s":"Uncletopia | Warsaw | 3 | All Maps","protocol":17,"map":"pl_upward","folder":"tf","game":"Team Fortress","app_id":440,"player_count":0,"max_players":24,"Bots":0,"server_type":"Dedicated","server_os":"Linux","password":true,"vac":true,"version":"7882260","steam_id":85568392925397852,"keywords":["nocrits","nodmgspread","payload","uncletopia"],"game_id":440,"stv_port":27036,"stv_name":"Uncletopia | Warsaw | 3 | All Maps | STV","players":null},{"server_id":52,"name":"Uncletopia | Warsaw | 4 | All Maps","name_short":"waw-4","host":"waw-1.pl.uncletopia.com","port":27045,"enabled":true,"region":"eu","cc":"pl","latitude":52.2297,"longitude":21.017532,"reserved":0,"last_update":"0001-01-01T00:00:00Z","name_a2s":"Uncletopia | Warsaw | 4 | All Maps","protocol":17,"map":"koth_cascade","folder":"tf","game":"Team Fortress","app_id":440,"player_count":0,"max_players":24,"Bots":0,"server_type":"Dedicated","server_os":"Linux","password":true,"vac":true,"version":"7882260","steam_id":85568392925397853,"keywords":["cp","nocrits","nodmgspread","uncletopia"],"game_id":440,"stv_port":27046,"stv_name":"Uncletopia | Warsaw | 4 | All Maps | STV","players":null},{"server_id":53,"name":"Uncletopia | Warsaw | 5 | Stopwatch Beta","name_short":"waw-5","host":"waw-1.pl.uncletopia.com","port":27055,"enabled":true,"region":"eu","cc":"pl","latitude":52.2297,"longitude":21.017532,"reserved":0,"last_update":"0001-01-01T00:00:00Z","name_a2s":"Uncletopia | Warsaw | 5 | Stopwatch Beta","protocol":17,"map":"workshop/koth_ramjam_rc1.ugc459778887","folder":"tf","game":"Team Fortress","app_id":440,"player_count":0,"max_players":24,"Bots":0,"server_type":"Dedicated","server_os":"Linux","password":true,"vac":true,"version":"7882260","steam_id":85568392925397854,"keywords":["cp","nocrits","nodmgspread","uncletopia"],"game_id":440,"stv_port":27056,"stv_name":"Uncletopia | Warsaw | 5 | Stopwatch Beta | STV","players":null},{"server_id":54,"name":"Uncletopia | Warsaw | 6 | Community","name_short":"waw-6","host":"waw-1.pl.uncletopia.com","port":27065,"enabled":true,"region":"eu","cc":"pl","latitude":52.2297,"longitude":21.017532,"reserved":0,"last_update":"0001-01-01T00:00:00Z","name_a2s":"Uncletopia | Warsaw | 6 | Community","protocol":17,"map":"workshop/cp_reckoner_rc6.ugc674719999","folder":"tf","game":"Team Fortress","app_id":440,"player_count":0,"max_players":24,"Bots":0,"server_type":"Dedicated","server_os":"Linux","password":true,"vac":true,"version":"7882260","steam_id":85568392925397856,"keywords":["cp","nocrits","nodmgspread","uncletopia"],"game_id":440,"stv_port":27066,"stv_name":"Uncletopia | Warsaw | 6 | Community | STV","players":null}]}