{"status":true,"message":"","result":[{"server_id":9,"name":"Uncletopia | Atlanta | 1 | All Maps","name_short":"atl-1","host":"atl-1.us.uncletopia.com","port":27015,"enabled":true,"region":"us-east","cc":"us","latitude":33.753746,"longitude":-84.38633,"reserved":0,"last_update":"0001-01-01T00:00:00Z","name_a2s":"Uncletopia | Atlanta | 1 | All Maps","protocol":17,"map":"koth_cascade","folder":"tf","game":"Team Fortress","app_id":440,"player_count":0,"max_players":24,"Bots":0,"server_type":"Dedicated","server_os":"Linux","password":true,"vac":true,"version":"7882260","steam_id":85568392924469982,"keywords":["cp","nocrits","nodmgspread","uncletopia"],"game_id":440,"stv_port":27016,"stv_name":"Uncletopia | Atlanta | 1 | All Maps | STV","players":null},{"server_id":104,"name":"Uncletopia | Atlanta | 2 | All Maps","name_short":"atl-2","host":"atl-1.us.uncletopia.com","port":27025,"enabled":true,"region":"us-east","cc":"us","latitude":33.753746,"longitude":-84.38633,"reserved":0,"last_update":"0001-01-01T00:00:00Z","name_a2s":"Uncletopia | Atlanta | 2 | All Maps","protocol":17,"map":"pl_snowycoast","folder":"tf","game":"Team Fortress","app_id":440,"player_count":0,"max_players":24,"Bots":0,"server_type":"Dedicated","server_os":"Linux","password":true,"vac":true,"version":"7882260","steam_id":85568392924469983,"keywords":["nocrits","nodmgspread","payload","uncletopia"],"game_id":440,"stv_port":27026,"stv_name":"Uncletopia | Atlanta | 2 | All Maps | STV","players":null},{"server_id":400,"name":"Uncletopia | Atlanta | 3 | Community","name_short":"atl-3","host":"atl-1.us.uncletopia.com","port":27035,"enabled":true,"region":"us-east","cc":"us","latitude":33.753746,"longitude":-84.38633,"reserved":0,"last_update":"0001-01-01T00:00:00Z","name_a2s":"Uncletopia | Atlanta | 3 | Community","protocol":17,"map":"workshop/pl_barnblitz_pro7.ugc582280235","folder":"tf","game":"Team Fortress","app_id":440,"player_count":0,"max_players":24,"Bots":0,"server_type":"Dedicated","server_os":"Linux","password":true,"vac":true,"version":"7882260","steam_id":85568392924515187,"keywords":["nocrits","nodmgspread","payload","uncletopia"],"game_id":440,"stv_port":27036,"stv_name":"Uncletopia | Atlanta | 3 | Community | STV","players":null},{"server_id":401,"name":"Uncletopia | Atlanta | 4 | No Payload","name_short":"atl-4","host":"atl-1.us.uncletopia.com","port":27045,"enabled":true,"region":"us-east","cc":"us","latitude":33.753746,"longitude":-84.38633,"reserved":0,"last_update":"0001-01-01T00:00:00Z","name_a2s":"","protocol":0,"map":"","folder":"","game":"","app_id":0,"player_count":0,"max_players":0,"Bots":0,"server_type":"","server_os":"","password":false,"vac":false,"version":"","steam_id":0,"keywords":null,"game_id":0,"stv_port":0,"stv_name":"","players":null},{"server_id":2,"name":"Uncletopia | Chicago | 1 | All Maps","name_short":"chi-1","host":"chi-1.us.uncletopia.com","port":27015,"enabled":true,"region":"us-central","cc":"us","latitude":41.881832,"longitude":-87.62318,"reserved":0,"last_update":"0001-01-01T00:00:00Z","name_a2s":"Uncletopia | Chicago | 1 | All Maps","protocol":17,"map":"koth_badlands","folder":"tf","game":"Team Fortress","app_id":440,"player_count":22,"max_players":24,"Bots":0,"server_type":"Dedicated","server_os":"Linux","password":true,"vac":true,"version":"7882260","steam_id":85568392924469984,"keywords":["cp","nocrits","nodmgspread","uncletopia"],"game_id":440,"stv_port":27016,"stv_name":"Uncletopia | Chicago | 1 | All Maps | STV","players":[{"user_id":750,"name":"JustGavan","steam_id":76561198042260171,"connected_time":3419000000000,"state":"active","ping":90},{"user_id":794,"name":"Titar Industries","steam_id":76561198143078476,"connected_time":169000000000,"state":"active","ping":66},{"user_id":785,"name":"Bubsquat","steam_id":76561198081904880,"connected_time":770000000000,"state":"active","ping":54},{"user_id":770,"name":"ATL1 | wire-guided","steam_id":76561198055407168,"connected_time":1950000000000,"state":"active","ping":70},{"user_id":788,"name":"STENDO_CLIP","steam_id":76561198059570167,"connected_time":546000000000,"state":"active","ping":112},{"user_id":780,"name":"Women B. Shopping","steam_id":76561198069814977,"connected_time":1345000000000,"state":"active","ping":62},{"user_id":787,"name":"Ginsai","steam_id":76561198107797443,"connected_time":744000000000,"state":"active","ping":80},{"user_id":737,"name":"no.","steam_id":76561198988350454,"connected_time":4961000000000,"state":"active","ping":156},{"user_id":738,"name":"cinamin.kake","steam_id":76561199003171233,"connected_time":4941000000000,"state":"active","ping":56},{"user_id":784,"name":"tr","steam_id":76561198046944222,"connected_time":1074000000000,"state":"active","ping":91},{"user_id":773,"name":"gwy","steam_id":76561198277458653,"connected_time":1913000000000,"state":"active","ping":91},{"user_id":748,"name":"ryann","steam_id":76561198042996639,"connected_time":3609000000000,"state":"active","ping":105},{"user_id":789,"name":"Felwo3","steam_id":76561199217352978,"connected_time":508000000000,"state":"active","ping":187},{"user_id":772,"name":"jooce","steam_id":76561198325093063,"connected_time":1921000000000,"state":"active","ping":90},{"user_id":774,"name":"Chicken","steam_id":76561198295408482,"connected_time":1910000000000,"state":"active","ping":84},{"user_id":781,"name":"GardenOfStone","steam_id":76561199069870534,"connected_time":1262000000000,"state":"active","ping":76},{"user_id":782,"name":"CherriKat (she/her)","steam_id":76561198821297512,"connected_time":1206000000000,"state":"active","ping":103},{"user_id":792,"name":"riley","steam_id":76561198133142520,"connected_time":307000000000,"state":"active","ping":45},{"user_id":775,"name":"w1ppy","steam_id":76561198324695896,"connected_time":1905000000000,"state":"active","ping":76},{"user_id":793,"name":"Vogel","steam_id":76561198872159697,"connected_time":304000000000,"state":"active","ping":67},{"user_id":783,"name":"bocaJ","steam_id":76561198374535092,"connected_time":1204000000000,"state":"active","ping":75},{"user_id":791,"name":"Sterling Archer","steam_id":76561198077359444,"connected_time":439000000000,"state":"active","ping":55}]},{"server_id":106,"name":"Uncletopia | Chicago | 2 | All Maps","name_short":"chi-2","host":"chi-1.us.uncletopia.com","port":27025,"enabled":true,"region":"us-central","cc":"us","latitude":41.881832,"longitude":-87.62318,"reserved":0,"last_update":"0001-01-01T00:00:00Z","name_a2s":"Uncletopia | Chicago | 2 | All Maps","protocol":17,"map":"pl_pier","folder":"tf","game":"Team Fortress","app_id":440,"player_count":0,"max_players":24,"Bots":0,"server_type":"Dedicated","server_os":"Linux","password":true,"vac":true,"version":"7882260","steam_id":85568392924469985,"keywords":["nocrits","nodmgspread","payload","uncletopia"],"game_id":440,"stv_port":27026,"stv_name":"Uncletopia | Chicago | 2 | All Maps | STV","players":null},{"server_id":402,"name":"Uncletopia | Chicago | 3 | All Maps","name_short":"chi-3","host":"chi-1.us.uncletopia.com","port":27035,"enabled":true,"region":"us-central","cc":"us","latitude":41.881832,"longitude":-87.62318,"reserved":0,"last_update":"0001-01-01T00:00:00Z","name_a2s":"Uncletopia | Chicago | 3 | All Maps","protocol":17,"map":"cp_process_final","folder":"tf","game":"Team Fortress","app_id":440,"player_count":19,"max_players":24,"Bots":0,"server_type":"Dedicated","server_os":"Linux","password":true,"vac":true,"version":"7882260","steam_id":85568392924515191,"keywords":["cp","nocrits","nodmgspread","uncletopia"],"game_id":440,"stv_port":27036,"stv_name":"Uncletopia | Chicago | 3 | All Maps | STV","players":[{"user_id":893,"name":"yitz","steam_id":76561198375575841,"connected_time":267000000000,"state":"active","ping":83},{"user_id":887,"name":"TryX","steam_id":76561199356781475,"connected_time":1165000000000,"state":"active","ping":161},{"user_id":891,"name":"123","steam_id":76561198106308056,"connected_time":524000000000,"state":"active","ping":105},{"user_id":892,"name":"@ᴡɪʟᴅsɴᴀʏᴋ (real)","steam_id":76561198115175633,"connected_time":517000000000,"state":"active","ping":60},{"user_id":894,"name":"Dark_","steam_id":76561198391453250,"connected_time":237000000000,"state":"active","ping":81},{"user_id":889,"name":"Rasputia","steam_id":76561198132051047,"connected_time":748000000000,"state":"active","ping":105},{"user_id":869,"name":"THAN-Os!","steam_id":76561198140137142,"connected_time":1979000000000,"state":"active","ping":79},{"user_id":895,"name":"Feistypanda34","steam_id":76561198260910134,"connected_time":70000000000,"state":"active","ping":59},{"user_id":896,"name":"Mr.noob","steam_id":76561199200442395,"connected_time":40000000000,"state":"active","ping":171},{"user_id":830,"name":"Cool Ranch Buddha","steam_id":76561197982863756,"connected_time":4414000000000,"state":"active","ping":72},{"user_id":850,"name":"guess i'll die...virtually","steam_id":76561199112291386,"connected_time":3448000000000,"state":"active","ping":123},{"user_id":862,"name":"Lemon Luke","steam_id":76561199141696546,"connected_time":2553000000000,"state":"active","ping":141},{"user_id":870,"name":"jdaff","steam_id":76561198153380233,"connected_time":1967000000000,"state":"active","ping":71},{"user_id":841,"name":"eau:","steam_id":76561198110020262,"connected_time":3739000000000,"state":"active","ping":92},{"user_id":871,"name":"GamingJoker2012","steam_id":76561198247589168,"connected_time":1966000000000,"state":"active","ping":61},{"user_id":843,"name":"insane jester","steam_id":76561198079609974,"connected_time":3702000000000,"state":"active","ping":109},{"user_id":872,"name":"chikin.sauce","steam_id":76561198042464635,"connected_time":1943000000000,"state":"active","ping":72},{"user_id":882,"name":"THEY LET YOU PUT ANYTHING HERE","steam_id":76561198056214875,"connected_time":1649000000000,"state":"active","ping":58},{"user_id":849,"name":"Umbruh","steam_id":76561198027768238,"connected_time":3478000000000,"state":"active","ping":151}]},{"server_id":403,"name":"Uncletopia | Chicago | 4 | All Maps","name_short":"chi-4","host":"chi-1.us.uncletopia.com","port":27045,"enabled":true,"region":"us-central","cc":"us","latitude":41.881832,"longitude":-87.62318,"reserved":0,"last_update":"0001-01-01T00:00:00Z","name_a2s":"Uncletopia | Chicago | 4 | All Maps","protocol":17,"map":"pl_borneo","folder":"tf","game":"Team Fortress","app_id":440,"player_count":0,"max_players":24,"Bots":0,"server_type":"Dedicated","server_os":"Linux","password":true,"vac":true,"version":"7882260","steam_id":85568392924515193,"keywords":["nocrits","nodmgspread","payload","uncletopia"],"game_id":440,"stv_port":27046,"stv_name":"Uncletopia | Chicago | 4 | All Maps | STV","players":null},{"server_id":36,"name":"Uncletopia | Chicago | 5 | All Maps","name_short":"chi-5","host":"chi-2.us.uncletopia.com","port":27015,"enabled":true,"region":"us-central","cc":"us","latitude":41.881832,"longitude":-87.62318,"reserved":0,"last_update":"0001-01-01T00:00:00Z","name_a2s":"Uncletopia | Chicago | 5 | All Maps","protocol":17,"map":"pl_badwater","folder":"tf","game":"Team Fortress","app_id":440,"player_count":0,"max_players":24,"Bots":0,"server_type":"Dedicated","server_os":"Linux","password":true,"vac":true,"version":"7882260","steam_id":85568392924866362,"keywords":["nocrits","nodmgspread","payload","uncletopia"],"game_id":440,"stv_port":27016,"stv_name":"Uncletopia | Chicago | 5 | All Maps | STV","players":null},{"server_id":37,"name":"Uncletopia | Chicago | 6 | All Maps","name_short":"chi-6","host":"chi-2.us.uncletopia.com","port":27025,"enabled":true,"region":"us-central","cc":"us","latitude":41.881832,"longitude":-87.62318,"reserved":0,"last_update":"0001-01-01T00:00:00Z","name_a2s":"Uncletopia | Chicago | 6 | All Maps","protocol":17,"map":"cp_sunshine","folder":"tf","game":"Team Fortress","app_id":440,"player_count":0,"max_players":24,"Bots":0,"server_type":"Dedicated","server_os":"Linux","password":true,"vac":true,"version":"7882260","steam_id":85568392924866363,"keywords":["cp","nocrits","nodmgspread","uncletopia"],"game_id":440,"stv_port":27026,"stv_name":"Uncletopia | Chicago | 6 | All Maps | STV","players":null},{"server_id":38,"name":"Uncletopia | Chicago | 7 | Stopwatch Beta","name_short":"chi-7","host":"chi-2.us.uncletopia.com","port":27035,"enabled":true,"region":"us-central","cc":"us","latitude":41.881832,"longitude":-87.62318,"reserved":0,"last_update":"0001-01-01T00:00:00Z","name_a2s":"Uncletopia | Chicago | 7 | Stopwatch Beta","protocol":17,"map":"workshop/koth_ashville_final.ugc2130459942","folder":"tf","game":"Team Fortress","app_id":440,"player_count":0,"max_players":24,"Bots":0,"server_type":"Dedicated","server_os":"Linux","password":true,"vac":true,"version":"7882260","steam_id":85568392924866364,"keywords":["cp","nocrits","nodmgspread","uncletopia"],"game_id":440,"stv_port":27036,"stv_name":"Uncletopia | Chicago | 7 | Stopwatch Beta | STV","players":null},{"server_id":39,"name":"Uncletopia | Chicago | 8 | Community","name_short":"chi-8","host":"chi-2.us.uncletopia.com","port":27045,"enabled":true,"region":"us-central","cc":"us","latitude":41.881832,"longitude":-87.62318,"reserved":0,"last_update":"0001-01-01T00:00:00Z","name_a2s":"Uncletopia | Chicago | 8 | Community","protocol":17,"map":"cp_snakewater_final1","folder":"tf","game":"Team Fortress","app_id":440,"player_count":0,"max_players":24,"Bots":0,"server_type":"Dedicated","server_os":"Linux","password":true,"vac":true,"version":"7882260","steam_id":85568392924866365,"keywords":["cp","nocrits","nodmgspread","uncletopia"],"game_id":440,"stv_port":27046,"stv_name":"Uncletopia | Chicago | 8 | Community | STV","players":null},{"server_id":8,"name":"Uncletopia | Dallas | 1 | All Maps","name_short":"dal-1","host":"dal-1.us.uncletopia.com","port":27015,"enabled":true,"region":"us-central","cc":"us","latitude":32.779167,"longitude":-96.80889,"reserved":0,"last_update":"0001-01-01T00:00:00Z","name_a2s":"Uncletopia | Dallas | 1 | All Maps","protocol":17,"map":"pl_upward","folder":"tf","game":"Team Fortress","app_id":440,"player_count":24,"max_players":24,"Bots":0,"server_type":"Dedicated","server_os":"Linux","password":true,"vac":true,"version":"7882260","steam_id":85568392924469986,"keywords":["nocrits","nodmgspread","payload","uncletopia"],"game_id":440,"stv_port":27016,"stv_name":"Uncletopia | Dallas | 1 | All Maps | STV","players":[{"user_id":810,"name":"Vriska","steam_id":76561198309743532,"connected_time":362000000000,"state":"active","ping":73},{"user_id":809,"name":"Nero25","steam_id":76561198027720631,"connected_time":537000000000,"state":"active","ping":109},{"user_id":802,"name":"Vespen","steam_id":76561198259984019,"connected_time":846000000000,"state":"active","ping":82},{"user_id":808,"name":"merz","steam_id":76561198067473301,"connected_time":574000000000,"state":"active","ping":78},{"user_id":794,"name":"iamthebeanmaster","steam_id":76561199220032401,"connected_time":1158000000000,"state":"active","ping":65},{"user_id":812,"name":"SaxyThePhone","steam_id":76561199439167761,"connected_time":200000000000,"state":"active","ping":69},{"user_id":800,"name":"Grim","steam_id":76561198392125036,"connected_time":908000000000,"state":"active","ping":60},{"user_id":754,"name":"minty","steam_id":76561198062821894,"connected_time":3721000000000,"state":"active","ping":45},{"user_id":770,"name":"Ⓑ⓪⓪ⓣⓨⓒⓐⓚⓔⓢ","steam_id":76561198088776421,"connected_time":2630000000000,"state":"active","ping":85},{"user_id":792,"name":"vanilla linguine","steam_id":76561198155661890,"connected_time":1417000000000,"state":"active","ping":46},{"user_id":762,"name":"Yosh","steam_id":76561198027078899,"connected_time":3399000000000,"state":"active","ping":74},{"user_id":781,"name":"minerkid2004","steam_id":76561198044262827,"connected_time":1822000000000,"state":"active","ping":85},{"user_id":801,"name":"H00DEDRIOT","steam_id":76561198351880498,"connected_time":880000000000,"state":"active","ping":58},{"user_id":803,"name":"peppy","steam_id":76561198361818082,"connected_time":835000000000,"state":"active","ping":69},{"user_id":783,"name":"The Announcer's Feet","steam_id":76561199443456893,"connected_time":1725000000000,"state":"active","ping":46},{"user_id":805,"name":"the beach that makes you old","steam_id":76561198008332777,"connected_time":659000000000,"state":"active","ping":98},{"user_id":787,"name":"Cowboy boy","steam_id":76561198047093749,"connected_time":1565000000000,"state":"active","ping":96},{"user_id":788,"name":"lycoris","steam_id":76561199113965768,"connected_time":1545000000000,"state":"active","ping":87},{"user_id":793,"name":"Gelliterate","steam_id":76561198107233070,"connected_time":1345000000000,"state":"active","ping":53},{"user_id":806,"name":"xiPoison","steam_id":76561198064961659,"connected_time":644000000000,"state":"active","ping":68},{"user_id":811,"name":"Toucher of Grass","steam_id":76561199475829930,"connected_time":257000000000,"state":"active","ping":61},{"user_id":807,"name":"Zipzapimoncrack","steam_id":76561198153916854,"connected_time":598000000000,"state":"active","ping":90},{"user_id":777,"name":"derdds","steam_id":76561198034339940,"connected_time":2281000000000,"state":"active","ping":75},{"user_id":813,"name":"†††","steam_id":76561198143824192,"connected_time":95000000000,"state":"active","ping":113}]},{"server_id":108,"name":"Uncletopia | Dallas | 2 | All Maps","name_short":"dal-2","host":"dal-1.us.uncletopia.com","port":27025,"enabled":true,"region":"us-central","cc":"us","latitude":32.779167,"longitude":-96.80889,"reserved":0,"last_update":"0001-01-01T00:00:00Z","name_a2s":"Uncletopia | Dallas | 2 | All Maps","protocol":17,"map":"cp_dustbowl","folder":"tf","game":"Team Fortress","app_id":440,"player_count":7,"max_players":24,"Bots":0,"server_type":"Dedicated","server_os":"Linux","password":true,"vac":true,"version":"7882260","steam_id":85568392924469988,"keywords":["cp","nocrits","nodmgspread","uncletopia"],"game_id":440,"stv_port":27026,"stv_name":"Uncletopia | Dallas | 2 | All Maps | STV","players":[{"user_id":774,"name":"Trenos301","steam_id":76561198081155226,"connected_time":3957000000000,"state":"active","ping":47},{"user_id":788,"name":"Spiker","steam_id":76561198440269577,"connected_time":1661000000000,"state":"active","ping":171},{"user_id":789,"name":"connie kins","steam_id":76561198074701151,"connected_time":161000000000,"state":"active","ping":72},{"user_id":791,"name":"Dairy Queen","steam_id":76561198285298576,"connected_time":150000000000,"state":"active","ping":82},{"user_id":792,"name":"Silver Tilapia","steam_id":76561198217879236,"connected_time":118000000000,"state":"active","ping":42},{"user_id":776,"name":"samuraibender","steam_id":76561198336389126,"connected_time":3936000000000,"state":"active","ping":81},{"user_id":777,"name":"Coyotee1","steam_id":76561198170134697,"connected_time":3925000000000,"state":"active","ping":78}]},{"server_id":5,"name":"Uncletopia | Frankfurt | 1 | All Maps","name_short":"frk-1","host":"frk-1.de.uncletopia.com","port":27015,"enabled":true,"region":"eu","cc":"de","latitude":50.110924,"longitude":8.682127,"reserved":0,"last_update":"0001-01-01T00:00:00Z","name_a2s":"Uncletopia | Frankfurt | 1 | All Maps","protocol":17,"map":"cp_steel","folder":"tf","game":"Team Fortress","app_id":440,"player_count":24,"max_players":24,"Bots":0,"server_type":"Dedicated","server_os":"Linux","password":true,"vac":true,"version":"7882260","steam_id":85568392924469989,"keywords":["cp","nocrits","nodmgspread","uncletopia"],"game_id":440,"stv_port":27016,"stv_name":"Uncletopia | Frankfurt | 1 | All Maps | STV","players":[{"user_id":119,"name":"One-Face","steam_id":76561197999384826,"connected_time":1751000000000,"state":"active","ping":51},{"user_id":114,"name":"Master Of Noob","steam_id":76561198217926783,"connected_time":2144000000000,"state":"active","ping":69},{"user_id":132,"name":"Fluffy","steam_id":76561198084447725,"connected_time":990000000000,"state":"active","ping":51},{"user_id":28,"name":"nemelex","steam_id":76561198958005865,"connected_time":8321000000000,"state":"active","ping":61},{"user_id":133,"name":"Tison","steam_id":76561199127635841,"connected_time":985000000000,"state":"active","ping":45},{"user_id":96,"name":"Rex Z'Beq","steam_id":76561199300590000,"connected_time":3151000000000,"state":"active","ping":82},{"user_id":101,"name":"PixelStachee","steam_id":76561198110453607,"connected_time":2939000000000,"state":"active","ping":62},{"user_id":109,"name":"www","steam_id":76561199216923710,"connected_time":2398000000000,"state":"active","ping":140},{"user_id":134,"name":"regimiro","steam_id":76561198120457008,"connected_time":913000000000,"state":"active","ping":73},{"user_id":138,"name":"ARYZON","steam_id":76561198070705087,"connected_time":696000000000,"state":"active","ping":46},{"user_id":122,"name":"Regretful medic main","steam_id":76561198388750592,"connected_time":1657000000000,"state":"active","ping":73},{"user_id":76,"name":"Cleander","steam_id":76561198262207332,"connected_time":4711000000000,"state":"active","ping":47},{"user_id":71,"name":"aleeees medic arc frfr","steam_id":76561198180361759,"connected_time":5429000000000,"state":"active","ping":59},{"user_id":135,"name":"benifis163","steam_id":76561198420973492,"connected_time":907000000000,"state":"active","ping":103},{"user_id":100,"name":"Wyro","steam_id":76561199176835169,"connected_time":3024000000000,"state":"active","ping":67},{"user_id":105,"name":"CosminSL","steam_id":76561198055827684,"connected_time":2560000000000,"state":"active","ping":77},{"user_id":137,"name":"SantiTzePug","steam_id":76561199049615996,"connected_time":820000000000,"state":"active","ping":77},{"user_id":60,"name":"mira","steam_id":76561199040246790,"connected_time":6255000000000,"state":"active","ping":61},{"user_id":128,"name":"Borat","steam_id":76561198122226417,"connected_time":1269000000000,"state":"active","ping":58},{"user_id":129,"name":"Yuzu","steam_id":76561198121694613,"connected_time":1054000000000,"state":"active","ping":54},{"user_id":117,"name":"Le Nain","steam_id":76561198050638632,"connected_time":1811000000000,"state":"active","ping":69},{"user_id":93,"name":"Ｒ Ｏ Ｂ Ｂ Ｅ Ｒ Ｔ","steam_id":76561198134404830,"connected_time":3669000000000,"state":"active","ping":144},{"user_id":131,"name":"Radegast the Brown","steam_id":76561198075489505,"connected_time":1012000000000,"state":"active","ping":64},{"user_id":75,"name":"Eco","steam_id":76561199201938256,"connected_time":4793000000000,"state":"active","ping":69}]},{"server_id":110,"name":"Uncletopia | Frankfurt | 2 | All Maps","name_short":"frk-2","host":"frk-1.de.uncletopia.com","port":27025,"enabled":true,"region":"eu","cc":"de","latitude":50.110924,"longitude":8.682127,"reserved":0,"last_update":"0001-01-01T00:00:00Z","name_a2s":"Uncletopia | Frankfurt | 2 | All Maps","protocol":17,"map":"koth_viaduct","folder":"tf","game":"Team Fortress","app_id":440,"player_count":0,"max_players":24,"Bots":0,"server_type":"Dedicated","server_os":"Linux","password":true,"vac":true,"version":"7882260","steam_id":85568392924469990,"keywords":["cp","nocrits","nodmgspread","uncletopia"],"game_id":440,"stv_port":27026,"stv_name":"Uncletopia | Frankfurt | 2 | All Maps | STV","players":null},{"server_id":308,"name":"Uncletopia | Frankfurt | 3 | All Maps","name_short":"frk-3","host":"frk-1.de.uncletopia.com","port":27035,"enabled":true,"region":"eu","cc":"de","latitude":50.110924,"longitude":8.682127,"reserved":0,"last_update":"0001-01-01T00:00:00Z","name_a2s":"Uncletopia | Frankfurt | 3 | All Maps","protocol":17,"map":"cp_sunshine","folder":"tf","game":"Team Fortress","app_id":440,"player_count":0,"max_players":24,"Bots":0,"server_type":"Dedicated","server_os":"Linux","password":true,"vac":true,"version":"7882260","steam_id":85568392924504274,"keywords":["cp","nocrits","nodmgspread","uncletopia"],"game_id":440,"stv_port":27036,"stv_name":"Uncletopia | Frankfurt | 3 | All Maps | STV","players":null},{"server_id":309,"name":"Uncletopia | Frankfurt | 4 | All Maps","name_short":"frk-4","host":"frk-1.de.uncletopia.com","port":27045,"enabled":true,"region":"eu","cc":"de","latitude":50.110924,"longitude":8.682127,"reserved":0,"last_update":"0001-01-01T00:00:00Z","name_a2s":"Uncletopia | Frankfurt | 4 | All Maps","protocol":17,"map":"koth_lakeside_final","folder":"tf","game":"Team Fortress","app_id":440,"player_count":0,"max_players":24,"Bots":0,"server_type":"Dedicated","server_os":"Linux","password":true,"vac":true,"version":"7882260","steam_id":85568392924504275,"keywords":["cp","nocrits","nodmgspread","uncletopia"],"game_id":440,"stv_port":27046,"stv_name":"Uncletopia | Frankfurt | 4 | All Maps | STV","players":null},{"server_id":310,"name":"Uncletopia | Frankfurt | 5 | All Maps","name_short":"frk-5","host":"frk-1.de.uncletopia.com","port":27055,"enabled":true,"region":"eu","cc":"de","latitude":50.110924,"longitude":8.682127,"reserved":0,"last_update":"0001-01-01T00:00:00Z","name_a2s":"Uncletopia | Frankfurt | 5 | All Maps","protocol":17,"map":"cp_dustbowl","folder":"tf","game":"Team Fortress","app_id":440,"player_count":3,"max_players":24,"Bots":0,"server_type":"Dedicated","server_os":"Linux","password":true,"vac":true,"version":"7882260","steam_id":85568392924504277,"keywords":["cp","nocrits","nodmgspread","uncletopia"],"game_id":440,"stv_port":27056,"stv_name":"Uncletopia | Frankfurt | 5 | All Maps | STV","players":[{"user_id":6,"name":"Andy","steam_id":76561198136364381,"connected_time":575000000000,"state":"active","ping":68},{"user_id":7,"name":"Dor_atar","steam_id":76561198973980542,"connected_time":538000000000,"state":"active","ping":69},{"user_id":9,"name":"Andrei12264","steam_id":76561199123066659,"connected_time":80000000000,"state":"active","ping":85}]},{"server_id":311,"name":"Uncletopia | Frankfurt | 6 | All Maps","name_short":"frk-6","host":"frk-1.de.uncletopia.com","port":27065,"enabled":true,"region":"eu","cc":"de","latitude":50.110924,"longitude":8.682127,"reserved":0,"last_update":"0001-01-01T00:00:00Z","name_a2s":"Uncletopia | Frankfurt | 6 | All Maps","protocol":17,"map":"cp_sunshine","folder":"tf","game":"Team Fortress","app_id":440,"player_count":0,"max_players":24,"Bots":0,"server_type":"Dedicated","server_os":"Linux","password":true,"vac":true,"version":"7882260","steam_id":85568392924504278,"keywords":["cp","nocrits","nodmgspread","uncletopia"],"game_id":440,"stv_port":27066,"stv_name":"Uncletopia | Frankfurt | 6 | All Maps | STV","players":null},{"server_id":23,"name":"Uncletopia | Frankfurt | 7 | Stopwatch Beta","name_short":"frk-7","host":"frk-1.de.uncletopia.com","port":27075,"enabled":true,"region":"eu","cc":"de","latitude":50.110924,"longitude":8.682127,"reserved":0,"last_update":"0001-01-01T00:00:00Z","name_a2s":"Uncletopia | Frankfurt | 7 | Stopwatch Beta","protocol":17,"map":"workshop/pl_summercoast_rc8e.ugc1761528829","folder":"tf","game":"Team Fortress","app_id":440,"player_count":0,"max_players":24,"Bots":0,"server_type":"Dedicated","server_os":"Linux","password":true,"vac":true,"version":"7882260","steam_id":85568392924742827,"keywords":["nocrits","nodmgspread","payload","uncletopia"],"game_id":440,"stv_port":27076,"stv_name":"Uncletopia | Frankfurt | 7 | Stopwatch Beta | STV","players":null},{"server_id":24,"name":"Uncletopia | Frankfurt | 8 | Community","name_short":"frk-8","host":"frk-1.de.uncletopia.com","port":27085,"enabled":true,"region":"eu","cc":"de","latitude":50.110924,"longitude":8.682127,"reserved":0,"last_update":"0001-01-01T00:00:00Z","name_a2s":"Uncletopia | Frankfurt | 8 | Community","protocol":17,"map":"koth_cascade","folder":"tf","game":"Team Fortress","app_id":440,"player_count":0,"max_players":24,"Bots":0,"server_type":"Dedicated","server_os":"Linux","password":true,"vac":true,"version":"7882260","steam_id":85568392924742828,"keywords":["cp","nocrits","nodmgspread","uncletopia"],"game_id":440,"stv_port":27086,"stv_name":"Uncletopia | Frankfurt | 8 | Community | STV","players":null},{"server_id":202,"name":"Uncletopia | Hong Kong | 1 | All Maps","name_short":"hgk-1","host":"hgk-1.hk.uncletopia.com","port":27015,"enabled":true,"region":"asia","cc":"hk","latitude":22.302711,"longitude":114.177216,"reserved":0,"last_update":"0001-01-01T00:00:00Z","name_a2s":"Uncletopia | Hong Kong | 1 | All Maps","protocol":17,"map":"cp_dustbowl","folder":"tf","game":"Team Fortress","app_id":440,"player_count":24,"max_players":24,"Bots":0,"server_type":"Dedicated","server_os":"Linux","password":true,"vac":true,"version":"7882260","steam_id":85568392924494504,"keywords":["cp","nocrits","nodmgspread","uncletopia"],"game_id":440,"stv_port":27016,"stv_name":"Uncletopia | Hong Kong | 1 | All Maps | STV","players":[{"user_id":95,"name":"帕","steam_id":76561198439343999,"connected_time":10612000000000,"state":"spawning","ping":183},{"user_id":205,"name":"Samoyed","steam_id":76561198299150410,"connected_time":4890000000000,"state":"spawning","ping":223},{"user_id":237,"name":"instant karma","steam_id":76561198027307933,"connected_time":890000000000,"state":"spawning","ping":93},{"user_id":124,"name":"monke mode","steam_id":76561198992723983,"connected_time":8133000000000,"state":"spawning","ping":166},{"user_id":228,"name":"cstr","steam_id":76561198125946388,"connected_time":2582000000000,"state":"spawning","ping":167},{"user_id":231,"name":"P","steam_id":76561198304514505,"connected_time":1797000000000,"state":"spawning","ping":164},{"user_id":223,"name":"Pangolin","steam_id":76561198318126190,"connected_time":3243000000000,"state":"spawning","ping":181},{"user_id":85,"name":"bodacious bogey","steam_id":76561198055553140,"connected_time":12282000000000,"state":"spawning","ping":137},{"user_id":185,"name":"clori","steam_id":76561199146847474,"connected_time":6161000000000,"state":"spawning","ping":104},{"user_id":218,"name":"sierra","steam_id":76561197969873415,"connected_time":3663000000000,"state":"spawning","ping":175},{"user_id":241,"name":"Telekhine","steam_id":76561198387120618,"connected_time":7000000000,"state":"spawning","ping":209},{"user_id":219,"name":"MySejahtera","steam_id":76561198331763015,"connected_time":3286000000000,"state":"spawning","ping":157},{"user_id":234,"name":"Commando Violet(bd incoming)","steam_id":76561199220958694,"connected_time":1548000000000,"state":"spawning","ping":130},{"user_id":238,"name":"you know hwo i am","steam_id":76561198239125304,"connected_time":752000000000,"state":"spawning","ping":168},{"user_id":236,"name":"Stan","steam_id":76561198065671595,"connected_time":983000000000,"state":"spawning","ping":103},{"user_id":239,"name":"Noyour","steam_id":76561198323259830,"connected_time":496000000000,"state":"spawning","ping":215},{"user_id":240,"name":"Uber S S R","steam_id":76561198073752902,"connected_time":19000000000,"state":"connecting","ping":80},{"user_id":202,"name":"WhereAmai","steam_id":76561199122491157,"connected_time":5108000000000,"state":"spawning","ping":175},{"user_id":214,"name":"7853","steam_id":76561199390507975,"connected_time":4165000000000,"state":"spawning","ping":94},{"user_id":216,"name":"Momoxhien","steam_id":76561198414997429,"connected_time":4137000000000,"state":"spawning","ping":139},{"user_id":232,"name":"killman47","steam_id":76561198348487408,"connected_time":1794000000000,"state":"spawning","ping":84},{"user_id":118,"name":"母の肉団子@hao123.com","steam_id":76561198069561896,"connected_time":8648000000000,"state":"spawning","ping":91},{"user_id":233,"name":"NootNoot","steam_id":76561199122109977,"connected_time":1793000000000,"state":"spawning","ping":195},{"user_id":182,"name":"screaming sniper","steam_id":76561199085568674,"connected_time":6186000000000,"state":"spawning","ping":158}]},{"server_id":1,"name":"Uncletopia | Los Angeles | 1 | All Maps","name_short":"lax-1","host":"lax-1.us.uncletopia.com","port":27015,"enabled":true,"region":"us-west","cc":"us","latitude":33.94279,"longitude":-118.41004,"reserved":0,"last_update":"0001-01-01T00:00:00Z","name_a2s":"Uncletopia | Los Angeles | 1 | All Maps","protocol":17,"map":"cp_process_final","folder":"tf","game":"Team Fortress","app_id":440,"player_count":2,"max_players":24,"Bots":0,"server_type":"Dedicated","server_os":"Linux","password":true,"vac":true,"version":"7882260","steam_id":85568392924469991,"keywords":["cp","nocrits","nodmgspread","uncletopia"],"game_id":440,"stv_port":27016,"stv_name":"Uncletopia | Los Angeles | 1 | All Maps | STV","players":[{"user_id":655,"name":"BiggerBob","steam_id":76561199206401394,"connected_time":781000000000,"state":"active","ping":241},{"user_id":652,"name":"Hero Smasher","steam_id":76561198150681669,"connected_time":2607000000000,"state":"active","ping":145}]},{"server_id":112,"name":"Uncletopia | Los Angeles | 2 | All Maps","name_short":"lax-2","host":"lax-1.us.uncletopia.com","port":27025,"enabled":true,"region":"us-west","cc":"us","latitude":33.94279,"longitude":-118.41004,"reserved":0,"last_update":"0001-01-01T00:00:00Z","name_a2s":"Uncletopia | Los Angeles | 2 | All Maps","protocol":17,"map":"koth_viaduct","folder":"tf","game":"Team Fortress","app_id":440,"player_count":19,"max_players":24,"Bots":0,"server_type":"Dedicated","server_os":"Linux","password":true,"vac":true,"version":"7882260","steam_id":85568392924469992,"keywords":["cp","nocrits","nodmgspread","uncletopia"],"game_id":440,"stv_port":27026,"stv_name":"Uncletopia | Los Angeles | 2 | All Maps | STV","players":[{"user_id":478,"name":"rimble","steam_id":76561198150137369,"connected_time":643000000000,"state":"active","ping":68},{"user_id":440,"name":"Femboy Foxy","steam_id":76561199179166383,"connected_time":3293000000000,"state":"active","ping":73},{"user_id":479,"name":"Mr. Positive","steam_id":76561198147725777,"connected_time":534000000000,"state":"active","ping":68},{"user_id":462,"name":"your jordans are FAKE!!!!!!","steam_id":76561198143132686,"connected_time":1621000000000,"state":"active","ping":80},{"user_id":481,"name":"Trips","steam_id":76561198054581597,"connected_time":169000000000,"state":"active","ping":50},{"user_id":466,"name":"yungSoul","steam_id":76561198121831068,"connected_time":1356000000000,"state":"active","ping":62},{"user_id":470,"name":"BlitzB@t","steam_id":76561198299318000,"connected_time":971000000000,"state":"active","ping":75},{"user_id":480,"name":"vaznes","steam_id":76561198114603745,"connected_time":407000000000,"state":"active","ping":53},{"user_id":463,"name":"luigineer tf2 (real)","steam_id":76561198864531992,"connected_time":1607000000000,"state":"active","ping":69},{"user_id":444,"name":"Jeffery","steam_id":76561199226711716,"connected_time":3220000000000,"state":"active","ping":45},{"user_id":388,"name":"Stoofy","steam_id":76561198280750328,"connected_time":7867000000000,"state":"active","ping":87},{"user_id":482,"name":"Dom-nya","steam_id":76561198077443729,"connected_time":99000000000,"state":"active","ping":59},{"user_id":423,"name":"johnny karate","steam_id":76561198165847261,"connected_time":5308000000000,"state":"active","ping":76},{"user_id":483,"name":"inmortalake091","steam_id":76561198195912558,"connected_time":56000000000,"state":"active","ping":109},{"user_id":448,"name":"Gruntic","steam_id":76561198170396647,"connected_time":3045000000000,"state":"active","ping":52},{"user_id":455,"name":"murph","steam_id":76561197973805634,"connected_time":2034000000000,"state":"active","ping":63},{"user_id":457,"name":"souljaboytellem.com","steam_id":76561198095824426,"connected_time":2000000000000,"state":"active","ping":85},{"user_id":472,"name":"d4ngerd4n","steam_id":76561198043758735,"connected_time":903000000000,"state":"active","ping":61},{"user_id":460,"name":"KyePerson","steam_id":76561198145597212,"connected_time":1872000000000,"state":"active","ping":52}]},{"server_id":324,"name":"Uncletopia | Los Angeles | 3 | All Maps","name_short":"lax-3","host":"lax-1.us.uncletopia.com","port":27035,"enabled":true,"region":"us-west","cc":"us","latitude":33.94279,"longitude":-118.41004,"reserved":0,"last_update":"0001-01-01T00:00:00Z","name_a2s":"Uncletopia | Los Angeles | 3 | All Maps","protocol":17,"map":"plr_hightower","folder":"tf","game":"Team Fortress","app_id":440,"player_count":0,"max_players":24,"Bots":0,"server_type":"Dedicated","server_os":"Linux","password":true,"vac":true,"version":"7882260","steam_id":85568392924510198,"keywords":["nocrits","nodmgspread","payload","uncletopia"],"game_id":440,"stv_port":27036,"stv_name":"Uncletopia | Los Angeles | 3 | All Maps | STV","players":null},{"server_id":25,"name":"Uncletopia | Los Angeles | 4 | Stopwatch Beta","name_short":"lax-4","host":"lax-1.us.uncletopia.com","port":27045,"enabled":true,"region":"us-west","cc":"us","latitude":33.94279,"longitude":-118.41004,"reserved":0,"last_update":"0001-01-01T00:00:00Z","name_a2s":"Uncletopia | Los Angeles | 4 | Stopwatch Beta","protocol":17,"map":"koth_lakeside_final","folder":"tf","game":"Team Fortress","app_id":440,"player_count":0,"max_players":24,"Bots":0,"server_type":"Dedicated","server_os":"Linux","password":true,"vac":true,"version":"7882260","steam_id":85568392924510199,"keywords":["cp","nocrits","nodmgspread","uncletopia"],"game_id":440,"stv_port":27046,"stv_name":"Uncletopia | Los Angeles | 4 | Stopwatch Beta | STV","players":null},{"server_id":11,"name":"Uncletopia | London | 1 | All Maps","name_short":"lon-1","host":"lon-1.uk.uncletopia.com","port":27015,"enabled":true,"region":"eu","cc":"gb","latitude":51.509865,"longitude":-0.118092,"reserved":0,"last_update":"0001-01-01T00:00:00Z","name_a2s":"Uncletopia | London | 1 | All Maps","protocol":17,"map":"pl_snowycoast","folder":"tf","game":"Team Fortress","app_id":440,"player_count":0,"max_players":24,"Bots":0,"server_type":"Dedicated","server_os":"Linux","password":true,"vac":true,"version":"7882260","steam_id":85568392924367362,"keywords":["nocrits","nodmgspread","payload","uncletopia"],"game_id":440,"stv_port":27016,"stv_name":"Uncletopia | London | 1 | All Maps | STV","players":null},{"server_id":114,"name":"Uncletopia | London | 2 | All Maps","name_short":"lon-2","host":"lon-1.uk.uncletopia.com","port":27025,"enabled":true,"region":"eu","cc":"gb","latitude":51.509865,"longitude":-0.118092,"reserved":0,"last_update":"0001-01-01T00:00:00Z","name_a2s":"Uncletopia | London | 2 | All Maps","protocol":17,"map":"pl_upward","folder":"tf","game":"Team Fortress","app_id":440,"player_count":24,"max_players":24,"Bots":0,"server_type":"Dedicated","server_os":"Linux","password":true,"vac":true,"version":"7882260","steam_id":85568392924470941,"keywords":["nocrits","nodmgspread","payload","uncletopia"],"game_id":440,"stv_port":27026,"stv_name":"Uncletopia | London | 2 | All Maps | STV","players":[{"user_id":232,"name":"nappo","steam_id":76561198060105180,"connected_time":343000000000,"state":"active","ping":61},{"user_id":224,"name":"zebulon","steam_id":76561198384683504,"connected_time":981000000000,"state":"active","ping":60},{"user_id":205,"name":"Dio","steam_id":76561198117685434,"connected_time":2651000000000,"state":"active","ping":90},{"user_id":129,"name":"hipster_doofus","steam_id":76561197970902697,"connected_time":8655000000000,"state":"active","ping":58},{"user_id":161,"name":"dotdotdot","steam_id":76561198057628751,"connected_time":5948000000000,"state":"active","ping":64},{"user_id":225,"name":"Artificial.Ignorance","steam_id":76561198453090180,"connected_time":953000000000,"state":"active","ping":190},{"user_id":223,"name":"RECON440","steam_id":76561197969405707,"connected_time":1132000000000,"state":"active","ping":183},{"user_id":229,"name":"addicted","steam_id":76561199129801006,"connected_time":412000000000,"state":"active","ping":60},{"user_id":233,"name":"omony","steam_id":76561197983750025,"connected_time":299000000000,"state":"active","ping":89},{"user_id":226,"name":"dafydd","steam_id":76561198052200325,"connected_time":925000000000,"state":"active","ping":89},{"user_id":192,"name":"Panique","steam_id":76561197993239675,"connected_time":3986000000000,"state":"active","ping":55},{"user_id":207,"name":"Cotton Eye Joe","steam_id":76561198080594207,"connected_time":2625000000000,"state":"active","ping":54},{"user_id":183,"name":"axl#pizdaaim","steam_id":76561198991661832,"connected_time":4437000000000,"state":"active","ping":106},{"user_id":204,"name":"Rin-Nakaret","steam_id":76561197971051188,"connected_time":2879000000000,"state":"active","ping":66},{"user_id":178,"name":"syzy2","steam_id":76561198010854110,"connected_time":4699000000000,"state":"active","ping":60},{"user_id":219,"name":"Mr.MadPigeon #savetf2","steam_id":76561199234267217,"connected_time":1350000000000,"state":"active","ping":77},{"user_id":222,"name":"Deacon Dracul","steam_id":76561198046880663,"connected_time":1215000000000,"state":"active","ping":92},{"user_id":220,"name":"Intruder","steam_id":76561198156128173,"connected_time":1335000000000,"state":"active","ping":71},{"user_id":208,"name":"Ash","steam_id":76561198148738525,"connected_time":2589000000000,"state":"active","ping":108},{"user_id":212,"name":"I have aids","steam_id":76561198860347851,"connected_time":1997000000000,"state":"active","ping":114},{"user_id":221,"name":"Egor Pomidor","steam_id":76561199175688390,"connected_time":1321000000000,"state":"active","ping":90},{"user_id":154,"name":"revolver CHEH","steam_id":76561198851411530,"connected_time":7169000000000,"state":"active","ping":49},{"user_id":194,"name":"No | S | uS","steam_id":76561199195727551,"connected_time":3946000000000,"state":"active","ping":53},{"user_id":230,"name":"Mr_Pulse_","steam_id":76561198095001602,"connected_time":400000000000,"state":"active","ping":105}]},{"server_id":320,"name":"Uncletopia | London | 3 | All Maps","name_short":"lon-3","host":"lon-1.uk.uncletopia.com","port":27035,"enabled":true,"region":"eu","cc":"gb","latitude":51.509865,"longitude":-0.118092,"reserved":0,"last_update":"0001-01-01T00:00:00Z","name_a2s":"Uncletopia | London | 3 | All Maps","protocol":17,"map":"koth_highpass","folder":"tf","game":"Team Fortress","app_id":440,"player_count":0,"max_players":24,"Bots":0,"server_type":"Dedicated","server_os":"Linux","password":true,"vac":true,"version":"7882260","steam_id":85568392924510192,"keywords":["cp","nocrits","nodmgspread","uncletopia"],"game_id":440,"stv_port":27036,"stv_name":"Uncletopia | London | 3 | All Maps | STV","players":null},{"server_id":321,"name":"Uncletopia | London | 4 | All Maps","name_short":"lon-4","host":"lon-1.uk.uncletopia.com","port":27045,"enabled":true,"region":"eu","cc":"gb","latitude":51.509865,"longitude":-0.118092,"reserved":0,"last_update":"0001-01-01T00:00:00Z","name_a2s":"Uncletopia | London | 4 | All Maps","protocol":17,"map":"pl_upward","folder":"tf","game":"Team Fortress","app_id":440,"player_count":0,"max_players":24,"Bots":0,"server_type":"Dedicated","server_os":"Linux","password":true,"vac":true,"version":"7882260","steam_id":85568392924510193,"keywords":["nocrits","nodmgspread","payload","uncletopia"],"game_id":440,"stv_port":27046,"stv_name":"Uncletopia | London | 4 | All Maps | STV","players":null},{"server_id":21,"name":"Uncletopia | London | 5 | All Maps","name_short":"lon-5","host":"lon-1.uk.uncletopia.com","port":27055,"enabled":true,"region":"eu","cc":"gb","latitude":51.509865,"longitude":-0.118092,"reserved":0,"last_update":"0001-01-01T00:00:00Z","name_a2s":"Uncletopia | London | 5 | All Maps","protocol":17,"map":"pl_borneo","folder":"tf","game":"Team Fortress","app_id":440,"player_count":24,"max_players":24,"Bots":0,"server_type":"Dedicated","server_os":"Linux","password":true,"vac":true,"version":"7882260","steam_id":85568392924742829,"keywords":["nocrits","nodmgspread","payload","uncletopia"],"game_id":440,"stv_port":27056,"stv_name":"Uncletopia | London | 5 | All Maps | STV","players":[{"user_id":4,"name":"daniel.novikov","steam_id":76561199172189811,"connected_time":4523000000000,"state":"active","ping":128},{"user_id":49,"name":"Thors","steam_id":76561197968739075,"connected_time":1285000000000,"state":"active","ping":44},{"user_id":59,"name":"hunte","steam_id":76561198063483484,"connected_time":701000000000,"state":"active","ping":77},{"user_id":9,"name":"Mr. Shadow | Folfie","steam_id":76561198037028507,"connected_time":3690000000000,"state":"active","ping":68},{"user_id":50,"name":"Charmedelf","steam_id":76561197993611881,"connected_time":1266000000000,"state":"active","ping":60},{"user_id":21,"name":"Jirro","steam_id":76561198193581143,"connected_time":2676000000000,"state":"active","ping":83},{"user_id":47,"name":"ᘛ⁐̤ᕐᐷ lunaire","steam_id":76561198163344452,"connected_time":1547000000000,"state":"active","ping":92},{"user_id":61,"name":"Alice can't hit pipes","steam_id":76561198052410860,"connected_time":483000000000,"state":"active","ping":144},{"user_id":64,"name":"Luckane","steam_id":76561198009695107,"connected_time":411000000000,"state":"active","ping":54},{"user_id":60,"name":"Pacanaz","steam_id":76561198011514552,"connected_time":521000000000,"state":"active","ping":80},{"user_id":62,"name":"night.s","steam_id":76561198326287823,"connected_time":446000000000,"state":"active","ping":79},{"user_id":57,"name":"soup","steam_id":76561198386933065,"connected_time":889000000000,"state":"active","ping":71},{"user_id":25,"name":"gneeda","steam_id":76561198147249160,"connected_time":2484000000000,"state":"active","ping":105},{"user_id":48,"name":"WATANG!","steam_id":76561198040478926,"connected_time":1424000000000,"state":"active","ping":76},{"user_id":68,"name":"Deadbeef","steam_id":76561198061532124,"connected_time":223000000000,"state":"active","ping":27},{"user_id":54,"name":"szewczenko","steam_id":76561198938098190,"connected_time":1146000000000,"state":"active","ping":81},{"user_id":63,"name":"jaime8D","steam_id":76561197980590671,"connected_time":442000000000,"state":"active","ping":82},{"user_id":65,"name":"Kvadrat","steam_id":76561198022834916,"connected_time":405000000000,"state":"active","ping":119},{"user_id":36,"name":"Floris Kakadoris","steam_id":76561198258458741,"connected_time":2045000000000,"state":"active","ping":63},{"user_id":69,"name":"fmdi","steam_id":76561199433879329,"connected_time":177000000000,"state":"active","ping":75},{"user_id":55,"name":"aphextwinsucks","steam_id":76561198132185926,"connected_time":1119000000000,"state":"active","ping":67},{"user_id":44,"name":"Moohsem","steam_id":76561198172198154,"connected_time":1736000000000,"state":"active","ping":131},{"user_id":67,"name":"aGryphoN","steam_id":76561198245175308,"connected_time":304000000000,"state":"active","ping":60},{"user_id":46,"name":"Nyhde","steam_id":76561198012771416,"connected_time":1697000000000,"state":"active","ping":102}]},{"server_id":22,"name":"Uncletopia | London | 6 | All Maps","name_short":"lon-6","host":"lon-1.uk.uncletopia.com","port":27065,"enabled":true,"region":"eu","cc":"gb","latitude":51.509865,"longitude":-0.118092,"reserved":0,"last_update":"0001-01-01T00:00:00Z","name_a2s":"Uncletopia | London | 6 | All Maps","protocol":17,"map":"pl_barnblitz","folder":"tf","game":"Team Fortress","app_id":440,"player_count":24,"max_players":24,"Bots":0,"server_type":"Dedicated","server_os":"Linux","password":true,"vac":true,"version":"7882260","steam_id":85568392924742830,"keywords":["nocrits","nodmgspread","payload","uncletopia"],"game_id":440,"stv_port":27066,"stv_name":"Uncletopia | London | 6 | All Maps | STV","players":[{"user_id":102,"name":"Alegz","steam_id":76561198287810139,"connected_time":96000000000,"state":"active","ping":85},{"user_id":80,"name":"SuspiciouslySlowScout","steam_id":76561199400852038,"connected_time":1605000000000,"state":"active","ping":106},{"user_id":82,"name":"LOBZIK","steam_id":76561198114830120,"connected_time":1489000000000,"state":"active","ping":81},{"user_id":41,"name":"☞LaZe☜","steam_id":76561198202191400,"connected_time":4447000000000,"state":"active","ping":46},{"user_id":62,"name":"nutlube","steam_id":76561198128831131,"connected_time":3113000000000,"state":"active","ping":61},{"user_id":83,"name":"Stuid","steam_id":76561199427506542,"connected_time":1419000000000,"state":"active","ping":85},{"user_id":50,"name":"Sylvanas","steam_id":76561198154904165,"connected_time":3649000000000,"state":"active","ping":105},{"user_id":93,"name":"Jimmy","steam_id":76561198133680783,"connected_time":635000000000,"state":"active","ping":77},{"user_id":96,"name":"TrollFace","steam_id":76561198799317717,"connected_time":451000000000,"state":"active","ping":118},{"user_id":69,"name":"Pucho","steam_id":76561198134617262,"connected_time":2587000000000,"state":"active","ping":51},{"user_id":91,"name":"hichem","steam_id":76561198056197307,"connected_time":907000000000,"state":"active","ping":59},{"user_id":101,"name":"I I","steam_id":76561199101935057,"connected_time":141000000000,"state":"active","ping":104},{"user_id":86,"name":"The Daniella","steam_id":76561198023075547,"connected_time":1260000000000,"state":"active","ping":61},{"user_id":79,"name":"Django","steam_id":76561198090143282,"connected_time":1737000000000,"state":"active","ping":75},{"user_id":32,"name":"Enigmus","steam_id":76561197994063627,"connected_time":4830000000000,"state":"active","ping":103},{"user_id":94,"name":"kornetov.vitalya","steam_id":76561199286034833,"connected_time":620000000000,"state":"active","ping":107},{"user_id":67,"name":"ijustsmokeandcry","steam_id":76561198044189114,"connected_time":2691000000000,"state":"active","ping":74},{"user_id":95,"name":"dishsoap","steam_id":76561198849284832,"connected_time":502000000000,"state":"active","ping":69},{"user_id":89,"name":"Dzan50","steam_id":76561198059758591,"connected_time":1227000000000,"state":"active","ping":96},{"user_id":42,"name":"Nonhuman","steam_id":76561198062002340,"connected_time":4393000000000,"state":"active","ping":91},{"user_id":88,"name":"Ates164","steam_id":76561199123074978,"connected_time":1243000000000,"state":"active","ping":67},{"user_id":97,"name":"Jonkheervanflep","steam_id":76561198006853101,"connected_time":426000000000,"state":"active","ping":80},{"user_id":98,"name":"spxcy","steam_id":76561198080296853,"connected_time":371000000000,"state":"active","ping":119},{"user_id":99,"name":"Canis[Magnus]Pectus","steam_id":76561198363775072,"connected_time":186000000000,"state":"active","ping":132}]},{"server_id":40,"name":"Uncletopia | London | 7 | No Payload","name_short":"lon-7","host":"lon-1.uk.uncletopia.com","port":27075,"enabled":true,"region":"eu","cc":"gb","latitude":51.509865,"longitude":-0.118092,"reserved":0,"last_update":"0001-01-01T00:00:00Z","name_a2s":"Uncletopia | London | 7 | No Payload","protocol":17,"map":"cp_mercenarypark","folder":"tf","game":"Team Fortress","app_id":440,"player_count":6,"max_players":24,"Bots":0,"server_type":"Dedicated","server_os":"Linux","password":true,"vac":true,"version":"7882260","steam_id":85568392924964314,"keywords":["cp","nocrits","nodmgspread","uncletopia"],"game_id":440,"stv_port":27076,"stv_name":"Uncletopia | London | 7 | No Payload | STV","players":[{"user_id":3,"name":"Razorback from Team Fortress 2","steam_id":76561199214163032,"connected_time":462000000000,"state":"active","ping":99},{"user_id":6,"name":"fried","steam_id":76561198307522022,"connected_time":140000000000,"state":"active","ping":71},{"user_id":9,"name":"Fus in Boots","steam_id":76561198053897722,"connected_time":94000000000,"state":"active","ping":53},{"user_id":7,"name":"Mandele","steam_id":76561199183213205,"connected_time":133000000000,"state":"active","ping":95},{"user_id":8,"name":"Gordon","steam_id":76561198303652059,"connected_time":113000000000,"state":"active","ping":106},{"user_id":10,"name":"SupMan","steam_id":76561199044123799,"connected_time":28000000000,"state":"active","ping":83}]},{"server_id":41,"name":"Uncletopia | London | 8 | Community","name_short":"lon-8","host":"lon-1.uk.uncletopia.com","port":27085,"enabled":true,"region":"eu","cc":"gb","latitude":51.509865,"longitude":-0.118092,"reserved":0,"last_update":"0001-01-01T00:00:00Z","name_a2s":"Uncletopia | London | 8 | Community","protocol":17,"map":"pl_swiftwater_final1","folder":"tf","game":"Team Fortress","app_id":440,"player_count":0,"max_players":24,"Bots":0,"server_type":"Dedicated","server_os":"Linux","password":true,"vac":true,"version":"7882260","steam_id":85568392924964315,"keywords":["nocrits","nodmgspread","payload","uncletopia"],"game_id":440,"stv_port":27086,"stv_name":"Uncletopia | London | 8 | Community | STV","players":null},{"server_id":300,"name":"Uncletopia | Montréal | 1 | All Maps","name_short":"mtl-1","host":"mtl-1.ca.uncletopia.com","port":27015,"enabled":true,"region":"us-east","cc":"ca","latitude":45.50889,"longitude":-73.56167,"reserved":0,"last_update":"0001-01-01T00:00:00Z","name_a2s":"Uncletopia | Montréal | 1 | All Maps","protocol":17,"map":"cp_dustbowl","folder":"tf","game":"Team Fortress","app_id":440,"player_count":0,"max_players":24,"Bots":0,"server_type":"Dedicated","server_os":"Linux","password":true,"vac":true,"version":"7882260","steam_id":85568392924500087,"keywords":["cp","nocrits","nodmgspread","uncletopia"],"game_id":440,"stv_port":27016,"stv_name":"Uncletopia | Montréal | 1 | All Maps | STV","players":null},{"server_id":301,"name":"Uncletopia | Montréal | 2 | All Maps","name_short":"mtl-2","host":"mtl-1.ca.uncletopia.com","port":27025,"enabled":true,"region":"us-east","cc":"ca","latitude":45.50889,"longitude":-73.56167,"reserved":0,"last_update":"0001-01-01T00:00:00Z","name_a2s":"Uncletopia | Montréal | 2 | All Maps","protocol":17,"map":"cp_process_final","folder":"tf","game":"Team Fortress","app_id":440,"player_count":0,"max_players":24,"Bots":0,"server_type":"Dedicated","server_os":"Linux","password":true,"vac":true,"version":"7882260","steam_id":85568392924500088,"keywords":["cp","nocrits","nodmgspread","uncletopia"],"game_id":440,"stv_port":27026,"stv_name":"Uncletopia | Montréal | 2 | All Maps | STV","players":null},{"server_id":302,"name":"Uncletopia | Montréal | 3 | All Maps","name_short":"mtl-3","host":"mtl-1.ca.uncletopia.com","port":27035,"enabled":true,"region":"us-east","cc":"ca","latitude":45.50889,"longitude":-73.56167,"reserved":0,"last_update":"0001-01-01T00:00:00Z","name_a2s":"Uncletopia | Montréal | 3 | All Maps","protocol":17,"map":"koth_viaduct","folder":"tf","game":"Team Fortress","app_id":440,"player_count":0,"max_players":24,"Bots":0,"server_type":"Dedicated","server_os":"Linux","password":true,"vac":true,"version":"7882260","steam_id":85568392924500089,"keywords":["cp","nocrits","nodmgspread","uncletopia"],"game_id":440,"stv_port":27036,"stv_name":"Uncletopia | Montréal | 3 | All Maps | STV","players":null},{"server_id":303,"name":"Uncletopia | Montréal | 4 | No Payload","name_short":"mtl-4","host":"mtl-1.ca.uncletopia.com","port":27045,"enabled":true,"region":"us-east","cc":"ca","latitude":45.50889,"longitude":-73.56167,"reserved":0,"last_update":"0001-01-01T00:00:00Z","name_a2s":"Uncletopia | Montréal | 4 | No Payload","protocol":17,"map":"ctf_doublecross","folder":"tf","game":"Team Fortress","app_id":440,"player_count":0,"max_players":24,"Bots":0,"server_type":"Dedicated","server_os":"Linux","password":true,"vac":true,"version":"7882260","steam_id":85568392924500090,"keywords":["ctf","nocrits","nodmgspread","uncletopia"],"game_id":440,"stv_port":27046,"stv_name":"Uncletopia | Montréal | 4 | No Payload | STV","players":null},{"server_id":13,"name":"Uncletopia | New York City | 1 | All Maps","name_short":"nyc-1","host":"nyc-1.us.uncletopia.com","port":27015,"enabled":true,"region":"us-east","cc":"us","latitude":40.73061,"longitude":-73.93524,"reserved":0,"last_update":"0001-01-01T00:00:00Z","name_a2s":"Uncletopia | New York City | 1 | All Maps","protocol":17,"map":"pl_barnblitz","folder":"tf","game":"Team Fortress","app_id":440,"player_count":0,"max_players":24,"Bots":0,"server_type":"Dedicated","server_os":"Linux","password":true,"vac":true,"version":"7882260","steam_id":85568392924469993,"keywords":["nocrits","nodmgspread","payload","uncletopia"],"game_id":440,"stv_port":27016,"stv_name":"Uncletopia | New York City | 1 | All Maps | STV","players":null},{"server_id":14,"name":"Uncletopia | New York City | 2 | All Maps","name_short":"nyc-2","host":"nyc-1.us.uncletopia.com","port":27025,"enabled":true,"region":"us-east","cc":"us","latitude":40.73061,"longitude":-73.93524,"reserved":0,"last_update":"0001-01-01T00:00:00Z","name_a2s":"Uncletopia | New York City | 2 | All Maps","protocol":17,"map":"pl_frontier_final","folder":"tf","game":"Team Fortress","app_id":440,"player_count":0,"max_players":24,"Bots":0,"server_type":"Dedicated","server_os":"Linux","password":true,"vac":true,"version":"7882260","steam_id":85568392924469994,"keywords":["nocrits","nodmgspread","payload","uncletopia"],"game_id":440,"stv_port":27026,"stv_name":"Uncletopia | New York City | 2 | All Maps | STV","players":null},{"server_id":15,"name":"Uncletopia | New York City | 3 | Stopwatch Beta","name_short":"nyc-3","host":"nyc-1.us.uncletopia.com","port":27035,"enabled":true,"region":"us-east","cc":"us","latitude":40.73061,"longitude":-73.93524,"reserved":0,"last_update":"0001-01-01T00:00:00Z","name_a2s":"Uncletopia | New York City | 3 | Stopwatch Beta","protocol":17,"map":"pl_borneo","folder":"tf","game":"Team Fortress","app_id":440,"player_count":0,"max_players":24,"Bots":0,"server_type":"Dedicated","server_os":"Linux","password":true,"vac":true,"version":"7882260","steam_id":85568392924742820,"keywords":["nocrits","nodmgspread","payload","uncletopia"],"game_id":440,"stv_port":27036,"stv_name":"Uncletopia | New York City | 3 | Stopwatch Beta | STV","players":null},{"server_id":16,"name":"Uncletopia | New York City | 4 | Community","name_short":"nyc-4","host":"nyc-1.us.uncletopia.com","port":27045,"enabled":true,"region":"us-east","cc":"us","latitude":40.73061,"longitude":-73.93524,"reserved":0,"last_update":"0001-01-01T00:00:00Z","name_a2s":"Uncletopia | New York City | 4 | Community","protocol":17,"map":"pl_badwater","folder":"tf","game":"Team Fortress","app_id":440,"player_count":0,"max_players":24,"Bots":0,"server_type":"Dedicated","server_os":"Linux","password":true,"vac":true,"version":"7882260","steam_id":85568392924742821,"keywords":["nocrits","nodmgspread","payload","uncletopia"],"game_id":440,"stv_port":27046,"stv_name":"Uncletopia | New York City | 4 | Community | STV","players":null},{"server_id":142,"name":"Uncletopia | São Paulo | 1 | All Maps","name_short":"sao-1","host":"sao-1.br.uncletopia.com","port":27015,"enabled":true,"region":"sa","cc":"br","latitude":-23.533773,"longitude":-46.62529,"reserved":0,"last_update":"0001-01-01T00:00:00Z","name_a2s":"Uncletopia | São Paulo | 1 | All Maps","protocol":17,"map":"cp_process_final","folder":"tf","game":"Team Fortress","app_id":440,"player_count":0,"max_players":24,"Bots":0,"server_type":"Dedicated","server_os":"Linux","password":true,"vac":true,"version":"7882260","steam_id":85568392924469996,"keywords":["cp","nocrits","nodmgspread","uncletopia"],"game_id":440,"stv_port":27016,"stv_name":"Uncletopia | São Paulo | 1 | All Maps | STV","players":null},{"server_id":143,"name":"Uncletopia | São Paulo | 2 | All Maps","name_short":"sao-2","host":"sao-2.br.uncletopia.com","port":27015,"enabled":true,"region":"sa","cc":"br","latitude":-23.533773,"longitude":-46.62529,"reserved":0,"last_update":"0001-01-01T00:00:00Z","name_a2s":"Uncletopia | São Paulo | 2 | All Maps","protocol":17,"map":"pl_pier","folder":"tf","game":"Team Fortress","app_id":440,"player_count":3,"max_players":24,"Bots":0,"server_type":"Dedicated","server_os":"Linux","password":true,"vac":true,"version":"7882260","steam_id":85568392924485349,"keywords":["nocrits","nodmgspread","payload","uncletopia"],"game_id":440,"stv_port":27016,"stv_name":"Uncletopia | São Paulo | 2 | All Maps | STV","players":[{"user_id":6,"name":"icywally","steam_id":76561198341704558,"connected_time":871000000000,"state":"active","ping":323},{"user_id":4,"name":"demson","steam_id":76561199087663959,"connected_time":942000000000,"state":"active","ping":57},{"user_id":5,"name":"Seroker","steam_id":76561198268138058,"connected_time":932000000000,"state":"active","ping":305}]},{"server_id":7,"name":"Uncletopia | Seattle | 1 | All Maps","name_short":"sea-1","host":"sea-1.us.uncletopia.com","port":27015,"enabled":true,"region":"us-west","cc":"us","latitude":47.608013,"longitude":-122.33517,"reserved":0,"last_update":"0001-01-01T00:00:00Z","name_a2s":"Uncletopia | Seattle | 1 | All Maps","protocol":17,"map":"cp_sunshine","folder":"tf","game":"Team Fortress","app_id":440,"player_count":15,"max_players":24,"Bots":0,"server_type":"Dedicated","server_os":"Linux","password":true,"vac":true,"version":"7882260","steam_id":85568392924469997,"keywords":["cp","nocrits","nodmgspread","uncletopia"],"game_id":440,"stv_port":27016,"stv_name":"Uncletopia | Seattle | 1 | All Maps | STV","players":[{"user_id":975,"name":"roryisreallyoutofit","steam_id":76561198065825165,"connected_time":2426000000000,"state":"active","ping":94},{"user_id":945,"name":"John Calibur","steam_id":76561197999986606,"connected_time":6591000000000,"state":"active","ping":65},{"user_id":1000,"name":"jjorpts","steam_id":76561199041179985,"connected_time":435000000000,"state":"active","ping":63},{"user_id":1001,"name":"El Duderino","steam_id":76561199427900685,"connected_time":291000000000,"state":"active","ping":104},{"user_id":957,"name":"Rain","steam_id":76561198065612273,"connected_time":4503000000000,"state":"active","ping":44},{"user_id":973,"name":":o:","steam_id":76561198206752128,"connected_time":2517000000000,"state":"active","ping":145},{"user_id":1002,"name":"vintage","steam_id":76561198179249054,"connected_time":209000000000,"state":"active","ping":56},{"user_id":928,"name":"oil","steam_id":76561198099980149,"connected_time":10122000000000,"state":"active","ping":76},{"user_id":971,"name":"fartstreaks active","steam_id":76561198046073848,"connected_time":3467000000000,"state":"active","ping":44},{"user_id":979,"name":"drumist101","steam_id":76561198031866226,"connected_time":2334000000000,"state":"active","ping":49},{"user_id":991,"name":"diymo . watashi wa heavy weapon","steam_id":76561198017600790,"connected_time":1315000000000,"state":"active","ping":40},{"user_id":999,"name":"rxqueen","steam_id":76561198049258493,"connected_time":624000000000,"state":"active","ping":45},{"user_id":992,"name":"Mr. StepOnShi","steam_id":76561198049381236,"connected_time":1298000000000,"state":"active","ping":33},{"user_id":996,"name":"Greg","steam_id":76561199117798282,"connected_time":1133000000000,"state":"active","ping":112},{"user_id":864,"name":"Level 99 Mudcrab","steam_id":76561198077452771,"connected_time":11808000000000,"state":"active","ping":50}]},{"server_id":119,"name":"Uncletopia | Seattle | 2 | All Maps","name_short":"sea-2","host":"sea-1.us.uncletopia.com","port":27025,"enabled":true,"region":"us-west","cc":"us","latitude":47.608013,"longitude":-122.33517,"reserved":0,"last_update":"0001-01-01T00:00:00Z","name_a2s":"Uncletopia | Seattle | 2 | All Maps","protocol":17,"map":"pl_upward","folder":"tf","game":"Team Fortress","app_id":440,"player_count":21,"max_players":24,"Bots":0,"server_type":"Dedicated","server_os":"Linux","password":true,"vac":true,"version":"7882260","steam_id":85568392924469998,"keywords":["nocrits","nodmgspread","payload","uncletopia"],"game_id":440,"stv_port":27026,"stv_name":"Uncletopia | Seattle | 2 | All Maps | STV","players":[{"user_id":674,"name":"biblo","steam_id":76561198413125750,"connected_time":1854000000000,"state":"active","ping":117},{"user_id":625,"name":"cracky","steam_id":76561197971365444,"connected_time":5839000000000,"state":"active","ping":49},{"user_id":692,"name":"Drewey","steam_id":76561199258609863,"connected_time":555000000000,"state":"active","ping":109},{"user_id":688,"name":"็","steam_id":76561199483015098,"connected_time":840000000000,"state":"active","ping":58},{"user_id":701,"name":"150cc lightning cup andy","steam_id":76561198121268007,"connected_time":147000000000,"state":"active","ping":76},{"user_id":563,"name":"Soda","steam_id":76561198219209367,"connected_time":10931000000000,"state":"active","ping":55},{"user_id":678,"name":"roo the observer","steam_id":76561198120684348,"connected_time":1687000000000,"state":"active","ping":105},{"user_id":680,"name":"mjr","steam_id":76561198148301033,"connected_time":1611000000000,"state":"active","ping":90},{"user_id":689,"name":"a 1930","steam_id":76561198320639814,"connected_time":779000000000,"state":"active","ping":64},{"user_id":695,"name":"D0VE","steam_id":76561198151618566,"connected_time":365000000000,"state":"active","ping":59},{"user_id":690,"name":"Derpy Hooves???","steam_id":76561198101505695,"connected_time":778000000000,"state":"active","ping":70},{"user_id":698,"name":"white obama","steam_id":76561199465040669,"connected_time":211000000000,"state":"active","ping":47},{"user_id":656,"name":"fathead","steam_id":76561198150155615,"connected_time":3680000000000,"state":"active","ping":58},{"user_id":686,"name":"Smellbow McArmpit","steam_id":76561198109445099,"connected_time":1329000000000,"state":"active","ping":52},{"user_id":651,"name":"Drainbow","steam_id":76561198421913648,"connected_time":3999000000000,"state":"active","ping":49},{"user_id":629,"name":"HeavenHearst","steam_id":76561198066083947,"connected_time":5664000000000,"state":"active","ping":118},{"user_id":669,"name":"some cringe guy","steam_id":76561198104086771,"connected_time":2206000000000,"state":"active","ping":76},{"user_id":699,"name":"Androsynth","steam_id":76561198046846304,"connected_time":201000000000,"state":"active","ping":100},{"user_id":682,"name":"1986","steam_id":76561198203330566,"connected_time":1530000000000,"state":"active","ping":48},{"user_id":700,"name":"Pottsfield","steam_id":76561199379572998,"connected_time":187000000000,"state":"active","ping":128},{"user_id":667,"name":"goblino","steam_id":76561198068260422,"connected_time":2392000000000,"state":"active","ping":94}]},{"server_id":406,"name":"Uncletopia | Seattle | 3 | Stopwatch Beta","name_short":"sea-3","host":"sea-1.us.uncletopia.com","port":27035,"enabled":true,"region":"us-west","cc":"us","latitude":47.608013,"longitude":-122.33517,"reserved":0,"last_update":"0001-01-01T00:00:00Z","name_a2s":"Uncletopia | Seattle | 3 | Stopwatch Beta","protocol":17,"map":"workshop/koth_ramjam_rc1.ugc459778887","folder":"tf","game":"Team Fortress","app_id":440,"player_count":0,"max_players":24,"Bots":0,"server_type":"Dedicated","server_os":"Linux","password":true,"vac":true,"version":"7882260","steam_id":85568392924515217,"keywords":["cp","nocrits","nodmgspread","uncletopia"],"game_id":440,"stv_port":27036,"stv_name":"Uncletopia | Seattle | 3 | Stopwatch Beta | STV","players":null},{"server_id":17,"name":"Uncletopia | San Francisco | 1 | All Maps","name_short":"sfo-1","host":"sfo-1.us.uncletopia.com","port":27015,"enabled":true,"region":"us-west","cc":"us","latitude":37.77397,"longitude":-122.4313,"reserved":0,"last_update":"0001-01-01T00:00:00Z","name_a2s":"Uncletopia | San Francisco | 1 | All Maps","protocol":17,"map":"cp_process_final","folder":"tf","game":"Team Fortress","app_id":440,"player_count":0,"max_players":24,"Bots":0,"server_type":"Dedicated","server_os":"Linux","password":true,"vac":true,"version":"7757534","steam_id":85568392924469999,"keywords":["cp","nocrits","nodmgspread","uncletopia"],"game_id":440,"stv_port":27016,"stv_name":"Uncletopia | San Francisco | 1 | All Maps | STV","players":null},{"server_id":18,"name":"Uncletopia | San Francisco | 2 | All Maps","name_short":"sfo-2","host":"sfo-1.us.uncletopia.com","port":27025,"enabled":true,"region":"us-west","cc":"us","latitude":37.77397,"longitude":-122.4313,"reserved":0,"last_update":"0001-01-01T00:00:00Z","name_a2s":"Uncletopia | San Francisco | 2 | All Maps","protocol":17,"map":"koth_highpass","folder":"tf","game":"Team Fortress","app_id":440,"player_count":0,"max_players":24,"Bots":0,"server_type":"Dedicated","server_os":"Linux","password":true,"vac":true,"version":"7757534","steam_id":85568392924470000,"keywords":["cp","nocrits","nodmgspread","uncletopia"],"game_id":440,"stv_port":27026,"stv_name":"Uncletopia | San Francisco | 2 | All Maps | STV","players":null},{"server_id":19,"name":"Uncletopia | San Francisco | 3 | Stopwatch Beta","name_short":"sfo-3","host":"sfo-1.us.uncletopia.com","port":27035,"enabled":true,"region":"us-west","cc":"us","latitude":37.77397,"longitude":-122.4313,"reserved":0,"last_update":"0001-01-01T00:00:00Z","name_a2s":"Uncletopia | San Francisco | 3 | Stopwatch Beta","protocol":17,"map":"koth_lakeside_final","folder":"tf","game":"Team Fortress","app_id":440,"player_count":0,"max_players":24,"Bots":0,"server_type":"Dedicated","server_os":"Linux","password":true,"vac":true,"version":"7757534","steam_id":85568392924742824,"keywords":["cp","nocrits","nodmgspread","uncletopia"],"game_id":440,"stv_port":27036,"stv_name":"Uncletopia | San Francisco | 3 | Stopwatch Beta | STV","players":null},{"server_id":20,"name":"Uncletopia | San Francisco | 4 | Community","name_short":"sfo-4","host":"sfo-1.us.uncletopia.com","port":27045,"enabled":true,"region":"us-west","cc":"us","latitude":37.77397,"longitude":-122.4313,"reserved":0,"last_update":"0001-01-01T00:00:00Z","name_a2s":"Uncletopia | San Francisco | 4 | Community","protocol":17,"map":"cp_altitude","folder":"tf","game":"Team Fortress","app_id":440,"player_count":0,"max_players":24,"Bots":0,"server_type":"Dedicated","server_os":"Linux","password":true,"vac":true,"version":"7757534","steam_id":85568392924742826,"keywords":["cp","nocrits","nodmgspread","uncletopia"],"game_id":440,"stv_port":27046,"stv_name":"Uncletopia | San Francisco | 4 | Community | STV","players":null},{"server_id":141,"name":"Uncletopia | Sydney | 1 | All Maps","name_short":"syd-1","host":"syd-1.au.uncletopia.com","port":27015,"enabled":true,"region":"au","cc":"au","latitude":-33.865143,"longitude":151.2099,"reserved":0,"last_update":"0001-01-01T00:00:00Z","name_a2s":"Uncletopia | Sydney | 1 | All Maps","protocol":17,"map":"pl_pier","folder":"tf","game":"Team Fortress","app_id":440,"player_count":24,"max_players":24,"Bots":0,"server_type":"Dedicated","server_os":"Linux","password":true,"vac":true,"version":"7882260","steam_id":85568392924470001,"keywords":["nocrits","nodmgspread","payload","uncletopia"],"game_id":440,"stv_port":27016,"stv_name":"Uncletopia | Sydney | 1 | All Maps | STV","players":[{"user_id":545,"name":"blongus wazongus","steam_id":76561198063481761,"connected_time":4947000000000,"state":"active","ping":43},{"user_id":566,"name":"lavanderpumpernickle","steam_id":76561199093611800,"connected_time":2796000000000,"state":"active","ping":71},{"user_id":591,"name":"therealllamait","steam_id":76561198841226950,"connected_time":233000000000,"state":"active","ping":62},{"user_id":556,"name":"skye","steam_id":76561198037129845,"connected_time":4113000000000,"state":"active","ping":46},{"user_id":594,"name":"ADUCK","steam_id":76561198249887912,"connected_time":107000000000,"state":"active","ping":68},{"user_id":504,"name":"voxii","steam_id":76561198099698281,"connected_time":8555000000000,"state":"active","ping":82},{"user_id":579,"name":"Astronelson","steam_id":76561198043274410,"connected_time":1982000000000,"state":"active","ping":45},{"user_id":585,"name":"Granolarama","steam_id":76561198059129270,"connected_time":924000000000,"state":"active","ping":69},{"user_id":590,"name":"neen","steam_id":76561197998963199,"connected_time":321000000000,"state":"active","ping":62},{"user_id":542,"name":"Cardboard (No mic gamer)","steam_id":76561199099769110,"connected_time":5365000000000,"state":"active","ping":55},{"user_id":552,"name":"Livid","steam_id":76561198060024585,"connected_time":4232000000000,"state":"active","ping":43},{"user_id":583,"name":"Bigrichard","steam_id":76561198032092945,"connected_time":1398000000000,"state":"active","ping":76},{"user_id":484,"name":"Pickled Possum","steam_id":76561197995845352,"connected_time":9380000000000,"state":"active","ping":93},{"user_id":582,"name":"krandlez` (Any/All)","steam_id":76561198044839726,"connected_time":1577000000000,"state":"active","ping":40},{"user_id":584,"name":"Solidmozza","steam_id":76561197976650325,"connected_time":1275000000000,"state":"active","ping":47},{"user_id":559,"name":"sending my Gerrards","steam_id":76561198301282416,"connected_time":3478000000000,"state":"active","ping":58},{"user_id":589,"name":"GreyShirt","steam_id":76561198260628412,"connected_time":407000000000,"state":"active","ping":70},{"user_id":569,"name":"Psalm 118:10-17","steam_id":76561198305904806,"connected_time":2726000000000,"state":"active","ping":56},{"user_id":578,"name":"elecctro knight","steam_id":76561198801552066,"connected_time":2215000000000,"state":"active","ping":58},{"user_id":525,"name":"holy frijoles","steam_id":76561198043903958,"connected_time":6545000000000,"state":"active","ping":53},{"user_id":573,"name":"Who Else But","steam_id":76561198069602169,"connected_time":2517000000000,"state":"active","ping":58},{"user_id":580,"name":"very cool!","steam_id":76561199194638543,"connected_time":1678000000000,"state":"active","ping":59},{"user_id":574,"name":"Fresh Produce Gaming","steam_id":76561198358483352,"connected_time":2469000000000,"state":"active","ping":68},{"user_id":593,"name":"justaguy","steam_id":76561199367021192,"connected_time":143000000000,"state":"active","ping":77}]},{"server_id":123,"name":"Uncletopia | Sydney | 2 | All Maps","name_short":"syd-2","host":"syd-1.au.uncletopia.com","port":27025,"enabled":true,"region":"au","cc":"au","latitude":-33.865143,"longitude":151.2099,"reserved":0,"last_update":"0001-01-01T00:00:00Z","name_a2s":"Uncletopia | Sydney | 2 | All Maps","protocol":17,"map":"pl_borneo","folder":"tf","game":"Team Fortress","app_id":440,"player_count":23,"max_players":24,"Bots":0,"server_type":"Dedicated","server_os":"Linux","password":true,"vac":true,"version":"7882260","steam_id":85568392924470002,"keywords":["nocrits","nodmgspread","payload","uncletopia"],"game_id":440,"stv_port":27026,"stv_name":"Uncletopia | Sydney | 2 | All Maps | STV","players":[{"user_id":483,"name":"Citizen Dan","steam_id":76561197970496955,"connected_time":195000000000,"state":"active","ping":75},{"user_id":445,"name":"HeyHeyItsGreyGrey","steam_id":76561198047955263,"connected_time":3868000000000,"state":"active","ping":68},{"user_id":477,"name":"come in alone","steam_id":76561199436707447,"connected_time":1089000000000,"state":"active","ping":60},{"user_id":422,"name":"jim :)","steam_id":76561198127508905,"connected_time":5446000000000,"state":"active","ping":44},{"user_id":434,"name":"Apteryx","steam_id":76561197976460834,"connected_time":4492000000000,"state":"active","ping":61},{"user_id":435,"name":"Corrupt","steam_id":76561198008567328,"connected_time":4455000000000,"state":"active","ping":66},{"user_id":485,"name":"Charm","steam_id":76561198028891054,"connected_time":126000000000,"state":"active","ping":60},{"user_id":469,"name":"sturdyurchin26","steam_id":76561199169368440,"connected_time":2093000000000,"state":"active","ping":59},{"user_id":428,"name":"Zieria","steam_id":76561199261811388,"connected_time":5213000000000,"state":"active","ping":38},{"user_id":471,"name":"Alex","steam_id":76561198020099643,"connected_time":1997000000000,"state":"active","ping":63},{"user_id":442,"name":"sturdyurchin24","steam_id":76561199130078397,"connected_time":3940000000000,"state":"active","ping":74},{"user_id":401,"name":"seiran","steam_id":76561198880907232,"connected_time":7135000000000,"state":"active","ping":100},{"user_id":446,"name":"Gnat","steam_id":76561198109747863,"connected_time":3831000000000,"state":"active","ping":102},{"user_id":472,"name":"67cyr9dght0fps","steam_id":76561198819218675,"connected_time":1980000000000,"state":"active","ping":151},{"user_id":482,"name":"Tees","steam_id":76561199174602317,"connected_time":325000000000,"state":"active","ping":57},{"user_id":486,"name":"Hoba","steam_id":76561198383597516,"connected_time":74000000000,"state":"active","ping":469},{"user_id":488,"name":"bathtub","steam_id":76561198967804087,"connected_time":31000000000,"state":"active","ping":153},{"user_id":476,"name":"Tiggerex","steam_id":76561198049006869,"connected_time":1202000000000,"state":"active","ping":105},{"user_id":489,"name":"squrrel","steam_id":76561198083429611,"connected_time":26000000000,"state":"active","ping":84},{"user_id":490,"name":"oldbie","steam_id":76561198053297711,"connected_time":25000000000,"state":"active","ping":176},{"user_id":455,"name":"Chowdermonkey","steam_id":76561198990121068,"connected_time":3531000000000,"state":"active","ping":70},{"user_id":248,"name":"Jodelkönig Franzl Lang","steam_id":76561198007667830,"connected_time":19111000000000,"state":"active","ping":56},{"user_id":466,"name":"sturdyurchin25","steam_id":76561198797890384,"connected_time":2266000000000,"state":"active","ping":66}]},{"server_id":395,"name":"Uncletopia | Sydney | 3 | All Maps","name_short":"syd-3","host":"syd-1.au.uncletopia.com","port":27035,"enabled":true,"region":"au","cc":"au","latitude":-33.865143,"longitude":151.2099,"reserved":0,"last_update":"0001-01-01T00:00:00Z","name_a2s":"Uncletopia | Sydney | 3 | All Maps","protocol":17,"map":"koth_highpass","folder":"tf","game":"Team Fortress","app_id":440,"player_count":6,"max_players":24,"Bots":0,"server_type":"Dedicated","server_os":"Linux","password":true,"vac":true,"version":"7882260","steam_id":85568392925194467,"keywords":["cp","nocrits","nodmgspread","uncletopia"],"game_id":440,"stv_port":27036,"stv_name":"Uncletopia | Sydney | 3 | All Maps | STV","players":[{"user_id":10,"name":"Lord Oink","steam_id":76561198125237921,"connected_time":1575000000000,"state":"active","ping":36},{"user_id":12,"name":"Shiki Eiki Yamaxanadu","steam_id":76561198095744048,"connected_time":1062000000000,"state":"active","ping":99},{"user_id":13,"name":"Racoooooon","steam_id":76561199051282294,"connected_time":952000000000,"state":"active","ping":57},{"user_id":14,"name":"Squishy","steam_id":76561198985769205,"connected_time":940000000000,"state":"active","ping":59},{"user_id":15,"name":"infinitycrow824","steam_id":76561199479437187,"connected_time":657000000000,"state":"active","ping":54},{"user_id":16,"name":"Powersurge The Protogen","steam_id":76561198013117218,"connected_time":635000000000,"state":"active","ping":60}]},{"server_id":396,"name":"Uncletopia | Sydney | 4 | All Maps","name_short":"syd-4","host":"syd-1.au.uncletopia.com","port":27045,"enabled":true,"region":"au","cc":"au","latitude":-33.865143,"longitude":151.2099,"reserved":0,"last_update":"0001-01-01T00:00:00Z","name_a2s":"Uncletopia | Sydney | 4 | All Maps","protocol":17,"map":"koth_viaduct","folder":"tf","game":"Team Fortress","app_id":440,"player_count":0,"max_players":24,"Bots":0,"server_type":"Dedicated","server_os":"Linux","password":true,"vac":true,"version":"7882260","steam_id":85568392925397958,"keywords":["cp","nocrits","nodmgspread","uncletopia"],"game_id":440,"stv_port":27046,"stv_name":"Uncletopia | Sydney | 4 | All Maps | STV","players":null},{"server_id":58,"name":"Uncletopia | Sydney | 5 | Stopwatch Beta","name_short":"syd-5","host":"syd-1.au.uncletopia.com","port":27055,"enabled":true,"region":"au","cc":"au","latitude":-33.865143,"longitude":151.2099,"reserved":0,"last_update":"0001-01-01T00:00:00Z","name_a2s":"Uncletopia | Sydney | 5 | Stopwatch Beta","protocol":17,"map":"cp_snakewater_final1","folder":"tf","game":"Team Fortress","app_id":440,"player_count":0,"max_players":24,"Bots":0,"server_type":"Dedicated","server_os":"Linux","password":true,"vac":true,"version":"7882260","steam_id":85568392925397959,"keywords":["cp","nocrits","nodmgspread","uncletopia"],"game_id":440,"stv_port":27056,"stv_name":"Uncletopia | Sydney | 5 | Stopwatch Beta | STV","players":null},{"server_id":59,"name":"Uncletopia | Sydney | 6 | Community","name_short":"syd-6","host":"syd-1.au.uncletopia.com","port":27065,"enabled":true,"region":"au","cc":"au","latitude":-33.865143,"longitude":151.2099,"reserved":0,"last_update":"0001-01-01T00:00:00Z","name_a2s":"Uncletopia | Sydney | 6 | Community","protocol":17,"map":"workshop/koth_product_final.ugc454272353","folder":"tf","game":"Team Fortress","app_id":440,"player_count":0,"max_players":24,"Bots":0,"server_type":"Dedicated","server_os":"Linux","password":true,"vac":true,"version":"7882260","steam_id":85568392925397960,"keywords":["cp","nocrits","nodmgspread","uncletopia"],"game_id":440,"stv_port":27066,"stv_name":"Uncletopia | Sydney | 6 | Community | STV","players":null},{"server_id":49,"name":"Uncletopia | Warsaw | 1 | All Maps","name_short":"waw-1","host":"waw-1.pl.uncletopia.com","port":27015,"enabled":true,"region":"eu","cc":"pl","latitude":52.2297,"longitude":21.017532,"reserved":0,"last_update":"0001-01-01T00:00:00Z","name_a2s":"","protocol":0,"map":"","folder":"","game":"","app_id":0,"player_count":0,"max_players":0,"Bots":0,"server_type":"","server_os":"","password":false,"vac":false,"version":"","steam_id":0,"keywords":null,"game_id":0,"stv_port":0,"stv_name":"","players":null},{"server_id":50,"name":"Uncletopia | Warsaw | 2 | All Maps","name_short":"waw-2","host":"waw-1.pl.uncletopia.com","port":27025,"enabled":true,"region":"eu","cc":"pl","latitude":52.2297,"longitude":21.017532,"reserved":0,"last_update":"0001-01-01T00:00:00Z","name_a2s":"Uncletopia | Warsaw | 2 | All Maps","protocol":17,"map":"koth_highpass","folder":"tf","game":"Team Fortress","app_id":440,"player_count":0,"max_players":24,"Bots":0,"server_type":"Dedicated","server_os":"Linux","password":true,"vac":true,"version":"7882260","steam_id":85568392925397851,"keywords":["cp","nocrits","nodmgspread","uncletopia"],"game_id":440,"stv_port":27026,"stv_name":"Uncletopia | Warsaw | 2 | All Maps | STV","players":null},{"server_id":51,"name":"Uncletopia | Warsaw | 3 | All Maps","name_short":"waw-3","host":"waw-1.pl.uncletopia.com","port":27035,"enabled":true,"region":"eu","cc":"pl","latitude":52.2297,"longitude":21.017532,"reserved":0,"last_update":"0001-01-01T00:00:00Z","name_a2s":"Uncletopia | Warsaw | 3 | All Maps","protocol":17,"map":"koth_viaduct","folder":"tf","game":"Team Fortress","app_id":440,"player_count":0,"max_players":24,"Bots":0,"server_type":"Dedicated","server_os":"Linux","password":true,"vac":true,"version":"7882260","steam_id":85568392925397852,"keywords":["cp","nocrits","nodmgspread","uncletopia"],"game_id":440,"stv_port":27036,"stv_name":"Uncletopia | Warsaw | 3 | All Maps | STV","players":null},{"server_id":52,"name":"Uncletopia | Warsaw | 4 | All Maps","name_short":"waw-4","host":"waw-1.pl.uncletopia.com","port":27045,"enabled":true,"region":"eu","cc":"pl","latitude":52.2297,"longitude":21.017532,"reserved":0,"last_update":"0001-01-01T00:00:00Z","name_a2s":"Uncletopia | Warsaw | 4 | All Maps","protocol":17,"map":"koth_highpass","folder":"tf","game":"Team Fortress","app_id":440,"player_count":0,"max_players":24,"Bots":0,"server_type":"Dedicated","server_os":"Linux","password":true,"vac":true,"version":"7882260","steam_id":85568392925397853,"keywords":["cp","nocrits","nodmgspread","uncletopia"],"game_id":440,"stv_port":27046,"stv_name":"Uncletopia | Warsaw | 4 | All Maps | STV","players":null},{"server_id":53,"name":"Uncletopia | Warsaw | 5 | Stopwatch Beta","name_short":"waw-5","host":"waw-1.pl.uncletopia.com","port":27055,"enabled":true,"region":"eu","cc":"pl","latitude":52.2297,"longitude":21.017532,"reserved":0,"last_update":"0001-01-01T00:00:00Z","name_a2s":"Uncletopia | Warsaw | 5 | Stopwatch Beta","protocol":17,"map":"cp_gullywash_final1","folder":"tf","game":"Team Fortress","app_id":440,"player_count":0,"max_players":24,"Bots":0,"server_type":"Dedicated","server_os":"Linux","password":true,"vac":true,"version":"7882260","steam_id":85568392925397854,"keywords":["cp","nocrits","nodmgspread","uncletopia"],"game_id":440,"stv_port":27056,"stv_name":"Uncletopia | Warsaw | 5 | Stopwatch Beta | STV","players":null},{"server_id":54,"name":"Uncletopia | Warsaw | 6 | Community","name_short":"waw-6","host":"waw-1.pl.uncletopia.com","port":27065,"enabled":true,"region":"eu","cc":"pl","latitude":52.2297,"longitude":21.017532,"reserved":0,"last_update":"0001-01-01T00:00:00Z","name_a2s":"Uncletopia | Warsaw | 6 | Community","protocol":17,"map":"koth_viaduct","folder":"tf","game":"Team Fortress","app_id":440,"player_count":0,"max_players":24,"Bots":0,"server_type":"Dedicated","server_os":"Linux","password":true,"vac":true,"version":"7882260","steam_id":85568392925397856,"keywords":["cp","nocrits","nodmgspread","uncletopia"],"game_id":440,"stv_port":27066,"stv_name":"Uncletopia | Warsaw | 6 | Community | STV","players":null}]}