{"status":true,"message":"","result":[{"server_id":9,"name":"Uncletopia | Atlanta | 1 | All Maps","name_short":"atl-1","host":"atl-1.us.uncletopia.com","port":27015,"enabled":true,"region":"us-east","cc":"us","latitude":33.753746,"longitude":-84.38633,"reserved":0,"last_update":"0001-01-01T00:00:00Z","name_a2s":"Uncletopia | Atlanta | 1 | All Maps","protocol":17,"map":"cp_snakewater_final1","folder":"tf","game":"Team Fortress","app_id":440,"player_count":0,"max_players":24,"Bots":0,"server_type":"Dedicated","server_os":"Linux","password":false,"vac":true,"version":"7961495","steam_id":85568392924469982,"keywords":["cp","nocrits","nodmgspread","uncletopia"],"game_id":440,"stv_port":27016,"stv_name":"Uncletopia | Atlanta | 1 | All Maps | STV","players":null},{"server_id":104,"name":"Uncletopia | Atlanta | 2 | All Maps","name_short":"atl-2","host":"atl-1.us.uncletopia.com","port":27025,"enabled":true,"region":"us-east","cc":"us","latitude":33.753746,"longitude":-84.38633,"reserved":0,"last_update":"0001-01-01T00:00:00Z","name_a2s":"Uncletopia | Atlanta | 2 | All Maps","protocol":17,"map":"cp_mountainlab","folder":"tf","game":"Team Fortress","app_id":440,"player_count":0,"max_players":24,"Bots":0,"server_type":"Dedicated","server_os":"Linux","password":false,"vac":true,"version":"7961495","steam_id":85568392924469983,"keywords":["cp","nocrits","nodmgspread","uncletopia"],"game_id":440,"stv_port":27026,"stv_name":"Uncletopia | Atlanta | 2 | All Maps | STV","players":null},{"server_id":400,"name":"Uncletopia | Atlanta | 3 | All Maps","name_short":"atl-3","host":"atl-1.us.uncletopia.com","port":27035,"enabled":true,"region":"us-east","cc":"us","latitude":33.753746,"longitude":-84.38633,"reserved":0,"last_update":"0001-01-01T00:00:00Z","name_a2s":"Uncletopia | Atlanta | 3 | All Maps","protocol":17,"map":"cp_process_final","folder":"tf","game":"Team Fortress","app_id":440,"player_count":0,"max_players":24,"Bots":0,"server_type":"Dedicated","server_os":"Linux","password":false,"vac":true,"version":"7961495","steam_id":85568392924515187,"keywords":["cp","nocrits","nodmgspread","uncletopia"],"game_id":440,"stv_port":27036,"stv_name":"Uncletopia | Atlanta | 3 | All Maps | STV","players":null},{"server_id":401,"name":"Uncletopia | Atlanta | 4 | Community","name_short":"atl-4","host":"atl-1.us.uncletopia.com","port":27045,"enabled":true,"region":"us-east","cc":"us","latitude":33.753746,"longitude":-84.38633,"reserved":0,"last_update":"0001-01-01T00:00:00Z","name_a2s":"Uncletopia | Atlanta | 4 | Community","protocol":17,"map":"koth_lakeside_final","folder":"tf","game":"Team Fortress","app_id":440,"player_count":0,"max_players":24,"Bots":0,"server_type":"Dedicated","server_os":"Linux","password":false,"vac":true,"version":"7961495","steam_id":85568392924515188,"keywords":["cp","nocrits","nodmgspread","uncletopia"],"game_id":440,"stv_port":27046,"stv_name":"Uncletopia | Atlanta | 4 | Community | STV","players":null},{"server_id":2,"name":"Uncletopia | Chicago | 1 | All Maps","name_short":"chi-1","host":"chi-1.us.uncletopia.com","port":27015,"enabled":true,"region":"us-central","cc":"us","latitude":41.881832,"longitude":-87.62318,"reserved":0,"last_update":"0001-01-01T00:00:00Z","name_a2s":"Uncletopia | Chicago | 1 | All Maps","protocol":17,"map":"pl_upward","folder":"tf","game":"Team Fortress","app_id":440,"player_count":23,"max_players":24,"Bots":0,"server_type":"Dedicated","server_os":"Linux","password":true,"vac":true,"version":"7961495","steam_id":85568392924469984,"keywords":["nocrits","nodmgspread","payload","uncletopia"],"game_id":440,"stv_port":27016,"stv_name":"Uncletopia | Chicago | 1 | All Maps | STV","players":[{"user_id":59,"name":"Maverick","steam_id":76561198322829814,"connected_time":8652000000000,"state":"active","ping":75},{"user_id":122,"name":"Undertime Slopper","steam_id":76561198396789061,"connected_time":4823000000000,"state":"active","ping":77},{"user_id":180,"name":"fruitpunch","steam_id":76561198156516161,"connected_time":15000000000,"state":"spawning","ping":64},{"user_id":149,"name":"MikeLovesRabbit","steam_id":76561197997742625,"connected_time":2084000000000,"state":"active","ping":65},{"user_id":177,"name":"Dr. Captain","steam_id":76561198180724285,"connected_time":152000000000,"state":"active","ping":59},{"user_id":103,"name":"Obelisk","steam_id":76561198049416866,"connected_time":6120000000000,"state":"active","ping":76},{"user_id":169,"name":"Flippin Egg","steam_id":76561198056382822,"connected_time":748000000000,"state":"active","ping":61},{"user_id":170,"name":"Sanic_Bum","steam_id":76561198094179822,"connected_time":695000000000,"state":"active","ping":58},{"user_id":154,"name":"Somebodyp36","steam_id":76561198850961948,"connected_time":1520000000000,"state":"active","ping":74},{"user_id":176,"name":"Laventhey","steam_id":76561198977523626,"connected_time":376000000000,"state":"active","ping":73},{"user_id":179,"name":"Orange Triangle","steam_id":76561198320498182,"connected_time":133000000000,"state":"active","ping":56},{"user_id":155,"name":"Toblerone","steam_id":76561198057374871,"connected_time":1511000000000,"state":"active","ping":59},{"user_id":181,"name":"maS","steam_id":76561198033846407,"connected_time":12000000000,"state":"active","ping":53},{"user_id":173,"name":"bbboomer37","steam_id":76561199126411204,"connected_time":449000000000,"state":"active","ping":46},{"user_id":175,"name":"D3C0y","steam_id":76561197961194579,"connected_time":421000000000,"state":"active","ping":83},{"user_id":150,"name":"Bunt","steam_id":76561198124477567,"connected_time":1952000000000,"state":"active","ping":63},{"user_id":182,"name":"Homunculus Gambino","steam_id":76561198158433378,"connected_time":7000000000,"state":"spawning","ping":73},{"user_id":183,"name":"The Wave","steam_id":76561198268225109,"connected_time":6000000000,"state":"spawning","ping":65},{"user_id":184,"name":"The Hoagie Hero","steam_id":76561198057569298,"connected_time":2000000000,"state":"spawning","ping":79},{"user_id":171,"name":"Lia_Rein","steam_id":76561198151569597,"connected_time":633000000000,"state":"active","ping":143},{"user_id":110,"name":"Jango","steam_id":76561198084589742,"connected_time":5868000000000,"state":"active","ping":80},{"user_id":130,"name":"Hey All","steam_id":76561198303100290,"connected_time":3795000000000,"state":"active","ping":92},{"user_id":168,"name":"earl muck","steam_id":76561198057086233,"connected_time":774000000000,"state":"active","ping":78}]},{"server_id":106,"name":"Uncletopia | Chicago | 2 | All Maps","name_short":"chi-2","host":"chi-1.us.uncletopia.com","port":27025,"enabled":true,"region":"us-central","cc":"us","latitude":41.881832,"longitude":-87.62318,"reserved":0,"last_update":"0001-01-01T00:00:00Z","name_a2s":"Uncletopia | Chicago | 2 | All Maps","protocol":17,"map":"cp_steel","folder":"tf","game":"Team Fortress","app_id":440,"player_count":25,"max_players":24,"Bots":0,"server_type":"Dedicated","server_os":"Linux","password":true,"vac":true,"version":"7961495","steam_id":85568392924469985,"keywords":["cp","nocrits","nodmgspread","uncletopia"],"game_id":440,"stv_port":27026,"stv_name":"Uncletopia | Chicago | 2 | All Maps | STV","players":[{"user_id":335,"name":"‰Ω†Â•Ω","steam_id":76561198873043242,"connected_time":185000000000,"state":"active","ping":144},{"user_id":253,"name":"Mr. Cheesey","steam_id":76561198153462183,"connected_time":5968000000000,"state":"active","ping":65},{"user_id":279,"name":"[NAME-REDACTED]","steam_id":76561198035682975,"connected_time":5170000000000,"state":"active","ping":66},{"user_id":332,"name":"Clean Lines","steam_id":76561197960691518,"connected_time":600000000000,"state":"active","ping":55},{"user_id":330,"name":"Owl Daddy","steam_id":76561198006250352,"connected_time":630000000000,"state":"active","ping":56},{"user_id":337,"name":"Ghoulenoir","steam_id":76561198074314573,"connected_time":115000000000,"state":"active","ping":48},{"user_id":326,"name":"Kindagoodplayer","steam_id":76561198814625843,"connected_time":897000000000,"state":"active","ping":75},{"user_id":323,"name":"berserker_tf2 yt","steam_id":76561198303464488,"connected_time":1043000000000,"state":"active","ping":58},{"user_id":327,"name":"KFC Rat","steam_id":76561198135128086,"connected_time":838000000000,"state":"active","ping":113},{"user_id":336,"name":"eat Pant","steam_id":76561197974965536,"connected_time":179000000000,"state":"active","ping":55},{"user_id":328,"name":"intelligent explosive solutions","steam_id":76561198057076267,"connected_time":804000000000,"state":"active","ping":68},{"user_id":284,"name":"Nibelsnarf","steam_id":76561198137642054,"connected_time":4840000000000,"state":"active","ping":58},{"user_id":329,"name":"Zomboboi_","steam_id":76561198139401380,"connected_time":780000000000,"state":"active","ping":65},{"user_id":324,"name":"Gamba","steam_id":76561198069264650,"connected_time":1037000000000,"state":"active","ping":59},{"user_id":331,"name":"skaska4","steam_id":76561198080606141,"connected_time":616000000000,"state":"active","ping":75},{"user_id":321,"name":"vv","steam_id":76561198134813102,"connected_time":1135000000000,"state":"active","ping":68},{"user_id":283,"name":"Aster","steam_id":76561198037920420,"connected_time":4981000000000,"state":"active","ping":73},{"user_id":338,"name":"Nyle","steam_id":76561198045652639,"connected_time":102000000000,"state":"active","ping":127},{"user_id":334,"name":"Darakrish","steam_id":76561198133126686,"connected_time":503000000000,"state":"active","ping":61},{"user_id":325,"name":"Critscare","steam_id":76561198087712508,"connected_time":949000000000,"state":"active","ping":43},{"user_id":305,"name":"Sucsubot","steam_id":76561198106456128,"connected_time":3277000000000,"state":"active","ping":69},{"user_id":299,"name":"ameritech","steam_id":76561198064769089,"connected_time":4097000000000,"state":"active","ping":59},{"user_id":318,"name":"Shenanigan","steam_id":76561198941203517,"connected_time":1282000000000,"state":"active","ping":143},{"user_id":314,"name":"bojack from the show bojack hor","steam_id":76561198053006712,"connected_time":1352000000000,"state":"active","ping":63},{"user_id":341,"name":"profe","steam_id":76561199187949462,"connected_time":6000000000,"state":"spawning","ping":90}]},{"server_id":402,"name":"Uncletopia | Chicago | 3 | All Maps","name_short":"chi-3","host":"chi-1.us.uncletopia.com","port":27035,"enabled":true,"region":"us-central","cc":"us","latitude":41.881832,"longitude":-87.62318,"reserved":0,"last_update":"0001-01-01T00:00:00Z","name_a2s":"Uncletopia | Chicago | 3 | All Maps","protocol":17,"map":"cp_sunshine","folder":"tf","game":"Team Fortress","app_id":440,"player_count":24,"max_players":24,"Bots":0,"server_type":"Dedicated","server_os":"Linux","password":true,"vac":true,"version":"7961495","steam_id":85568392924515191,"keywords":["cp","nocrits","nodmgspread","uncletopia"],"game_id":440,"stv_port":27036,"stv_name":"Uncletopia | Chicago | 3 | All Maps | STV","players":[{"user_id":609,"name":"viagra addict","steam_id":76561198017705248,"connected_time":2338000000000,"state":"active","ping":48},{"user_id":641,"name":"No Chance of Pearly Gates","steam_id":76561198042570322,"connected_time":1805000000000,"state":"active","ping":50},{"user_id":505,"name":"Kritzburgh","steam_id":76561198149466938,"connected_time":4146000000000,"state":"active","ping":62},{"user_id":647,"name":"Arthas Menethil","steam_id":76561198127534492,"connected_time":1033000000000,"state":"active","ping":42},{"user_id":354,"name":"i46","steam_id":76561198031675881,"connected_time":12804000000000,"state":"active","ping":45},{"user_id":657,"name":"poop madness","steam_id":76561198091218772,"connected_time":196000000000,"state":"active","ping":90},{"user_id":646,"name":"A damien","steam_id":76561198174767478,"connected_time":1126000000000,"state":"active","ping":93},{"user_id":634,"name":"Clark","steam_id":76561198874839936,"connected_time":1858000000000,"state":"active","ping":70},{"user_id":478,"name":"I have no idea what I am doing?","steam_id":76561198093152207,"connected_time":4707000000000,"state":"active","ping":68},{"user_id":632,"name":"Makina","steam_id":76561198057475567,"connected_time":1869000000000,"state":"active","ping":67},{"user_id":661,"name":"Ô∑Ω","steam_id":76561198287493973,"connected_time":34000000000,"state":"active","ping":72},{"user_id":594,"name":"LilDreamer","steam_id":76561198804054102,"connected_time":2621000000000,"state":"active","ping":59},{"user_id":659,"name":"TheComrade","steam_id":76561198885877773,"connected_time":160000000000,"state":"active","ping":89},{"user_id":633,"name":"LordOfTheNoobs","steam_id":76561197962697523,"connected_time":1869000000000,"state":"active","ping":72},{"user_id":637,"name":"Brisket Cali","steam_id":76561198025549450,"connected_time":1840000000000,"state":"active","ping":68},{"user_id":529,"name":"tesagi","steam_id":76561198026664629,"connected_time":3820000000000,"state":"active","ping":55},{"user_id":654,"name":"TheSecretNewbie","steam_id":76561198194671218,"connected_time":682000000000,"state":"active","ping":45},{"user_id":635,"name":"Saggy Haggis Balls","steam_id":76561198047845399,"connected_time":1856000000000,"state":"active","ping":76},{"user_id":642,"name":"Karl_Marx_Onlyfans","steam_id":76561198212389613,"connected_time":1800000000000,"state":"active","ping":97},{"user_id":656,"name":"realhedgehog2082","steam_id":76561198168931330,"connected_time":475000000000,"state":"active","ping":68},{"user_id":593,"name":"Thewaffleman141","steam_id":76561198083068694,"connected_time":2637000000000,"state":"active","ping":74},{"user_id":649,"name":"Rudy","steam_id":76561198013456828,"connected_time":997000000000,"state":"active","ping":70},{"user_id":660,"name":"Shield12","steam_id":76561198857193675,"connected_time":109000000000,"state":"active","ping":43},{"user_id":466,"name":"josh","steam_id":76561198077902438,"connected_time":5051000000000,"state":"active","ping":76}]},{"server_id":403,"name":"Uncletopia | Chicago | 4 | All Maps","name_short":"chi-4","host":"chi-1.us.uncletopia.com","port":27045,"enabled":true,"region":"us-central","cc":"us","latitude":41.881832,"longitude":-87.62318,"reserved":0,"last_update":"0001-01-01T00:00:00Z","name_a2s":"Uncletopia | Chicago | 4 | All Maps","protocol":17,"map":"ctf_turbine","folder":"tf","game":"Team Fortress","app_id":440,"player_count":24,"max_players":24,"Bots":0,"server_type":"Dedicated","server_os":"Linux","password":true,"vac":true,"version":"7961495","steam_id":85568392924515193,"keywords":["ctf","nocrits","nodmgspread","uncletopia"],"game_id":440,"stv_port":27046,"stv_name":"Uncletopia | Chicago | 4 | All Maps | STV","players":[{"user_id":550,"name":"Venk","steam_id":76561198251131422,"connected_time":1342000000000,"state":"active","ping":63},{"user_id":564,"name":"JollyVG","steam_id":76561198044919633,"connected_time":388000000000,"state":"active","ping":58},{"user_id":567,"name":"mega knight","steam_id":76561199176211866,"connected_time":327000000000,"state":"active","ping":93},{"user_id":524,"name":"vriska serket","steam_id":76561199345823430,"connected_time":3071000000000,"state":"active","ping":70},{"user_id":578,"name":"smiscaasi","steam_id":76561198237041600,"connected_time":14000000000,"state":"spawning","ping":70},{"user_id":501,"name":"bobby wasabi","steam_id":76561198380018244,"connected_time":4921000000000,"state":"active","ping":75},{"user_id":537,"name":"BirBinGo","steam_id":76561198356529600,"connected_time":2536000000000,"state":"active","ping":75},{"user_id":548,"name":"jxh300","steam_id":76561199196579894,"connected_time":1639000000000,"state":"active","ping":73},{"user_id":557,"name":"blanch","steam_id":76561198850629951,"connected_time":1063000000000,"state":"active","ping":76},{"user_id":538,"name":"bobbymcbobington","steam_id":76561199089411172,"connected_time":2473000000000,"state":"active","ping":111},{"user_id":565,"name":"Jonah Hill from 21 Jump Street","steam_id":76561198811130843,"connected_time":379000000000,"state":"active","ping":76},{"user_id":566,"name":"pk.pseudo","steam_id":76561198092575155,"connected_time":358000000000,"state":"active","ping":74},{"user_id":539,"name":"Pixel","steam_id":76561198156746320,"connected_time":2458000000000,"state":"active","ping":43},{"user_id":569,"name":"BLOBFISH","steam_id":76561199092113913,"connected_time":317000000000,"state":"active","ping":64},{"user_id":547,"name":"Fobby #Savetf2","steam_id":76561198047681469,"connected_time":1680000000000,"state":"active","ping":74},{"user_id":558,"name":"crabapples","steam_id":76561198075818655,"connected_time":914000000000,"state":"active","ping":60},{"user_id":574,"name":"ThePatheticMedic","steam_id":76561198873083105,"connected_time":169000000000,"state":"active","ping":54},{"user_id":522,"name":"Polar","steam_id":76561198271964253,"connected_time":3348000000000,"state":"active","ping":79},{"user_id":546,"name":"$0.18","steam_id":76561198360134800,"connected_time":1772000000000,"state":"active","ping":72},{"user_id":562,"name":"Sanity Impaired Toast Man","steam_id":76561198057654265,"connected_time":696000000000,"state":"active","ping":91},{"user_id":575,"name":"Apetometrist","steam_id":76561198045391635,"connected_time":156000000000,"state":"active","ping":67},{"user_id":572,"name":"a guy 131 + fish paste","steam_id":76561199226994384,"connected_time":258000000000,"state":"active","ping":87},{"user_id":576,"name":"Chris P. Bacon","steam_id":76561198000851038,"connected_time":151000000000,"state":"active","ping":77},{"user_id":577,"name":"Alfonso Molestro","steam_id":76561197998677099,"connected_time":110000000000,"state":"active","ping":85}]},{"server_id":36,"name":"Uncletopia | Chicago | 5 | All Maps","name_short":"chi-5","host":"chi-2.us.uncletopia.com","port":27015,"enabled":true,"region":"us-central","cc":"us","latitude":41.881832,"longitude":-87.62318,"reserved":0,"last_update":"0001-01-01T00:00:00Z","name_a2s":"Uncletopia | Chicago | 5 | All Maps","protocol":17,"map":"pl_borneo","folder":"tf","game":"Team Fortress","app_id":440,"player_count":24,"max_players":24,"Bots":0,"server_type":"Dedicated","server_os":"Linux","password":true,"vac":true,"version":"7961495","steam_id":85568392924866362,"keywords":["nocrits","nodmgspread","payload","uncletopia"],"game_id":440,"stv_port":27016,"stv_name":"Uncletopia | Chicago | 5 | All Maps | STV","players":[{"user_id":59,"name":"Scorcho","steam_id":76561198071413833,"connected_time":1457000000000,"state":"active","ping":95},{"user_id":65,"name":"Elevator","steam_id":76561198974286387,"connected_time":935000000000,"state":"active","ping":70},{"user_id":69,"name":"Rhutebeer","steam_id":76561198018302761,"connected_time":877000000000,"state":"active","ping":105},{"user_id":11,"name":"Mkwhackertracker","steam_id":76561198128343704,"connected_time":4022000000000,"state":"active","ping":61},{"user_id":12,"name":"Sketch","steam_id":76561198170692678,"connected_time":3995000000000,"state":"active","ping":85},{"user_id":79,"name":"ooidial","steam_id":76561199086221916,"connected_time":35000000000,"state":"spawning","ping":108},{"user_id":75,"name":"BEES","steam_id":76561198811545874,"connected_time":326000000000,"state":"active","ping":63},{"user_id":66,"name":"Bot Maxwell","steam_id":76561198040781615,"connected_time":924000000000,"state":"active","ping":90},{"user_id":52,"name":"corned beef","steam_id":76561199366782761,"connected_time":1940000000000,"state":"active","ping":155},{"user_id":30,"name":"Wilhelmktx","steam_id":76561198158102295,"connected_time":3543000000000,"state":"active","ping":45},{"user_id":64,"name":"Jane Doe (50B)","steam_id":76561199096964288,"connected_time":962000000000,"state":"active","ping":38},{"user_id":26,"name":"ChillyJones","steam_id":76561198017658702,"connected_time":3635000000000,"state":"active","ping":79},{"user_id":40,"name":"CoffeeZombee","steam_id":76561198172708053,"connected_time":3397000000000,"state":"active","ping":85},{"user_id":47,"name":"brains","steam_id":76561198197388678,"connected_time":2691000000000,"state":"active","ping":95},{"user_id":63,"name":"jorjor wells","steam_id":76561199073429082,"connected_time":975000000000,"state":"active","ping":65},{"user_id":31,"name":"Triple-Edged","steam_id":76561198308472155,"connected_time":3535000000000,"state":"active","ping":61},{"user_id":77,"name":"RIP John Pork","steam_id":76561198241948526,"connected_time":266000000000,"state":"active","ping":61},{"user_id":33,"name":"Extro","steam_id":76561198178908694,"connected_time":3498000000000,"state":"active","ping":56},{"user_id":34,"name":"Lil' Diabeetus","steam_id":76561198330119627,"connected_time":3496000000000,"state":"active","ping":75},{"user_id":42,"name":"Bonibunz","steam_id":76561198878583402,"connected_time":3078000000000,"state":"active","ping":97},{"user_id":71,"name":"Disco Fever","steam_id":76561198069532215,"connected_time":818000000000,"state":"active","ping":76},{"user_id":73,"name":"Johnny Lawrence #JohnnyMaxxing","steam_id":76561199367141671,"connected_time":661000000000,"state":"active","ping":60},{"user_id":38,"name":"‚ù§Breadshot (She)‚ù§","steam_id":76561199005756738,"connected_time":3414000000000,"state":"active","ping":58},{"user_id":56,"name":"Grilled Jizo","steam_id":76561199250875340,"connected_time":1604000000000,"state":"active","ping":81}]},{"server_id":37,"name":"Uncletopia | Chicago | 6 | All Maps","name_short":"chi-6","host":"chi-2.us.uncletopia.com","port":27025,"enabled":true,"region":"us-central","cc":"us","latitude":41.881832,"longitude":-87.62318,"reserved":0,"last_update":"0001-01-01T00:00:00Z","name_a2s":"Uncletopia | Chicago | 6 | All Maps","protocol":17,"map":"koth_cascade","folder":"tf","game":"Team Fortress","app_id":440,"player_count":1,"max_players":24,"Bots":0,"server_type":"Dedicated","server_os":"Linux","password":true,"vac":true,"version":"7961495","steam_id":85568392924866363,"keywords":["cp","nocrits","nodmgspread","uncletopia"],"game_id":440,"stv_port":27026,"stv_name":"Uncletopia | Chicago | 6 | All Maps | STV","players":[{"user_id":16,"name":"Engineer Gaming","steam_id":76561198840761529,"connected_time":67000000000,"state":"active","ping":42}]},{"server_id":38,"name":"Uncletopia | Chicago | 7 | Stopwatch Beta","name_short":"chi-7","host":"chi-2.us.uncletopia.com","port":27035,"enabled":true,"region":"us-central","cc":"us","latitude":41.881832,"longitude":-87.62318,"reserved":0,"last_update":"0001-01-01T00:00:00Z","name_a2s":"Uncletopia | Chicago | 7 | Stopwatch Beta","protocol":17,"map":"pl_badwater","folder":"tf","game":"Team Fortress","app_id":440,"player_count":0,"max_players":24,"Bots":0,"server_type":"Dedicated","server_os":"Linux","password":true,"vac":true,"version":"7961495","steam_id":85568392924866364,"keywords":["nocrits","nodmgspread","payload","uncletopia"],"game_id":440,"stv_port":27036,"stv_name":"Uncletopia | Chicago | 7 | Stopwatch Beta | STV","players":null},{"server_id":39,"name":"Uncletopia | Chicago | 8 | Community","name_short":"chi-8","host":"chi-2.us.uncletopia.com","port":27045,"enabled":true,"region":"us-central","cc":"us","latitude":41.881832,"longitude":-87.62318,"reserved":0,"last_update":"0001-01-01T00:00:00Z","name_a2s":"Uncletopia | Chicago | 8 | Community","protocol":17,"map":"workshop/pl_cashworks_final1.ugc2904065412","folder":"tf","game":"Team Fortress","app_id":440,"player_count":24,"max_players":24,"Bots":0,"server_type":"Dedicated","server_os":"Linux","password":true,"vac":true,"version":"7961495","steam_id":85568392924866365,"keywords":["nocrits","nodmgspread","payload","uncletopia"],"game_id":440,"stv_port":27046,"stv_name":"Uncletopia | Chicago | 8 | Community | STV","players":[{"user_id":124,"name":"The StinkFiend","steam_id":76561198796712940,"connected_time":541000000000,"state":"active","ping":55},{"user_id":118,"name":"Whompert","steam_id":76561198042939624,"connected_time":850000000000,"state":"active","ping":93},{"user_id":105,"name":"wawa","steam_id":76561198115556074,"connected_time":1872000000000,"state":"active","ping":67},{"user_id":12,"name":"magickxanadu","steam_id":76561199117360103,"connected_time":6943000000000,"state":"active","ping":82},{"user_id":109,"name":"kloada","steam_id":76561198082113271,"connected_time":1347000000000,"state":"active","ping":166},{"user_id":116,"name":"gulch","steam_id":76561199227946025,"connected_time":892000000000,"state":"active","ping":79},{"user_id":101,"name":"TheGrassMan (He/Him)","steam_id":76561198118984048,"connected_time":2052000000000,"state":"active","ping":72},{"user_id":98,"name":"Mr.AAPN","steam_id":76561198073763769,"connected_time":2144000000000,"state":"active","ping":136},{"user_id":126,"name":"Guardian","steam_id":76561199008367158,"connected_time":312000000000,"state":"active","ping":87},{"user_id":120,"name":"Kallen","steam_id":76561198079693305,"connected_time":770000000000,"state":"active","ping":155},{"user_id":119,"name":"Breach","steam_id":76561198045060392,"connected_time":796000000000,"state":"active","ping":45},{"user_id":92,"name":"Copland OS","steam_id":76561198041800378,"connected_time":2505000000000,"state":"active","ping":81},{"user_id":125,"name":"HunterChopper107","steam_id":76561198986416277,"connected_time":530000000000,"state":"active","ping":41},{"user_id":63,"name":"Astrozombeez","steam_id":76561198113754079,"connected_time":3742000000000,"state":"active","ping":101},{"user_id":103,"name":"Sollyz","steam_id":76561198081110786,"connected_time":1972000000000,"state":"active","ping":99},{"user_id":96,"name":"primordialheath","steam_id":76561199386942638,"connected_time":2338000000000,"state":"active","ping":56},{"user_id":121,"name":"papa john from pizza","steam_id":76561198035669814,"connected_time":622000000000,"state":"active","ping":52},{"user_id":104,"name":"Large Man","steam_id":76561198880396651,"connected_time":1950000000000,"state":"active","ping":89},{"user_id":117,"name":"tsbro40","steam_id":76561199455605580,"connected_time":888000000000,"state":"active","ping":88},{"user_id":113,"name":"Node‚ãÑ","steam_id":76561198219359475,"connected_time":1268000000000,"state":"active","ping":92},{"user_id":54,"name":"Gluppo","steam_id":76561198379320087,"connected_time":4860000000000,"state":"active","ping":77},{"user_id":55,"name":"Grease Magician","steam_id":76561198285410854,"connected_time":4848000000000,"state":"active","ping":86},{"user_id":122,"name":"Market Pliers","steam_id":76561198380473491,"connected_time":605000000000,"state":"active","ping":74},{"user_id":84,"name":"jon.cinnamon","steam_id":76561198127316418,"connected_time":3098000000000,"state":"active","ping":70}]},{"server_id":8,"name":"Uncletopia | Dallas | 1 | All Maps","name_short":"dal-1","host":"dal-1.us.uncletopia.com","port":27015,"enabled":true,"region":"us-central","cc":"us","latitude":32.779167,"longitude":-96.80889,"reserved":0,"last_update":"0001-01-01T00:00:00Z","name_a2s":"Uncletopia | Dallas | 1 | All Maps","protocol":17,"map":"pl_snowycoast","folder":"tf","game":"Team Fortress","app_id":440,"player_count":24,"max_players":24,"Bots":0,"server_type":"Dedicated","server_os":"Linux","password":true,"vac":true,"version":"7961495","steam_id":85568392924469986,"keywords":["nocrits","nodmgspread","payload","uncletopia"],"game_id":440,"stv_port":27016,"stv_name":"Uncletopia | Dallas | 1 | All Maps | STV","players":[{"user_id":410,"name":"CORGI.EXE","steam_id":76561198077093432,"connected_time":4111000000000,"state":"active","ping":92},{"user_id":468,"name":"Manchurian Bandit","steam_id":76561198072410042,"connected_time":752000000000,"state":"active","ping":78},{"user_id":469,"name":"ShadowWasUhOh","steam_id":76561198400361935,"connected_time":679000000000,"state":"active","ping":86},{"user_id":461,"name":"shakoiwa","steam_id":76561199059441773,"connected_time":1346000000000,"state":"active","ping":82},{"user_id":424,"name":"BatJet","steam_id":76561198147738441,"connected_time":3134000000000,"state":"active","ping":102},{"user_id":457,"name":"fasterbum","steam_id":76561198142577444,"connected_time":1577000000000,"state":"active","ping":77},{"user_id":470,"name":"THE STINK","steam_id":76561199226110975,"connected_time":653000000000,"state":"active","ping":61},{"user_id":451,"name":"narwhal","steam_id":76561198879724555,"connected_time":1789000000000,"state":"active","ping":101},{"user_id":471,"name":"Gnome Tank","steam_id":76561198984179092,"connected_time":564000000000,"state":"active","ping":80},{"user_id":454,"name":"Wahaha hee","steam_id":76561198098017157,"connected_time":1636000000000,"state":"active","ping":58},{"user_id":437,"name":"Captain Bong Rips","steam_id":76561198065946939,"connected_time":2712000000000,"state":"active","ping":106},{"user_id":423,"name":"Unk","steam_id":76561198031717617,"connected_time":3146000000000,"state":"active","ping":75},{"user_id":472,"name":"Willem Dafoe","steam_id":76561198037453253,"connected_time":557000000000,"state":"active","ping":84},{"user_id":425,"name":"tonybaloney","steam_id":76561199434233117,"connected_time":3124000000000,"state":"active","ping":46},{"user_id":473,"name":"Deborp","steam_id":76561198118868430,"connected_time":542000000000,"state":"active","ping":78},{"user_id":445,"name":"flippercurve","steam_id":76561199238295034,"connected_time":2136000000000,"state":"active","ping":70},{"user_id":466,"name":"aintnowaiyboi","steam_id":76561198301372369,"connected_time":881000000000,"state":"active","ping":37},{"user_id":463,"name":"chanoc","steam_id":76561198026734746,"connected_time":1282000000000,"state":"active","ping":90},{"user_id":477,"name":"Reague","steam_id":76561199092175631,"connected_time":500000000000,"state":"active","ping":79},{"user_id":475,"name":"glankinator","steam_id":76561198354077256,"connected_time":536000000000,"state":"active","ping":69},{"user_id":439,"name":"PissJar","steam_id":76561199205120538,"connected_time":2556000000000,"state":"active","ping":71},{"user_id":436,"name":"Peepster","steam_id":76561198297854733,"connected_time":2735000000000,"state":"active","ping":100},{"user_id":480,"name":"whatt","steam_id":76561199047486258,"connected_time":113000000000,"state":"active","ping":56},{"user_id":479,"name":"Pancho","steam_id":76561198155847264,"connected_time":286000000000,"state":"active","ping":60}]},{"server_id":108,"name":"Uncletopia | Dallas | 2 | All Maps","name_short":"dal-2","host":"dal-1.us.uncletopia.com","port":27025,"enabled":true,"region":"us-central","cc":"us","latitude":32.779167,"longitude":-96.80889,"reserved":0,"last_update":"0001-01-01T00:00:00Z","name_a2s":"Uncletopia | Dallas | 2 | All Maps","protocol":17,"map":"pl_frontier_final","folder":"tf","game":"Team Fortress","app_id":440,"player_count":23,"max_players":24,"Bots":0,"server_type":"Dedicated","server_os":"Linux","password":true,"vac":true,"version":"7961495","steam_id":85568392924469988,"keywords":["nocrits","nodmgspread","payload","uncletopia"],"game_id":440,"stv_port":27026,"stv_name":"Uncletopia | Dallas | 2 | All Maps | STV","players":[{"user_id":405,"name":"ispongebobz11","steam_id":76561198862843572,"connected_time":754000000000,"state":"active","ping":80},{"user_id":411,"name":"Jasmine Rice","steam_id":76561198163163590,"connected_time":449000000000,"state":"active","ping":60},{"user_id":397,"name":"Echolu","steam_id":76561198158613750,"connected_time":1269000000000,"state":"active","ping":88},{"user_id":395,"name":"‚òÜDoggirl Genius‚òÜ","steam_id":76561198083243888,"connected_time":1714000000000,"state":"active","ping":86},{"user_id":419,"name":"like","steam_id":76561199103766971,"connected_time":27000000000,"state":"active","ping":94},{"user_id":396,"name":"Beat-box champ","steam_id":76561198115714484,"connected_time":1613000000000,"state":"active","ping":134},{"user_id":390,"name":"Richthegamerguy","steam_id":76561198119595413,"connected_time":2368000000000,"state":"active","ping":93},{"user_id":413,"name":"floofy","steam_id":76561198389769098,"connected_time":378000000000,"state":"active","ping":79},{"user_id":416,"name":"Marvelous","steam_id":76561199083888017,"connected_time":127000000000,"state":"active","ping":116},{"user_id":351,"name":"kermitcreeper(ZAZA)","steam_id":76561199222829972,"connected_time":6137000000000,"state":"active","ping":63},{"user_id":382,"name":"icm2008 #SaveTF2","steam_id":76561199277408836,"connected_time":3275000000000,"state":"active","ping":88},{"user_id":417,"name":"scrinkytroph","steam_id":76561198414573977,"connected_time":88000000000,"state":"active","ping":57},{"user_id":403,"name":"Doctor Emerald(real)","steam_id":76561199123003872,"connected_time":820000000000,"state":"active","ping":85},{"user_id":401,"name":"smooth brain","steam_id":76561198049253541,"connected_time":1023000000000,"state":"active","ping":61},{"user_id":408,"name":"Ralis","steam_id":76561198040398748,"connected_time":586000000000,"state":"active","ping":78},{"user_id":418,"name":"Untermensch","steam_id":76561198149634242,"connected_time":57000000000,"state":"active","ping":86},{"user_id":394,"name":"giveit5","steam_id":76561198030815437,"connected_time":1726000000000,"state":"active","ping":72},{"user_id":420,"name":"Zycron0","steam_id":76561199122983789,"connected_time":19000000000,"state":"active","ping":100},{"user_id":410,"name":"Icefury235","steam_id":76561199483354679,"connected_time":559000000000,"state":"active","ping":82},{"user_id":354,"name":"Panda Loser","steam_id":76561198828745176,"connected_time":5918000000000,"state":"active","ping":87},{"user_id":402,"name":"NotBob","steam_id":76561199135833086,"connected_time":994000000000,"state":"active","ping":104},{"user_id":421,"name":"Idk","steam_id":76561198971629959,"connected_time":4000000000,"state":"spawning","ping":131},{"user_id":325,"name":"[√òWQJ√ò]chubacaalatake","steam_id":76561198136201697,"connected_time":8522000000000,"state":"active","ping":135}]},{"server_id":404,"name":"Uncletopia | Dallas | 3 | All Maps","name_short":"dal-3","host":"dal-1.us.uncletopia.com","port":27035,"enabled":true,"region":"us-central","cc":"us","latitude":32.779167,"longitude":-96.80889,"reserved":0,"last_update":"0001-01-01T00:00:00Z","name_a2s":"Uncletopia | Dallas | 3 | All Maps","protocol":17,"map":"pl_swiftwater_final1","folder":"tf","game":"Team Fortress","app_id":440,"player_count":24,"max_players":24,"Bots":0,"server_type":"Dedicated","server_os":"Linux","password":true,"vac":true,"version":"7961495","steam_id":85568392924515219,"keywords":["nocrits","nodmgspread","payload","uncletopia"],"game_id":440,"stv_port":27036,"stv_name":"Uncletopia | Dallas | 3 | All Maps | STV","players":[{"user_id":217,"name":"CorgiYasu","steam_id":76561198082298201,"connected_time":2648000000000,"state":"active","ping":77},{"user_id":240,"name":"Draven","steam_id":76561198074776388,"connected_time":850000000000,"state":"active","ping":54},{"user_id":198,"name":"Missing Minus","steam_id":76561198120822928,"connected_time":3637000000000,"state":"active","ping":61},{"user_id":248,"name":"marceline","steam_id":76561198261007627,"connected_time":244000000000,"state":"active","ping":100},{"user_id":242,"name":"[chef] iron","steam_id":76561197970888616,"connected_time":808000000000,"state":"active","ping":60},{"user_id":175,"name":"Chunk Stuffer","steam_id":76561198856508573,"connected_time":4658000000000,"state":"active","ping":52},{"user_id":244,"name":"One week at Frederick's","steam_id":76561198264752535,"connected_time":446000000000,"state":"active","ping":60},{"user_id":218,"name":"Meep","steam_id":76561198044645661,"connected_time":2636000000000,"state":"active","ping":88},{"user_id":235,"name":"Colonel Salt","steam_id":76561198207009563,"connected_time":1252000000000,"state":"active","ping":59},{"user_id":230,"name":"BlasterPrime","steam_id":76561198084154062,"connected_time":1650000000000,"state":"active","ping":45},{"user_id":250,"name":"Five","steam_id":76561198026640473,"connected_time":177000000000,"state":"active","ping":74},{"user_id":219,"name":"Prime","steam_id":76561198218218705,"connected_time":2585000000000,"state":"active","ping":100},{"user_id":245,"name":"Liebestr√§ume","steam_id":76561198038862034,"connected_time":405000000000,"state":"active","ping":65},{"user_id":233,"name":"Xenophile","steam_id":76561198044772435,"connected_time":1344000000000,"state":"active","ping":63},{"user_id":243,"name":"Gad","steam_id":76561198020792373,"connected_time":789000000000,"state":"active","ping":74},{"user_id":223,"name":"JohnsBriefcase","steam_id":76561198117657002,"connected_time":2321000000000,"state":"active","ping":88},{"user_id":252,"name":"Heathcliff","steam_id":76561198044288534,"connected_time":35000000000,"state":"active","ping":86},{"user_id":247,"name":"The Horselords and Animal Gods","steam_id":76561197975094050,"connected_time":263000000000,"state":"active","ping":93},{"user_id":249,"name":"why","steam_id":76561199059732212,"connected_time":233000000000,"state":"active","ping":74},{"user_id":200,"name":"dog","steam_id":76561198263873491,"connected_time":3622000000000,"state":"active","ping":63},{"user_id":232,"name":"Manofmanybeans","steam_id":76561199213349938,"connected_time":1386000000000,"state":"active","ping":106},{"user_id":251,"name":"lili","steam_id":76561199391478575,"connected_time":103000000000,"state":"active","ping":100},{"user_id":161,"name":"Prez Pineapple","steam_id":76561198253755258,"connected_time":6284000000000,"state":"active","ping":103},{"user_id":229,"name":"Yoshika","steam_id":76561198036858169,"connected_time":1736000000000,"state":"active","ping":88}]},{"server_id":405,"name":"Uncletopia | Dallas | 4 | Community","name_short":"dal-4","host":"dal-1.us.uncletopia.com","port":27045,"enabled":true,"region":"us-central","cc":"us","latitude":32.779167,"longitude":-96.80889,"reserved":0,"last_update":"0001-01-01T00:00:00Z","name_a2s":"Uncletopia | Dallas | 4 | Community","protocol":17,"map":"workshop/cp_croissant_final.ugc458840209","folder":"tf","game":"Team Fortress","app_id":440,"player_count":0,"max_players":24,"Bots":0,"server_type":"Dedicated","server_os":"Linux","password":true,"vac":true,"version":"7961495","steam_id":85568392924515220,"keywords":["cp","nocrits","nodmgspread","uncletopia"],"game_id":440,"stv_port":27046,"stv_name":"Uncletopia | Dallas | 4 | Community | STV","players":null},{"server_id":5,"name":"Uncletopia | Frankfurt | 1 | All Maps","name_short":"frk-1","host":"frk-1.de.uncletopia.com","port":27015,"enabled":true,"region":"eu","cc":"de","latitude":50.110924,"longitude":8.682127,"reserved":0,"last_update":"0001-01-01T00:00:00Z","name_a2s":"Uncletopia | Frankfurt | 1 | All Maps","protocol":17,"map":"pl_snowycoast","folder":"tf","game":"Team Fortress","app_id":440,"player_count":0,"max_players":24,"Bots":0,"server_type":"Dedicated","server_os":"Linux","password":true,"vac":true,"version":"7961495","steam_id":85568392924469989,"keywords":["nocrits","nodmgspread","payload","uncletopia"],"game_id":440,"stv_port":27016,"stv_name":"Uncletopia | Frankfurt | 1 | All Maps | STV","players":null},{"server_id":110,"name":"Uncletopia | Frankfurt | 2 | All Maps","name_short":"frk-2","host":"frk-1.de.uncletopia.com","port":27025,"enabled":true,"region":"eu","cc":"de","latitude":50.110924,"longitude":8.682127,"reserved":0,"last_update":"0001-01-01T00:00:00Z","name_a2s":"Uncletopia | Frankfurt | 2 | All Maps","protocol":17,"map":"pl_snowycoast","folder":"tf","game":"Team Fortress","app_id":440,"player_count":1,"max_players":24,"Bots":0,"server_type":"Dedicated","server_os":"Linux","password":true,"vac":true,"version":"7961495","steam_id":85568392924469990,"keywords":["nocrits","nodmgspread","payload","uncletopia"],"game_id":440,"stv_port":27026,"stv_name":"Uncletopia | Frankfurt | 2 | All Maps | STV","players":[{"user_id":221,"name":"Invoker-sama","steam_id":76561198128470403,"connected_time":276000000000,"state":"active","ping":109}]},{"server_id":308,"name":"Uncletopia | Frankfurt | 3 | All Maps","name_short":"frk-3","host":"frk-1.de.uncletopia.com","port":27035,"enabled":true,"region":"eu","cc":"de","latitude":50.110924,"longitude":8.682127,"reserved":0,"last_update":"0001-01-01T00:00:00Z","name_a2s":"Uncletopia | Frankfurt | 3 | All Maps","protocol":17,"map":"pl_barnblitz","folder":"tf","game":"Team Fortress","app_id":440,"player_count":19,"max_players":24,"Bots":0,"server_type":"Dedicated","server_os":"Linux","password":true,"vac":true,"version":"7961495","steam_id":85568392924504274,"keywords":["nocrits","nodmgspread","payload","uncletopia"],"game_id":440,"stv_port":27036,"stv_name":"Uncletopia | Frankfurt | 3 | All Maps | STV","players":[{"user_id":365,"name":"Cabbch","steam_id":76561198045955679,"connected_time":2285000000000,"state":"active","ping":58},{"user_id":391,"name":"Michal jordan","steam_id":76561199106262610,"connected_time":681000000000,"state":"active","ping":64},{"user_id":360,"name":"üòà COCKDESTROYER üòà","steam_id":76561198042846999,"connected_time":3223000000000,"state":"active","ping":64},{"user_id":372,"name":"Marquis de Hoto","steam_id":76561198080687708,"connected_time":2010000000000,"state":"active","ping":61},{"user_id":380,"name":"Void Termina","steam_id":76561198322466720,"connected_time":1498000000000,"state":"active","ping":67},{"user_id":392,"name":"Black Shadow 634","steam_id":76561199481445037,"connected_time":612000000000,"state":"active","ping":81},{"user_id":396,"name":"dgz","steam_id":76561197979345019,"connected_time":229000000000,"state":"active","ping":93},{"user_id":394,"name":"A single, solemn Doot","steam_id":76561197999459536,"connected_time":487000000000,"state":"active","ping":60},{"user_id":375,"name":"OwOHC","steam_id":76561198859407364,"connected_time":1955000000000,"state":"active","ping":138},{"user_id":397,"name":"Moon","steam_id":76561198047535132,"connected_time":181000000000,"state":"active","ping":66},{"user_id":382,"name":"kaiji_saleh","steam_id":76561199274325425,"connected_time":1209000000000,"state":"active","ping":171},{"user_id":379,"name":"VK2124 :D","steam_id":76561198111130688,"connected_time":1532000000000,"state":"active","ping":47},{"user_id":399,"name":"harrison","steam_id":76561198990132243,"connected_time":169000000000,"state":"active","ping":84},{"user_id":400,"name":"Hyppy ja liipasin pohjaan :D","steam_id":76561198080669698,"connected_time":144000000000,"state":"active","ping":111},{"user_id":401,"name":"MikeyTWolf","steam_id":76561197979325807,"connected_time":140000000000,"state":"active","ping":50},{"user_id":385,"name":"gaming gamer","steam_id":76561198212488780,"connected_time":1070000000000,"state":"active","ping":60},{"user_id":389,"name":"hasansaeedifar","steam_id":76561198974563618,"connected_time":923000000000,"state":"active","ping":160},{"user_id":403,"name":"ByggeSimon","steam_id":76561198134789176,"connected_time":57000000000,"state":"active","ping":73},{"user_id":404,"name":"InStA_KiLLeR","steam_id":76561198121943824,"connected_time":57000000000,"state":"active","ping":84}]},{"server_id":309,"name":"Uncletopia | Frankfurt | 4 | All Maps","name_short":"frk-4","host":"frk-1.de.uncletopia.com","port":27045,"enabled":true,"region":"eu","cc":"de","latitude":50.110924,"longitude":8.682127,"reserved":0,"last_update":"0001-01-01T00:00:00Z","name_a2s":"Uncletopia | Frankfurt | 4 | All Maps","protocol":17,"map":"pl_snowycoast","folder":"tf","game":"Team Fortress","app_id":440,"player_count":24,"max_players":24,"Bots":0,"server_type":"Dedicated","server_os":"Linux","password":true,"vac":true,"version":"7961495","steam_id":85568392924504275,"keywords":["nocrits","nodmgspread","payload","uncletopia"],"game_id":440,"stv_port":27046,"stv_name":"Uncletopia | Frankfurt | 4 | All Maps | STV","players":[{"user_id":209,"name":"anders McFlanders","steam_id":76561198022811995,"connected_time":525000000000,"state":"active","ping":60},{"user_id":206,"name":"Hoxton","steam_id":76561198129209505,"connected_time":877000000000,"state":"active","ping":67},{"user_id":204,"name":"bitkomet","steam_id":76561198058232147,"connected_time":946000000000,"state":"active","ping":76},{"user_id":145,"name":"Pepis the smelly","steam_id":76561198191369066,"connected_time":4491000000000,"state":"active","ping":119},{"user_id":191,"name":"Sprite790856","steam_id":76561198440389325,"connected_time":1857000000000,"state":"active","ping":168},{"user_id":184,"name":"Winthworth","steam_id":76561198344675206,"connected_time":2604000000000,"state":"active","ping":55},{"user_id":125,"name":"kalid","steam_id":76561198051468640,"connected_time":5185000000000,"state":"active","ping":57},{"user_id":194,"name":"Los Trollos","steam_id":76561199094592508,"connected_time":1658000000000,"state":"active","ping":69},{"user_id":198,"name":"zomis","steam_id":76561198217812789,"connected_time":1200000000000,"state":"active","ping":91},{"user_id":171,"name":"Middle","steam_id":76561198039147753,"connected_time":3101000000000,"state":"active","ping":60},{"user_id":165,"name":"xarks","steam_id":76561198026236701,"connected_time":3739000000000,"state":"active","ping":74},{"user_id":205,"name":"o_o","steam_id":76561198113045011,"connected_time":908000000000,"state":"active","ping":99},{"user_id":213,"name":"Haha?","steam_id":76561198056882245,"connected_time":79000000000,"state":"active","ping":46},{"user_id":192,"name":"TriR–ò–å","steam_id":76561198119622375,"connected_time":1849000000000,"state":"active","ping":75},{"user_id":207,"name":"\u003e:(","steam_id":76561199233979726,"connected_time":874000000000,"state":"active","ping":83},{"user_id":200,"name":"Funny Man 625","steam_id":76561198256807474,"connected_time":1141000000000,"state":"active","ping":51},{"user_id":151,"name":"T-90","steam_id":76561198091109552,"connected_time":4408000000000,"state":"active","ping":101},{"user_id":193,"name":"hawkblob","steam_id":76561198803720565,"connected_time":1796000000000,"state":"active","ping":74},{"user_id":201,"name":"Galleren","steam_id":76561198347887402,"connected_time":1131000000000,"state":"active","ping":77},{"user_id":179,"name":"Zm4j","steam_id":76561198259465946,"connected_time":2937000000000,"state":"active","ping":75},{"user_id":136,"name":"rob","steam_id":76561198122211848,"connected_time":4855000000000,"state":"active","ping":91},{"user_id":202,"name":"Pvt. Prinny","steam_id":76561198030278562,"connected_time":1126000000000,"state":"active","ping":57},{"user_id":212,"name":"cat","steam_id":76561198305304708,"connected_time":101000000000,"state":"active","ping":61},{"user_id":183,"name":"Villdjack","steam_id":76561197999480096,"connected_time":2698000000000,"state":"active","ping":72}]},{"server_id":310,"name":"Uncletopia | Frankfurt | 5 | All Maps","name_short":"frk-5","host":"frk-1.de.uncletopia.com","port":27055,"enabled":true,"region":"eu","cc":"de","latitude":50.110924,"longitude":8.682127,"reserved":0,"last_update":"0001-01-01T00:00:00Z","name_a2s":"Uncletopia | Frankfurt | 5 | All Maps","protocol":17,"map":"pl_pier","folder":"tf","game":"Team Fortress","app_id":440,"player_count":24,"max_players":24,"Bots":0,"server_type":"Dedicated","server_os":"Linux","password":true,"vac":true,"version":"7961495","steam_id":85568392924504277,"keywords":["nocrits","nodmgspread","payload","uncletopia"],"game_id":440,"stv_port":27056,"stv_name":"Uncletopia | Frankfurt | 5 | All Maps | STV","players":[{"user_id":175,"name":"Slavdrew20","steam_id":76561198874638395,"connected_time":2084000000000,"state":"active","ping":61},{"user_id":169,"name":"yush","steam_id":76561198121688934,"connected_time":2285000000000,"state":"active","ping":67},{"user_id":191,"name":"G.R.E","steam_id":76561197979806514,"connected_time":556000000000,"state":"active","ping":45},{"user_id":181,"name":"generic alias","steam_id":76561198271607226,"connected_time":1106000000000,"state":"active","ping":96},{"user_id":194,"name":"Van_Zacharias","steam_id":76561198058612253,"connected_time":544000000000,"state":"active","ping":61},{"user_id":142,"name":"Baskin","steam_id":76561198275982976,"connected_time":3504000000000,"state":"active","ping":112},{"user_id":201,"name":"tired","steam_id":76561198046838168,"connected_time":116000000000,"state":"active","ping":53},{"user_id":163,"name":"tone","steam_id":76561197975301462,"connected_time":2506000000000,"state":"active","ping":86},{"user_id":193,"name":"Popop","steam_id":76561198004793795,"connected_time":550000000000,"state":"active","ping":46},{"user_id":192,"name":"Tony","steam_id":76561198181269126,"connected_time":552000000000,"state":"active","ping":60},{"user_id":184,"name":"Xonrus","steam_id":76561198074717396,"connected_time":951000000000,"state":"active","ping":58},{"user_id":186,"name":"–æ–Ω","steam_id":76561198172046813,"connected_time":891000000000,"state":"active","ping":75},{"user_id":166,"name":"Doctor Marijuana","steam_id":76561198288289879,"connected_time":2412000000000,"state":"active","ping":64},{"user_id":174,"name":"Hleno","steam_id":76561198060442619,"connected_time":2222000000000,"state":"active","ping":45},{"user_id":195,"name":"cez","steam_id":76561198361380956,"connected_time":526000000000,"state":"active","ping":70},{"user_id":130,"name":"I jazzed myself","steam_id":76561198203016603,"connected_time":4207000000000,"state":"active","ping":77},{"user_id":189,"name":"JeanCorben","steam_id":76561197965133561,"connected_time":569000000000,"state":"active","ping":46},{"user_id":196,"name":"B≈Å√§ck..","steam_id":76561198300644952,"connected_time":522000000000,"state":"active","ping":64},{"user_id":190,"name":"tobs","steam_id":76561197987616937,"connected_time":566000000000,"state":"active","ping":60},{"user_id":187,"name":"Lyncurion","steam_id":76561199260022725,"connected_time":867000000000,"state":"active","ping":79},{"user_id":197,"name":"goga 3","steam_id":76561198375486320,"connected_time":515000000000,"state":"active","ping":65},{"user_id":135,"name":"Dokuro","steam_id":76561198005413903,"connected_time":4096000000000,"state":"active","ping":71},{"user_id":202,"name":"miiq130","steam_id":76561198188010666,"connected_time":5000000000,"state":"spawning","ping":73},{"user_id":154,"name":"jge","steam_id":76561198123186387,"connected_time":3327000000000,"state":"active","ping":52}]},{"server_id":311,"name":"Uncletopia | Frankfurt | 6 | All Maps","name_short":"frk-6","host":"frk-1.de.uncletopia.com","port":27065,"enabled":true,"region":"eu","cc":"de","latitude":50.110924,"longitude":8.682127,"reserved":0,"last_update":"0001-01-01T00:00:00Z","name_a2s":"Uncletopia | Frankfurt | 6 | All Maps","protocol":17,"map":"cp_sunshine","folder":"tf","game":"Team Fortress","app_id":440,"player_count":0,"max_players":24,"Bots":0,"server_type":"Dedicated","server_os":"Linux","password":true,"vac":true,"version":"7961495","steam_id":85568392924504278,"keywords":["cp","nocrits","nodmgspread","uncletopia"],"game_id":440,"stv_port":27066,"stv_name":"Uncletopia | Frankfurt | 6 | All Maps | STV","players":null},{"server_id":23,"name":"Uncletopia | Frankfurt | 7 | Stopwatch Beta","name_short":"frk-7","host":"frk-1.de.uncletopia.com","port":27075,"enabled":true,"region":"eu","cc":"de","latitude":50.110924,"longitude":8.682127,"reserved":0,"last_update":"0001-01-01T00:00:00Z","name_a2s":"Uncletopia | Frankfurt | 7 | Stopwatch Beta","protocol":17,"map":"workshop/koth_bagel_rc6.ugc2514036946","folder":"tf","game":"Team Fortress","app_id":440,"player_count":0,"max_players":24,"Bots":0,"server_type":"Dedicated","server_os":"Linux","password":true,"vac":true,"version":"7961495","steam_id":85568392924742827,"keywords":["cp","nocrits","nodmgspread","uncletopia"],"game_id":440,"stv_port":27076,"stv_name":"Uncletopia | Frankfurt | 7 | Stopwatch Beta | STV","players":null},{"server_id":24,"name":"Uncletopia | Frankfurt | 8 | Community","name_short":"frk-8","host":"frk-1.de.uncletopia.com","port":27085,"enabled":true,"region":"eu","cc":"de","latitude":50.110924,"longitude":8.682127,"reserved":0,"last_update":"0001-01-01T00:00:00Z","name_a2s":"Uncletopia | Frankfurt | 8 | Community","protocol":17,"map":"workshop/koth_ashville_final.ugc2130459942","folder":"tf","game":"Team Fortress","app_id":440,"player_count":0,"max_players":24,"Bots":0,"server_type":"Dedicated","server_os":"Linux","password":true,"vac":true,"version":"7961495","steam_id":85568392924742828,"keywords":["cp","nocrits","nodmgspread","uncletopia"],"game_id":440,"stv_port":27086,"stv_name":"Uncletopia | Frankfurt | 8 | Community | STV","players":null},{"server_id":202,"name":"Uncletopia | Hong Kong | 1 | All Maps","name_short":"hgk-1","host":"hgk-1.hk.uncletopia.com","port":27015,"enabled":true,"region":"asia","cc":"hk","latitude":22.302711,"longitude":114.177216,"reserved":0,"last_update":"0001-01-01T00:00:00Z","name_a2s":"Uncletopia | Hong Kong | 1 | All Maps","protocol":17,"map":"koth_viaduct","folder":"tf","game":"Team Fortress","app_id":440,"player_count":0,"max_players":24,"Bots":0,"server_type":"Dedicated","server_os":"Linux","password":true,"vac":true,"version":"7961495","steam_id":85568392924494504,"keywords":["cp","nocrits","nodmgspread","uncletopia"],"game_id":440,"stv_port":27016,"stv_name":"Uncletopia | Hong Kong | 1 | All Maps | STV","players":null},{"server_id":1,"name":"Uncletopia | Los Angeles | 1 | All Maps","name_short":"lax-1","host":"lax-1.us.uncletopia.com","port":27015,"enabled":true,"region":"us-west","cc":"us","latitude":33.94279,"longitude":-118.41004,"reserved":0,"last_update":"0001-01-01T00:00:00Z","name_a2s":"Uncletopia | Los Angeles | 1 | All Maps","protocol":17,"map":"cp_dustbowl","folder":"tf","game":"Team Fortress","app_id":440,"player_count":24,"max_players":24,"Bots":0,"server_type":"Dedicated","server_os":"Linux","password":true,"vac":true,"version":"7961495","steam_id":85568392924469991,"keywords":["cp","nocrits","nodmgspread","uncletopia"],"game_id":440,"stv_port":27016,"stv_name":"Uncletopia | Los Angeles | 1 | All Maps | STV","players":[{"user_id":6,"name":"Imnotnuggets","steam_id":76561198886670414,"connected_time":7101000000000,"state":"active","ping":75},{"user_id":79,"name":"pinkacrash","steam_id":76561198110723576,"connected_time":1255000000000,"state":"active","ping":32},{"user_id":63,"name":"Maxmind24","steam_id":76561198859888778,"connected_time":3319000000000,"state":"active","ping":90},{"user_id":51,"name":"BurdBrain","steam_id":76561197962097737,"connected_time":4001000000000,"state":"active","ping":61},{"user_id":12,"name":"Jimmy","steam_id":76561198857959855,"connected_time":6046000000000,"state":"active","ping":47},{"user_id":81,"name":"noceof","steam_id":76561198043656816,"connected_time":1241000000000,"state":"active","ping":175},{"user_id":85,"name":"g√Øbster","steam_id":76561198388032598,"connected_time":430000000000,"state":"active","ping":53},{"user_id":70,"name":"Ralph Kramden (Slim Charles)","steam_id":76561197981687895,"connected_time":2274000000000,"state":"active","ping":58},{"user_id":49,"name":"D.Porter","steam_id":76561198396340174,"connected_time":4216000000000,"state":"active","ping":113},{"user_id":54,"name":"KlassicLoL","steam_id":76561198081815303,"connected_time":3585000000000,"state":"active","ping":47},{"user_id":64,"name":"pumpkin patch","steam_id":76561198381020239,"connected_time":3294000000000,"state":"active","ping":58},{"user_id":71,"name":"andyiscolorless","steam_id":76561199239870921,"connected_time":2215000000000,"state":"active","ping":166},{"user_id":84,"name":"ElShaggy","steam_id":76561198148870214,"connected_time":567000000000,"state":"active","ping":60},{"user_id":92,"name":"De Monki","steam_id":76561198964210411,"connected_time":187000000000,"state":"active","ping":62},{"user_id":58,"name":"ShadowZiki","steam_id":76561198145930013,"connected_time":3476000000000,"state":"active","ping":45},{"user_id":65,"name":"Kiilys","steam_id":76561198326068377,"connected_time":3249000000000,"state":"active","ping":68},{"user_id":88,"name":"Organ Harvester","steam_id":76561198069948353,"connected_time":359000000000,"state":"active","ping":83},{"user_id":73,"name":"thatguywhoalwaysdies","steam_id":76561198824724631,"connected_time":2181000000000,"state":"active","ping":103},{"user_id":32,"name":"Superman123389","steam_id":76561198267472539,"connected_time":4862000000000,"state":"active","ping":93},{"user_id":74,"name":"CrazyKermitRubes","steam_id":76561198009065204,"connected_time":2177000000000,"state":"active","ping":119},{"user_id":75,"name":"Alyx","steam_id":76561198046526130,"connected_time":2175000000000,"state":"active","ping":154},{"user_id":93,"name":"Dullahan","steam_id":76561198119668908,"connected_time":170000000000,"state":"active","ping":57},{"user_id":90,"name":"gatorbelt","steam_id":76561198145784505,"connected_time":274000000000,"state":"active","ping":45},{"user_id":91,"name":"Weakforanimebitches","steam_id":76561198217663016,"connected_time":256000000000,"state":"active","ping":51}]},{"server_id":112,"name":"Uncletopia | Los Angeles | 2 | All Maps","name_short":"lax-2","host":"lax-1.us.uncletopia.com","port":27025,"enabled":true,"region":"us-west","cc":"us","latitude":33.94279,"longitude":-118.41004,"reserved":0,"last_update":"0001-01-01T00:00:00Z","name_a2s":"Uncletopia | Los Angeles | 2 | All Maps","protocol":17,"map":"pl_upward","folder":"tf","game":"Team Fortress","app_id":440,"player_count":0,"max_players":24,"Bots":0,"server_type":"Dedicated","server_os":"Linux","password":true,"vac":true,"version":"7961495","steam_id":85568392924469992,"keywords":["nocrits","nodmgspread","payload","uncletopia"],"game_id":440,"stv_port":27026,"stv_name":"Uncletopia | Los Angeles | 2 | All Maps | STV","players":null},{"server_id":324,"name":"Uncletopia | Los Angeles | 3 | All Maps","name_short":"lax-3","host":"lax-1.us.uncletopia.com","port":27035,"enabled":true,"region":"us-west","cc":"us","latitude":33.94279,"longitude":-118.41004,"reserved":0,"last_update":"0001-01-01T00:00:00Z","name_a2s":"Uncletopia | Los Angeles | 3 | All Maps","protocol":17,"map":"pl_upward","folder":"tf","game":"Team Fortress","app_id":440,"player_count":24,"max_players":24,"Bots":0,"server_type":"Dedicated","server_os":"Linux","password":true,"vac":true,"version":"7961495","steam_id":85568392924510198,"keywords":["nocrits","nodmgspread","payload","uncletopia"],"game_id":440,"stv_port":27036,"stv_name":"Uncletopia | Los Angeles | 3 | All Maps | STV","players":[{"user_id":15,"name":"BarrowBaron","steam_id":76561198013633236,"connected_time":1750000000000,"state":"active","ping":115},{"user_id":44,"name":"spy main (spy sucks)","steam_id":76561198922763623,"connected_time":338000000000,"state":"active","ping":49},{"user_id":9,"name":"Dreamzapp","steam_id":76561199084936632,"connected_time":2633000000000,"state":"active","ping":67},{"user_id":34,"name":"Silly Shark","steam_id":76561198130714378,"connected_time":940000000000,"state":"active","ping":95},{"user_id":11,"name":"purpledrake08","steam_id":76561199155657280,"connected_time":2442000000000,"state":"active","ping":120},{"user_id":12,"name":"GJDon","steam_id":76561199026755019,"connected_time":2033000000000,"state":"active","ping":100},{"user_id":13,"name":"alpha1zer0ready","steam_id":76561199206731331,"connected_time":1925000000000,"state":"active","ping":56},{"user_id":19,"name":"Thing 2","steam_id":76561199127118961,"connected_time":1494000000000,"state":"active","ping":47},{"user_id":21,"name":"theally105","steam_id":76561199171663406,"connected_time":1409000000000,"state":"active","ping":152},{"user_id":18,"name":"BoyKisser","steam_id":76561199200969139,"connected_time":1620000000000,"state":"active","ping":116},{"user_id":22,"name":"Kamin","steam_id":76561198255299559,"connected_time":1352000000000,"state":"active","ping":98},{"user_id":35,"name":"G‡∂ûMER","steam_id":76561198340389876,"connected_time":888000000000,"state":"active","ping":53},{"user_id":24,"name":"buckydargon","steam_id":76561197991480502,"connected_time":1217000000000,"state":"active","ping":94},{"user_id":30,"name":"In-N-Out Double Double","steam_id":76561198104086771,"connected_time":1065000000000,"state":"active","ping":48},{"user_id":26,"name":"B.Beat","steam_id":76561199011485095,"connected_time":1158000000000,"state":"active","ping":55},{"user_id":42,"name":"cool beans","steam_id":76561198045758072,"connected_time":460000000000,"state":"active","ping":54},{"user_id":49,"name":"Haloman","steam_id":76561198119610371,"connected_time":220000000000,"state":"active","ping":85},{"user_id":48,"name":"Altruisticailuridae","steam_id":76561198335295596,"connected_time":236000000000,"state":"active","ping":56},{"user_id":36,"name":"BreadnDip","steam_id":76561198362635423,"connected_time":851000000000,"state":"active","ping":85},{"user_id":47,"name":"Slabz","steam_id":76561199072777158,"connected_time":318000000000,"state":"active","ping":104},{"user_id":37,"name":"Rix FPV","steam_id":76561198299320893,"connected_time":837000000000,"state":"active","ping":110},{"user_id":38,"name":"Skip Hop Doo Bop","steam_id":76561199161571849,"connected_time":824000000000,"state":"active","ping":57},{"user_id":50,"name":"SgtMaj Soggy Titties","steam_id":76561198067732216,"connected_time":214000000000,"state":"active","ping":97},{"user_id":40,"name":"Ghost","steam_id":76561198140622518,"connected_time":738000000000,"state":"active","ping":70}]},{"server_id":25,"name":"Uncletopia | Los Angeles | 4 | Stopwatch Beta","name_short":"lax-4","host":"lax-1.us.uncletopia.com","port":27045,"enabled":true,"region":"us-west","cc":"us","latitude":33.94279,"longitude":-118.41004,"reserved":0,"last_update":"0001-01-01T00:00:00Z","name_a2s":"Uncletopia | Los Angeles | 4 | Stopwatch Beta","protocol":17,"map":"pl_upward","folder":"tf","game":"Team Fortress","app_id":440,"player_count":0,"max_players":24,"Bots":0,"server_type":"Dedicated","server_os":"Linux","password":true,"vac":true,"version":"7961495","steam_id":85568392924510199,"keywords":["nocrits","nodmgspread","payload","uncletopia"],"game_id":440,"stv_port":27046,"stv_name":"Uncletopia | Los Angeles | 4 | Stopwatch Beta | STV","players":null},{"server_id":11,"name":"Uncletopia | London | 1 | All Maps","name_short":"lon-1","host":"lon-1.uk.uncletopia.com","port":27015,"enabled":true,"region":"eu","cc":"gb","latitude":51.509865,"longitude":-0.118092,"reserved":0,"last_update":"0001-01-01T00:00:00Z","name_a2s":"Uncletopia | London | 1 | All Maps","protocol":17,"map":"koth_harvest_final","folder":"tf","game":"Team Fortress","app_id":440,"player_count":24,"max_players":24,"Bots":0,"server_type":"Dedicated","server_os":"Linux","password":true,"vac":true,"version":"7961495","steam_id":85568392924367362,"keywords":["cp","nocrits","nodmgspread","uncletopia"],"game_id":440,"stv_port":27016,"stv_name":"Uncletopia | London | 1 | All Maps | STV","players":[{"user_id":536,"name":"joni","steam_id":76561197997323419,"connected_time":996000000000,"state":"active","ping":82},{"user_id":524,"name":"teddy","steam_id":76561198007436837,"connected_time":2577000000000,"state":"active","ping":45},{"user_id":519,"name":"Minimi","steam_id":76561198873850443,"connected_time":2887000000000,"state":"active","ping":53},{"user_id":482,"name":"Kphi(i)","steam_id":76561198970587061,"connected_time":6274000000000,"state":"active","ping":59},{"user_id":529,"name":"Welder","steam_id":76561198355300561,"connected_time":2019000000000,"state":"active","ping":72},{"user_id":541,"name":"Aaron","steam_id":76561197990046953,"connected_time":456000000000,"state":"active","ping":60},{"user_id":515,"name":"Son Goku","steam_id":76561199383437138,"connected_time":3392000000000,"state":"active","ping":116},{"user_id":507,"name":"BreadBubbles","steam_id":76561198174332826,"connected_time":4235000000000,"state":"active","ping":65},{"user_id":527,"name":"Pantroglodytestherapy","steam_id":76561198236015392,"connected_time":2196000000000,"state":"active","ping":119},{"user_id":543,"name":"Alone","steam_id":76561199050383942,"connected_time":344000000000,"state":"active","ping":59},{"user_id":533,"name":"ein'd","steam_id":76561198152162834,"connected_time":1503000000000,"state":"active","ping":99},{"user_id":544,"name":"JAMMA RAMMA","steam_id":76561198011539149,"connected_time":231000000000,"state":"active","ping":132},{"user_id":542,"name":"shooer!","steam_id":76561198110531281,"connected_time":373000000000,"state":"active","ping":62},{"user_id":521,"name":"owo","steam_id":76561198158209651,"connected_time":2852000000000,"state":"active","ping":69},{"user_id":531,"name":"flappi","steam_id":76561198072892783,"connected_time":1955000000000,"state":"active","ping":69},{"user_id":540,"name":"beebo","steam_id":76561199120277007,"connected_time":606000000000,"state":"active","ping":59},{"user_id":532,"name":"AWildTamim","steam_id":76561198048060652,"connected_time":1612000000000,"state":"active","ping":41},{"user_id":539,"name":"trans werewolf","steam_id":76561198107235989,"connected_time":921000000000,"state":"active","ping":69},{"user_id":458,"name":"killer of noob, winner of game","steam_id":76561198190583242,"connected_time":8641000000000,"state":"active","ping":85},{"user_id":520,"name":"sora","steam_id":76561198096547662,"connected_time":2886000000000,"state":"active","ping":52},{"user_id":435,"name":"Snake-chan","steam_id":76561199044755854,"connected_time":10435000000000,"state":"active","ping":78},{"user_id":314,"name":"halow","steam_id":76561198061505163,"connected_time":16325000000000,"state":"active","ping":107},{"user_id":502,"name":"Illy","steam_id":76561198045537823,"connected_time":4698000000000,"state":"active","ping":66},{"user_id":438,"name":"Lyra","steam_id":76561198043601838,"connected_time":10085000000000,"state":"active","ping":75}]},{"server_id":114,"name":"Uncletopia | London | 2 | All Maps","name_short":"lon-2","host":"lon-1.uk.uncletopia.com","port":27025,"enabled":true,"region":"eu","cc":"gb","latitude":51.509865,"longitude":-0.118092,"reserved":0,"last_update":"0001-01-01T00:00:00Z","name_a2s":"Uncletopia | London | 2 | All Maps","protocol":17,"map":"pl_barnblitz","folder":"tf","game":"Team Fortress","app_id":440,"player_count":0,"max_players":24,"Bots":0,"server_type":"Dedicated","server_os":"Linux","password":true,"vac":true,"version":"7961495","steam_id":85568392924470941,"keywords":["nocrits","nodmgspread","payload","uncletopia"],"game_id":440,"stv_port":27026,"stv_name":"Uncletopia | London | 2 | All Maps | STV","players":null},{"server_id":320,"name":"Uncletopia | London | 3 | All Maps","name_short":"lon-3","host":"lon-1.uk.uncletopia.com","port":27035,"enabled":true,"region":"eu","cc":"gb","latitude":51.509865,"longitude":-0.118092,"reserved":0,"last_update":"0001-01-01T00:00:00Z","name_a2s":"Uncletopia | London | 3 | All Maps","protocol":17,"map":"pl_barnblitz","folder":"tf","game":"Team Fortress","app_id":440,"player_count":24,"max_players":24,"Bots":0,"server_type":"Dedicated","server_os":"Linux","password":true,"vac":true,"version":"7961495","steam_id":85568392924510192,"keywords":["nocrits","nodmgspread","payload","uncletopia"],"game_id":440,"stv_port":27036,"stv_name":"Uncletopia | London | 3 | All Maps | STV","players":[{"user_id":410,"name":"BD[PL]","steam_id":76561198115995871,"connected_time":2800000000000,"state":"active","ping":87},{"user_id":436,"name":"ashley","steam_id":76561198448551449,"connected_time":390000000000,"state":"active","ping":29},{"user_id":340,"name":"Lord Lem0ns!","steam_id":76561198323174893,"connected_time":7451000000000,"state":"active","ping":80},{"user_id":329,"name":"flamingosaurus","steam_id":76561198051455397,"connected_time":8371000000000,"state":"active","ping":44},{"user_id":432,"name":"Tipp","steam_id":76561198184360615,"connected_time":769000000000,"state":"active","ping":104},{"user_id":437,"name":"Average Medic Enjoyer","steam_id":76561198048867302,"connected_time":374000000000,"state":"active","ping":64},{"user_id":443,"name":"Spik√†","steam_id":76561197999582114,"connected_time":312000000000,"state":"active","ping":74},{"user_id":444,"name":"mans big iron","steam_id":76561198011819389,"connected_time":73000000000,"state":"active","ping":70},{"user_id":406,"name":"–ó–∞–¥–Ω–µ–ø—Ä–æ—Ö–æ–¥–µ—Ü","steam_id":76561198059741978,"connected_time":3529000000000,"state":"active","ping":86},{"user_id":392,"name":"nivlemo :)","steam_id":76561198963784884,"connected_time":4071000000000,"state":"active","ping":73},{"user_id":438,"name":"beheading video from 2009","steam_id":76561198834897089,"connected_time":373000000000,"state":"active","ping":69},{"user_id":439,"name":"f0x","steam_id":76561198072921704,"connected_time":371000000000,"state":"active","ping":46},{"user_id":445,"name":"Sir Taunts Alot","steam_id":76561199143583245,"connected_time":67000000000,"state":"active","ping":61},{"user_id":441,"name":"trill","steam_id":76561198059598696,"connected_time":351000000000,"state":"active","ping":61},{"user_id":349,"name":"James","steam_id":76561198168882012,"connected_time":7123000000000,"state":"active","ping":43},{"user_id":431,"name":"git bash -er","steam_id":76561198072586494,"connected_time":939000000000,"state":"active","ping":41},{"user_id":442,"name":"–ê–±—Å–æ–ª—é—Ç–Ω–∞—è –≤–æ–¥–∫–∞","steam_id":76561198886250433,"connected_time":344000000000,"state":"active","ping":74},{"user_id":423,"name":"a single slightly peeled banana","steam_id":76561198088228092,"connected_time":1779000000000,"state":"active","ping":46},{"user_id":435,"name":"Wilderhammer","steam_id":76561198132133702,"connected_time":407000000000,"state":"active","ping":51},{"user_id":433,"name":"fernandobmwm355555","steam_id":76561198086609447,"connected_time":607000000000,"state":"active","ping":55},{"user_id":425,"name":"padillacampos","steam_id":76561198161923970,"connected_time":1723000000000,"state":"active","ping":75},{"user_id":426,"name":"Toa LightMakuta","steam_id":76561198212178104,"connected_time":1710000000000,"state":"active","ping":49},{"user_id":419,"name":"a perfectly fine dog","steam_id":76561198000890796,"connected_time":1920000000000,"state":"active","ping":76},{"user_id":428,"name":"zak","steam_id":76561197998895428,"connected_time":1642000000000,"state":"active","ping":67}]},{"server_id":321,"name":"Uncletopia | London | 4 | All Maps","name_short":"lon-4","host":"lon-1.uk.uncletopia.com","port":27045,"enabled":true,"region":"eu","cc":"gb","latitude":51.509865,"longitude":-0.118092,"reserved":0,"last_update":"0001-01-01T00:00:00Z","name_a2s":"Uncletopia | London | 4 | All Maps","protocol":17,"map":"pl_borneo","folder":"tf","game":"Team Fortress","app_id":440,"player_count":24,"max_players":24,"Bots":0,"server_type":"Dedicated","server_os":"Linux","password":true,"vac":true,"version":"7961495","steam_id":85568392924510193,"keywords":["nocrits","nodmgspread","payload","uncletopia"],"game_id":440,"stv_port":27046,"stv_name":"Uncletopia | London | 4 | All Maps | STV","players":[{"user_id":532,"name":"D0kai","steam_id":76561198389271720,"connected_time":251000000000,"state":"active","ping":51},{"user_id":533,"name":"General Petrov","steam_id":76561198027204104,"connected_time":242000000000,"state":"active","ping":79},{"user_id":478,"name":"ToonFood","steam_id":76561198038594124,"connected_time":3399000000000,"state":"active","ping":52},{"user_id":480,"name":"SuperCeleste‚ù§Ô∏èTrans Rights","steam_id":76561198167207053,"connected_time":3137000000000,"state":"active","ping":159},{"user_id":517,"name":"sam-","steam_id":76561198013770973,"connected_time":1373000000000,"state":"active","ping":69},{"user_id":534,"name":"[T]aKer","steam_id":76561198001778013,"connected_time":206000000000,"state":"active","ping":47},{"user_id":520,"name":"Orange :3","steam_id":76561198963378933,"connected_time":1259000000000,"state":"active","ping":42},{"user_id":525,"name":"GGabe","steam_id":76561198117199068,"connected_time":951000000000,"state":"active","ping":68},{"user_id":530,"name":"teleporter main","steam_id":76561198851157897,"connected_time":439000000000,"state":"active","ping":63},{"user_id":465,"name":"Girlboy Theenie","steam_id":76561198029025500,"connected_time":5026000000000,"state":"active","ping":64},{"user_id":487,"name":"Aspartus","steam_id":76561198101385763,"connected_time":2689000000000,"state":"active","ping":40},{"user_id":536,"name":"I WILL CHANGE YOU","steam_id":76561198798803845,"connected_time":42000000000,"state":"active","ping":48},{"user_id":537,"name":"MoonDrop","steam_id":76561199356493519,"connected_time":40000000000,"state":"spawning","ping":6282},{"user_id":492,"name":"a leaf","steam_id":76561198242599168,"connected_time":2606000000000,"state":"active","ping":39},{"user_id":493,"name":"fart poo penis","steam_id":76561199008015028,"connected_time":2590000000000,"state":"active","ping":53},{"user_id":526,"name":"Mike","steam_id":76561198228455736,"connected_time":936000000000,"state":"active","ping":60},{"user_id":505,"name":"Lilliputt","steam_id":76561198090146457,"connected_time":2262000000000,"state":"active","ping":39},{"user_id":519,"name":"disc0rd","steam_id":76561197985965776,"connected_time":1262000000000,"state":"active","ping":66},{"user_id":521,"name":"havoc","steam_id":76561198315371425,"connected_time":1254000000000,"state":"active","ping":45},{"user_id":535,"name":"ne0n","steam_id":76561198032101031,"connected_time":143000000000,"state":"active","ping":108},{"user_id":498,"name":"outlaw","steam_id":76561198323805289,"connected_time":2529000000000,"state":"active","ping":44},{"user_id":538,"name":"Guwop","steam_id":76561197970425737,"connected_time":38000000000,"state":"active","ping":145},{"user_id":467,"name":"Twingo","steam_id":76561198207042812,"connected_time":4964000000000,"state":"active","ping":81},{"user_id":516,"name":"Brian","steam_id":76561198077756206,"connected_time":1464000000000,"state":"active","ping":38}]},{"server_id":21,"name":"Uncletopia | London | 5 | All Maps","name_short":"lon-5","host":"lon-1.uk.uncletopia.com","port":27055,"enabled":true,"region":"eu","cc":"gb","latitude":51.509865,"longitude":-0.118092,"reserved":0,"last_update":"0001-01-01T00:00:00Z","name_a2s":"Uncletopia | London | 5 | All Maps","protocol":17,"map":"cp_snakewater_final1","folder":"tf","game":"Team Fortress","app_id":440,"player_count":24,"max_players":24,"Bots":0,"server_type":"Dedicated","server_os":"Linux","password":true,"vac":true,"version":"7961495","steam_id":85568392924742829,"keywords":["cp","nocrits","nodmgspread","uncletopia"],"game_id":440,"stv_port":27056,"stv_name":"Uncletopia | London | 5 | All Maps | STV","players":[{"user_id":276,"name":"Vince","steam_id":76561199103000131,"connected_time":758000000000,"state":"active","ping":43},{"user_id":255,"name":"Granny","steam_id":76561198335585737,"connected_time":1631000000000,"state":"active","ping":45},{"user_id":265,"name":"Ozzie","steam_id":76561197992915315,"connected_time":1104000000000,"state":"active","ping":75},{"user_id":270,"name":"Urfangonultasadana","steam_id":76561199389286151,"connected_time":894000000000,"state":"active","ping":98},{"user_id":286,"name":"yush","steam_id":76561198121688934,"connected_time":10000000000,"state":"active","ping":88},{"user_id":271,"name":"shadow wizard money gang","steam_id":76561199062586342,"connected_time":840000000000,"state":"active","ping":70},{"user_id":287,"name":"ByggeSimon","steam_id":76561198134789176,"connected_time":2000000000,"state":"spawning","ping":59},{"user_id":281,"name":"worm with a fat ass","steam_id":76561198170026338,"connected_time":454000000000,"state":"active","ping":73},{"user_id":260,"name":"Gubbly Bubbins","steam_id":76561198101451654,"connected_time":1409000000000,"state":"active","ping":54},{"user_id":272,"name":"etc","steam_id":76561197998394797,"connected_time":829000000000,"state":"active","ping":55},{"user_id":273,"name":"[HOL] Solringen","steam_id":76561198003584681,"connected_time":809000000000,"state":"active","ping":78},{"user_id":274,"name":"‚ô•ImWithMilk","steam_id":76561198269577569,"connected_time":784000000000,"state":"active","ping":50},{"user_id":244,"name":"UltimateSlayer","steam_id":76561198384109309,"connected_time":2325000000000,"state":"active","ping":59},{"user_id":159,"name":"DelaNo","steam_id":76561199125086655,"connected_time":7226000000000,"state":"active","ping":39},{"user_id":288,"name":"Xyeed","steam_id":76561198055596799,"connected_time":1000000000,"state":"spawning","ping":38},{"user_id":277,"name":"Local Dumbass","steam_id":76561198252211608,"connected_time":716000000000,"state":"active","ping":82},{"user_id":228,"name":"C.H.E.R.E.P.","steam_id":76561198026938595,"connected_time":3139000000000,"state":"active","ping":86},{"user_id":264,"name":"Jack","steam_id":76561198107539027,"connected_time":1151000000000,"state":"active","ping":58},{"user_id":162,"name":"Eterneon","steam_id":76561198354080949,"connected_time":7141000000000,"state":"active","ping":60},{"user_id":253,"name":"Ceiling fan enthusiast","steam_id":76561197989214268,"connected_time":1802000000000,"state":"active","ping":62},{"user_id":279,"name":"Tusho","steam_id":76561198115447383,"connected_time":671000000000,"state":"active","ping":94},{"user_id":251,"name":"Huskey","steam_id":76561198152392309,"connected_time":2091000000000,"state":"active","ping":52},{"user_id":280,"name":"üÉî Katarina","steam_id":76561198065652251,"connected_time":586000000000,"state":"active","ping":51},{"user_id":284,"name":"lorislk989","steam_id":76561199224251630,"connected_time":326000000000,"state":"active","ping":72}]},{"server_id":22,"name":"Uncletopia | London | 6 | All Maps","name_short":"lon-6","host":"lon-1.uk.uncletopia.com","port":27065,"enabled":true,"region":"eu","cc":"gb","latitude":51.509865,"longitude":-0.118092,"reserved":0,"last_update":"0001-01-01T00:00:00Z","name_a2s":"Uncletopia | London | 6 | All Maps","protocol":17,"map":"koth_lakeside_final","folder":"tf","game":"Team Fortress","app_id":440,"player_count":0,"max_players":24,"Bots":0,"server_type":"Dedicated","server_os":"Linux","password":true,"vac":true,"version":"7961495","steam_id":85568392924742830,"keywords":["cp","nocrits","nodmgspread","uncletopia"],"game_id":440,"stv_port":27066,"stv_name":"Uncletopia | London | 6 | All Maps | STV","players":null},{"server_id":40,"name":"Uncletopia | London | 7 | No Payload","name_short":"lon-7","host":"lon-1.uk.uncletopia.com","port":27075,"enabled":true,"region":"eu","cc":"gb","latitude":51.509865,"longitude":-0.118092,"reserved":0,"last_update":"0001-01-01T00:00:00Z","name_a2s":"Uncletopia | London | 7 | No Payload","protocol":17,"map":"koth_harvest_final","folder":"tf","game":"Team Fortress","app_id":440,"player_count":10,"max_players":24,"Bots":0,"server_type":"Dedicated","server_os":"Linux","password":true,"vac":true,"version":"7961495","steam_id":85568392924964314,"keywords":["cp","nocrits","nodmgspread","uncletopia"],"game_id":440,"stv_port":27076,"stv_name":"Uncletopia | London | 7 | No Payload | STV","players":[{"user_id":28,"name":"Mobster Tortoise","steam_id":76561199036837091,"connected_time":4767000000000,"state":"active","ping":93},{"user_id":29,"name":"Moon","steam_id":76561198808108594,"connected_time":4760000000000,"state":"active","ping":99},{"user_id":51,"name":"mineroly_max","steam_id":76561199230448876,"connected_time":206000000000,"state":"active","ping":202},{"user_id":31,"name":"Spectre","steam_id":76561198163819482,"connected_time":3097000000000,"state":"active","ping":60},{"user_id":52,"name":"pz_90012","steam_id":76561199099098692,"connected_time":71000000000,"state":"active","ping":198},{"user_id":53,"name":"revolver ocelot","steam_id":76561198866358613,"connected_time":63000000000,"state":"active","ping":160},{"user_id":34,"name":"Banatical Bean","steam_id":76561198122356617,"connected_time":2985000000000,"state":"active","ping":56},{"user_id":49,"name":"Blaze The Fox","steam_id":76561198068005085,"connected_time":472000000000,"state":"active","ping":42},{"user_id":37,"name":"God's Goofiest Goober","steam_id":76561198103175187,"connected_time":2486000000000,"state":"active","ping":70},{"user_id":38,"name":"Lessoz","steam_id":76561199211572036,"connected_time":1969000000000,"state":"active","ping":80}]},{"server_id":41,"name":"Uncletopia | London | 8 | Community","name_short":"lon-8","host":"lon-1.uk.uncletopia.com","port":27085,"enabled":true,"region":"eu","cc":"gb","latitude":51.509865,"longitude":-0.118092,"reserved":0,"last_update":"0001-01-01T00:00:00Z","name_a2s":"Uncletopia | London | 8 | Community","protocol":17,"map":"workshop/cp_croissant_final.ugc458840209","folder":"tf","game":"Team Fortress","app_id":440,"player_count":0,"max_players":24,"Bots":0,"server_type":"Dedicated","server_os":"Linux","password":true,"vac":true,"version":"7961495","steam_id":85568392924964315,"keywords":["cp","nocrits","nodmgspread","uncletopia"],"game_id":440,"stv_port":27086,"stv_name":"Uncletopia | London | 8 | Community | STV","players":null},{"server_id":300,"name":"Uncletopia | Montr√©al | 1 | All Maps","name_short":"mtl-1","host":"mtl-1.ca.uncletopia.com","port":27015,"enabled":true,"region":"us-east","cc":"ca","latitude":45.50889,"longitude":-73.56167,"reserved":0,"last_update":"0001-01-01T00:00:00Z","name_a2s":"Uncletopia | Montr√©al | 1 | All Maps","protocol":17,"map":"pl_pier","folder":"tf","game":"Team Fortress","app_id":440,"player_count":0,"max_players":24,"Bots":0,"server_type":"Dedicated","server_os":"Linux","password":true,"vac":true,"version":"7961495","steam_id":85568392924500087,"keywords":["nocrits","nodmgspread","payload","uncletopia"],"game_id":440,"stv_port":27016,"stv_name":"Uncletopia | Montr√©al | 1 | All Maps | STV","players":null},{"server_id":301,"name":"Uncletopia | Montr√©al | 2 | All Maps","name_short":"mtl-2","host":"mtl-1.ca.uncletopia.com","port":27025,"enabled":true,"region":"us-east","cc":"ca","latitude":45.50889,"longitude":-73.56167,"reserved":0,"last_update":"0001-01-01T00:00:00Z","name_a2s":"Uncletopia | Montr√©al | 2 | All Maps","protocol":17,"map":"cp_process_final","folder":"tf","game":"Team Fortress","app_id":440,"player_count":0,"max_players":24,"Bots":0,"server_type":"Dedicated","server_os":"Linux","password":true,"vac":true,"version":"7961495","steam_id":85568392924500088,"keywords":["cp","nocrits","nodmgspread","uncletopia"],"game_id":440,"stv_port":27026,"stv_name":"Uncletopia | Montr√©al | 2 | All Maps | STV","players":null},{"server_id":302,"name":"Uncletopia | Montr√©al | 3 | All Maps","name_short":"mtl-3","host":"mtl-1.ca.uncletopia.com","port":27035,"enabled":true,"region":"us-east","cc":"ca","latitude":45.50889,"longitude":-73.56167,"reserved":0,"last_update":"0001-01-01T00:00:00Z","name_a2s":"Uncletopia | Montr√©al | 3 | All Maps","protocol":17,"map":"koth_cascade","folder":"tf","game":"Team Fortress","app_id":440,"player_count":0,"max_players":24,"Bots":0,"server_type":"Dedicated","server_os":"Linux","password":true,"vac":true,"version":"7961495","steam_id":85568392924500089,"keywords":["cp","nocrits","nodmgspread","uncletopia"],"game_id":440,"stv_port":27036,"stv_name":"Uncletopia | Montr√©al | 3 | All Maps | STV","players":null},{"server_id":303,"name":"Uncletopia | Montr√©al | 4 | No Payload","name_short":"mtl-4","host":"mtl-1.ca.uncletopia.com","port":27045,"enabled":true,"region":"us-east","cc":"ca","latitude":45.50889,"longitude":-73.56167,"reserved":0,"last_update":"0001-01-01T00:00:00Z","name_a2s":"Uncletopia | Montr√©al | 4 | No Payload","protocol":17,"map":"koth_lakeside_final","folder":"tf","game":"Team Fortress","app_id":440,"player_count":3,"max_players":24,"Bots":0,"server_type":"Dedicated","server_os":"Linux","password":true,"vac":true,"version":"7961495","steam_id":85568392924500090,"keywords":["cp","nocrits","nodmgspread","uncletopia"],"game_id":440,"stv_port":27046,"stv_name":"Uncletopia | Montr√©al | 4 | No Payload | STV","players":[{"user_id":4,"name":"cool beans","steam_id":76561198321591685,"connected_time":840000000000,"state":"active","ping":92},{"user_id":5,"name":"DrDan64","steam_id":76561199013363718,"connected_time":789000000000,"state":"active","ping":70},{"user_id":6,"name":"lolzfrdawin21","steam_id":76561199006665979,"connected_time":763000000000,"state":"active","ping":80}]},{"server_id":13,"name":"Uncletopia | New York City | 1 | All Maps","name_short":"nyc-1","host":"nyc-1.us.uncletopia.com","port":27015,"enabled":true,"region":"us-east","cc":"us","latitude":40.73061,"longitude":-73.93524,"reserved":0,"last_update":"0001-01-01T00:00:00Z","name_a2s":"Uncletopia | New York City | 1 | All Maps","protocol":17,"map":"pl_hoodoo_final","folder":"tf","game":"Team Fortress","app_id":440,"player_count":24,"max_players":24,"Bots":0,"server_type":"Dedicated","server_os":"Linux","password":true,"vac":true,"version":"7961495","steam_id":85568392924469993,"keywords":["nocrits","nodmgspread","payload","uncletopia"],"game_id":440,"stv_port":27016,"stv_name":"Uncletopia | New York City | 1 | All Maps | STV","players":[{"user_id":135,"name":"paradoxinvader","steam_id":76561198203304891,"connected_time":33000000000,"state":"active","ping":47},{"user_id":125,"name":"Fireblade425","steam_id":76561199278401592,"connected_time":391000000000,"state":"active","ping":81},{"user_id":114,"name":"juanjoesc","steam_id":76561198186368430,"connected_time":1087000000000,"state":"active","ping":132},{"user_id":127,"name":"Cold shoulder","steam_id":76561198453824178,"connected_time":295000000000,"state":"active","ping":115},{"user_id":122,"name":"Leaf","steam_id":76561198348965524,"connected_time":669000000000,"state":"active","ping":60},{"user_id":126,"name":"LuckyZero-_-","steam_id":76561198139891051,"connected_time":355000000000,"state":"active","ping":98},{"user_id":128,"name":"FADED GH0UL","steam_id":76561199203064435,"connected_time":286000000000,"state":"active","ping":66},{"user_id":133,"name":"Infinity","steam_id":76561199134919099,"connected_time":154000000000,"state":"active","ping":89},{"user_id":134,"name":"MILKY","steam_id":76561198073114061,"connected_time":117000000000,"state":"active","ping":81},{"user_id":116,"name":"1996 Chrysler Town and Country","steam_id":76561199147039906,"connected_time":1052000000000,"state":"active","ping":65},{"user_id":106,"name":"Nassu","steam_id":76561198147367577,"connected_time":1404000000000,"state":"active","ping":87},{"user_id":103,"name":"Green Icicle","steam_id":76561198069624529,"connected_time":1502000000000,"state":"active","ping":112},{"user_id":73,"name":"Wahooka","steam_id":76561197962240925,"connected_time":4343000000000,"state":"active","ping":46},{"user_id":117,"name":"breathingtrees","steam_id":76561198118931690,"connected_time":978000000000,"state":"active","ping":60},{"user_id":120,"name":"sharkbyt3","steam_id":76561197985793803,"connected_time":753000000000,"state":"active","ping":54},{"user_id":88,"name":"Jamie Hyneman","steam_id":76561199196036481,"connected_time":2079000000000,"state":"active","ping":97},{"user_id":98,"name":"TheGhostThatWas","steam_id":76561198055836483,"connected_time":1772000000000,"state":"active","ping":46},{"user_id":107,"name":"HOODOO_LOVER_2007","steam_id":76561199087691214,"connected_time":1369000000000,"state":"active","ping":96},{"user_id":121,"name":"Ask Me For Random Trivia!","steam_id":76561198087065165,"connected_time":726000000000,"state":"active","ping":53},{"user_id":76,"name":"1-800-GHOST-DANCE","steam_id":76561198835430429,"connected_time":3930000000000,"state":"active","ping":70},{"user_id":123,"name":"1000 Gigglebytes of clown girls","steam_id":76561198290719848,"connected_time":629000000000,"state":"active","ping":89},{"user_id":72,"name":"TheSnowGhost","steam_id":76561198271967286,"connected_time":4358000000000,"state":"active","ping":58},{"user_id":130,"name":"gren","steam_id":76561198161385366,"connected_time":213000000000,"state":"active","ping":54},{"user_id":129,"name":"FADED Œ£Œô C0RE #RustCases.com","steam_id":76561198338204564,"connected_time":277000000000,"state":"active","ping":83}]},{"server_id":14,"name":"Uncletopia | New York City | 2 | All Maps","name_short":"nyc-2","host":"nyc-1.us.uncletopia.com","port":27025,"enabled":true,"region":"us-east","cc":"us","latitude":40.73061,"longitude":-73.93524,"reserved":0,"last_update":"0001-01-01T00:00:00Z","name_a2s":"Uncletopia | New York City | 2 | All Maps","protocol":17,"map":"koth_king","folder":"tf","game":"Team Fortress","app_id":440,"player_count":24,"max_players":24,"Bots":0,"server_type":"Dedicated","server_os":"Linux","password":true,"vac":true,"version":"7961495","steam_id":85568392924469994,"keywords":["cp","nocrits","nodmgspread","uncletopia"],"game_id":440,"stv_port":27026,"stv_name":"Uncletopia | New York City | 2 | All Maps | STV","players":[{"user_id":374,"name":"Lucille_Bluth","steam_id":76561198206133916,"connected_time":505000000000,"state":"active","ping":68},{"user_id":357,"name":"MioAnarchy","steam_id":76561198237106136,"connected_time":1494000000000,"state":"active","ping":85},{"user_id":378,"name":"Draco6257","steam_id":76561199147322448,"connected_time":155000000000,"state":"active","ping":31},{"user_id":380,"name":"meowfang","steam_id":76561198123056791,"connected_time":91000000000,"state":"active","ping":50},{"user_id":381,"name":"CrunchCisco","steam_id":76561199162724832,"connected_time":78000000000,"state":"active","ping":83},{"user_id":338,"name":"Pango","steam_id":76561198069811545,"connected_time":3084000000000,"state":"active","ping":65},{"user_id":362,"name":"Bench-Kun","steam_id":76561198815264672,"connected_time":1436000000000,"state":"active","ping":60},{"user_id":356,"name":"phfez","steam_id":76561198046150386,"connected_time":1740000000000,"state":"active","ping":86},{"user_id":333,"name":"Albino Jellyfish","steam_id":76561198208561097,"connected_time":4379000000000,"state":"active","ping":54},{"user_id":361,"name":"Luis wid a mic","steam_id":76561198349570006,"connected_time":1441000000000,"state":"active","ping":44},{"user_id":365,"name":"Bronze Age Furvert","steam_id":76561198859118263,"connected_time":1362000000000,"state":"active","ping":85},{"user_id":322,"name":"stink","steam_id":76561198099318923,"connected_time":5031000000000,"state":"active","ping":70},{"user_id":345,"name":"BigBubble42","steam_id":76561198136286123,"connected_time":2492000000000,"state":"active","ping":68},{"user_id":382,"name":"GrungiestCow","steam_id":76561198170192279,"connected_time":46000000000,"state":"active","ping":113},{"user_id":346,"name":"Yee McGee","steam_id":76561198350041162,"connected_time":2444000000000,"state":"active","ping":64},{"user_id":273,"name":"ÔºîÔºê Ôº¶Ôº∞Ôº≥","steam_id":76561198272394965,"connected_time":8934000000000,"state":"active","ping":174},{"user_id":326,"name":"REALLINUSJEWTIP.","steam_id":76561198056647983,"connected_time":4987000000000,"state":"active","ping":74},{"user_id":327,"name":"pai-sano","steam_id":76561198065575472,"connected_time":4984000000000,"state":"active","ping":46},{"user_id":369,"name":"blue_tristan03","steam_id":76561199468377688,"connected_time":821000000000,"state":"active","ping":118},{"user_id":375,"name":"cosmic ambiance","steam_id":76561198042788986,"connected_time":322000000000,"state":"active","ping":69},{"user_id":366,"name":"Special","steam_id":76561198070380404,"connected_time":1230000000000,"state":"active","ping":46},{"user_id":363,"name":"Thedarkdot","steam_id":76561199200787877,"connected_time":1418000000000,"state":"active","ping":45},{"user_id":353,"name":"golf","steam_id":76561198398918486,"connected_time":2031000000000,"state":"active","ping":80},{"user_id":295,"name":"Gravity","steam_id":76561198066875223,"connected_time":7371000000000,"state":"active","ping":101}]},{"server_id":15,"name":"Uncletopia | New York City | 3 | Stopwatch Beta","name_short":"nyc-3","host":"nyc-1.us.uncletopia.com","port":27035,"enabled":true,"region":"us-east","cc":"us","latitude":40.73061,"longitude":-73.93524,"reserved":0,"last_update":"0001-01-01T00:00:00Z","name_a2s":"Uncletopia | New York City | 3 | Stopwatch Beta","protocol":17,"map":"pl_upward","folder":"tf","game":"Team Fortress","app_id":440,"player_count":0,"max_players":24,"Bots":0,"server_type":"Dedicated","server_os":"Linux","password":true,"vac":true,"version":"7961495","steam_id":85568392924742820,"keywords":["nocrits","nodmgspread","payload","uncletopia"],"game_id":440,"stv_port":27036,"stv_name":"Uncletopia | New York City | 3 | Stopwatch Beta | STV","players":null},{"server_id":16,"name":"Uncletopia | New York City | 4 | Community","name_short":"nyc-4","host":"nyc-1.us.uncletopia.com","port":27045,"enabled":true,"region":"us-east","cc":"us","latitude":40.73061,"longitude":-73.93524,"reserved":0,"last_update":"0001-01-01T00:00:00Z","name_a2s":"Uncletopia | New York City | 4 | Community","protocol":17,"map":"koth_lakeside_final","folder":"tf","game":"Team Fortress","app_id":440,"player_count":0,"max_players":24,"Bots":0,"server_type":"Dedicated","server_os":"Linux","password":true,"vac":true,"version":"7961495","steam_id":85568392924742821,"keywords":["cp","nocrits","nodmgspread","uncletopia"],"game_id":440,"stv_port":27046,"stv_name":"Uncletopia | New York City | 4 | Community | STV","players":null},{"server_id":142,"name":"Uncletopia | S√£o Paulo | 1 | All Maps","name_short":"sao-1","host":"sao-1.br.uncletopia.com","port":27015,"enabled":true,"region":"sa","cc":"br","latitude":-23.533773,"longitude":-46.62529,"reserved":0,"last_update":"0001-01-01T00:00:00Z","name_a2s":"Uncletopia | S√£o Paulo | 1 | All Maps","protocol":17,"map":"koth_highpass","folder":"tf","game":"Team Fortress","app_id":440,"player_count":0,"max_players":24,"Bots":0,"server_type":"Dedicated","server_os":"Linux","password":true,"vac":true,"version":"7961495","steam_id":85568392924469996,"keywords":["cp","nocrits","nodmgspread","uncletopia"],"game_id":440,"stv_port":27016,"stv_name":"Uncletopia | S√£o Paulo | 1 | All Maps | STV","players":null},{"server_id":143,"name":"Uncletopia | S√£o Paulo | 2 | Community","name_short":"sao-2","host":"sao-2.br.uncletopia.com","port":27015,"enabled":true,"region":"sa","cc":"br","latitude":-23.533773,"longitude":-46.62529,"reserved":0,"last_update":"0001-01-01T00:00:00Z","name_a2s":"Uncletopia | S√£o Paulo | 2 | Community","protocol":17,"map":"workshop/pl_barnblitz_pro7.ugc582280235","folder":"tf","game":"Team Fortress","app_id":440,"player_count":0,"max_players":24,"Bots":0,"server_type":"Dedicated","server_os":"Linux","password":true,"vac":true,"version":"7961495","steam_id":85568392924485349,"keywords":["nocrits","nodmgspread","payload","uncletopia"],"game_id":440,"stv_port":27016,"stv_name":"Uncletopia | S√£o Paulo | 2 | Community | STV","players":null},{"server_id":7,"name":"Uncletopia | Seattle | 1 | All Maps","name_short":"sea-1","host":"sea-1.us.uncletopia.com","port":27015,"enabled":true,"region":"us-west","cc":"us","latitude":47.608013,"longitude":-122.33517,"reserved":0,"last_update":"0001-01-01T00:00:00Z","name_a2s":"Uncletopia | Seattle | 1 | All Maps","protocol":17,"map":"pl_snowycoast","folder":"tf","game":"Team Fortress","app_id":440,"player_count":20,"max_players":24,"Bots":0,"server_type":"Dedicated","server_os":"Linux","password":true,"vac":true,"version":"7961495","steam_id":85568392924469997,"keywords":["nocrits","nodmgspread","payload","uncletopia"],"game_id":440,"stv_port":27016,"stv_name":"Uncletopia | Seattle | 1 | All Maps | STV","players":[{"user_id":277,"name":"Rat Smoker","steam_id":76561198090419068,"connected_time":5756000000000,"state":"active","ping":69},{"user_id":342,"name":"Tideflat","steam_id":76561198179850851,"connected_time":185000000000,"state":"active","ping":55},{"user_id":341,"name":"Tedenfe Mitralop","steam_id":76561198319921588,"connected_time":556000000000,"state":"active","ping":258},{"user_id":343,"name":"fwoov","steam_id":76561198129166260,"connected_time":157000000000,"state":"active","ping":80},{"user_id":279,"name":"Empyrean","steam_id":76561198116398716,"connected_time":5637000000000,"state":"active","ping":83},{"user_id":344,"name":"Themasterman75","steam_id":76561199385573293,"connected_time":148000000000,"state":"active","ping":71},{"user_id":335,"name":"McDonald","steam_id":76561199028533497,"connected_time":1318000000000,"state":"active","ping":78},{"user_id":345,"name":"shane","steam_id":76561198060491451,"connected_time":121000000000,"state":"active","ping":85},{"user_id":346,"name":"lemonjack","steam_id":76561198277380277,"connected_time":81000000000,"state":"active","ping":87},{"user_id":347,"name":"giant_dork","steam_id":76561199105606956,"connected_time":73000000000,"state":"active","ping":114},{"user_id":311,"name":"Confirmed Bachelor","steam_id":76561198441041496,"connected_time":3031000000000,"state":"active","ping":59},{"user_id":348,"name":"Meet The Kazoo","steam_id":76561199229748300,"connected_time":63000000000,"state":"active","ping":95},{"user_id":270,"name":"Crustacean Daddy","steam_id":76561198993807061,"connected_time":6237000000000,"state":"active","ping":76},{"user_id":321,"name":"dodecadron","steam_id":76561198027397222,"connected_time":2626000000000,"state":"active","ping":68},{"user_id":350,"name":"i love crack","steam_id":76561199158284778,"connected_time":31000000000,"state":"active","ping":119},{"user_id":338,"name":"Synergy","steam_id":76561198098630198,"connected_time":960000000000,"state":"active","ping":44},{"user_id":351,"name":"pure","steam_id":76561198196998007,"connected_time":16000000000,"state":"active","ping":83},{"user_id":352,"name":"FakingGhost","steam_id":76561198338939342,"connected_time":11000000000,"state":"spawning","ping":72},{"user_id":318,"name":"GaySkitarii","steam_id":76561198403829714,"connected_time":2743000000000,"state":"active","ping":41},{"user_id":325,"name":"Translucent‡´Æ‚Çç ‚Ä¢ ·¥• ‚Ä¢","steam_id":76561199212057076,"connected_time":2210000000000,"state":"active","ping":74}]},{"server_id":119,"name":"Uncletopia | Seattle | 2 | All Maps","name_short":"sea-2","host":"sea-1.us.uncletopia.com","port":27025,"enabled":true,"region":"us-west","cc":"us","latitude":47.608013,"longitude":-122.33517,"reserved":0,"last_update":"0001-01-01T00:00:00Z","name_a2s":"Uncletopia | Seattle | 2 | All Maps","protocol":17,"map":"cp_sunshine","folder":"tf","game":"Team Fortress","app_id":440,"player_count":24,"max_players":24,"Bots":0,"server_type":"Dedicated","server_os":"Linux","password":true,"vac":true,"version":"7961495","steam_id":85568392924469998,"keywords":["cp","nocrits","nodmgspread","uncletopia"],"game_id":440,"stv_port":27026,"stv_name":"Uncletopia | Seattle | 2 | All Maps | STV","players":[{"user_id":51,"name":"‚í∑‚ì™‚ì™‚ì£‚ì®‚ìí‚ìê‚ìö‚ìî‚ì¢","steam_id":76561198088776421,"connected_time":2989000000000,"state":"active","ping":108},{"user_id":9,"name":"spiderland","steam_id":76561198335992132,"connected_time":6701000000000,"state":"active","ping":37},{"user_id":98,"name":"Rabblerouser","steam_id":76561198127930963,"connected_time":465000000000,"state":"active","ping":71},{"user_id":101,"name":"‡πá","steam_id":76561198067666595,"connected_time":243000000000,"state":"active","ping":44},{"user_id":12,"name":"K2f","steam_id":76561198049600563,"connected_time":5944000000000,"state":"active","ping":77},{"user_id":50,"name":"Angela :3","steam_id":76561198991101353,"connected_time":3140000000000,"state":"active","ping":46},{"user_id":102,"name":"[COS]SonneyDonkeh","steam_id":76561198091284496,"connected_time":206000000000,"state":"active","ping":103},{"user_id":48,"name":"‚ô¶Benji‚ô¶","steam_id":76561198313529973,"connected_time":3591000000000,"state":"active","ping":38},{"user_id":90,"name":"neet","steam_id":76561197968115168,"connected_time":858000000000,"state":"active","ping":115},{"user_id":91,"name":"Frankie muniz","steam_id":76561198125947844,"connected_time":742000000000,"state":"active","ping":67},{"user_id":99,"name":"Gerbias","steam_id":76561198001002427,"connected_time":399000000000,"state":"active","ping":71},{"user_id":56,"name":"Mr. Carfox","steam_id":76561198041664428,"connected_time":2758000000000,"state":"active","ping":62},{"user_id":93,"name":"Mocha Josie","steam_id":76561198066452726,"connected_time":681000000000,"state":"active","ping":77},{"user_id":83,"name":"tf_weapon_sniperrifle","steam_id":76561198040415947,"connected_time":1232000000000,"state":"active","ping":71},{"user_id":100,"name":"dansal","steam_id":76561197997042510,"connected_time":321000000000,"state":"active","ping":127},{"user_id":103,"name":"Giant","steam_id":76561198851536991,"connected_time":204000000000,"state":"active","ping":81},{"user_id":95,"name":"jozthebob","steam_id":76561199476198856,"connected_time":633000000000,"state":"active","ping":82},{"user_id":85,"name":"Dandelo","steam_id":76561197960363656,"connected_time":1141000000000,"state":"active","ping":130},{"user_id":64,"name":"SnazzyCelestial","steam_id":76561198328763813,"connected_time":2518000000000,"state":"active","ping":130},{"user_id":96,"name":"Vincent Van Bro","steam_id":76561197966919802,"connected_time":611000000000,"state":"active","ping":61},{"user_id":57,"name":"sadlaxx","steam_id":76561198061354919,"connected_time":2735000000000,"state":"active","ping":93},{"user_id":66,"name":"craftylongsword","steam_id":76561198340102940,"connected_time":2457000000000,"state":"active","ping":69},{"user_id":45,"name":"Spectre","steam_id":76561198025652246,"connected_time":4125000000000,"state":"active","ping":106},{"user_id":67,"name":"McSpazatron","steam_id":76561198955942148,"connected_time":2401000000000,"state":"active","ping":74}]},{"server_id":406,"name":"Uncletopia | Seattle | 3 | Stopwatch Beta","name_short":"sea-3","host":"sea-1.us.uncletopia.com","port":27035,"enabled":true,"region":"us-west","cc":"us","latitude":47.608013,"longitude":-122.33517,"reserved":0,"last_update":"0001-01-01T00:00:00Z","name_a2s":"Uncletopia | Seattle | 3 | Stopwatch Beta","protocol":17,"map":"workshop/cp_reckoner_rc6.ugc674719999","folder":"tf","game":"Team Fortress","app_id":440,"player_count":0,"max_players":24,"Bots":0,"server_type":"Dedicated","server_os":"Linux","password":true,"vac":true,"version":"7961495","steam_id":85568392924515217,"keywords":["cp","nocrits","nodmgspread","uncletopia"],"game_id":440,"stv_port":27036,"stv_name":"Uncletopia | Seattle | 3 | Stopwatch Beta | STV","players":null},{"server_id":17,"name":"Uncletopia | San Francisco | 1 | All Maps","name_short":"sfo-1","host":"sfo-1.us.uncletopia.com","port":27015,"enabled":true,"region":"us-west","cc":"us","latitude":37.77397,"longitude":-122.4313,"reserved":0,"last_update":"0001-01-01T00:00:00Z","name_a2s":"Uncletopia | San Francisco | 1 | All Maps","protocol":17,"map":"koth_viaduct","folder":"tf","game":"Team Fortress","app_id":440,"player_count":0,"max_players":24,"Bots":0,"server_type":"Dedicated","server_os":"Linux","password":true,"vac":true,"version":"7961495","steam_id":85568392924469999,"keywords":["cp","nocrits","nodmgspread","uncletopia"],"game_id":440,"stv_port":27016,"stv_name":"Uncletopia | San Francisco | 1 | All Maps | STV","players":null},{"server_id":18,"name":"Uncletopia | San Francisco | 2 | All Maps","name_short":"sfo-2","host":"sfo-1.us.uncletopia.com","port":27025,"enabled":true,"region":"us-west","cc":"us","latitude":37.77397,"longitude":-122.4313,"reserved":0,"last_update":"0001-01-01T00:00:00Z","name_a2s":"Uncletopia | San Francisco | 2 | All Maps","protocol":17,"map":"cp_sunshine","folder":"tf","game":"Team Fortress","app_id":440,"player_count":0,"max_players":24,"Bots":0,"server_type":"Dedicated","server_os":"Linux","password":true,"vac":true,"version":"7961495","steam_id":85568392924470000,"keywords":["cp","nocrits","nodmgspread","uncletopia"],"game_id":440,"stv_port":27026,"stv_name":"Uncletopia | San Francisco | 2 | All Maps | STV","players":null},{"server_id":19,"name":"Uncletopia | San Francisco | 3 | Stopwatch Beta","name_short":"sfo-3","host":"sfo-1.us.uncletopia.com","port":27035,"enabled":true,"region":"us-west","cc":"us","latitude":37.77397,"longitude":-122.4313,"reserved":0,"last_update":"0001-01-01T00:00:00Z","name_a2s":"Uncletopia | San Francisco | 3 | Stopwatch Beta","protocol":17,"map":"pl_borneo","folder":"tf","game":"Team Fortress","app_id":440,"player_count":0,"max_players":24,"Bots":0,"server_type":"Dedicated","server_os":"Linux","password":true,"vac":true,"version":"7961495","steam_id":85568392924742824,"keywords":["nocrits","nodmgspread","payload","uncletopia"],"game_id":440,"stv_port":27036,"stv_name":"Uncletopia | San Francisco | 3 | Stopwatch Beta | STV","players":null},{"server_id":20,"name":"Uncletopia | San Francisco | 4 | Community","name_short":"sfo-4","host":"sfo-1.us.uncletopia.com","port":27045,"enabled":true,"region":"us-west","cc":"us","latitude":37.77397,"longitude":-122.4313,"reserved":0,"last_update":"0001-01-01T00:00:00Z","name_a2s":"Uncletopia | San Francisco | 4 | Community","protocol":17,"map":"koth_viaduct","folder":"tf","game":"Team Fortress","app_id":440,"player_count":0,"max_players":24,"Bots":0,"server_type":"Dedicated","server_os":"Linux","password":true,"vac":true,"version":"7961495","steam_id":85568392924742826,"keywords":["cp","nocrits","nodmgspread","uncletopia"],"game_id":440,"stv_port":27046,"stv_name":"Uncletopia | San Francisco | 4 | Community | STV","players":null},{"server_id":141,"name":"Uncletopia | Sydney | 1 | All Maps","name_short":"syd-1","host":"syd-1.au.uncletopia.com","port":27015,"enabled":true,"region":"au","cc":"au","latitude":-33.865143,"longitude":151.2099,"reserved":0,"last_update":"0001-01-01T00:00:00Z","name_a2s":"Uncletopia | Sydney | 1 | All Maps","protocol":17,"map":"pl_swiftwater_final1","folder":"tf","game":"Team Fortress","app_id":440,"player_count":0,"max_players":24,"Bots":0,"server_type":"Dedicated","server_os":"Linux","password":true,"vac":true,"version":"7961495","steam_id":85568392924470001,"keywords":["nocrits","nodmgspread","payload","uncletopia"],"game_id":440,"stv_port":27016,"stv_name":"Uncletopia | Sydney | 1 | All Maps | STV","players":null},{"server_id":123,"name":"Uncletopia | Sydney | 2 | All Maps","name_short":"syd-2","host":"syd-1.au.uncletopia.com","port":27025,"enabled":true,"region":"au","cc":"au","latitude":-33.865143,"longitude":151.2099,"reserved":0,"last_update":"0001-01-01T00:00:00Z","name_a2s":"Uncletopia | Sydney | 2 | All Maps","protocol":17,"map":"pl_snowycoast","folder":"tf","game":"Team Fortress","app_id":440,"player_count":0,"max_players":24,"Bots":0,"server_type":"Dedicated","server_os":"Linux","password":true,"vac":true,"version":"7961495","steam_id":85568392924470002,"keywords":["nocrits","nodmgspread","payload","uncletopia"],"game_id":440,"stv_port":27026,"stv_name":"Uncletopia | Sydney | 2 | All Maps | STV","players":null},{"server_id":395,"name":"Uncletopia | Sydney | 3 | All Maps","name_short":"syd-3","host":"syd-1.au.uncletopia.com","port":27035,"enabled":true,"region":"au","cc":"au","latitude":-33.865143,"longitude":151.2099,"reserved":0,"last_update":"0001-01-01T00:00:00Z","name_a2s":"Uncletopia | Sydney | 3 | All Maps","protocol":17,"map":"cp_dustbowl","folder":"tf","game":"Team Fortress","app_id":440,"player_count":0,"max_players":24,"Bots":0,"server_type":"Dedicated","server_os":"Linux","password":true,"vac":true,"version":"7961495","steam_id":85568392925194467,"keywords":["cp","nocrits","nodmgspread","uncletopia"],"game_id":440,"stv_port":27036,"stv_name":"Uncletopia | Sydney | 3 | All Maps | STV","players":null},{"server_id":396,"name":"Uncletopia | Sydney | 4 | All Maps","name_short":"syd-4","host":"syd-1.au.uncletopia.com","port":27045,"enabled":true,"region":"au","cc":"au","latitude":-33.865143,"longitude":151.2099,"reserved":0,"last_update":"0001-01-01T00:00:00Z","name_a2s":"Uncletopia | Sydney | 4 | All Maps","protocol":17,"map":"cp_dustbowl","folder":"tf","game":"Team Fortress","app_id":440,"player_count":0,"max_players":24,"Bots":0,"server_type":"Dedicated","server_os":"Linux","password":true,"vac":true,"version":"7961495","steam_id":85568392925397958,"keywords":["cp","nocrits","nodmgspread","uncletopia"],"game_id":440,"stv_port":27046,"stv_name":"Uncletopia | Sydney | 4 | All Maps | STV","players":null},{"server_id":58,"name":"Uncletopia | Sydney | 5 | Stopwatch Beta","name_short":"syd-5","host":"syd-1.au.uncletopia.com","port":27055,"enabled":true,"region":"au","cc":"au","latitude":-33.865143,"longitude":151.2099,"reserved":0,"last_update":"0001-01-01T00:00:00Z","name_a2s":"Uncletopia | Sydney | 5 | Stopwatch Beta","protocol":17,"map":"koth_viaduct","folder":"tf","game":"Team Fortress","app_id":440,"player_count":0,"max_players":24,"Bots":0,"server_type":"Dedicated","server_os":"Linux","password":true,"vac":true,"version":"7961495","steam_id":85568392925397959,"keywords":["cp","nocrits","nodmgspread","uncletopia"],"game_id":440,"stv_port":27056,"stv_name":"Uncletopia | Sydney | 5 | Stopwatch Beta | STV","players":null},{"server_id":59,"name":"Uncletopia | Sydney | 6 | Community","name_short":"syd-6","host":"syd-1.au.uncletopia.com","port":27065,"enabled":true,"region":"au","cc":"au","latitude":-33.865143,"longitude":151.2099,"reserved":0,"last_update":"0001-01-01T00:00:00Z","name_a2s":"Uncletopia | Sydney | 6 | Community","protocol":17,"map":"koth_cascade","folder":"tf","game":"Team Fortress","app_id":440,"player_count":0,"max_players":24,"Bots":0,"server_type":"Dedicated","server_os":"Linux","password":true,"vac":true,"version":"7961495","steam_id":85568392925397960,"keywords":["cp","nocrits","nodmgspread","uncletopia"],"game_id":440,"stv_port":27066,"stv_name":"Uncletopia | Sydney | 6 | Community | STV","players":null},{"server_id":49,"name":"Uncletopia | Warsaw | 1 | All Maps","name_short":"waw-1","host":"waw-1.pl.uncletopia.com","port":27015,"enabled":true,"region":"eu","cc":"pl","latitude":52.2297,"longitude":21.017532,"reserved":0,"last_update":"0001-01-01T00:00:00Z","name_a2s":"Uncletopia | Warsaw | 1 | All Maps","protocol":17,"map":"koth_highpass","folder":"tf","game":"Team Fortress","app_id":440,"player_count":0,"max_players":24,"Bots":0,"server_type":"Dedicated","server_os":"Linux","password":true,"vac":true,"version":"7961495","steam_id":85568392925397850,"keywords":["cp","nocrits","nodmgspread","uncletopia"],"game_id":440,"stv_port":27016,"stv_name":"Uncletopia | Warsaw | 1 | All Maps | STV","players":null},{"server_id":50,"name":"Uncletopia | Warsaw | 2 | All Maps","name_short":"waw-2","host":"waw-1.pl.uncletopia.com","port":27025,"enabled":true,"region":"eu","cc":"pl","latitude":52.2297,"longitude":21.017532,"reserved":0,"last_update":"0001-01-01T00:00:00Z","name_a2s":"Uncletopia | Warsaw | 2 | All Maps","protocol":17,"map":"cp_process_final","folder":"tf","game":"Team Fortress","app_id":440,"player_count":0,"max_players":24,"Bots":0,"server_type":"Dedicated","server_os":"Linux","password":true,"vac":true,"version":"7961495","steam_id":85568392925397851,"keywords":["cp","nocrits","nodmgspread","uncletopia"],"game_id":440,"stv_port":27026,"stv_name":"Uncletopia | Warsaw | 2 | All Maps | STV","players":null},{"server_id":51,"name":"Uncletopia | Warsaw | 3 | All Maps","name_short":"waw-3","host":"waw-1.pl.uncletopia.com","port":27035,"enabled":true,"region":"eu","cc":"pl","latitude":52.2297,"longitude":21.017532,"reserved":0,"last_update":"0001-01-01T00:00:00Z","name_a2s":"Uncletopia | Warsaw | 3 | All Maps","protocol":17,"map":"cp_snakewater_final1","folder":"tf","game":"Team Fortress","app_id":440,"player_count":0,"max_players":24,"Bots":0,"server_type":"Dedicated","server_os":"Linux","password":true,"vac":true,"version":"7961495","steam_id":85568392925397852,"keywords":["cp","nocrits","nodmgspread","uncletopia"],"game_id":440,"stv_port":27036,"stv_name":"Uncletopia | Warsaw | 3 | All Maps | STV","players":null},{"server_id":52,"name":"Uncletopia | Warsaw | 4 | All Maps","name_short":"waw-4","host":"waw-1.pl.uncletopia.com","port":27045,"enabled":true,"region":"eu","cc":"pl","latitude":52.2297,"longitude":21.017532,"reserved":0,"last_update":"0001-01-01T00:00:00Z","name_a2s":"Uncletopia | Warsaw | 4 | All Maps","protocol":17,"map":"pl_pier","folder":"tf","game":"Team Fortress","app_id":440,"player_count":0,"max_players":24,"Bots":0,"server_type":"Dedicated","server_os":"Linux","password":true,"vac":true,"version":"7961495","steam_id":85568392925397853,"keywords":["nocrits","nodmgspread","payload","uncletopia"],"game_id":440,"stv_port":27046,"stv_name":"Uncletopia | Warsaw | 4 | All Maps | STV","players":null},{"server_id":53,"name":"Uncletopia | Warsaw | 5 | Stopwatch Beta","name_short":"waw-5","host":"waw-1.pl.uncletopia.com","port":27055,"enabled":true,"region":"eu","cc":"pl","latitude":52.2297,"longitude":21.017532,"reserved":0,"last_update":"0001-01-01T00:00:00Z","name_a2s":"Uncletopia | Warsaw | 5 | Stopwatch Beta","protocol":17,"map":"workshop/pl_barnblitz_pro7.ugc582280235","folder":"tf","game":"Team Fortress","app_id":440,"player_count":0,"max_players":24,"Bots":0,"server_type":"Dedicated","server_os":"Linux","password":true,"vac":true,"version":"7961495","steam_id":85568392925397854,"keywords":["nocrits","nodmgspread","payload","uncletopia"],"game_id":440,"stv_port":27056,"stv_name":"Uncletopia | Warsaw | 5 | Stopwatch Beta | STV","players":null},{"server_id":54,"name":"Uncletopia | Warsaw | 6 | Community","name_short":"waw-6","host":"waw-1.pl.uncletopia.com","port":27065,"enabled":true,"region":"eu","cc":"pl","latitude":52.2297,"longitude":21.017532,"reserved":0,"last_update":"0001-01-01T00:00:00Z","name_a2s":"Uncletopia | Warsaw | 6 | Community","protocol":17,"map":"workshop/koth_synthetic_rc6a.ugc1549817316","folder":"tf","game":"Team Fortress","app_id":440,"player_count":0,"max_players":24,"Bots":0,"server_type":"Dedicated","server_os":"Linux","password":true,"vac":true,"version":"7961495","steam_id":85568392925397856,"keywords":["cp","nocrits","nodmgspread","uncletopia"],"game_id":440,"stv_port":27066,"stv_name":"Uncletopia | Warsaw | 6 | Community | STV","players":null}]}