{"status":true,"message":"","result":[{"server_id":0,"name_short":"","name":"Uncletopia | London | 6 | All Maps","host":"","port":0,"enabled":false,"region":"","cc":"","latitude":0,"longitude":0,"reserved":0,"last_update":"0001-01-01T00:00:00Z","protocol":17,"map":"koth_cascade","folder":"tf","game":"Team Fortress","app_id":440,"player_count":1,"max_players":24,"Bots":0,"server_type":"Dedicated","server_os":"Linux","password":true,"vac":true,"version":"7961495","steam_id":85568392924742830,"keywords":["cp","nocrits","nodmgspread","uncletopia"],"edicts":[558,2048],"game_id":440,"stv_port":27066,"stv_name":"Uncletopia | London | 6 | All Maps | STV","players":[{"user_id":53,"name":"GresSimJa","steam_id":76561198827274930,"connected_time":163000000000,"state":"active","ping":52}]},{"server_id":0,"name_short":"","name":"Uncletopia | Frankfurt | 2 | All Maps","host":"","port":0,"enabled":false,"region":"","cc":"","latitude":0,"longitude":0,"reserved":0,"last_update":"0001-01-01T00:00:00Z","protocol":17,"map":"cp_dustbowl","folder":"tf","game":"Team Fortress","app_id":440,"player_count":24,"max_players":24,"Bots":0,"server_type":"Dedicated","server_os":"Linux","password":true,"vac":true,"version":"7961495","steam_id":85568392924469990,"keywords":["cp","nocrits","nodmgspread","uncletopia"],"edicts":[1039,2048],"game_id":440,"stv_port":27026,"stv_name":"Uncletopia | Frankfurt | 2 | All Maps | STV","players":[{"user_id":234,"name":"DiracDeltaFunction","steam_id":76561199201624841,"connected_time":5835000000000,"state":"active","ping":76},{"user_id":308,"name":"jones","steam_id":76561198044434971,"connected_time":1131000000000,"state":"active","ping":59},{"user_id":311,"name":"Kenjii.","steam_id":76561198064421549,"connected_time":963000000000,"state":"active","ping":53},{"user_id":257,"name":"EXILE","steam_id":76561198897569798,"connected_time":5058000000000,"state":"active","ping":53},{"user_id":272,"name":"Brown Tank","steam_id":76561198168067738,"connected_time":4010000000000,"state":"active","ping":72},{"user_id":316,"name":"juni","steam_id":76561198869261927,"connected_time":882000000000,"state":"active","ping":43},{"user_id":324,"name":"ChPerette üéÆ","steam_id":76561198060004887,"connected_time":681000000000,"state":"active","ping":46},{"user_id":312,"name":"‚òÖpoyo‚òÖ","steam_id":76561198150078959,"connected_time":936000000000,"state":"active","ping":56},{"user_id":260,"name":"GogsCrunchyNuts","steam_id":76561198150599213,"connected_time":5031000000000,"state":"active","ping":98},{"user_id":301,"name":"stepbro","steam_id":76561198119607160,"connected_time":1457000000000,"state":"active","ping":67},{"user_id":325,"name":"Average Gypsy Crusader Enjoyer","steam_id":76561198229496456,"connected_time":647000000000,"state":"active","ping":70},{"user_id":297,"name":"gUs","steam_id":76561197982703747,"connected_time":1728000000000,"state":"active","ping":57},{"user_id":291,"name":"The Power","steam_id":76561198060566884,"connected_time":1932000000000,"state":"active","ping":54},{"user_id":327,"name":"baronne","steam_id":76561198262910410,"connected_time":75000000000,"state":"active","ping":89},{"user_id":326,"name":"PIMPrenelle","steam_id":76561198021366058,"connected_time":563000000000,"state":"active","ping":59},{"user_id":276,"name":"MoistMomMauler","steam_id":76561198069359049,"connected_time":3301000000000,"state":"active","ping":84},{"user_id":307,"name":"Jiwi","steam_id":76561198007791101,"connected_time":1142000000000,"state":"active","ping":65},{"user_id":309,"name":"bob.","steam_id":76561198209307295,"connected_time":1062000000000,"state":"active","ping":67},{"user_id":321,"name":"boo","steam_id":76561198330266673,"connected_time":817000000000,"state":"active","ping":67},{"user_id":322,"name":"tombouctou","steam_id":76561198065132197,"connected_time":817000000000,"state":"active","ping":121},{"user_id":243,"name":"ChesseKnight","steam_id":76561198102476339,"connected_time":5710000000000,"state":"active","ping":86},{"user_id":302,"name":"Fabric","steam_id":76561198118742661,"connected_time":1448000000000,"state":"active","ping":72},{"user_id":295,"name":"ChrisLuckycharm","steam_id":76561199490969322,"connected_time":1851000000000,"state":"active","ping":77},{"user_id":305,"name":"Large Larry","steam_id":76561198057317264,"connected_time":1184000000000,"state":"active","ping":60}]},{"server_id":0,"name_short":"","name":"Uncletopia | Frankfurt | 1 | All Maps","host":"","port":0,"enabled":false,"region":"","cc":"","latitude":0,"longitude":0,"reserved":0,"last_update":"0001-01-01T00:00:00Z","protocol":17,"map":"koth_king","folder":"tf","game":"Team Fortress","app_id":440,"player_count":24,"max_players":24,"Bots":0,"server_type":"Dedicated","server_os":"Linux","password":true,"vac":true,"version":"7961495","steam_id":85568392924469989,"keywords":["cp","nocrits","nodmgspread","uncletopia"],"edicts":[712,2048],"game_id":440,"stv_port":27016,"stv_name":"Uncletopia | Frankfurt | 1 | All Maps | STV","players":[{"user_id":674,"name":"un puie","steam_id":76561198084056439,"connected_time":76000000000,"state":"active","ping":45},{"user_id":647,"name":"mario spielen","steam_id":76561198052968448,"connected_time":450000000000,"state":"active","ping":100},{"user_id":673,"name":"mq","steam_id":76561198091888948,"connected_time":114000000000,"state":"active","ping":48},{"user_id":617,"name":"finbar","steam_id":76561198056812396,"connected_time":2548000000000,"state":"active","ping":75},{"user_id":670,"name":"Tibbs","steam_id":76561197987980406,"connected_time":168000000000,"state":"active","ping":86},{"user_id":585,"name":"Stevie Ray Vaughan","steam_id":76561198110788281,"connected_time":5587000000000,"state":"active","ping":63},{"user_id":575,"name":"Draku","steam_id":76561198129801642,"connected_time":6183000000000,"state":"active","ping":89},{"user_id":641,"name":"biskuit","steam_id":76561198044361926,"connected_time":564000000000,"state":"active","ping":83},{"user_id":628,"name":"nyanezt","steam_id":76561198253734265,"connected_time":2108000000000,"state":"active","ping":95},{"user_id":669,"name":"hot ginger","steam_id":76561197966287142,"connected_time":190000000000,"state":"active","ping":64},{"user_id":671,"name":"ZOT","steam_id":76561198048623310,"connected_time":150000000000,"state":"active","ping":65},{"user_id":645,"name":"Joo ‚ô¶","steam_id":76561197987609203,"connected_time":473000000000,"state":"active","ping":76},{"user_id":646,"name":"kuiperc","steam_id":76561198169511570,"connected_time":471000000000,"state":"active","ping":56},{"user_id":675,"name":"frank","steam_id":76561198137710815,"connected_time":54000000000,"state":"active","ping":67},{"user_id":648,"name":"Sonny","steam_id":76561198042064091,"connected_time":438000000000,"state":"active","ping":46},{"user_id":649,"name":"contrasted red","steam_id":76561198305271450,"connected_time":434000000000,"state":"active","ping":180},{"user_id":672,"name":"Sodsboy","steam_id":76561198030482006,"connected_time":132000000000,"state":"active","ping":60},{"user_id":659,"name":"Kingharpy75","steam_id":76561198198983838,"connected_time":354000000000,"state":"active","ping":69},{"user_id":630,"name":"wee nut","steam_id":76561198083288197,"connected_time":2013000000000,"state":"active","ping":78},{"user_id":655,"name":"Joseph Joestar","steam_id":76561198203683559,"connected_time":413000000000,"state":"active","ping":72},{"user_id":652,"name":"joachym","steam_id":76561198428579761,"connected_time":424000000000,"state":"active","ping":67},{"user_id":653,"name":"tyranocif260.","steam_id":76561198313571985,"connected_time":422000000000,"state":"active","ping":106},{"user_id":656,"name":"you can go anywhere","steam_id":76561199085984801,"connected_time":411000000000,"state":"active","ping":74},{"user_id":606,"name":"Steve, from HR","steam_id":76561198072088365,"connected_time":3937000000000,"state":"active","ping":67}]},{"server_id":0,"name_short":"","name":"Uncletopia | Sydney | 2 | All Maps","host":"","port":0,"enabled":false,"region":"","cc":"","latitude":0,"longitude":0,"reserved":0,"last_update":"0001-01-01T00:00:00Z","protocol":17,"map":"cp_mercenarypark","folder":"tf","game":"Team Fortress","app_id":440,"player_count":0,"max_players":24,"Bots":0,"server_type":"Dedicated","server_os":"Linux","password":true,"vac":true,"version":"7961495","steam_id":85568392924470002,"keywords":["cp","nocrits","nodmgspread","uncletopia"],"edicts":[554,2048],"game_id":440,"stv_port":27026,"stv_name":"Uncletopia | Sydney | 2 | All Maps | STV","players":null},{"server_id":0,"name_short":"","name":"Uncletopia | Montr√©al | 1 | One Thousand Uncles","host":"","port":0,"enabled":false,"region":"","cc":"","latitude":0,"longitude":0,"reserved":0,"last_update":"0001-01-01T00:00:00Z","protocol":17,"map":"pl_barnblitz","folder":"tf","game":"Team Fortress","app_id":440,"player_count":22,"max_players":32,"Bots":20,"server_type":"Dedicated","server_os":"Linux","password":true,"vac":true,"version":"7961495","steam_id":85568392924500087,"keywords":["alltalk","bots","danepve","increased_maxplayers","norespawntime","payload","uncletopia"],"edicts":[1187,2048],"game_id":440,"stv_port":0,"stv_name":"","players":[{"user_id":23,"name":"rb_quick","steam_id":76561197992053677,"connected_time":999000000000,"state":"active","ping":109},{"user_id":47,"name":"DrMisteryous2","steam_id":76561198336307012,"connected_time":55000000000,"state":"active","ping":162}]},{"server_id":0,"name_short":"","name":"Uncletopia | Montr√©al | 3 | One Thousand Uncles","host":"","port":0,"enabled":false,"region":"","cc":"","latitude":0,"longitude":0,"reserved":0,"last_update":"0001-01-01T00:00:00Z","protocol":17,"map":"cp_dustbowl","folder":"tf","game":"Team Fortress","app_id":440,"player_count":21,"max_players":32,"Bots":20,"server_type":"Dedicated","server_os":"Linux","password":true,"vac":true,"version":"7961495","steam_id":85568392924500089,"keywords":["alltalk","bots","cp","danepve","increased_maxplayers","norespawntime","uncletopia"],"edicts":[1130,2048],"game_id":440,"stv_port":0,"stv_name":"","players":[{"user_id":274,"name":"gaming_4ever","steam_id":76561199238452634,"connected_time":190000000000,"state":"active","ping":104}]},{"server_id":0,"name_short":"","name":"Uncletopia | New York City | 4 | Community","host":"","port":0,"enabled":false,"region":"","cc":"","latitude":0,"longitude":0,"reserved":0,"last_update":"0001-01-01T00:00:00Z","protocol":17,"map":"pl_extinction_rc1","folder":"tf","game":"Team Fortress","app_id":440,"player_count":2,"max_players":24,"Bots":0,"server_type":"Dedicated","server_os":"Linux","password":true,"vac":true,"version":"7961495","steam_id":85568392924742821,"keywords":["nocrits","nodmgspread","payload","uncletopia"],"edicts":[1096,2048],"game_id":440,"stv_port":27046,"stv_name":"Uncletopia | New York City | 4 | Community | STV","players":[{"user_id":12,"name":"NovaSphericool","steam_id":76561198998629759,"connected_time":455000000000,"state":"active","ping":67},{"user_id":11,"name":"Suu","steam_id":76561198332072536,"connected_time":534000000000,"state":"active","ping":45}]},{"server_id":0,"name_short":"","name":"Uncletopia | Chicago | 3 | All Maps","host":"","port":0,"enabled":false,"region":"","cc":"","latitude":0,"longitude":0,"reserved":0,"last_update":"0001-01-01T00:00:00Z","protocol":17,"map":"pl_snowycoast","folder":"tf","game":"Team Fortress","app_id":440,"player_count":24,"max_players":24,"Bots":0,"server_type":"Dedicated","server_os":"Linux","password":true,"vac":true,"version":"7961495","steam_id":85568392924515191,"keywords":["nocrits","nodmgspread","payload","uncletopia"],"edicts":[1183,2048],"game_id":440,"stv_port":27036,"stv_name":"Uncletopia | Chicago | 3 | All Maps | STV","players":[{"user_id":77,"name":"beats (16:38)","steam_id":76561199245717718,"connected_time":8070000000000,"state":"active","ping":59},{"user_id":74,"name":"Dwanor","steam_id":76561198039571887,"connected_time":8170000000000,"state":"active","ping":73},{"user_id":162,"name":"Person","steam_id":76561198093244204,"connected_time":1204000000000,"state":"active","ping":75},{"user_id":153,"name":"ooBah","steam_id":76561198133684216,"connected_time":1998000000000,"state":"active","ping":59},{"user_id":163,"name":"not an ubered spy","steam_id":76561198053046161,"connected_time":1200000000000,"state":"active","ping":68},{"user_id":97,"name":"Fancy Clown Sultan","steam_id":76561198447852406,"connected_time":6215000000000,"state":"active","ping":68},{"user_id":139,"name":"VX Ghost (She/Her)","steam_id":76561198072541436,"connected_time":2639000000000,"state":"active","ping":45},{"user_id":182,"name":"Virtuous Heavy","steam_id":76561198119522969,"connected_time":192000000000,"state":"active","ping":69},{"user_id":151,"name":"KATSURB","steam_id":76561199172118456,"connected_time":2234000000000,"state":"active","ping":68},{"user_id":122,"name":"Open Mailbox","steam_id":76561198051933580,"connected_time":4773000000000,"state":"active","ping":79},{"user_id":169,"name":"HumFreY","steam_id":76561198076639682,"connected_time":686000000000,"state":"active","ping":70},{"user_id":160,"name":"pest","steam_id":76561198052571208,"connected_time":1260000000000,"state":"active","ping":73},{"user_id":138,"name":"JohnFMX","steam_id":76561198175608097,"connected_time":2641000000000,"state":"active","ping":86},{"user_id":181,"name":"Lamp","steam_id":76561198369922506,"connected_time":220000000000,"state":"active","ping":67},{"user_id":136,"name":"katryna","steam_id":76561198023440304,"connected_time":3174000000000,"state":"active","ping":62},{"user_id":155,"name":"Jerk Tryhard (roleplay)","steam_id":76561199470538309,"connected_time":1922000000000,"state":"active","ping":60},{"user_id":145,"name":"Kritzburgh","steam_id":76561198149466938,"connected_time":2503000000000,"state":"active","ping":62},{"user_id":172,"name":"KaosInfinite","steam_id":76561198009126350,"connected_time":453000000000,"state":"active","ping":97},{"user_id":70,"name":"Nobody","steam_id":76561198286486517,"connected_time":8764000000000,"state":"active","ping":61},{"user_id":47,"name":"Mandorin Moranges","steam_id":76561198277645423,"connected_time":9808000000000,"state":"active","ping":54},{"user_id":156,"name":"Siz","steam_id":76561198072962154,"connected_time":1769000000000,"state":"active","ping":60},{"user_id":79,"name":"Dokkibai","steam_id":76561198355935693,"connected_time":8011000000000,"state":"active","ping":48},{"user_id":174,"name":"Boxcars","steam_id":76561198120978767,"connected_time":395000000000,"state":"active","ping":103},{"user_id":178,"name":"Stanv","steam_id":76561198259530604,"connected_time":288000000000,"state":"active","ping":49}]},{"server_id":0,"name_short":"","name":"Uncletopia | London | 8 | Community","host":"","port":0,"enabled":false,"region":"","cc":"","latitude":0,"longitude":0,"reserved":0,"last_update":"0001-01-01T00:00:00Z","protocol":17,"map":"cp_propaganda_b18","folder":"tf","game":"Team Fortress","app_id":440,"player_count":0,"max_players":24,"Bots":0,"server_type":"Dedicated","server_os":"Linux","password":true,"vac":true,"version":"7961495","steam_id":85568392924964315,"keywords":["cp","nocrits","nodmgspread","uncletopia"],"edicts":[412,2048],"game_id":440,"stv_port":27086,"stv_name":"Uncletopia | London | 8 | Community | STV","players":null},{"server_id":0,"name_short":"","name":"Uncletopia | Atlanta | 3 | Stopwatch","host":"","port":0,"enabled":false,"region":"","cc":"","latitude":0,"longitude":0,"reserved":0,"last_update":"0001-01-01T00:00:00Z","protocol":17,"map":"koth_bagel_rc6","folder":"tf","game":"Team Fortress","app_id":440,"player_count":0,"max_players":24,"Bots":0,"server_type":"Dedicated","server_os":"Linux","password":true,"vac":true,"version":"7961495","steam_id":85568392924515187,"keywords":["cp","nocrits","nodmgspread","uncletopia"],"edicts":[600,2048],"game_id":440,"stv_port":27036,"stv_name":"Uncletopia | Atlanta | 3 | Stopwatch | STV","players":null},{"server_id":0,"name_short":"","name":"Uncletopia | San Francisco | 2 | All Maps","host":"","port":0,"enabled":false,"region":"","cc":"","latitude":0,"longitude":0,"reserved":0,"last_update":"0001-01-01T00:00:00Z","protocol":17,"map":"pl_hoodoo_final","folder":"tf","game":"Team Fortress","app_id":440,"player_count":0,"max_players":24,"Bots":0,"server_type":"Dedicated","server_os":"Linux","password":true,"vac":true,"version":"7961495","steam_id":85568392924470000,"keywords":["nocrits","nodmgspread","payload","uncletopia"],"edicts":[1122,2048],"game_id":440,"stv_port":27026,"stv_name":"Uncletopia | San Francisco | 2 | All Maps | STV","players":null},{"server_id":0,"name_short":"","name":"Uncletopia | San Francisco | 4 | Community","host":"","port":0,"enabled":false,"region":"","cc":"","latitude":0,"longitude":0,"reserved":0,"last_update":"0001-01-01T00:00:00Z","protocol":17,"map":"cp_reckoner_rc6","folder":"tf","game":"Team Fortress","app_id":440,"player_count":0,"max_players":24,"Bots":0,"server_type":"Dedicated","server_os":"Linux","password":true,"vac":true,"version":"7961495","steam_id":85568392924742826,"keywords":["cp","nocrits","nodmgspread","uncletopia"],"edicts":[657,2048],"game_id":440,"stv_port":27046,"stv_name":"Uncletopia | San Francisco | 4 | Community | STV","players":null},{"server_id":0,"name_short":"","name":"Uncletopia | Frankfurt | 6 | All Maps","host":"","port":0,"enabled":false,"region":"","cc":"","latitude":0,"longitude":0,"reserved":0,"last_update":"0001-01-01T00:00:00Z","protocol":17,"map":"plr_pipeline","folder":"tf","game":"Team Fortress","app_id":440,"player_count":0,"max_players":24,"Bots":0,"server_type":"Dedicated","server_os":"Linux","password":true,"vac":true,"version":"7961495","steam_id":85568392924504278,"keywords":["nocrits","nodmgspread","payload","uncletopia"],"edicts":[933,2048],"game_id":440,"stv_port":27066,"stv_name":"Uncletopia | Frankfurt | 6 | All Maps | STV","players":null},{"server_id":0,"name_short":"","name":"Uncletopia | Frankfurt | 3 | All Maps","host":"","port":0,"enabled":false,"region":"","cc":"","latitude":0,"longitude":0,"reserved":0,"last_update":"0001-01-01T00:00:00Z","protocol":17,"map":"cp_process_final","folder":"tf","game":"Team Fortress","app_id":440,"player_count":23,"max_players":24,"Bots":0,"server_type":"Dedicated","server_os":"Linux","password":true,"vac":true,"version":"7961495","steam_id":85568392924504274,"keywords":["cp","nocrits","nodmgspread","uncletopia"],"edicts":[796,2048],"game_id":440,"stv_port":27036,"stv_name":"Uncletopia | Frankfurt | 3 | All Maps | STV","players":[{"user_id":395,"name":"Kuickfire","steam_id":76561198066476639,"connected_time":2015000000000,"state":"active","ping":102},{"user_id":444,"name":"Fedm","steam_id":76561199020090514,"connected_time":239000000000,"state":"active","ping":69},{"user_id":455,"name":"Stalol","steam_id":76561198063498206,"connected_time":86000000000,"state":"active","ping":60},{"user_id":433,"name":"? Y-not ?","steam_id":76561198004077449,"connected_time":453000000000,"state":"active","ping":49},{"user_id":436,"name":"jovi_","steam_id":76561198449280552,"connected_time":403000000000,"state":"active","ping":58},{"user_id":397,"name":"Reihenhausbewohner","steam_id":76561198049820307,"connected_time":1897000000000,"state":"active","ping":51},{"user_id":441,"name":"Rewbul | rip bozo again","steam_id":76561198004458750,"connected_time":273000000000,"state":"active","ping":74},{"user_id":449,"name":"Gugu gaga","steam_id":76561198161822358,"connected_time":200000000000,"state":"active","ping":60},{"user_id":438,"name":"„Éá„Éñ","steam_id":76561197988396903,"connected_time":370000000000,"state":"active","ping":96},{"user_id":404,"name":"DarthMurloc_OW","steam_id":76561198075577711,"connected_time":1207000000000,"state":"active","ping":75},{"user_id":405,"name":"Phalcon","steam_id":76561197987051394,"connected_time":1206000000000,"state":"active","ping":70},{"user_id":406,"name":"–ú—É—Ä–∫–∞ –î–µ–Ω–Ω–∏—Ü–∞","steam_id":76561198020590323,"connected_time":1198000000000,"state":"active","ping":90},{"user_id":442,"name":"Subterranean","steam_id":76561198106684566,"connected_time":251000000000,"state":"active","ping":74},{"user_id":450,"name":"‚ó¢d«ùX","steam_id":76561198058171422,"connected_time":188000000000,"state":"active","ping":60},{"user_id":443,"name":"SKREEEEE","steam_id":76561198150111025,"connected_time":251000000000,"state":"active","ping":58},{"user_id":414,"name":"George W Bush","steam_id":76561198846784757,"connected_time":1080000000000,"state":"active","ping":63},{"user_id":445,"name":"Bgm_","steam_id":76561198056452044,"connected_time":236000000000,"state":"active","ping":60},{"user_id":446,"name":"Murfilds","steam_id":76561198047594222,"connected_time":232000000000,"state":"active","ping":94},{"user_id":447,"name":"FJADL","steam_id":76561198237008214,"connected_time":218000000000,"state":"active","ping":60},{"user_id":448,"name":"Jeagle_g","steam_id":76561198174394615,"connected_time":216000000000,"state":"active","ping":48},{"user_id":456,"name":"Princess Fuzz","steam_id":76561198025783000,"connected_time":46000000000,"state":"active","ping":45},{"user_id":453,"name":"MENTALLY STABLE!!!!!","steam_id":76561198130571713,"connected_time":164000000000,"state":"active","ping":46},{"user_id":454,"name":"Kiko","steam_id":76561198105840026,"connected_time":160000000000,"state":"active","ping":61}]},{"server_id":0,"name_short":"","name":"Uncletopia | Sydney | 1 | All Maps","host":"","port":0,"enabled":false,"region":"","cc":"","latitude":0,"longitude":0,"reserved":0,"last_update":"0001-01-01T00:00:00Z","protocol":17,"map":"cp_mountainlab","folder":"tf","game":"Team Fortress","app_id":440,"player_count":0,"max_players":24,"Bots":0,"server_type":"Dedicated","server_os":"Linux","password":true,"vac":true,"version":"7961495","steam_id":85568392924470001,"keywords":["cp","nocrits","nodmgspread","uncletopia"],"edicts":[533,2048],"game_id":440,"stv_port":27016,"stv_name":"Uncletopia | Sydney | 1 | All Maps | STV","players":null},{"server_id":0,"name_short":"","name":"Uncletopia | New York City | 2 | All Maps","host":"","port":0,"enabled":false,"region":"","cc":"","latitude":0,"longitude":0,"reserved":0,"last_update":"0001-01-01T00:00:00Z","protocol":17,"map":"koth_lakeside_final","folder":"tf","game":"Team Fortress","app_id":440,"player_count":24,"max_players":24,"Bots":0,"server_type":"Dedicated","server_os":"Linux","password":true,"vac":true,"version":"7961495","steam_id":85568392924469994,"keywords":["cp","nocrits","nodmgspread","uncletopia"],"edicts":[628,2048],"game_id":440,"stv_port":27026,"stv_name":"Uncletopia | New York City | 2 | All Maps | STV","players":[{"user_id":150,"name":"Ghost","steam_id":76561198110914180,"connected_time":415000000000,"state":"active","ping":166},{"user_id":115,"name":"THEDRUNKSCOO","steam_id":76561198212965940,"connected_time":2095000000000,"state":"active","ping":51},{"user_id":132,"name":"Atlas","steam_id":76561198127975050,"connected_time":1556000000000,"state":"active","ping":78},{"user_id":84,"name":"Captain Slow","steam_id":76561198116957161,"connected_time":4697000000000,"state":"active","ping":45},{"user_id":155,"name":"x","steam_id":76561198359634841,"connected_time":31000000000,"state":"active","ping":111},{"user_id":144,"name":"Amber the Khajiit Assassin","steam_id":76561199134893517,"connected_time":836000000000,"state":"active","ping":111},{"user_id":112,"name":"Larry","steam_id":76561198069458873,"connected_time":2706000000000,"state":"active","ping":46},{"user_id":117,"name":"Tokyo_Timeshift_","steam_id":76561198048677523,"connected_time":2092000000000,"state":"active","ping":64},{"user_id":64,"name":"Ryk3zz","steam_id":76561198892750220,"connected_time":5982000000000,"state":"active","ping":81},{"user_id":124,"name":"Security Consultant Rin","steam_id":76561199431280503,"connected_time":1902000000000,"state":"active","ping":53},{"user_id":151,"name":"Marco","steam_id":76561198061122153,"connected_time":319000000000,"state":"active","ping":86},{"user_id":121,"name":"Nerrrd_","steam_id":76561198870129960,"connected_time":2056000000000,"state":"active","ping":45},{"user_id":122,"name":"Equinox","steam_id":76561198274279754,"connected_time":2055000000000,"state":"active","ping":76},{"user_id":80,"name":"tailorturtle","steam_id":76561198107481127,"connected_time":5082000000000,"state":"active","ping":46},{"user_id":145,"name":"Meep","steam_id":76561198000304772,"connected_time":827000000000,"state":"active","ping":63},{"user_id":110,"name":"aiuka","steam_id":76561198168897164,"connected_time":3162000000000,"state":"active","ping":55},{"user_id":90,"name":"Jamrag","steam_id":76561199031241776,"connected_time":4412000000000,"state":"active","ping":89},{"user_id":154,"name":"Moofins","steam_id":76561198050291949,"connected_time":204000000000,"state":"active","ping":74},{"user_id":114,"name":"Cellus","steam_id":76561198067204847,"connected_time":2147000000000,"state":"active","ping":60},{"user_id":93,"name":"corntent","steam_id":76561198824847948,"connected_time":4173000000000,"state":"active","ping":44},{"user_id":153,"name":"chikin.sauce","steam_id":76561198042464635,"connected_time":287000000000,"state":"active","ping":96},{"user_id":137,"name":"Chezaus","steam_id":76561198317397837,"connected_time":1157000000000,"state":"active","ping":64},{"user_id":100,"name":"Ostrich","steam_id":76561198068553779,"connected_time":3808000000000,"state":"active","ping":80},{"user_id":119,"name":":o","steam_id":76561198964101426,"connected_time":2091000000000,"state":"active","ping":44}]},{"server_id":0,"name_short":"","name":"Uncletopia | Chicago | 2 | All Maps","host":"","port":0,"enabled":false,"region":"","cc":"","latitude":0,"longitude":0,"reserved":0,"last_update":"0001-01-01T00:00:00Z","protocol":17,"map":"pl_badwater","folder":"tf","game":"Team Fortress","app_id":440,"player_count":24,"max_players":24,"Bots":0,"server_type":"Dedicated","server_os":"Linux","password":true,"vac":true,"version":"7961495","steam_id":85568392924469985,"keywords":["nocrits","nodmgspread","payload","uncletopia"],"edicts":[1039,2048],"game_id":440,"stv_port":27026,"stv_name":"Uncletopia | Chicago | 2 | All Maps | STV","players":[{"user_id":248,"name":"cysipy","steam_id":76561198341860106,"connected_time":1748000000000,"state":"active","ping":76},{"user_id":255,"name":"iCarly Lore Expert","steam_id":76561198111902910,"connected_time":1174000000000,"state":"active","ping":74},{"user_id":259,"name":"Torensz64(But weezer)","steam_id":76561198239036482,"connected_time":263000000000,"state":"active","ping":79},{"user_id":256,"name":"muhammed","steam_id":76561198872251615,"connected_time":1174000000000,"state":"active","ping":81},{"user_id":174,"name":"LunarrD","steam_id":76561198811220107,"connected_time":6935000000000,"state":"active","ping":89},{"user_id":266,"name":"pizzaroger2003","steam_id":76561198179785873,"connected_time":70000000000,"state":"active","ping":73},{"user_id":257,"name":"luxl1","steam_id":76561198975034056,"connected_time":1172000000000,"state":"active","ping":118},{"user_id":253,"name":"Xurany","steam_id":76561199005012427,"connected_time":1209000000000,"state":"active","ping":63},{"user_id":265,"name":"Mburesh","steam_id":76561198137460717,"connected_time":100000000000,"state":"active","ping":57},{"user_id":241,"name":"Zing","steam_id":76561198379302861,"connected_time":2243000000000,"state":"active","ping":111},{"user_id":232,"name":"Thoughtfully Ignorant","steam_id":76561199509991902,"connected_time":2883000000000,"state":"active","ping":59},{"user_id":185,"name":"Elpipiribao","steam_id":76561198825371499,"connected_time":6733000000000,"state":"active","ping":128},{"user_id":58,"name":"Chadmander","steam_id":76561197974136337,"connected_time":15373000000000,"state":"active","ping":40},{"user_id":237,"name":"Syvana00","steam_id":76561198363957842,"connected_time":2480000000000,"state":"active","ping":71},{"user_id":254,"name":"Mega_Man23","steam_id":76561198138341391,"connected_time":1209000000000,"state":"active","ping":65},{"user_id":189,"name":"professional twelve year old","steam_id":76561198858796870,"connected_time":6631000000000,"state":"active","ping":91},{"user_id":247,"name":"Mediocre Gaming","steam_id":76561199230467980,"connected_time":1754000000000,"state":"active","ping":58},{"user_id":263,"name":"boykissing season","steam_id":76561198063970639,"connected_time":225000000000,"state":"active","ping":69},{"user_id":236,"name":"Just a Festive TimeButt","steam_id":76561198074261742,"connected_time":2646000000000,"state":"active","ping":77},{"user_id":250,"name":"dadgummit","steam_id":76561198005806915,"connected_time":1539000000000,"state":"active","ping":60},{"user_id":258,"name":"Donk","steam_id":76561199202761955,"connected_time":1152000000000,"state":"active","ping":64},{"user_id":219,"name":"Laventhey","steam_id":76561198977523626,"connected_time":4142000000000,"state":"active","ping":70},{"user_id":234,"name":"troll","steam_id":76561198082680563,"connected_time":2701000000000,"state":"active","ping":57},{"user_id":260,"name":"das boot","steam_id":76561198953844914,"connected_time":262000000000,"state":"active","ping":169}]},{"server_id":0,"name_short":"","name":"Uncletopia | Atlanta | 4 | Community","host":"","port":0,"enabled":false,"region":"","cc":"","latitude":0,"longitude":0,"reserved":0,"last_update":"0001-01-01T00:00:00Z","protocol":17,"map":"pl_divulgence_b4b","folder":"tf","game":"Team Fortress","app_id":440,"player_count":0,"max_players":24,"Bots":0,"server_type":"Dedicated","server_os":"Linux","password":true,"vac":true,"version":"7961495","steam_id":85568392924515188,"keywords":["nocrits","nodmgspread","payload","uncletopia"],"edicts":[788,2048],"game_id":440,"stv_port":27046,"stv_name":"Uncletopia | Atlanta | 4 | Community | STV","players":null},{"server_id":0,"name_short":"","name":"Uncletopia | Dallas | 3 | All Maps","host":"","port":0,"enabled":false,"region":"","cc":"","latitude":0,"longitude":0,"reserved":0,"last_update":"0001-01-01T00:00:00Z","protocol":17,"map":"cp_dustbowl","folder":"tf","game":"Team Fortress","app_id":440,"player_count":24,"max_players":24,"Bots":0,"server_type":"Dedicated","server_os":"Linux","password":true,"vac":true,"version":"7961495","steam_id":85568392924515219,"keywords":["cp","nocrits","nodmgspread","uncletopia"],"edicts":[1047,2048],"game_id":440,"stv_port":27036,"stv_name":"Uncletopia | Dallas | 3 | All Maps | STV","players":[{"user_id":157,"name":"noilam189","steam_id":76561199185699366,"connected_time":2465000000000,"state":"active","ping":70},{"user_id":158,"name":"[cf] Captain Terror","steam_id":76561198028034742,"connected_time":2330000000000,"state":"active","ping":87},{"user_id":159,"name":"OrangeSand31","steam_id":76561199173898502,"connected_time":1790000000000,"state":"active","ping":60},{"user_id":160,"name":"TheGuy101","steam_id":76561199201772624,"connected_time":1649000000000,"state":"active","ping":87},{"user_id":165,"name":"Type Three Dabeetus","steam_id":76561198062710038,"connected_time":1346000000000,"state":"active","ping":77},{"user_id":166,"name":"james_bondage","steam_id":76561199476062624,"connected_time":1302000000000,"state":"active","ping":103},{"user_id":167,"name":"Scrux","steam_id":76561198129763115,"connected_time":1287000000000,"state":"active","ping":88},{"user_id":168,"name":"corviraptor (certified failgirl","steam_id":76561198058284392,"connected_time":1278000000000,"state":"active","ping":55},{"user_id":169,"name":"ferret (with pronouns)","steam_id":76561198067542929,"connected_time":1243000000000,"state":"active","ping":128},{"user_id":175,"name":"MOB101","steam_id":76561198360491038,"connected_time":1022000000000,"state":"active","ping":80},{"user_id":171,"name":"Granlet","steam_id":76561199244312225,"connected_time":1198000000000,"state":"active","ping":100},{"user_id":173,"name":"Firedust19","steam_id":76561198153238631,"connected_time":1114000000000,"state":"active","ping":91},{"user_id":190,"name":"Colras","steam_id":76561198021048894,"connected_time":222000000000,"state":"active","ping":95},{"user_id":177,"name":"Prowler","steam_id":76561198981106464,"connected_time":848000000000,"state":"active","ping":75},{"user_id":178,"name":"1st place love live fan","steam_id":76561198037951506,"connected_time":823000000000,"state":"active","ping":60},{"user_id":179,"name":"Reeder Rabbit","steam_id":76561198042675927,"connected_time":815000000000,"state":"active","ping":93},{"user_id":181,"name":"Sonata","steam_id":76561199154246816,"connected_time":803000000000,"state":"active","ping":76},{"user_id":182,"name":"Shame","steam_id":76561198100490994,"connected_time":802000000000,"state":"active","ping":90},{"user_id":183,"name":"Discourse","steam_id":76561198984286678,"connected_time":801000000000,"state":"active","ping":80},{"user_id":184,"name":"Dokego","steam_id":76561198185826961,"connected_time":799000000000,"state":"active","ping":81},{"user_id":185,"name":"TransSatanic, Artist Arc","steam_id":76561198080212467,"connected_time":799000000000,"state":"active","ping":99},{"user_id":186,"name":"Trx","steam_id":76561198979680941,"connected_time":797000000000,"state":"active","ping":89},{"user_id":187,"name":"lampin","steam_id":76561197964367078,"connected_time":758000000000,"state":"active","ping":76},{"user_id":188,"name":"MisterMcBones","steam_id":76561198301885443,"connected_time":751000000000,"state":"active","ping":94}]},{"server_id":0,"name_short":"","name":"Uncletopia | S√£o Paulo | 1 | All Maps","host":"","port":0,"enabled":false,"region":"","cc":"","latitude":0,"longitude":0,"reserved":0,"last_update":"0001-01-01T00:00:00Z","protocol":17,"map":"pl_pier","folder":"tf","game":"Team Fortress","app_id":440,"player_count":0,"max_players":24,"Bots":0,"server_type":"Dedicated","server_os":"Linux","password":true,"vac":true,"version":"7961495","steam_id":85568392924469996,"keywords":["nocrits","nodmgspread","payload","uncletopia"],"edicts":[963,2048],"game_id":440,"stv_port":27016,"stv_name":"Uncletopia | S√£o Paulo | 1 | All Maps | STV","players":null},{"server_id":0,"name_short":"","name":"Uncletopia | Los Angeles | 1 | All Maps","host":"","port":0,"enabled":false,"region":"","cc":"","latitude":0,"longitude":0,"reserved":0,"last_update":"0001-01-01T00:00:00Z","protocol":17,"map":"pl_snowycoast","folder":"tf","game":"Team Fortress","app_id":440,"player_count":0,"max_players":24,"Bots":0,"server_type":"Dedicated","server_os":"Linux","password":true,"vac":true,"version":"7961495","steam_id":85568392924469991,"keywords":["nocrits","nodmgspread","payload","uncletopia"],"edicts":[877,2048],"game_id":440,"stv_port":27016,"stv_name":"Uncletopia | Los Angeles | 1 | All Maps | STV","players":null},{"server_id":0,"name_short":"","name":"Uncletopia | Warsaw | 6 | Community","host":"","port":0,"enabled":false,"region":"","cc":"","latitude":0,"longitude":0,"reserved":0,"last_update":"0001-01-01T00:00:00Z","protocol":17,"map":"pl_oasis_rc3","folder":"tf","game":"Team Fortress","app_id":440,"player_count":0,"max_players":24,"Bots":0,"server_type":"Dedicated","server_os":"Linux","password":true,"vac":true,"version":"7961495","steam_id":85568392925397856,"keywords":["nocrits","nodmgspread","payload","uncletopia"],"edicts":[777,2048],"game_id":440,"stv_port":27066,"stv_name":"Uncletopia | Warsaw | 6 | Community | STV","players":null},{"server_id":0,"name_short":"","name":"Uncletopia | Warsaw | 5 | Stopwatch","host":"","port":0,"enabled":false,"region":"","cc":"","latitude":0,"longitude":0,"reserved":0,"last_update":"0001-01-01T00:00:00Z","protocol":17,"map":"koth_jamram_rc1a","folder":"tf","game":"Team Fortress","app_id":440,"player_count":0,"max_players":24,"Bots":0,"server_type":"Dedicated","server_os":"Linux","password":true,"vac":true,"version":"7961495","steam_id":85568392925397854,"keywords":["cp","nocrits","nodmgspread","uncletopia"],"edicts":[483,2048],"game_id":440,"stv_port":27056,"stv_name":"Uncletopia | Warsaw | 5 | Stopwatch | STV","players":null},{"server_id":0,"name_short":"","name":"Uncletopia | S√£o Paulo | 2 | Community","host":"","port":0,"enabled":false,"region":"","cc":"","latitude":0,"longitude":0,"reserved":0,"last_update":"0001-01-01T00:00:00Z","protocol":17,"map":"koth_slaughter_rc1","folder":"tf","game":"Team Fortress","app_id":440,"player_count":0,"max_players":24,"Bots":0,"server_type":"Dedicated","server_os":"Linux","password":true,"vac":true,"version":"7961495","steam_id":85568392924485349,"keywords":["cp","nocrits","nodmgspread","uncletopia"],"edicts":[965,2048],"game_id":440,"stv_port":27016,"stv_name":"Uncletopia | S√£o Paulo | 2 | Community | STV","players":null},{"server_id":0,"name_short":"","name":"Uncletopia | New York City | 1 | All Maps","host":"","port":0,"enabled":false,"region":"","cc":"","latitude":0,"longitude":0,"reserved":0,"last_update":"0001-01-01T00:00:00Z","protocol":17,"map":"koth_viaduct","folder":"tf","game":"Team Fortress","app_id":440,"player_count":24,"max_players":24,"Bots":0,"server_type":"Dedicated","server_os":"Linux","password":true,"vac":true,"version":"7961495","steam_id":85568392924469993,"keywords":["cp","nocrits","nodmgspread","uncletopia"],"edicts":[480,2048],"game_id":440,"stv_port":27016,"stv_name":"Uncletopia | New York City | 1 | All Maps | STV","players":[{"user_id":28,"name":"dangerzach","steam_id":76561199044680710,"connected_time":588000000000,"state":"active","ping":61},{"user_id":29,"name":"Destiny, Manifested","steam_id":76561198236182166,"connected_time":495000000000,"state":"active","ping":59},{"user_id":30,"name":"ChickenFriar","steam_id":76561199119888114,"connected_time":453000000000,"state":"active","ping":173},{"user_id":36,"name":"Bluedemon","steam_id":76561199212058684,"connected_time":217000000000,"state":"active","ping":119},{"user_id":32,"name":"Û†Å≥‚Åß‚Åß double penjamin","steam_id":76561198249301650,"connected_time":314000000000,"state":"active","ping":141},{"user_id":33,"name":"Ultra","steam_id":76561198858574016,"connected_time":308000000000,"state":"active","ping":94},{"user_id":34,"name":"24auto","steam_id":76561198198578754,"connected_time":305000000000,"state":"active","ping":56},{"user_id":35,"name":"Costacal","steam_id":76561198132029218,"connected_time":280000000000,"state":"active","ping":131},{"user_id":37,"name":"jorjor wells","steam_id":76561199073429082,"connected_time":202000000000,"state":"active","ping":58},{"user_id":54,"name":"GeorgyZhukov#Rustypot","steam_id":76561198075536517,"connected_time":51000000000,"state":"spawning","ping":219},{"user_id":39,"name":"bookreader","steam_id":76561198978568007,"connected_time":189000000000,"state":"active","ping":44},{"user_id":40,"name":"Balsamicpork","steam_id":76561197995358472,"connected_time":187000000000,"state":"active","ping":75},{"user_id":41,"name":"Eiss","steam_id":76561198343183806,"connected_time":183000000000,"state":"active","ping":71},{"user_id":42,"name":"Hyguy","steam_id":76561198193608742,"connected_time":164000000000,"state":"active","ping":92},{"user_id":43,"name":"conspicuous","steam_id":76561198299453423,"connected_time":153000000000,"state":"active","ping":112},{"user_id":44,"name":"Squiggle","steam_id":76561198257197535,"connected_time":152000000000,"state":"active","ping":102},{"user_id":45,"name":"Nuz","steam_id":76561198271954520,"connected_time":147000000000,"state":"active","ping":86},{"user_id":46,"name":"PastetheRabbit","steam_id":76561198152219815,"connected_time":145000000000,"state":"active","ping":73},{"user_id":55,"name":"blone","steam_id":76561199077504411,"connected_time":0,"state":"spawning","ping":19},{"user_id":48,"name":"FUMO FUMO","steam_id":76561199445350651,"connected_time":141000000000,"state":"active","ping":63},{"user_id":49,"name":"oli-mc","steam_id":76561198881106951,"connected_time":130000000000,"state":"active","ping":110},{"user_id":50,"name":"Tyth","steam_id":76561198062543298,"connected_time":119000000000,"state":"active","ping":121},{"user_id":51,"name":"Blade Racer","steam_id":76561198155896703,"connected_time":114000000000,"state":"active","ping":73},{"user_id":53,"name":"Stephen","steam_id":76561197989467462,"connected_time":82000000000,"state":"active","ping":87}]},{"server_id":0,"name_short":"","name":"Uncletopia | Dallas | 4 | Community","host":"","port":0,"enabled":false,"region":"","cc":"","latitude":0,"longitude":0,"reserved":0,"last_update":"0001-01-01T00:00:00Z","protocol":17,"map":"pl_stallberg_rc3","folder":"tf","game":"Team Fortress","app_id":440,"player_count":1,"max_players":24,"Bots":0,"server_type":"Dedicated","server_os":"Linux","password":true,"vac":true,"version":"7961495","steam_id":85568392924515220,"keywords":["nocrits","nodmgspread","payload","uncletopia"],"edicts":[611,2048],"game_id":440,"stv_port":27046,"stv_name":"Uncletopia | Dallas | 4 | Community | STV","players":[{"user_id":6,"name":"Gamesguy","steam_id":76561199451748849,"connected_time":146000000000,"state":"active","ping":78}]},{"server_id":0,"name_short":"","name":"Uncletopia | Los Angeles | 4 | Stopwatch","host":"","port":0,"enabled":false,"region":"","cc":"","latitude":0,"longitude":0,"reserved":0,"last_update":"0001-01-01T00:00:00Z","protocol":17,"map":"cp_process_final","folder":"tf","game":"Team Fortress","app_id":440,"player_count":0,"max_players":24,"Bots":0,"server_type":"Dedicated","server_os":"Linux","password":true,"vac":true,"version":"7961495","steam_id":85568392924510199,"keywords":["cp","nocrits","nodmgspread","uncletopia"],"edicts":[537,2048],"game_id":440,"stv_port":27046,"stv_name":"Uncletopia | Los Angeles | 4 | Stopwatch | STV","players":null},{"server_id":0,"name_short":"","name":"Uncletopia | Frankfurt | 4 | All Maps","host":"","port":0,"enabled":false,"region":"","cc":"","latitude":0,"longitude":0,"reserved":0,"last_update":"0001-01-01T00:00:00Z","protocol":17,"map":"cp_snakewater_final1","folder":"tf","game":"Team Fortress","app_id":440,"player_count":24,"max_players":24,"Bots":0,"server_type":"Dedicated","server_os":"Linux","password":true,"vac":true,"version":"7961495","steam_id":85568392924504275,"keywords":["cp","nocrits","nodmgspread","uncletopia"],"edicts":[941,2048],"game_id":440,"stv_port":27046,"stv_name":"Uncletopia | Frankfurt | 4 | All Maps | STV","players":[{"user_id":495,"name":"steel creature","steam_id":76561199042470246,"connected_time":3143000000000,"state":"active","ping":57},{"user_id":534,"name":"curious femboy","steam_id":76561199199388221,"connected_time":187000000000,"state":"active","ping":66},{"user_id":535,"name":"snauusey","steam_id":76561199134329212,"connected_time":182000000000,"state":"active","ping":64},{"user_id":522,"name":"soup","steam_id":76561198386933065,"connected_time":789000000000,"state":"active","ping":60},{"user_id":536,"name":"Bob Ishly","steam_id":76561198051841698,"connected_time":176000000000,"state":"active","ping":91},{"user_id":514,"name":"emer","steam_id":76561198001420975,"connected_time":1975000000000,"state":"active","ping":97},{"user_id":524,"name":"womp","steam_id":76561198283192660,"connected_time":753000000000,"state":"active","ping":73},{"user_id":438,"name":"Gregor Samsa","steam_id":76561198973069177,"connected_time":7100000000000,"state":"active","ping":46},{"user_id":540,"name":"„ÉÑ·É¶‚òÖ–°—á…ãœõ“≠–ª√π–≤–∞—è\ufffd\ufffd","steam_id":76561198125161155,"connected_time":114000000000,"state":"active","ping":101},{"user_id":525,"name":"Tort","steam_id":76561198329646769,"connected_time":742000000000,"state":"active","ping":63},{"user_id":519,"name":"Master coitus","steam_id":76561198050416948,"connected_time":1005000000000,"state":"active","ping":53},{"user_id":506,"name":"Samwe","steam_id":76561198076581196,"connected_time":2407000000000,"state":"active","ping":61},{"user_id":526,"name":"Zombyachin","steam_id":76561198003842660,"connected_time":736000000000,"state":"active","ping":90},{"user_id":537,"name":"Fanina","steam_id":76561198295541343,"connected_time":170000000000,"state":"active","ping":93},{"user_id":531,"name":"HayLeX","steam_id":76561198130997343,"connected_time":669000000000,"state":"active","ping":90},{"user_id":515,"name":"Hyperwizard of Space Conquest","steam_id":76561198953210459,"connected_time":1698000000000,"state":"active","ping":86},{"user_id":479,"name":"r4s1","steam_id":76561198024034917,"connected_time":4310000000000,"state":"active","ping":59},{"user_id":541,"name":"GTA San Andris","steam_id":76561198216284995,"connected_time":0,"state":"spawning","ping":44},{"user_id":528,"name":"Sparky","steam_id":76561198036754195,"connected_time":717000000000,"state":"active","ping":44},{"user_id":509,"name":"noticed","steam_id":76561198205976029,"connected_time":2264000000000,"state":"active","ping":86},{"user_id":482,"name":"MEGOS","steam_id":76561198172740637,"connected_time":4304000000000,"state":"active","ping":51},{"user_id":529,"name":"Nugget","steam_id":76561198338916407,"connected_time":717000000000,"state":"active","ping":65},{"user_id":532,"name":"LightOfKshahrewar","steam_id":76561198860938097,"connected_time":650000000000,"state":"active","ping":85},{"user_id":538,"name":"KrAk3rs","steam_id":76561198298179344,"connected_time":170000000000,"state":"active","ping":59}]},{"server_id":0,"name_short":"","name":"Uncletopia | Warsaw | 1 | One Thousand Uncles","host":"","port":0,"enabled":false,"region":"","cc":"","latitude":0,"longitude":0,"reserved":0,"last_update":"0001-01-01T00:00:00Z","protocol":17,"map":"pl_hoodoo_final","folder":"tf","game":"Team Fortress","app_id":440,"player_count":29,"max_players":32,"Bots":20,"server_type":"Dedicated","server_os":"Linux","password":true,"vac":true,"version":"7961495","steam_id":85568392925397850,"keywords":["alltalk","bots","danepve","increased_maxplayers","norespawntime","payload","uncletopia"],"edicts":[1616,2048],"game_id":440,"stv_port":0,"stv_name":"","players":[{"user_id":618,"name":"(PL) Hello üçì :D","steam_id":76561199173860855,"connected_time":56000000000,"state":"active","ping":67},{"user_id":572,"name":"foolproof","steam_id":76561198115801132,"connected_time":2040000000000,"state":"active","ping":68},{"user_id":616,"name":"Lowqualitybeans","steam_id":76561198069405114,"connected_time":528000000000,"state":"active","ping":87},{"user_id":568,"name":"‚ò†CaptainDevilEye‚ò†","steam_id":76561198846771953,"connected_time":3459000000000,"state":"active","ping":105},{"user_id":617,"name":"Sebastian_BG","steam_id":76561199027178846,"connected_time":290000000000,"state":"active","ping":90},{"user_id":560,"name":"Zedifo","steam_id":76561198044032070,"connected_time":4352000000000,"state":"active","ping":74},{"user_id":593,"name":"Dell \"Vermineer\" LaFontant","steam_id":76561198371872022,"connected_time":1781000000000,"state":"active","ping":102},{"user_id":595,"name":"Edward","steam_id":76561199204477218,"connected_time":1059000000000,"state":"active","ping":412},{"user_id":562,"name":"The Fire Pyro","steam_id":76561198300296457,"connected_time":3798000000000,"state":"active","ping":84}]},{"server_id":0,"name_short":"","name":"Uncletopia | Sydney | 4 | All Maps","host":"","port":0,"enabled":false,"region":"","cc":"","latitude":0,"longitude":0,"reserved":0,"last_update":"0001-01-01T00:00:00Z","protocol":17,"map":"cp_standin_final","folder":"tf","game":"Team Fortress","app_id":440,"player_count":0,"max_players":24,"Bots":0,"server_type":"Dedicated","server_os":"Linux","password":true,"vac":true,"version":"7961495","steam_id":85568392925397958,"keywords":["cp","nocrits","nodmgspread","uncletopia"],"edicts":[426,2048],"game_id":440,"stv_port":27046,"stv_name":"Uncletopia | Sydney | 4 | All Maps | STV","players":null},{"server_id":0,"name_short":"","name":"Uncletopia | New York City | 3 | Stopwatch","host":"","port":0,"enabled":false,"region":"","cc":"","latitude":0,"longitude":0,"reserved":0,"last_update":"0001-01-01T00:00:00Z","protocol":17,"map":"koth_bagel_rc6","folder":"tf","game":"Team Fortress","app_id":440,"player_count":0,"max_players":24,"Bots":0,"server_type":"Dedicated","server_os":"Linux","password":true,"vac":true,"version":"7961495","steam_id":85568392924742820,"keywords":["cp","nocrits","nodmgspread","uncletopia"],"edicts":[600,2048],"game_id":440,"stv_port":27036,"stv_name":"Uncletopia | New York City | 3 | Stopwatch | STV","players":null},{"server_id":0,"name_short":"","name":"Uncletopia | San Francisco | 1 | All Maps","host":"","port":0,"enabled":false,"region":"","cc":"","latitude":0,"longitude":0,"reserved":0,"last_update":"0001-01-01T00:00:00Z","protocol":17,"map":"pl_barnblitz","folder":"tf","game":"Team Fortress","app_id":440,"player_count":0,"max_players":24,"Bots":0,"server_type":"Dedicated","server_os":"Linux","password":true,"vac":true,"version":"7961495","steam_id":85568392924469999,"keywords":["nocrits","nodmgspread","payload","uncletopia"],"edicts":[805,2048],"game_id":440,"stv_port":27016,"stv_name":"Uncletopia | San Francisco | 1 | All Maps | STV","players":null},{"server_id":0,"name_short":"","name":"Uncletopia | Sydney | 6 | Community","host":"","port":0,"enabled":false,"region":"","cc":"","latitude":0,"longitude":0,"reserved":0,"last_update":"0001-01-01T00:00:00Z","protocol":17,"map":"koth_soot_final1","folder":"tf","game":"Team Fortress","app_id":440,"player_count":0,"max_players":24,"Bots":0,"server_type":"Dedicated","server_os":"Linux","password":true,"vac":true,"version":"7961495","steam_id":85568392925397960,"keywords":["cp","nocrits","nodmgspread","uncletopia"],"edicts":[240,2048],"game_id":440,"stv_port":27066,"stv_name":"Uncletopia | Sydney | 6 | Community | STV","players":null},{"server_id":0,"name_short":"","name":"Uncletopia | Los Angeles | 2 | All Maps","host":"","port":0,"enabled":false,"region":"","cc":"","latitude":0,"longitude":0,"reserved":0,"last_update":"0001-01-01T00:00:00Z","protocol":17,"map":"koth_lazarus","folder":"tf","game":"Team Fortress","app_id":440,"player_count":0,"max_players":24,"Bots":0,"server_type":"Dedicated","server_os":"Linux","password":true,"vac":true,"version":"7961495","steam_id":85568392924469992,"keywords":["cp","nocrits","nodmgspread","uncletopia"],"edicts":[861,2048],"game_id":440,"stv_port":27026,"stv_name":"Uncletopia | Los Angeles | 2 | All Maps | STV","players":null},{"server_id":0,"name_short":"","name":"Uncletopia | Los Angeles | 3 | All Maps","host":"","port":0,"enabled":false,"region":"","cc":"","latitude":0,"longitude":0,"reserved":0,"last_update":"0001-01-01T00:00:00Z","protocol":17,"map":"koth_lakeside_final","folder":"tf","game":"Team Fortress","app_id":440,"player_count":0,"max_players":24,"Bots":0,"server_type":"Dedicated","server_os":"Linux","password":true,"vac":true,"version":"7961495","steam_id":85568392924510198,"keywords":["cp","nocrits","nodmgspread","uncletopia"],"edicts":[304,2048],"game_id":440,"stv_port":27036,"stv_name":"Uncletopia | Los Angeles | 3 | All Maps | STV","players":null},{"server_id":0,"name_short":"","name":"Uncletopia | London | 4 | All Maps","host":"","port":0,"enabled":false,"region":"","cc":"","latitude":0,"longitude":0,"reserved":0,"last_update":"0001-01-01T00:00:00Z","protocol":17,"map":"cp_snakewater_final1","folder":"tf","game":"Team Fortress","app_id":440,"player_count":0,"max_players":24,"Bots":0,"server_type":"Dedicated","server_os":"Linux","password":true,"vac":true,"version":"7961495","steam_id":85568392924510193,"keywords":["cp","nocrits","nodmgspread","uncletopia"],"edicts":[635,2048],"game_id":440,"stv_port":27046,"stv_name":"Uncletopia | London | 4 | All Maps | STV","players":null},{"server_id":0,"name_short":"","name":"Uncletopia | Atlanta | 2 | All Maps","host":"","port":0,"enabled":false,"region":"","cc":"","latitude":0,"longitude":0,"reserved":0,"last_update":"0001-01-01T00:00:00Z","protocol":17,"map":"koth_viaduct","folder":"tf","game":"Team Fortress","app_id":440,"player_count":24,"max_players":24,"Bots":0,"server_type":"Dedicated","server_os":"Linux","password":true,"vac":true,"version":"7961495","steam_id":85568392924469983,"keywords":["cp","nocrits","nodmgspread","uncletopia"],"edicts":[504,2048],"game_id":440,"stv_port":27026,"stv_name":"Uncletopia | Atlanta | 2 | All Maps | STV","players":[{"user_id":211,"name":"hill of the king","steam_id":76561198099491925,"connected_time":349000000000,"state":"active","ping":60},{"user_id":218,"name":"GET TROLLED!!!!","steam_id":76561198106849547,"connected_time":29000000000,"state":"active","ping":70},{"user_id":210,"name":"Shuu","steam_id":76561199199180558,"connected_time":484000000000,"state":"active","ping":63},{"user_id":190,"name":"gretchling","steam_id":76561198046111695,"connected_time":2181000000000,"state":"active","ping":62},{"user_id":180,"name":"Renegade Radish","steam_id":76561198868344346,"connected_time":2559000000000,"state":"active","ping":75},{"user_id":177,"name":"CPU","steam_id":76561198408076634,"connected_time":2686000000000,"state":"active","ping":61},{"user_id":181,"name":"KFC Rat","steam_id":76561198135128086,"connected_time":2551000000000,"state":"active","ping":115},{"user_id":217,"name":"The Gentrified Urge","steam_id":76561198073314154,"connected_time":217000000000,"state":"active","ping":60},{"user_id":201,"name":"antoniov00gaming","steam_id":76561198364632073,"connected_time":1013000000000,"state":"active","ping":75},{"user_id":192,"name":"TheSausageSwiper","steam_id":76561198972869845,"connected_time":2134000000000,"state":"active","ping":126},{"user_id":206,"name":"Overwatch's PvE Mode","steam_id":76561198046127710,"connected_time":858000000000,"state":"active","ping":73},{"user_id":193,"name":"Hertz","steam_id":76561198310927351,"connected_time":2131000000000,"state":"active","ping":130},{"user_id":182,"name":"Jango","steam_id":76561198084589742,"connected_time":2550000000000,"state":"active","ping":60},{"user_id":214,"name":"leesh","steam_id":76561198079603938,"connected_time":297000000000,"state":"active","ping":47},{"user_id":170,"name":"Inworth","steam_id":76561197999777003,"connected_time":3654000000000,"state":"active","ping":78},{"user_id":174,"name":"Fatpower","steam_id":76561198288024226,"connected_time":2852000000000,"state":"active","ping":90},{"user_id":194,"name":"bigdaddyandrew720","steam_id":76561199344347103,"connected_time":2113000000000,"state":"active","ping":99},{"user_id":151,"name":"captainspatklz","steam_id":76561198432167270,"connected_time":4786000000000,"state":"active","ping":64},{"user_id":203,"name":"diip","steam_id":76561198345828288,"connected_time":922000000000,"state":"active","ping":89},{"user_id":197,"name":"Kiss Master","steam_id":76561198289572271,"connected_time":1923000000000,"state":"active","ping":58},{"user_id":154,"name":"MR.JOHNSONDIKCOOMINGS","steam_id":76561199127498304,"connected_time":4690000000000,"state":"active","ping":67},{"user_id":202,"name":"Eugene Porter","steam_id":76561198834556559,"connected_time":960000000000,"state":"active","ping":81},{"user_id":216,"name":"Mr. Squirt","steam_id":76561198174755679,"connected_time":231000000000,"state":"active","ping":61},{"user_id":164,"name":"talented","steam_id":76561198800259660,"connected_time":4322000000000,"state":"active","ping":53}]},{"server_id":0,"name_short":"","name":"Uncletopia | London | 5 | All Maps","host":"","port":0,"enabled":false,"region":"","cc":"","latitude":0,"longitude":0,"reserved":0,"last_update":"0001-01-01T00:00:00Z","protocol":17,"map":"koth_highpass","folder":"tf","game":"Team Fortress","app_id":440,"player_count":24,"max_players":24,"Bots":0,"server_type":"Dedicated","server_os":"Linux","password":true,"vac":true,"version":"7961495","steam_id":85568392924742829,"keywords":["cp","nocrits","nodmgspread","uncletopia"],"edicts":[701,2048],"game_id":440,"stv_port":27056,"stv_name":"Uncletopia | London | 5 | All Maps | STV","players":[{"user_id":433,"name":"Glorious Leader Xi Jinping","steam_id":76561198293811839,"connected_time":2221000000000,"state":"active","ping":58},{"user_id":454,"name":"SEL Layer 03","steam_id":76561198042560900,"connected_time":287000000000,"state":"active","ping":59},{"user_id":452,"name":"Gasket","steam_id":76561198107889867,"connected_time":618000000000,"state":"active","ping":73},{"user_id":400,"name":"+shebekino+","steam_id":76561199188503835,"connected_time":5957000000000,"state":"active","ping":85},{"user_id":450,"name":"Dan Dan the Furious","steam_id":76561198091032527,"connected_time":988000000000,"state":"active","ping":48},{"user_id":377,"name":"Mystic","steam_id":76561198258167406,"connected_time":8137000000000,"state":"active","ping":174},{"user_id":437,"name":"sauda","steam_id":76561198087824752,"connected_time":1536000000000,"state":"active","ping":59},{"user_id":447,"name":"Koraleq24","steam_id":76561199040594508,"connected_time":1224000000000,"state":"active","ping":85},{"user_id":435,"name":"Oak","steam_id":76561198067315672,"connected_time":1667000000000,"state":"active","ping":42},{"user_id":438,"name":"graffiti","steam_id":76561198044594230,"connected_time":1535000000000,"state":"active","ping":122},{"user_id":453,"name":"random_player691","steam_id":76561199209946306,"connected_time":322000000000,"state":"active","ping":53},{"user_id":439,"name":"TankBunker","steam_id":76561198100345135,"connected_time":1522000000000,"state":"active","ping":88},{"user_id":422,"name":"eXa","steam_id":76561197988349233,"connected_time":3102000000000,"state":"active","ping":52},{"user_id":440,"name":"angry russian man","steam_id":76561198386712795,"connected_time":1496000000000,"state":"active","ping":57},{"user_id":441,"name":"Sangolio","steam_id":76561198115170021,"connected_time":1493000000000,"state":"active","ping":68},{"user_id":442,"name":"Chikapu_Xek","steam_id":76561198428023493,"connected_time":1484000000000,"state":"active","ping":70},{"user_id":424,"name":"IndianKoolKid","steam_id":76561198259386987,"connected_time":3024000000000,"state":"active","ping":42},{"user_id":443,"name":"Emerald","steam_id":76561199141384216,"connected_time":1477000000000,"state":"active","ping":45},{"user_id":451,"name":"clcraven","steam_id":76561198004637699,"connected_time":801000000000,"state":"active","ping":53},{"user_id":444,"name":"Regular Cunt.‚Ñ¢","steam_id":76561198135584501,"connected_time":1473000000000,"state":"active","ping":61},{"user_id":445,"name":"Mailer","steam_id":76561198062690074,"connected_time":1459000000000,"state":"active","ping":62},{"user_id":387,"name":"Carrotcracker","steam_id":76561198034862396,"connected_time":7267000000000,"state":"active","ping":77},{"user_id":409,"name":"Doctor Marijuana","steam_id":76561198288289879,"connected_time":4606000000000,"state":"active","ping":48},{"user_id":426,"name":"bigbumdadi","steam_id":76561198089421781,"connected_time":2987000000000,"state":"active","ping":37}]},{"server_id":0,"name_short":"","name":"Uncletopia | Frankfurt | 8 | Community","host":"","port":0,"enabled":false,"region":"","cc":"","latitude":0,"longitude":0,"reserved":0,"last_update":"0001-01-01T00:00:00Z","protocol":17,"map":"pl_stallberg_rc3","folder":"tf","game":"Team Fortress","app_id":440,"player_count":0,"max_players":24,"Bots":0,"server_type":"Dedicated","server_os":"Linux","password":true,"vac":true,"version":"7961495","steam_id":85568392924742828,"keywords":["nocrits","nodmgspread","payload","uncletopia"],"edicts":[603,2048],"game_id":440,"stv_port":27086,"stv_name":"Uncletopia | Frankfurt | 8 | Community | STV","players":null},{"server_id":0,"name_short":"","name":"Uncletopia | Hong Kong | 1 | All Maps","host":"","port":0,"enabled":false,"region":"","cc":"","latitude":0,"longitude":0,"reserved":0,"last_update":"0001-01-01T00:00:00Z","protocol":17,"map":"pl_upward","folder":"tf","game":"Team Fortress","app_id":440,"player_count":0,"max_players":24,"Bots":0,"server_type":"Dedicated","server_os":"Linux","password":true,"vac":true,"version":"7961495","steam_id":85568392924494504,"keywords":["nocrits","nodmgspread","payload","uncletopia"],"edicts":[657,2048],"game_id":440,"stv_port":27016,"stv_name":"Uncletopia | Hong Kong | 1 | All Maps | STV","players":null},{"server_id":0,"name_short":"","name":"Uncletopia | Chicago | 1 | All Maps","host":"","port":0,"enabled":false,"region":"","cc":"","latitude":0,"longitude":0,"reserved":0,"last_update":"0001-01-01T00:00:00Z","protocol":17,"map":"cp_gravelpit","folder":"tf","game":"Team Fortress","app_id":440,"player_count":24,"max_players":24,"Bots":0,"server_type":"Dedicated","server_os":"Linux","password":true,"vac":true,"version":"7961495","steam_id":85568392924469984,"keywords":["cp","nocrits","nodmgspread","uncletopia"],"edicts":[706,2048],"game_id":440,"stv_port":27016,"stv_name":"Uncletopia | Chicago | 1 | All Maps | STV","players":[{"user_id":358,"name":"Jamie","steam_id":76561198058840477,"connected_time":1395000000000,"state":"active","ping":90},{"user_id":363,"name":"TallBit","steam_id":76561199059748976,"connected_time":1131000000000,"state":"active","ping":49},{"user_id":378,"name":"chaffy","steam_id":76561198021754567,"connected_time":601000000000,"state":"active","ping":57},{"user_id":347,"name":"Dante","steam_id":76561198065061921,"connected_time":1965000000000,"state":"active","ping":87},{"user_id":313,"name":"'LaxAttack","steam_id":76561198044129346,"connected_time":3427000000000,"state":"active","ping":71},{"user_id":312,"name":"chrisd149","steam_id":76561198018710480,"connected_time":3447000000000,"state":"active","ping":85},{"user_id":388,"name":"Tuvok Shakur","steam_id":76561198018875334,"connected_time":45000000000,"state":"active","ping":84},{"user_id":343,"name":"McGriddle336","steam_id":76561198026293870,"connected_time":2071000000000,"state":"active","ping":85},{"user_id":384,"name":"Aku+","steam_id":76561198813782795,"connected_time":261000000000,"state":"active","ping":160},{"user_id":373,"name":"Ryankub","steam_id":76561198433764769,"connected_time":797000000000,"state":"active","ping":79},{"user_id":377,"name":"Cheetose Intolerant","steam_id":76561198013399809,"connected_time":674000000000,"state":"active","ping":78},{"user_id":330,"name":"Tibalt Nyahuma","steam_id":76561198034779431,"connected_time":2307000000000,"state":"active","ping":71},{"user_id":389,"name":"Ali-B","steam_id":76561198274455701,"connected_time":39000000000,"state":"active","ping":83},{"user_id":365,"name":"gravid baby","steam_id":76561198318646867,"connected_time":1064000000000,"state":"active","ping":62},{"user_id":370,"name":"I shovel mayonnaise in mouth","steam_id":76561199123118241,"connected_time":968000000000,"state":"active","ping":103},{"user_id":380,"name":"Paul","steam_id":76561198084444561,"connected_time":516000000000,"state":"active","ping":100},{"user_id":381,"name":"Killbasa","steam_id":76561198064868400,"connected_time":516000000000,"state":"active","ping":65},{"user_id":371,"name":"Tourist","steam_id":76561198211738732,"connected_time":879000000000,"state":"active","ping":74},{"user_id":211,"name":"Underscorn","steam_id":76561198374209415,"connected_time":9258000000000,"state":"active","ping":61},{"user_id":379,"name":"Roberto Del Fuego","steam_id":76561198043458554,"connected_time":537000000000,"state":"active","ping":61},{"user_id":375,"name":"NUt","steam_id":76561198031007966,"connected_time":786000000000,"state":"active","ping":74},{"user_id":349,"name":"Blight_CA","steam_id":76561198811130843,"connected_time":1916000000000,"state":"active","ping":77},{"user_id":383,"name":"JelloSniffer","steam_id":76561198142770733,"connected_time":274000000000,"state":"active","ping":66},{"user_id":387,"name":"demoknight tf2","steam_id":76561198070393998,"connected_time":144000000000,"state":"active","ping":89}]},{"server_id":0,"name_short":"","name":"Uncletopia | London | 1 | All Maps","host":"","port":0,"enabled":false,"region":"","cc":"","latitude":0,"longitude":0,"reserved":0,"last_update":"0001-01-01T00:00:00Z","protocol":17,"map":"cp_snakewater_final1","folder":"tf","game":"Team Fortress","app_id":440,"player_count":24,"max_players":24,"Bots":0,"server_type":"Dedicated","server_os":"Linux","password":true,"vac":true,"version":"7961495","steam_id":85568392924367362,"keywords":["cp","nocrits","nodmgspread","uncletopia"],"edicts":[933,2048],"game_id":440,"stv_port":27016,"stv_name":"Uncletopia | London | 1 | All Maps | STV","players":[{"user_id":602,"name":"Snowmotion","steam_id":76561198075022454,"connected_time":5353000000000,"state":"active","ping":67},{"user_id":672,"name":"nudjura","steam_id":76561198281986139,"connected_time":1262000000000,"state":"active","ping":45},{"user_id":663,"name":"Rocking Chair","steam_id":76561198330040827,"connected_time":2433000000000,"state":"active","ping":48},{"user_id":656,"name":"gnarly business","steam_id":76561198832688767,"connected_time":2733000000000,"state":"active","ping":49},{"user_id":622,"name":"Udinese Dion","steam_id":76561198067931573,"connected_time":4070000000000,"state":"active","ping":64},{"user_id":674,"name":"Didactic X-ray apparatus","steam_id":76561198397024973,"connected_time":1241000000000,"state":"active","ping":34},{"user_id":573,"name":"zvekan","steam_id":76561198381101196,"connected_time":7422000000000,"state":"active","ping":65},{"user_id":567,"name":"Trapezoid","steam_id":76561198059369295,"connected_time":7556000000000,"state":"active","ping":73},{"user_id":675,"name":"mespe","steam_id":76561198121530649,"connected_time":907000000000,"state":"active","ping":77},{"user_id":667,"name":"squib","steam_id":76561198049170360,"connected_time":1574000000000,"state":"active","ping":40},{"user_id":665,"name":"The Bi Bi Man","steam_id":76561198296729800,"connected_time":2067000000000,"state":"active","ping":56},{"user_id":493,"name":"PUSSY CITY CRIME BOSS","steam_id":76561198049075295,"connected_time":12646000000000,"state":"active","ping":74},{"user_id":586,"name":"sloppy transgirl toppy","steam_id":76561198057092208,"connected_time":6728000000000,"state":"active","ping":73},{"user_id":669,"name":"Fuzz","steam_id":76561198013049077,"connected_time":1281000000000,"state":"active","ping":81},{"user_id":676,"name":"TonyGappa","steam_id":76561197969011707,"connected_time":773000000000,"state":"active","ping":40},{"user_id":677,"name":"Miku.Hatsune.2007","steam_id":76561198199687607,"connected_time":358000000000,"state":"active","ping":64},{"user_id":584,"name":"chiyonii.","steam_id":76561198021854431,"connected_time":6838000000000,"state":"active","ping":59},{"user_id":585,"name":"Ullr","steam_id":76561198140547483,"connected_time":6754000000000,"state":"active","ping":42},{"user_id":670,"name":"all good","steam_id":76561198071938048,"connected_time":1279000000000,"state":"active","ping":49},{"user_id":673,"name":"Xecium","steam_id":76561198063436739,"connected_time":1259000000000,"state":"active","ping":52},{"user_id":616,"name":"Kahvi","steam_id":76561198723244199,"connected_time":4311000000000,"state":"active","ping":87},{"user_id":613,"name":"PUSSY CITY PD","steam_id":76561198097396447,"connected_time":4535000000000,"state":"active","ping":64},{"user_id":678,"name":"Aaron","steam_id":76561197990046953,"connected_time":122000000000,"state":"active","ping":58},{"user_id":671,"name":"Rarky","steam_id":76561198054398642,"connected_time":1278000000000,"state":"active","ping":69}]},{"server_id":0,"name_short":"","name":"Uncletopia | London | 2 | All Maps","host":"","port":0,"enabled":false,"region":"","cc":"","latitude":0,"longitude":0,"reserved":0,"last_update":"0001-01-01T00:00:00Z","protocol":17,"map":"pl_barnblitz","folder":"tf","game":"Team Fortress","app_id":440,"player_count":24,"max_players":24,"Bots":0,"server_type":"Dedicated","server_os":"Linux","password":true,"vac":true,"version":"7961495","steam_id":85568392924470941,"keywords":["nocrits","nodmgspread","payload","uncletopia"],"edicts":[1087,2048],"game_id":440,"stv_port":27026,"stv_name":"Uncletopia | London | 2 | All Maps | STV","players":[{"user_id":200,"name":"rockBustaz","steam_id":76561198088290698,"connected_time":643000000000,"state":"active","ping":53},{"user_id":190,"name":"zinzyk","steam_id":76561198128011822,"connected_time":1222000000000,"state":"active","ping":60},{"user_id":199,"name":"orange","steam_id":76561198153181940,"connected_time":669000000000,"state":"active","ping":58},{"user_id":170,"name":"_420_StopItDudeCmon","steam_id":76561197997146481,"connected_time":2465000000000,"state":"active","ping":55},{"user_id":147,"name":"George W. Bush","steam_id":76561198135132711,"connected_time":3287000000000,"state":"active","ping":59},{"user_id":164,"name":"meriones","steam_id":76561198034234373,"connected_time":2645000000000,"state":"active","ping":43},{"user_id":201,"name":"R@DIO","steam_id":76561197995533046,"connected_time":611000000000,"state":"active","ping":80},{"user_id":196,"name":"tralalaOuiOui","steam_id":76561197963471507,"connected_time":956000000000,"state":"active","ping":46},{"user_id":149,"name":"Admiral","steam_id":76561198799071012,"connected_time":3242000000000,"state":"active","ping":44},{"user_id":174,"name":"The Lady","steam_id":76561198029895809,"connected_time":2333000000000,"state":"active","ping":88},{"user_id":206,"name":"nordstream bomber","steam_id":76561199401283123,"connected_time":136000000000,"state":"active","ping":44},{"user_id":202,"name":"SynthBox3","steam_id":76561199094075745,"connected_time":605000000000,"state":"active","ping":91},{"user_id":184,"name":"Voks_","steam_id":76561198159687785,"connected_time":1629000000000,"state":"active","ping":72},{"user_id":108,"name":"SpacePig","steam_id":76561198044662873,"connected_time":5218000000000,"state":"active","ping":103},{"user_id":166,"name":"ÈõªÂ≠ê„Éû„Éç„Éº„ÅßÊ±∫Ê∏à„ÄÄÔΩû\ufffd","steam_id":76561198118412910,"connected_time":2609000000000,"state":"active","ping":50},{"user_id":178,"name":"Bonzothegreat24","steam_id":76561198031220372,"connected_time":1907000000000,"state":"active","ping":99},{"user_id":203,"name":"Gundroog","steam_id":76561198047333591,"connected_time":605000000000,"state":"active","ping":108},{"user_id":191,"name":"Dakeyras","steam_id":76561198057069564,"connected_time":1057000000000,"state":"active","ping":103},{"user_id":187,"name":"FoOzTV","steam_id":76561197998636728,"connected_time":1484000000000,"state":"active","ping":58},{"user_id":185,"name":"Overseer Boots","steam_id":76561199115636221,"connected_time":1604000000000,"state":"active","ping":59},{"user_id":205,"name":"Spacesh1p","steam_id":76561198148635330,"connected_time":250000000000,"state":"active","ping":95},{"user_id":186,"name":"√∂√∂√∂√∂‚ú™","steam_id":76561198181645822,"connected_time":1578000000000,"state":"active","ping":94},{"user_id":175,"name":"Big Mean Muther Hubbard","steam_id":76561199223016965,"connected_time":2314000000000,"state":"active","ping":50},{"user_id":189,"name":"Brian","steam_id":76561198077756206,"connected_time":1289000000000,"state":"active","ping":45}]},{"server_id":0,"name_short":"","name":"Uncletopia | Frankfurt | 7 | Stopwatch","host":"","port":0,"enabled":false,"region":"","cc":"","latitude":0,"longitude":0,"reserved":0,"last_update":"0001-01-01T00:00:00Z","protocol":17,"map":"koth_lakeside_final","folder":"tf","game":"Team Fortress","app_id":440,"player_count":0,"max_players":24,"Bots":0,"server_type":"Dedicated","server_os":"Linux","password":true,"vac":true,"version":"7961495","steam_id":85568392924742827,"keywords":["cp","nocrits","nodmgspread","uncletopia"],"edicts":[303,2048],"game_id":440,"stv_port":27076,"stv_name":"Uncletopia | Frankfurt | 7 | Stopwatch | STV","players":null},{"server_id":0,"name_short":"","name":"Uncletopia | Warsaw | 4 | All Maps","host":"","port":0,"enabled":false,"region":"","cc":"","latitude":0,"longitude":0,"reserved":0,"last_update":"0001-01-01T00:00:00Z","protocol":17,"map":"koth_viaduct","folder":"tf","game":"Team Fortress","app_id":440,"player_count":0,"max_players":24,"Bots":0,"server_type":"Dedicated","server_os":"Linux","password":true,"vac":true,"version":"7961495","steam_id":85568392925397853,"keywords":["cp","nocrits","nodmgspread","uncletopia"],"edicts":[215,2048],"game_id":440,"stv_port":27046,"stv_name":"Uncletopia | Warsaw | 4 | All Maps | STV","players":null},{"server_id":0,"name_short":"","name":"Uncletopia | Montr√©al | 2 | One Thousand Uncles","host":"","port":0,"enabled":false,"region":"","cc":"","latitude":0,"longitude":0,"reserved":0,"last_update":"0001-01-01T00:00:00Z","protocol":17,"map":"cp_mossrock","folder":"tf","game":"Team Fortress","app_id":440,"player_count":0,"max_players":32,"Bots":0,"server_type":"Dedicated","server_os":"Linux","password":true,"vac":true,"version":"7961495","steam_id":85568392924500088,"keywords":["alltalk","cp","danepve","increased_maxplayers","norespawntime","uncletopia"],"edicts":[445,2048],"game_id":440,"stv_port":0,"stv_name":"","players":null},{"server_id":0,"name_short":"","name":"Uncletopia | Chicago | 5 | All Maps","host":"","port":0,"enabled":false,"region":"","cc":"","latitude":0,"longitude":0,"reserved":0,"last_update":"0001-01-01T00:00:00Z","protocol":17,"map":"koth_highpass","folder":"tf","game":"Team Fortress","app_id":440,"player_count":0,"max_players":24,"Bots":0,"server_type":"Dedicated","server_os":"Linux","password":true,"vac":true,"version":"7961495","steam_id":85568392924866362,"keywords":["cp","nocrits","nodmgspread","uncletopia"],"edicts":[416,2048],"game_id":440,"stv_port":27016,"stv_name":"Uncletopia | Chicago | 5 | All Maps | STV","players":null},{"server_id":0,"name_short":"","name":"Uncletopia | Dallas | 1 | All Maps","host":"","port":0,"enabled":false,"region":"","cc":"","latitude":0,"longitude":0,"reserved":0,"last_update":"0001-01-01T00:00:00Z","protocol":17,"map":"koth_king","folder":"tf","game":"Team Fortress","app_id":440,"player_count":24,"max_players":24,"Bots":0,"server_type":"Dedicated","server_os":"Linux","password":true,"vac":true,"version":"7961495","steam_id":85568392924469986,"keywords":["cp","nocrits","nodmgspread","uncletopia"],"edicts":[778,2048],"game_id":440,"stv_port":27016,"stv_name":"Uncletopia | Dallas | 1 | All Maps | STV","players":[{"user_id":152,"name":"Pigzilla","steam_id":76561198373968267,"connected_time":1229000000000,"state":"active","ping":79},{"user_id":169,"name":"Draco6257","steam_id":76561199147322448,"connected_time":730000000000,"state":"active","ping":75},{"user_id":166,"name":"stewfat","steam_id":76561198084066964,"connected_time":796000000000,"state":"active","ping":98},{"user_id":175,"name":"Hidden Phantom","steam_id":76561198115531799,"connected_time":365000000000,"state":"active","ping":92},{"user_id":22,"name":"i gnaw on Funko Pops‚Ñ¢","steam_id":76561199122152458,"connected_time":9717000000000,"state":"active","ping":63},{"user_id":176,"name":"Zing","steam_id":76561198097160898,"connected_time":347000000000,"state":"active","ping":56},{"user_id":172,"name":"Boxxed","steam_id":76561198255787237,"connected_time":568000000000,"state":"active","ping":46},{"user_id":159,"name":"Ankliosumos","steam_id":76561198106443757,"connected_time":988000000000,"state":"active","ping":74},{"user_id":105,"name":"nicholas","steam_id":76561198058211873,"connected_time":3651000000000,"state":"active","ping":58},{"user_id":149,"name":"the yain","steam_id":76561198069589278,"connected_time":1361000000000,"state":"active","ping":99},{"user_id":135,"name":"Thunder","steam_id":76561198097721532,"connected_time":2057000000000,"state":"active","ping":108},{"user_id":107,"name":"Perry (The White Fang Goon)","steam_id":76561198870926636,"connected_time":2965000000000,"state":"active","ping":89},{"user_id":178,"name":"Dale ‚ù§","steam_id":76561197995189004,"connected_time":92000000000,"state":"active","ping":186},{"user_id":160,"name":"schmuck","steam_id":76561198143789773,"connected_time":984000000000,"state":"active","ping":57},{"user_id":120,"name":"Hank","steam_id":76561198094830509,"connected_time":2709000000000,"state":"active","ping":96},{"user_id":174,"name":"Sentry Gun","steam_id":76561199056503496,"connected_time":395000000000,"state":"active","ping":108},{"user_id":143,"name":"mkl","steam_id":76561197986401685,"connected_time":1613000000000,"state":"active","ping":58},{"user_id":128,"name":"jordanfer111","steam_id":76561198044993097,"connected_time":2455000000000,"state":"active","ping":87},{"user_id":153,"name":"Fancy Jello","steam_id":76561198890633732,"connected_time":1107000000000,"state":"active","ping":61},{"user_id":161,"name":"Noshy-Yoshi","steam_id":76561198189521209,"connected_time":931000000000,"state":"active","ping":75},{"user_id":137,"name":"m√ºde","steam_id":76561198141184894,"connected_time":1900000000000,"state":"active","ping":74},{"user_id":138,"name":"Lemonade Juice","steam_id":76561198402892608,"connected_time":1828000000000,"state":"active","ping":75},{"user_id":133,"name":"pn_","steam_id":76561198006111384,"connected_time":2383000000000,"state":"active","ping":75},{"user_id":158,"name":"lag","steam_id":76561197963872739,"connected_time":1058000000000,"state":"active","ping":75}]},{"server_id":0,"name_short":"","name":"Uncletopia | San Francisco | 3 | Stopwatch","host":"","port":0,"enabled":false,"region":"","cc":"","latitude":0,"longitude":0,"reserved":0,"last_update":"0001-01-01T00:00:00Z","protocol":17,"map":"koth_clearcut_b15","folder":"tf","game":"Team Fortress","app_id":440,"player_count":0,"max_players":24,"Bots":0,"server_type":"Dedicated","server_os":"Linux","password":true,"vac":true,"version":"7961495","steam_id":85568392924742824,"keywords":["cp","nocrits","nodmgspread","uncletopia"],"edicts":[445,2048],"game_id":440,"stv_port":27036,"stv_name":"Uncletopia | San Francisco | 3 | Stopwatch | STV","players":null},{"server_id":0,"name_short":"","name":"Uncletopia | Warsaw | 2 | One Thousand Uncles","host":"","port":0,"enabled":false,"region":"","cc":"","latitude":0,"longitude":0,"reserved":0,"last_update":"0001-01-01T00:00:00Z","protocol":17,"map":"cp_altitude","folder":"tf","game":"Team Fortress","app_id":440,"player_count":23,"max_players":32,"Bots":20,"server_type":"Dedicated","server_os":"Linux","password":true,"vac":true,"version":"7961495","steam_id":85568392925397851,"keywords":["alltalk","bots","cp","danepve","increased_maxplayers","norespawntime","uncletopia"],"edicts":[919,2048],"game_id":440,"stv_port":0,"stv_name":"","players":[{"user_id":335,"name":"Valoxi","steam_id":76561197995042938,"connected_time":2402000000000,"state":"active","ping":83},{"user_id":376,"name":"Jeƒçmen","steam_id":76561198051617968,"connected_time":922000000000,"state":"active","ping":69},{"user_id":377,"name":"Sandwich Gaming","steam_id":76561199498052494,"connected_time":866000000000,"state":"active","ping":67}]},{"server_id":0,"name_short":"","name":"Uncletopia | Chicago | 6 | All Maps","host":"","port":0,"enabled":false,"region":"","cc":"","latitude":0,"longitude":0,"reserved":0,"last_update":"0001-01-01T00:00:00Z","protocol":17,"map":"koth_king","folder":"tf","game":"Team Fortress","app_id":440,"player_count":0,"max_players":24,"Bots":0,"server_type":"Dedicated","server_os":"Linux","password":true,"vac":true,"version":"7961495","steam_id":85568392924866363,"keywords":["cp","nocrits","nodmgspread","uncletopia"],"edicts":[466,2048],"game_id":440,"stv_port":27026,"stv_name":"Uncletopia | Chicago | 6 | All Maps | STV","players":null},{"server_id":0,"name_short":"","name":"Uncletopia | Chicago | 4 | All Maps","host":"","port":0,"enabled":false,"region":"","cc":"","latitude":0,"longitude":0,"reserved":0,"last_update":"0001-01-01T00:00:00Z","protocol":17,"map":"koth_viaduct","folder":"tf","game":"Team Fortress","app_id":440,"player_count":6,"max_players":24,"Bots":0,"server_type":"Dedicated","server_os":"Linux","password":true,"vac":true,"version":"7961495","steam_id":85568392924515193,"keywords":["cp","nocrits","nodmgspread","uncletopia"],"edicts":[290,2048],"game_id":440,"stv_port":27046,"stv_name":"Uncletopia | Chicago | 4 | All Maps | STV","players":[{"user_id":7,"name":"6 million bees","steam_id":76561198400438007,"connected_time":807000000000,"state":"active","ping":47},{"user_id":8,"name":"SugerCrash","steam_id":76561199187685119,"connected_time":762000000000,"state":"active","ping":102},{"user_id":9,"name":"LeefLett","steam_id":76561199166178308,"connected_time":198000000000,"state":"active","ping":104},{"user_id":10,"name":"GoroMajimaIsHot","steam_id":76561198365713042,"connected_time":184000000000,"state":"active","ping":96},{"user_id":13,"name":"ellie","steam_id":76561198304600400,"connected_time":146000000000,"state":"active","ping":45},{"user_id":12,"name":"ouroya","steam_id":76561198269138985,"connected_time":160000000000,"state":"active","ping":41}]},{"server_id":0,"name_short":"","name":"Uncletopia | Chicago | 8 | Community","host":"","port":0,"enabled":false,"region":"","cc":"","latitude":0,"longitude":0,"reserved":0,"last_update":"0001-01-01T00:00:00Z","protocol":17,"map":"cp_caldera_rc3","folder":"tf","game":"Team Fortress","app_id":440,"player_count":0,"max_players":24,"Bots":0,"server_type":"Dedicated","server_os":"Linux","password":true,"vac":true,"version":"7961495","steam_id":85568392924866365,"keywords":["cp","nocrits","nodmgspread","uncletopia"],"edicts":[716,2048],"game_id":440,"stv_port":27046,"stv_name":"Uncletopia | Chicago | 8 | Community | STV","players":null},{"server_id":0,"name_short":"","name":"Uncletopia | Frankfurt | 5 | All Maps","host":"","port":0,"enabled":false,"region":"","cc":"","latitude":0,"longitude":0,"reserved":0,"last_update":"0001-01-01T00:00:00Z","protocol":17,"map":"koth_cascade","folder":"tf","game":"Team Fortress","app_id":440,"player_count":4,"max_players":24,"Bots":0,"server_type":"Dedicated","server_os":"Linux","password":true,"vac":true,"version":"7961495","steam_id":85568392924504277,"keywords":["cp","nocrits","nodmgspread","uncletopia"],"edicts":[589,2048],"game_id":440,"stv_port":27056,"stv_name":"Uncletopia | Frankfurt | 5 | All Maps | STV","players":[{"user_id":710,"name":"·õÄ·ö©·õè ·õñ·õû·ö∑·ö§","steam_id":76561198842950723,"connected_time":165000000000,"state":"active","ping":76},{"user_id":711,"name":"Sneaky boi","steam_id":76561199195985387,"connected_time":164000000000,"state":"active","ping":85},{"user_id":712,"name":"Valfezant","steam_id":76561199063983797,"connected_time":137000000000,"state":"active","ping":60},{"user_id":713,"name":"UID","steam_id":76561198104634775,"connected_time":36000000000,"state":"active","ping":63}]},{"server_id":0,"name_short":"","name":"Uncletopia | London | 7 | Stopwatch","host":"","port":0,"enabled":false,"region":"","cc":"","latitude":0,"longitude":0,"reserved":0,"last_update":"0001-01-01T00:00:00Z","protocol":17,"map":"koth_bagel_rc6","folder":"tf","game":"Team Fortress","app_id":440,"player_count":0,"max_players":24,"Bots":0,"server_type":"Dedicated","server_os":"Linux","password":true,"vac":true,"version":"7961495","steam_id":85568392924964314,"keywords":["cp","nocrits","nodmgspread","uncletopia"],"edicts":[598,2048],"game_id":440,"stv_port":27076,"stv_name":"Uncletopia | London | 7 | Stopwatch | STV","players":null},{"server_id":0,"name_short":"","name":"Uncletopia | Warsaw | 3 | All Maps","host":"","port":0,"enabled":false,"region":"","cc":"","latitude":0,"longitude":0,"reserved":0,"last_update":"0001-01-01T00:00:00Z","protocol":17,"map":"pl_swiftwater_final1","folder":"tf","game":"Team Fortress","app_id":440,"player_count":0,"max_players":24,"Bots":0,"server_type":"Dedicated","server_os":"Linux","password":true,"vac":true,"version":"7961495","steam_id":85568392925397852,"keywords":["nocrits","nodmgspread","payload","uncletopia"],"edicts":[895,2048],"game_id":440,"stv_port":27036,"stv_name":"Uncletopia | Warsaw | 3 | All Maps | STV","players":null},{"server_id":0,"name_short":"","name":"Uncletopia | Sydney | 5 | Stopwatch","host":"","port":0,"enabled":false,"region":"","cc":"","latitude":0,"longitude":0,"reserved":0,"last_update":"0001-01-01T00:00:00Z","protocol":17,"map":"koth_highpass","folder":"tf","game":"Team Fortress","app_id":440,"player_count":0,"max_players":24,"Bots":0,"server_type":"Dedicated","server_os":"Linux","password":true,"vac":true,"version":"7961495","steam_id":85568392925397959,"keywords":["cp","nocrits","nodmgspread","uncletopia"],"edicts":[413,2048],"game_id":440,"stv_port":27056,"stv_name":"Uncletopia | Sydney | 5 | Stopwatch | STV","players":null},{"server_id":0,"name_short":"","name":"Uncletopia | Atlanta | 1 | All Maps","host":"","port":0,"enabled":false,"region":"","cc":"","latitude":0,"longitude":0,"reserved":0,"last_update":"0001-01-01T00:00:00Z","protocol":17,"map":"cp_gorge","folder":"tf","game":"Team Fortress","app_id":440,"player_count":24,"max_players":24,"Bots":0,"server_type":"Dedicated","server_os":"Linux","password":true,"vac":true,"version":"7961495","steam_id":85568392924469982,"keywords":["cp","nocrits","nodmgspread","uncletopia"],"edicts":[597,2048],"game_id":440,"stv_port":27016,"stv_name":"Uncletopia | Atlanta | 1 | All Maps | STV","players":[{"user_id":293,"name":"The Lazy King","steam_id":76561198243277432,"connected_time":4334000000000,"state":"active","ping":83},{"user_id":312,"name":"mad? watch this swag","steam_id":76561198079416036,"connected_time":2221000000000,"state":"active","ping":75},{"user_id":325,"name":"Pango","steam_id":76561198069811545,"connected_time":967000000000,"state":"active","ping":60},{"user_id":257,"name":"sansa musa","steam_id":76561198163723555,"connected_time":8445000000000,"state":"active","ping":64},{"user_id":318,"name":"metalfan666","steam_id":76561198386344068,"connected_time":2057000000000,"state":"active","ping":74},{"user_id":323,"name":"terrytennisball418","steam_id":76561198048882285,"connected_time":1080000000000,"state":"active","ping":60},{"user_id":300,"name":"Brown_Dream","steam_id":76561198975766145,"connected_time":3687000000000,"state":"active","ping":62},{"user_id":287,"name":"creeeeeee","steam_id":76561198392539722,"connected_time":5299000000000,"state":"active","ping":77},{"user_id":330,"name":"WayanVistar","steam_id":76561198354695464,"connected_time":782000000000,"state":"active","ping":89},{"user_id":285,"name":"silly boy summer","steam_id":76561199489391928,"connected_time":5372000000000,"state":"active","ping":69},{"user_id":297,"name":"finnishhospital89","steam_id":76561198249206656,"connected_time":3992000000000,"state":"active","ping":89},{"user_id":327,"name":"Lily (she/her)","steam_id":76561198355495948,"connected_time":817000000000,"state":"active","ping":56},{"user_id":335,"name":"Rat","steam_id":76561198137925582,"connected_time":99000000000,"state":"active","ping":63},{"user_id":310,"name":"Lennu","steam_id":76561198060730154,"connected_time":2318000000000,"state":"active","ping":66},{"user_id":332,"name":"twitch.tv/kegaman_","steam_id":76561198043632775,"connected_time":173000000000,"state":"active","ping":108},{"user_id":320,"name":"oak","steam_id":76561198092135570,"connected_time":1844000000000,"state":"active","ping":60},{"user_id":298,"name":"Decolour","steam_id":76561199045608372,"connected_time":3991000000000,"state":"active","ping":74},{"user_id":306,"name":"Heathcliff","steam_id":76561198044288534,"connected_time":2814000000000,"state":"active","ping":74},{"user_id":329,"name":"Fredrick","steam_id":76561197981419964,"connected_time":787000000000,"state":"active","ping":74},{"user_id":308,"name":"Creamus Maximus","steam_id":76561198085135600,"connected_time":2666000000000,"state":"active","ping":80},{"user_id":328,"name":"Jin Gulilo","steam_id":76561198065151242,"connected_time":813000000000,"state":"active","ping":76},{"user_id":331,"name":"trianamarco780","steam_id":76561199084319677,"connected_time":426000000000,"state":"active","ping":105},{"user_id":296,"name":"OKLOLOM3","steam_id":76561199151881507,"connected_time":4021000000000,"state":"active","ping":61},{"user_id":229,"name":"Cat_Gaben","steam_id":76561198308094558,"connected_time":12264000000000,"state":"active","ping":75}]},{"server_id":0,"name_short":"","name":"Uncletopia | Dallas | 2 | All Maps","host":"","port":0,"enabled":false,"region":"","cc":"","latitude":0,"longitude":0,"reserved":0,"last_update":"0001-01-01T00:00:00Z","protocol":17,"map":"pl_barnblitz","folder":"tf","game":"Team Fortress","app_id":440,"player_count":24,"max_players":24,"Bots":0,"server_type":"Dedicated","server_os":"Linux","password":true,"vac":true,"version":"7961495","steam_id":85568392924469988,"keywords":["nocrits","nodmgspread","payload","uncletopia"],"edicts":[1014,2048],"game_id":440,"stv_port":27026,"stv_name":"Uncletopia | Dallas | 2 | All Maps | STV","players":[{"user_id":418,"name":"Kid named download","steam_id":76561199192074448,"connected_time":732000000000,"state":"active","ping":121},{"user_id":436,"name":"IchigoDolphin","steam_id":76561198319769482,"connected_time":38000000000,"state":"active","ping":47},{"user_id":435,"name":"Domster536","steam_id":76561198152695768,"connected_time":45000000000,"state":"active","ping":78},{"user_id":432,"name":"SaxyThePhone","steam_id":76561199439167761,"connected_time":66000000000,"state":"active","ping":71},{"user_id":410,"name":"PhantaZm","steam_id":76561198049362351,"connected_time":1339000000000,"state":"active","ping":64},{"user_id":433,"name":"DHT11","steam_id":76561198115578117,"connected_time":59000000000,"state":"active","ping":55},{"user_id":405,"name":"frogg","steam_id":76561199088502372,"connected_time":1406000000000,"state":"active","ping":125},{"user_id":367,"name":"K2f","steam_id":76561198049600563,"connected_time":3288000000000,"state":"active","ping":64},{"user_id":426,"name":"Cock","steam_id":76561199289712745,"connected_time":315000000000,"state":"active","ping":90},{"user_id":437,"name":"Heppeh","steam_id":76561198068049507,"connected_time":33000000000,"state":"active","ping":86},{"user_id":429,"name":"i want to die","steam_id":76561198178681366,"connected_time":91000000000,"state":"active","ping":95},{"user_id":414,"name":"AzuriousAlex","steam_id":76561198158026405,"connected_time":1124000000000,"state":"active","ping":70},{"user_id":375,"name":"IamDORKeegan","steam_id":76561198263695730,"connected_time":3149000000000,"state":"active","ping":92},{"user_id":424,"name":"Arc","steam_id":76561198095518222,"connected_time":395000000000,"state":"active","ping":89},{"user_id":415,"name":"dr. chungy ph.d","steam_id":76561198215559840,"connected_time":1099000000000,"state":"active","ping":70},{"user_id":427,"name":"‚ú™ femboy egg","steam_id":76561198211477996,"connected_time":239000000000,"state":"active","ping":81},{"user_id":401,"name":"Chans","steam_id":76561198046161073,"connected_time":1453000000000,"state":"active","ping":65},{"user_id":434,"name":"American Dad","steam_id":76561198059711448,"connected_time":59000000000,"state":"active","ping":92},{"user_id":430,"name":"Freelancer","steam_id":76561199510178239,"connected_time":77000000000,"state":"active","ping":105},{"user_id":409,"name":"inshallah","steam_id":76561198165212575,"connected_time":1375000000000,"state":"active","ping":84},{"user_id":428,"name":"Pixelated Pussy","steam_id":76561198002511088,"connected_time":156000000000,"state":"active","ping":79},{"user_id":400,"name":"hedahman","steam_id":76561198052398134,"connected_time":1457000000000,"state":"active","ping":104},{"user_id":431,"name":"Bizarc","steam_id":76561198818963556,"connected_time":77000000000,"state":"active","ping":60},{"user_id":394,"name":"man man","steam_id":76561198016826181,"connected_time":1924000000000,"state":"active","ping":78}]},{"server_id":0,"name_short":"","name":"Uncletopia | Seattle | 3 | Stopwatch","host":"","port":0,"enabled":false,"region":"","cc":"","latitude":0,"longitude":0,"reserved":0,"last_update":"0001-01-01T00:00:00Z","protocol":17,"map":"koth_product_final","folder":"tf","game":"Team Fortress","app_id":440,"player_count":0,"max_players":24,"Bots":0,"server_type":"Dedicated","server_os":"Linux","password":true,"vac":true,"version":"7961495","steam_id":85568392924515217,"keywords":["cp","nocrits","nodmgspread","uncletopia"],"edicts":[355,2048],"game_id":440,"stv_port":27036,"stv_name":"Uncletopia | Seattle | 3 | Stopwatch | STV","players":null},{"server_id":0,"name_short":"","name":"Uncletopia | Seattle | 2 | All Maps","host":"","port":0,"enabled":false,"region":"","cc":"","latitude":0,"longitude":0,"reserved":0,"last_update":"0001-01-01T00:00:00Z","protocol":17,"map":"cp_sunshine","folder":"tf","game":"Team Fortress","app_id":440,"player_count":0,"max_players":24,"Bots":0,"server_type":"Dedicated","server_os":"Linux","password":true,"vac":true,"version":"7961495","steam_id":85568392924469998,"keywords":["cp","nocrits","nodmgspread","uncletopia"],"edicts":[615,2048],"game_id":440,"stv_port":27026,"stv_name":"Uncletopia | Seattle | 2 | All Maps | STV","players":null},{"server_id":0,"name_short":"","name":"Uncletopia | London | 3 | All Maps","host":"","port":0,"enabled":false,"region":"","cc":"","latitude":0,"longitude":0,"reserved":0,"last_update":"0001-01-01T00:00:00Z","protocol":17,"map":"koth_highpass","folder":"tf","game":"Team Fortress","app_id":440,"player_count":24,"max_players":24,"Bots":0,"server_type":"Dedicated","server_os":"Linux","password":true,"vac":true,"version":"7961495","steam_id":85568392924510192,"keywords":["cp","nocrits","nodmgspread","uncletopia"],"edicts":[645,2048],"game_id":440,"stv_port":27036,"stv_name":"Uncletopia | London | 3 | All Maps | STV","players":[{"user_id":257,"name":"Lev","steam_id":76561197998916292,"connected_time":31000000000,"state":"active","ping":48},{"user_id":164,"name":"tt","steam_id":76561199183372418,"connected_time":3694000000000,"state":"active","ping":81},{"user_id":256,"name":"Ronald McThomas","steam_id":76561198064132562,"connected_time":57000000000,"state":"active","ping":74},{"user_id":183,"name":"Orbit","steam_id":76561198242999878,"connected_time":2956000000000,"state":"active","ping":52},{"user_id":225,"name":"Scr0b  ï·µî·¥•·µî î","steam_id":76561198100855323,"connected_time":765000000000,"state":"active","ping":67},{"user_id":190,"name":"wiserclub6 #saveTF2","steam_id":76561198312144351,"connected_time":2773000000000,"state":"active","ping":102},{"user_id":226,"name":"Mancomb Seepgood","steam_id":76561197974116369,"connected_time":741000000000,"state":"active","ping":40},{"user_id":227,"name":"Diamhair","steam_id":76561198109020178,"connected_time":725000000000,"state":"active","ping":54},{"user_id":136,"name":"Doritoshredder","steam_id":76561198826710752,"connected_time":6078000000000,"state":"active","ping":114},{"user_id":209,"name":"BOTH | Sunshine","steam_id":76561198885528098,"connected_time":2156000000000,"state":"active","ping":119},{"user_id":222,"name":"Grey","steam_id":76561198187190267,"connected_time":1088000000000,"state":"active","ping":44},{"user_id":228,"name":"CheeseyWombat67","steam_id":76561198249631866,"connected_time":716000000000,"state":"active","ping":48},{"user_id":259,"name":"MustangCricket","steam_id":76561197963408317,"connected_time":6000000000,"state":"spawning","ping":61},{"user_id":247,"name":"Gillusion","steam_id":76561198138818087,"connected_time":329000000000,"state":"active","ping":45},{"user_id":230,"name":"Œª T O M I C S P E E D","steam_id":76561198378581038,"connected_time":691000000000,"state":"active","ping":170},{"user_id":197,"name":"Wubba","steam_id":76561198421341789,"connected_time":2676000000000,"state":"active","ping":41},{"user_id":231,"name":"Gibins","steam_id":76561198043387319,"connected_time":672000000000,"state":"active","ping":78},{"user_id":232,"name":"MCBones","steam_id":76561198330847692,"connected_time":670000000000,"state":"active","ping":71},{"user_id":238,"name":"BarnyTD","steam_id":76561199121714626,"connected_time":565000000000,"state":"active","ping":165},{"user_id":217,"name":"wazzy","steam_id":76561198384577448,"connected_time":1200000000000,"state":"active","ping":60},{"user_id":233,"name":"Vee","steam_id":76561199013254841,"connected_time":634000000000,"state":"active","ping":72},{"user_id":206,"name":"Fizz","steam_id":76561197994814990,"connected_time":2299000000000,"state":"active","ping":74},{"user_id":234,"name":"Kanackenklatscher 3000","steam_id":76561198168484733,"connected_time":606000000000,"state":"active","ping":61},{"user_id":182,"name":"Cataleptic","steam_id":76561197997966949,"connected_time":2970000000000,"state":"active","ping":60},{"user_id":240,"name":"jamessmith","steam_id":76561198046079590,"connected_time":534000000000,"state":"active","ping":82}]},{"server_id":0,"name_short":"","name":"Uncletopia | Chicago | 7 | Stopwatch","host":"","port":0,"enabled":false,"region":"","cc":"","latitude":0,"longitude":0,"reserved":0,"last_update":"0001-01-01T00:00:00Z","protocol":17,"map":"koth_lakeside_final","folder":"tf","game":"Team Fortress","app_id":440,"player_count":0,"max_players":24,"Bots":0,"server_type":"Dedicated","server_os":"Linux","password":true,"vac":true,"version":"7961495","steam_id":85568392924866364,"keywords":["cp","nocrits","nodmgspread","uncletopia"],"edicts":[303,2048],"game_id":440,"stv_port":27036,"stv_name":"Uncletopia | Chicago | 7 | Stopwatch | STV","players":null},{"server_id":0,"name_short":"","name":"Uncletopia | Seattle | 1 | All Maps","host":"","port":0,"enabled":false,"region":"","cc":"","latitude":0,"longitude":0,"reserved":0,"last_update":"0001-01-01T00:00:00Z","protocol":17,"map":"pl_frontier_final","folder":"tf","game":"Team Fortress","app_id":440,"player_count":24,"max_players":24,"Bots":0,"server_type":"Dedicated","server_os":"Linux","password":true,"vac":true,"version":"7961495","steam_id":85568392924469997,"keywords":["nocrits","nodmgspread","payload","uncletopia"],"edicts":[1022,2048],"game_id":440,"stv_port":27016,"stv_name":"Uncletopia | Seattle | 1 | All Maps | STV","players":[{"user_id":386,"name":"Akkawi","steam_id":76561198203159952,"connected_time":1070000000000,"state":"active","ping":76},{"user_id":393,"name":"Knock on the sky and listen","steam_id":76561198077597130,"connected_time":476000000000,"state":"active","ping":69},{"user_id":387,"name":"R2DBroodal","steam_id":76561198262685906,"connected_time":1023000000000,"state":"active","ping":84},{"user_id":300,"name":"ded","steam_id":76561198128780622,"connected_time":6962000000000,"state":"active","ping":67},{"user_id":394,"name":"kat","steam_id":76561198329367716,"connected_time":336000000000,"state":"active","ping":89},{"user_id":388,"name":"VINE","steam_id":76561197998281202,"connected_time":939000000000,"state":"active","ping":46},{"user_id":328,"name":"april (vacc gaming)","steam_id":76561198844648825,"connected_time":5729000000000,"state":"active","ping":55},{"user_id":351,"name":"Senior Stoic","steam_id":76561198855171713,"connected_time":4006000000000,"state":"active","ping":77},{"user_id":350,"name":"oo","steam_id":76561198119626492,"connected_time":4117000000000,"state":"active","ping":70},{"user_id":382,"name":"ronald_stackerusa55","steam_id":76561198150406851,"connected_time":1150000000000,"state":"active","ping":70},{"user_id":378,"name":"TinyGayGuitar","steam_id":76561198130737316,"connected_time":1765000000000,"state":"active","ping":54},{"user_id":368,"name":"Temmie500","steam_id":76561199067942631,"connected_time":2761000000000,"state":"active","ping":75},{"user_id":395,"name":"Strikerbolt","steam_id":76561199095622897,"connected_time":334000000000,"state":"active","ping":76},{"user_id":344,"name":"Nadrol","steam_id":76561197995382967,"connected_time":4569000000000,"state":"active","ping":69},{"user_id":392,"name":"Gamer to Femboy pipeline","steam_id":76561198026941076,"connected_time":812000000000,"state":"active","ping":91},{"user_id":396,"name":"Keamy","steam_id":76561199471434875,"connected_time":210000000000,"state":"active","ping":45},{"user_id":357,"name":"Lu7ky good ol' tweezer dick","steam_id":76561197993330948,"connected_time":3299000000000,"state":"active","ping":74},{"user_id":389,"name":"plastiquemonk","steam_id":76561198126035719,"connected_time":936000000000,"state":"active","ping":90},{"user_id":390,"name":"MerkZ","steam_id":76561198047620432,"connected_time":914000000000,"state":"active","ping":72},{"user_id":380,"name":"weegeebad","steam_id":76561198280841437,"connected_time":1623000000000,"state":"active","ping":123},{"user_id":391,"name":"Meskoozy","steam_id":76561198102394479,"connected_time":912000000000,"state":"active","ping":116},{"user_id":324,"name":"magunyamu","steam_id":76561198823083676,"connected_time":5886000000000,"state":"active","ping":89},{"user_id":373,"name":"DaBigA","steam_id":76561198326492538,"connected_time":2215000000000,"state":"active","ping":48},{"user_id":385,"name":"‚ú´P‚àÄnck‚àà‚ú´","steam_id":76561198050163618,"connected_time":1079000000000,"state":"active","ping":74}]},{"server_id":0,"name_short":"","name":"Uncletopia | Sydney | 3 | All Maps","host":"","port":0,"enabled":false,"region":"","cc":"","latitude":0,"longitude":0,"reserved":0,"last_update":"0001-01-01T00:00:00Z","protocol":17,"map":"koth_brazil","folder":"tf","game":"Team Fortress","app_id":440,"player_count":0,"max_players":24,"Bots":0,"server_type":"Dedicated","server_os":"Linux","password":true,"vac":true,"version":"7961495","steam_id":85568392925194467,"keywords":["cp","nocrits","nodmgspread","uncletopia"],"edicts":[417,2048],"game_id":440,"stv_port":27036,"stv_name":"Uncletopia | Sydney | 3 | All Maps | STV","players":null}]}