{"status":true,"message":"","result":[{"server_id":9,"name":"Uncletopia | Atlanta | 1 | All Maps","name_short":"atl-1","host":"atl-1.us.uncletopia.com","port":27015,"enabled":true,"region":"us-east","cc":"us","latitude":33.753746,"longitude":-84.38633,"reserved":0,"last_update":"0001-01-01T00:00:00Z","name_a2s":"Uncletopia | Atlanta | 1 | All Maps","protocol":17,"map":"pl_borneo","folder":"tf","game":"Team Fortress","app_id":440,"player_count":24,"max_players":24,"Bots":0,"server_type":"Dedicated","server_os":"Linux","password":true,"vac":true,"version":"7757534","steam_id":85568392924469982,"keywords":["nocrits","nodmgspread","payload","uncletopia"],"game_id":440,"stv_port":27016,"stv_name":"Uncletopia | Atlanta | 1 | All Maps | STV","players":[{"user_id":250,"name":"cheeks","steam_id":76561197993371179,"connected_time":9748000000000,"state":"active","ping":40},{"user_id":297,"name":"Stewartsaurus","steam_id":76561198173175137,"connected_time":5649000000000,"state":"active","ping":123},{"user_id":366,"name":"Trove","steam_id":76561198110970476,"connected_time":928000000000,"state":"active","ping":32},{"user_id":372,"name":"legalizme223","steam_id":76561198051698391,"connected_time":462000000000,"state":"active","ping":91},{"user_id":373,"name":"crack crisis","steam_id":76561198332519926,"connected_time":455000000000,"state":"active","ping":61},{"user_id":346,"name":"Rin \"Hindwing\" Redtail","steam_id":76561199074865638,"connected_time":2182000000000,"state":"active","ping":58},{"user_id":379,"name":"Weiserbot","steam_id":76561198882389970,"connected_time":224000000000,"state":"active","ping":99},{"user_id":363,"name":"Curried Rice","steam_id":76561198073324894,"connected_time":1116000000000,"state":"active","ping":85},{"user_id":335,"name":"Broken Cereal√","steam_id":76561198087489795,"connected_time":3439000000000,"state":"active","ping":61},{"user_id":367,"name":"C4K3","steam_id":76561197996963285,"connected_time":795000000000,"state":"active","ping":60},{"user_id":374,"name":"mr mundy","steam_id":76561199278636642,"connected_time":437000000000,"state":"active","ping":60},{"user_id":330,"name":"cola","steam_id":76561198374390458,"connected_time":3629000000000,"state":"active","ping":56},{"user_id":371,"name":"Mung","steam_id":76561198114941989,"connected_time":524000000000,"state":"active","ping":81},{"user_id":356,"name":"Redzur","steam_id":76561199384588086,"connected_time":1348000000000,"state":"active","ping":48},{"user_id":368,"name":"IronPotato","steam_id":76561198871330025,"connected_time":707000000000,"state":"active","ping":55},{"user_id":370,"name":"Dino","steam_id":76561198085130361,"connected_time":564000000000,"state":"active","ping":114},{"user_id":377,"name":"el vengador de la tienda","steam_id":76561199081928341,"connected_time":370000000000,"state":"active","ping":86},{"user_id":376,"name":"Big McThankies From McSpankies","steam_id":76561198020516880,"connected_time":406000000000,"state":"active","ping":92},{"user_id":369,"name":"eish","steam_id":76561198089463603,"connected_time":613000000000,"state":"active","ping":115},{"user_id":378,"name":"sexygoblin54","steam_id":76561198143988056,"connected_time":369000000000,"state":"active","ping":116},{"user_id":324,"name":"Uganda Knuckles lll","steam_id":76561199121276474,"connected_time":4025000000000,"state":"active","ping":82},{"user_id":380,"name":"HATEWORK.","steam_id":76561198286792807,"connected_time":212000000000,"state":"active","ping":94},{"user_id":354,"name":"bogginwater","steam_id":76561198155547142,"connected_time":1494000000000,"state":"active","ping":67},{"user_id":381,"name":"Discourse","steam_id":76561198984286678,"connected_time":205000000000,"state":"active","ping":66}]},{"server_id":104,"name":"Uncletopia | Atlanta | 2 | All Maps","name_short":"atl-2","host":"atl-1.us.uncletopia.com","port":27025,"enabled":true,"region":"us-east","cc":"us","latitude":33.753746,"longitude":-84.38633,"reserved":0,"last_update":"0001-01-01T00:00:00Z","name_a2s":"Uncletopia | Atlanta | 2 | All Maps","protocol":17,"map":"pl_pier","folder":"tf","game":"Team Fortress","app_id":440,"player_count":24,"max_players":24,"Bots":0,"server_type":"Dedicated","server_os":"Linux","password":true,"vac":true,"version":"7757534","steam_id":85568392924469983,"keywords":["nocrits","nodmgspread","payload","uncletopia"],"game_id":440,"stv_port":27026,"stv_name":"Uncletopia | Atlanta | 2 | All Maps | STV","players":[{"user_id":90,"name":"LinkFromDaPast","steam_id":76561198211437197,"connected_time":4190000000000,"state":"active","ping":56},{"user_id":129,"name":"MyamE","steam_id":76561198133278462,"connected_time":566000000000,"state":"active","ping":70},{"user_id":101,"name":"Garlb","steam_id":76561198044636706,"connected_time":3143000000000,"state":"active","ping":106},{"user_id":28,"name":"ACrispSlimJim","steam_id":76561198145913920,"connected_time":10034000000000,"state":"active","ping":53},{"user_id":81,"name":"Transfem Furry \u003c3","steam_id":76561198288036403,"connected_time":5247000000000,"state":"spawning","ping":104},{"user_id":97,"name":"KoolBucky","steam_id":76561198147927648,"connected_time":3412000000000,"state":"active","ping":57},{"user_id":132,"name":"the biggest bird","steam_id":76561198361999761,"connected_time":285000000000,"state":"spawning","ping":98},{"user_id":135,"name":"Sprinklingmydoughnut","steam_id":76561198168009092,"connected_time":28000000000,"state":"active","ping":103},{"user_id":134,"name":"black_gazebo","steam_id":76561197991652544,"connected_time":42000000000,"state":"connecting","ping":88},{"user_id":125,"name":"Treeckogeek","steam_id":76561198453328078,"connected_time":1210000000000,"state":"active","ping":97},{"user_id":114,"name":"SeaBass","steam_id":76561198278914206,"connected_time":2691000000000,"state":"active","ping":71},{"user_id":99,"name":"Hindmost","steam_id":76561199081837220,"connected_time":3274000000000,"state":"active","ping":49},{"user_id":105,"name":"Wilhelmktx","steam_id":76561198158102295,"connected_time":3064000000000,"state":"active","ping":72},{"user_id":96,"name":"illious","steam_id":76561198169925494,"connected_time":3812000000000,"state":"active","ping":57},{"user_id":120,"name":"The Unseeable One","steam_id":76561199095698118,"connected_time":2079000000000,"state":"connecting","ping":112},{"user_id":124,"name":"tooth","steam_id":76561197986437643,"connected_time":1407000000000,"state":"active","ping":55},{"user_id":100,"name":"Coffeebeans","steam_id":76561197987543188,"connected_time":3246000000000,"state":"active","ping":102},{"user_id":128,"name":"CrazyPanda","steam_id":76561198853328398,"connected_time":618000000000,"state":"active","ping":140},{"user_id":110,"name":"big ol' buford","steam_id":76561198290675957,"connected_time":3015000000000,"state":"active","ping":53},{"user_id":130,"name":"Pinto","steam_id":76561199105386998,"connected_time":440000000000,"state":"active","ping":80},{"user_id":66,"name":"Atlas","steam_id":76561198127975050,"connected_time":6081000000000,"state":"active","ping":49},{"user_id":115,"name":"Gummie","steam_id":76561198807069433,"connected_time":2605000000000,"state":"active","ping":85},{"user_id":133,"name":"maringam","steam_id":76561198127193708,"connected_time":112000000000,"state":"active","ping":80},{"user_id":79,"name":"Skinny Pete","steam_id":76561198801608576,"connected_time":5374000000000,"state":"spawning","ping":78}]},{"server_id":400,"name":"Uncletopia | Atlanta | 3 | Community","name_short":"atl-3","host":"atl-1.us.uncletopia.com","port":27035,"enabled":true,"region":"us-east","cc":"us","latitude":33.753746,"longitude":-84.38633,"reserved":0,"last_update":"0001-01-01T00:00:00Z","name_a2s":"Uncletopia | Atlanta | 3 | Community","protocol":17,"map":"workshop/cp_glacier_rc6.ugc2905735376","folder":"tf","game":"Team Fortress","app_id":440,"player_count":0,"max_players":24,"Bots":0,"server_type":"Dedicated","server_os":"Linux","password":true,"vac":true,"version":"7757534","steam_id":85568392924515187,"keywords":["cp","nocrits","nodmgspread","uncletopia"],"game_id":440,"stv_port":27036,"stv_name":"Uncletopia | Atlanta | 3 | Community | STV","players":null},{"server_id":401,"name":"Uncletopia | Atlanta | 4 | No Payload","name_short":"atl-4","host":"atl-1.us.uncletopia.com","port":27045,"enabled":true,"region":"us-east","cc":"us","latitude":33.753746,"longitude":-84.38633,"reserved":0,"last_update":"0001-01-01T00:00:00Z","name_a2s":"","protocol":0,"map":"","folder":"","game":"","app_id":0,"player_count":0,"max_players":0,"Bots":0,"server_type":"","server_os":"","password":false,"vac":false,"version":"","steam_id":0,"keywords":null,"game_id":0,"stv_port":0,"stv_name":"","players":null},{"server_id":2,"name":"Uncletopia | Chicago | 1 | All Maps","name_short":"chi-1","host":"chi-1.us.uncletopia.com","port":27015,"enabled":true,"region":"us-central","cc":"us","latitude":41.881832,"longitude":-87.62318,"reserved":0,"last_update":"0001-01-01T00:00:00Z","name_a2s":"Uncletopia | Chicago | 1 | All Maps","protocol":17,"map":"pl_pier","folder":"tf","game":"Team Fortress","app_id":440,"player_count":23,"max_players":24,"Bots":0,"server_type":"Dedicated","server_os":"Linux","password":true,"vac":true,"version":"7757534","steam_id":85568392924469984,"keywords":["nocrits","nodmgspread","payload","uncletopia"],"game_id":440,"stv_port":27016,"stv_name":"Uncletopia | Chicago | 1 | All Maps | STV","players":[{"user_id":609,"name":"[يهودي] Bill Clinton [אל","steam_id":76561198163291190,"connected_time":5052000000000,"state":"active","ping":85},{"user_id":665,"name":"Ehttri","steam_id":76561198170138667,"connected_time":5000000000,"state":"spawning","ping":77},{"user_id":529,"name":"AYAYA!!!","steam_id":76561198992102180,"connected_time":8286000000000,"state":"active","ping":48},{"user_id":658,"name":"Im High","steam_id":76561198049954886,"connected_time":1451000000000,"state":"active","ping":68},{"user_id":661,"name":"doug jones REAL","steam_id":76561198046650995,"connected_time":1060000000000,"state":"active","ping":81},{"user_id":651,"name":"hi","steam_id":76561198809577048,"connected_time":1888000000000,"state":"active","ping":93},{"user_id":626,"name":"agentish","steam_id":76561198055088122,"connected_time":3909000000000,"state":"active","ping":53},{"user_id":662,"name":"KingCrawful","steam_id":76561198104291657,"connected_time":1047000000000,"state":"active","ping":53},{"user_id":655,"name":"kite","steam_id":76561198346516392,"connected_time":1728000000000,"state":"active","ping":68},{"user_id":643,"name":"edwinbrood","steam_id":76561198044848769,"connected_time":2727000000000,"state":"active","ping":55},{"user_id":523,"name":"Ras","steam_id":76561198123546775,"connected_time":8333000000000,"state":"active","ping":95},{"user_id":652,"name":"Astoriae!","steam_id":76561199090168858,"connected_time":1888000000000,"state":"active","ping":67},{"user_id":611,"name":".JIFF","steam_id":76561198045181760,"connected_time":5016000000000,"state":"active","ping":62},{"user_id":602,"name":"moistwalnut1967","steam_id":76561198044489449,"connected_time":5723000000000,"state":"active","ping":55},{"user_id":663,"name":"hoot.","steam_id":76561198066876703,"connected_time":490000000000,"state":"active","ping":54},{"user_id":635,"name":"AkimboAoki","steam_id":76561198158323058,"connected_time":3647000000000,"state":"active","ping":88},{"user_id":537,"name":"blob","steam_id":76561198122375328,"connected_time":7699000000000,"state":"active","ping":68},{"user_id":657,"name":"MrDarkc","steam_id":76561199233053848,"connected_time":1533000000000,"state":"active","ping":91},{"user_id":656,"name":"Thundermonkey (SMOKE)","steam_id":76561198017631728,"connected_time":1722000000000,"state":"active","ping":77},{"user_id":660,"name":"Siri Keeton","steam_id":76561198006579827,"connected_time":1086000000000,"state":"active","ping":87},{"user_id":666,"name":"On The Bright Side...","steam_id":76561198168785883,"connected_time":4000000000,"state":"spawning","ping":44},{"user_id":489,"name":"Adam (Cursed Confetti Creature)","steam_id":76561198317690197,"connected_time":12016000000000,"state":"active","ping":51},{"user_id":526,"name":"HumFreY","steam_id":76561198076639682,"connected_time":8330000000000,"state":"active","ping":69}]},{"server_id":106,"name":"Uncletopia | Chicago | 2 | All Maps","name_short":"chi-2","host":"chi-1.us.uncletopia.com","port":27025,"enabled":true,"region":"us-central","cc":"us","latitude":41.881832,"longitude":-87.62318,"reserved":0,"last_update":"0001-01-01T00:00:00Z","name_a2s":"Uncletopia | Chicago | 2 | All Maps","protocol":17,"map":"pl_frontier_final","folder":"tf","game":"Team Fortress","app_id":440,"player_count":24,"max_players":24,"Bots":0,"server_type":"Dedicated","server_os":"Linux","password":true,"vac":true,"version":"7757534","steam_id":85568392924469985,"keywords":["nocrits","nodmgspread","payload","uncletopia"],"game_id":440,"stv_port":27026,"stv_name":"Uncletopia | Chicago | 2 | All Maps | STV","players":[{"user_id":592,"name":"Pal","steam_id":76561198004363431,"connected_time":1006000000000,"state":"active","ping":95},{"user_id":600,"name":"Cocksneed Fartin","steam_id":76561198126675787,"connected_time":365000000000,"state":"active","ping":74},{"user_id":588,"name":"faze waadden","steam_id":76561198325569425,"connected_time":1431000000000,"state":"active","ping":57},{"user_id":597,"name":"Geight","steam_id":76561197991645292,"connected_time":471000000000,"state":"active","ping":107},{"user_id":598,"name":"Raccoon.Of.Waffle.House","steam_id":76561199018770554,"connected_time":386000000000,"state":"active","ping":84},{"user_id":596,"name":"Axe MAn","steam_id":76561198829071667,"connected_time":501000000000,"state":"active","ping":85},{"user_id":451,"name":"Dot.","steam_id":76561198149463984,"connected_time":6617000000000,"state":"active","ping":48},{"user_id":577,"name":"Dig","steam_id":76561198109318718,"connected_time":1995000000000,"state":"active","ping":50},{"user_id":605,"name":"dan","steam_id":76561197984998426,"connected_time":283000000000,"state":"active","ping":93},{"user_id":589,"name":"[DATS➡] Sugar Meowth","steam_id":76561197995251793,"connected_time":1253000000000,"state":"active","ping":90},{"user_id":593,"name":"demoknight tf2","steam_id":76561198070393998,"connected_time":899000000000,"state":"active","ping":76},{"user_id":524,"name":"Engineer Gaming","steam_id":76561199111430580,"connected_time":3162000000000,"state":"active","ping":76},{"user_id":599,"name":"Digitic","steam_id":76561198080295536,"connected_time":385000000000,"state":"active","ping":79},{"user_id":581,"name":"Dispenser (Twan)","steam_id":76561197991064908,"connected_time":1810000000000,"state":"active","ping":60},{"user_id":544,"name":"Maveth","steam_id":76561198315021197,"connected_time":2614000000000,"state":"active","ping":43},{"user_id":595,"name":"Kapitan Bomba","steam_id":76561199102087660,"connected_time":511000000000,"state":"active","ping":69},{"user_id":591,"name":"unchmiri","steam_id":76561199181659125,"connected_time":1034000000000,"state":"active","ping":84},{"user_id":586,"name":"faze pantalla","steam_id":76561198250215734,"connected_time":1448000000000,"state":"active","ping":69},{"user_id":602,"name":"Sammich","steam_id":76561198010543087,"connected_time":311000000000,"state":"active","ping":67},{"user_id":603,"name":"Bockbockbob","steam_id":76561198041576710,"connected_time":305000000000,"state":"active","ping":64},{"user_id":498,"name":"rudy","steam_id":76561198088712799,"connected_time":3778000000000,"state":"active","ping":78},{"user_id":579,"name":"navis","steam_id":76561198996230924,"connected_time":1938000000000,"state":"active","ping":56},{"user_id":604,"name":"Aeterna Victrix","steam_id":76561198067701236,"connected_time":296000000000,"state":"active","ping":57},{"user_id":590,"name":"Mr. Dry Lips","steam_id":76561198028157625,"connected_time":1085000000000,"state":"active","ping":91}]},{"server_id":402,"name":"Uncletopia | Chicago | 3 | All Maps","name_short":"chi-3","host":"chi-1.us.uncletopia.com","port":27035,"enabled":true,"region":"us-central","cc":"us","latitude":41.881832,"longitude":-87.62318,"reserved":0,"last_update":"0001-01-01T00:00:00Z","name_a2s":"Uncletopia | Chicago | 3 | All Maps","protocol":17,"map":"pl_barnblitz","folder":"tf","game":"Team Fortress","app_id":440,"player_count":24,"max_players":24,"Bots":0,"server_type":"Dedicated","server_os":"Linux","password":true,"vac":true,"version":"7757534","steam_id":85568392924515191,"keywords":["nocrits","nodmgspread","payload","uncletopia"],"game_id":440,"stv_port":27036,"stv_name":"Uncletopia | Chicago | 3 | All Maps | STV","players":[{"user_id":204,"name":"Elflocky","steam_id":76561199096852639,"connected_time":13599000000000,"state":"active","ping":86},{"user_id":370,"name":"CyberZayne","steam_id":76561198002351356,"connected_time":1092000000000,"state":"active","ping":86},{"user_id":367,"name":"brinks truck","steam_id":76561198126489501,"connected_time":1233000000000,"state":"active","ping":45},{"user_id":378,"name":"Felipe Ramirez 2013","steam_id":76561198150497397,"connected_time":116000000000,"state":"active","ping":71},{"user_id":352,"name":"IKEA Meatballs","steam_id":76561198025012508,"connected_time":3065000000000,"state":"active","ping":99},{"user_id":342,"name":"Soup","steam_id":76561198027803528,"connected_time":3659000000000,"state":"active","ping":63},{"user_id":364,"name":"CyanDolphin","steam_id":76561198356178861,"connected_time":1914000000000,"state":"active","ping":78},{"user_id":375,"name":"jake","steam_id":76561199406261605,"connected_time":354000000000,"state":"active","ping":84},{"user_id":371,"name":"Okas8","steam_id":76561198100697096,"connected_time":993000000000,"state":"active","ping":71},{"user_id":379,"name":"wahooka","steam_id":76561197981211922,"connected_time":0,"state":"spawning","ping":26},{"user_id":363,"name":"fruitymario","steam_id":76561198047190430,"connected_time":2075000000000,"state":"active","ping":79},{"user_id":359,"name":"TheDeadlyDaedric","steam_id":76561198299832432,"connected_time":2142000000000,"state":"active","ping":54},{"user_id":336,"name":"theancientnut","steam_id":76561199396708880,"connected_time":4639000000000,"state":"active","ping":56},{"user_id":344,"name":"Elusive139","steam_id":76561198871584620,"connected_time":3643000000000,"state":"active","ping":49},{"user_id":298,"name":"CrunchCisco","steam_id":76561199162724832,"connected_time":6650000000000,"state":"active","ping":84},{"user_id":366,"name":"Fumpo","steam_id":76561198206873365,"connected_time":1350000000000,"state":"active","ping":69},{"user_id":362,"name":"Blades_87","steam_id":76561198150870338,"connected_time":2104000000000,"state":"active","ping":95},{"user_id":365,"name":"The Law","steam_id":76561198202209948,"connected_time":1905000000000,"state":"active","ping":46},{"user_id":326,"name":"lcy13vv","steam_id":76561197995997446,"connected_time":5283000000000,"state":"active","ping":53},{"user_id":334,"name":"TheConchinator","steam_id":76561199388149092,"connected_time":4648000000000,"state":"active","ping":60},{"user_id":328,"name":"1 Great Wooden Dad","steam_id":76561198377126974,"connected_time":5040000000000,"state":"active","ping":74},{"user_id":353,"name":"Elefanté","steam_id":76561198258765900,"connected_time":3039000000000,"state":"active","ping":93},{"user_id":373,"name":"Loading...","steam_id":76561198124898032,"connected_time":756000000000,"state":"active","ping":56},{"user_id":351,"name":"RoverStorm","steam_id":76561198042096578,"connected_time":3309000000000,"state":"active","ping":82}]},{"server_id":403,"name":"Uncletopia | Chicago | 4 | All Maps","name_short":"chi-4","host":"chi-1.us.uncletopia.com","port":27045,"enabled":true,"region":"us-central","cc":"us","latitude":41.881832,"longitude":-87.62318,"reserved":0,"last_update":"0001-01-01T00:00:00Z","name_a2s":"Uncletopia | Chicago | 4 | All Maps","protocol":17,"map":"pl_borneo","folder":"tf","game":"Team Fortress","app_id":440,"player_count":24,"max_players":24,"Bots":0,"server_type":"Dedicated","server_os":"Linux","password":true,"vac":true,"version":"7757534","steam_id":85568392924515193,"keywords":["nocrits","nodmgspread","payload","uncletopia"],"game_id":440,"stv_port":27046,"stv_name":"Uncletopia | Chicago | 4 | All Maps | STV","players":[{"user_id":611,"name":"mingus dingus the powerful fetu","steam_id":76561198115189870,"connected_time":1277000000000,"state":"active","ping":88},{"user_id":620,"name":"dbelow_","steam_id":76561198056148853,"connected_time":345000000000,"state":"active","ping":59},{"user_id":571,"name":"Pancreas Enjoyer","steam_id":76561199438598904,"connected_time":4361000000000,"state":"active","ping":99},{"user_id":621,"name":"Birrd","steam_id":76561198409096300,"connected_time":335000000000,"state":"active","ping":63},{"user_id":606,"name":"Weerk","steam_id":76561199209543551,"connected_time":1555000000000,"state":"active","ping":75},{"user_id":583,"name":"Dr. Dick","steam_id":76561198138011922,"connected_time":2992000000000,"state":"active","ping":76},{"user_id":622,"name":"Scut","steam_id":76561198973734291,"connected_time":326000000000,"state":"active","ping":94},{"user_id":603,"name":"wokky bin laddn","steam_id":76561198265200834,"connected_time":1622000000000,"state":"active","ping":69},{"user_id":614,"name":"amelia watson number one fan","steam_id":76561198249206656,"connected_time":1024000000000,"state":"active","ping":76},{"user_id":626,"name":"threethree","steam_id":76561198177354155,"connected_time":167000000000,"state":"active","ping":73},{"user_id":586,"name":"The Assistant Regional Manager","steam_id":76561199221484936,"connected_time":2959000000000,"state":"active","ping":113},{"user_id":624,"name":"quint","steam_id":76561198046797995,"connected_time":260000000000,"state":"active","ping":68},{"user_id":627,"name":"Metbol","steam_id":76561198001362410,"connected_time":165000000000,"state":"active","ping":77},{"user_id":577,"name":"6t26j","steam_id":76561198278282836,"connected_time":3681000000000,"state":"active","ping":46},{"user_id":615,"name":"white ray","steam_id":76561198026664629,"connected_time":770000000000,"state":"active","ping":60},{"user_id":610,"name":"dvnncl","steam_id":76561198337115759,"connected_time":1309000000000,"state":"active","ping":66},{"user_id":619,"name":"Fiendish Frog","steam_id":76561198029478821,"connected_time":442000000000,"state":"active","ping":71},{"user_id":588,"name":"Leftshadows","steam_id":76561199089515791,"connected_time":2932000000000,"state":"active","ping":121},{"user_id":590,"name":"【Stormtrooper】","steam_id":76561198175361570,"connected_time":2819000000000,"state":"active","ping":81},{"user_id":602,"name":"amablehughes","steam_id":76561199007131236,"connected_time":1934000000000,"state":"active","ping":85},{"user_id":608,"name":"Nappa","steam_id":76561198142406272,"connected_time":1549000000000,"state":"active","ping":83},{"user_id":625,"name":"Ferris","steam_id":76561198066495421,"connected_time":257000000000,"state":"active","ping":75},{"user_id":597,"name":"PaintMyMeow","steam_id":76561198056860387,"connected_time":2276000000000,"state":"active","ping":76},{"user_id":609,"name":"Hero8171","steam_id":76561199239824271,"connected_time":1534000000000,"state":"active","ping":67}]},{"server_id":36,"name":"Uncletopia | Chicago | 5 | All Maps","name_short":"chi-5","host":"chi-2.us.uncletopia.com","port":27015,"enabled":true,"region":"us-central","cc":"us","latitude":41.881832,"longitude":-87.62318,"reserved":0,"last_update":"0001-01-01T00:00:00Z","name_a2s":"Uncletopia | Chicago | 5 | All Maps","protocol":17,"map":"cp_steel","folder":"tf","game":"Team Fortress","app_id":440,"player_count":20,"max_players":24,"Bots":0,"server_type":"Dedicated","server_os":"Linux","password":true,"vac":true,"version":"7757534","steam_id":85568392924866362,"keywords":["cp","nocrits","nodmgspread","uncletopia"],"game_id":440,"stv_port":27016,"stv_name":"Uncletopia | Chicago | 5 | All Maps | STV","players":[{"user_id":338,"name":"engie","steam_id":76561199229629045,"connected_time":3472000000000,"state":"active","ping":106},{"user_id":384,"name":"DoodleCultist","steam_id":76561198306927279,"connected_time":210000000000,"state":"active","ping":65},{"user_id":364,"name":"Erious","steam_id":76561198431446386,"connected_time":1692000000000,"state":"active","ping":67},{"user_id":385,"name":"soy consumer","steam_id":76561198047168548,"connected_time":197000000000,"state":"active","ping":99},{"user_id":365,"name":"Weasel Smack","steam_id":76561198023116430,"connected_time":1648000000000,"state":"active","ping":90},{"user_id":325,"name":"Piyono","steam_id":76561197962188504,"connected_time":4429000000000,"state":"active","ping":83},{"user_id":386,"name":"Amy Roxwell","steam_id":76561198303391830,"connected_time":163000000000,"state":"active","ping":124},{"user_id":387,"name":"usasan | #abandoncasual","steam_id":76561198044654399,"connected_time":142000000000,"state":"active","ping":100},{"user_id":388,"name":"the penis act of 1996","steam_id":76561198073269122,"connected_time":141000000000,"state":"active","ping":70},{"user_id":389,"name":"Red Physical","steam_id":76561198151864382,"connected_time":111000000000,"state":"active","ping":136},{"user_id":397,"name":"Lawrence Pemberton","steam_id":76561198180863090,"connected_time":46000000000,"state":"active","ping":85},{"user_id":390,"name":"Nodin","steam_id":76561198135757376,"connected_time":97000000000,"state":"active","ping":52},{"user_id":392,"name":"Spoods","steam_id":76561198245568710,"connected_time":88000000000,"state":"active","ping":82},{"user_id":355,"name":"cow","steam_id":76561198117331762,"connected_time":2197000000000,"state":"active","ping":34},{"user_id":297,"name":"nickles","steam_id":76561199177498487,"connected_time":6423000000000,"state":"active","ping":60},{"user_id":393,"name":"TinySuperion","steam_id":76561198917460128,"connected_time":82000000000,"state":"active","ping":71},{"user_id":394,"name":"TDiggarious","steam_id":76561199451299044,"connected_time":79000000000,"state":"active","ping":81},{"user_id":348,"name":"hints of mauve","steam_id":76561198025681784,"connected_time":3285000000000,"state":"active","ping":73},{"user_id":360,"name":"Yameetis","steam_id":76561199216932748,"connected_time":1955000000000,"state":"active","ping":107},{"user_id":396,"name":"[Hoj] []V[]ega[]V[]an","steam_id":76561197961838875,"connected_time":62000000000,"state":"active","ping":71}]},{"server_id":37,"name":"Uncletopia | Chicago | 6 | All Maps","name_short":"chi-6","host":"chi-2.us.uncletopia.com","port":27025,"enabled":true,"region":"us-central","cc":"us","latitude":41.881832,"longitude":-87.62318,"reserved":0,"last_update":"0001-01-01T00:00:00Z","name_a2s":"Uncletopia | Chicago | 6 | All Maps","protocol":17,"map":"pl_pier","folder":"tf","game":"Team Fortress","app_id":440,"player_count":24,"max_players":24,"Bots":0,"server_type":"Dedicated","server_os":"Linux","password":true,"vac":true,"version":"7757534","steam_id":85568392924866363,"keywords":["nocrits","nodmgspread","payload","uncletopia"],"game_id":440,"stv_port":27026,"stv_name":"Uncletopia | Chicago | 6 | All Maps | STV","players":[{"user_id":199,"name":"creepycrawler","steam_id":76561198352016831,"connected_time":2174000000000,"state":"active","ping":64},{"user_id":169,"name":"Hot Milk + Sweet Delight","steam_id":76561197988989149,"connected_time":3881000000000,"state":"active","ping":85},{"user_id":197,"name":"Tick","steam_id":76561198184161214,"connected_time":2240000000000,"state":"active","ping":42},{"user_id":158,"name":"Wiener Hole Paper Cut","steam_id":76561198000808203,"connected_time":4186000000000,"state":"active","ping":71},{"user_id":220,"name":"Lore","steam_id":76561198098407538,"connected_time":228000000000,"state":"active","ping":59},{"user_id":208,"name":"Lil' Urban Achiever","steam_id":76561197970450546,"connected_time":1344000000000,"state":"active","ping":108},{"user_id":209,"name":"The Horselords and Animal Gods","steam_id":76561197975094050,"connected_time":1338000000000,"state":"active","ping":113},{"user_id":161,"name":"The Sydney Sleeper Itself","steam_id":76561198180251763,"connected_time":4164000000000,"state":"active","ping":65},{"user_id":219,"name":"The Gnat","steam_id":76561198327703300,"connected_time":566000000000,"state":"active","ping":66},{"user_id":222,"name":"Person","steam_id":76561198093244204,"connected_time":52000000000,"state":"active","ping":76},{"user_id":166,"name":"Hard Soap","steam_id":76561198267905614,"connected_time":3972000000000,"state":"active","ping":87},{"user_id":170,"name":"The Juice","steam_id":76561198065307144,"connected_time":3866000000000,"state":"active","ping":73},{"user_id":221,"name":"Otterguy","steam_id":76561198125819283,"connected_time":183000000000,"state":"active","ping":85},{"user_id":182,"name":"flamingcookies","steam_id":76561198280864779,"connected_time":3094000000000,"state":"active","ping":73},{"user_id":214,"name":"Ace Chromatica","steam_id":76561198042211131,"connected_time":1225000000000,"state":"active","ping":65},{"user_id":200,"name":"Arin The Wolf","steam_id":76561198356310973,"connected_time":2128000000000,"state":"active","ping":96},{"user_id":174,"name":"The Big Iron","steam_id":76561198117276391,"connected_time":3818000000000,"state":"active","ping":83},{"user_id":217,"name":"The Cop Fentanyl Debuff ☭","steam_id":76561197991817974,"connected_time":708000000000,"state":"active","ping":100},{"user_id":175,"name":"Nilantive","steam_id":76561198177565082,"connected_time":3804000000000,"state":"active","ping":71},{"user_id":196,"name":"Shinies","steam_id":76561198169459631,"connected_time":2385000000000,"state":"active","ping":70},{"user_id":179,"name":"WAKEUP!","steam_id":76561198254479725,"connected_time":3678000000000,"state":"active","ping":45},{"user_id":216,"name":"NUt","steam_id":76561198031007966,"connected_time":1101000000000,"state":"active","ping":77},{"user_id":178,"name":"THGAwesome","steam_id":76561198162847218,"connected_time":3783000000000,"state":"active","ping":82},{"user_id":215,"name":"Branz","steam_id":76561198076632143,"connected_time":1197000000000,"state":"active","ping":82}]},{"server_id":38,"name":"Uncletopia | Chicago | 7 | Stopwatch Beta","name_short":"chi-7","host":"chi-2.us.uncletopia.com","port":27035,"enabled":true,"region":"us-central","cc":"us","latitude":41.881832,"longitude":-87.62318,"reserved":0,"last_update":"0001-01-01T00:00:00Z","name_a2s":"Uncletopia | Chicago | 7 | Stopwatch Beta","protocol":17,"map":"koth_viaduct","folder":"tf","game":"Team Fortress","app_id":440,"player_count":0,"max_players":24,"Bots":0,"server_type":"Dedicated","server_os":"Linux","password":true,"vac":true,"version":"7757534","steam_id":85568392924866364,"keywords":["cp","nocrits","nodmgspread","uncletopia"],"game_id":440,"stv_port":27036,"stv_name":"Uncletopia | Chicago | 7 | Stopwatch Beta | STV","players":null},{"server_id":39,"name":"Uncletopia | Chicago | 8 | Community","name_short":"chi-8","host":"chi-2.us.uncletopia.com","port":27045,"enabled":true,"region":"us-central","cc":"us","latitude":41.881832,"longitude":-87.62318,"reserved":0,"last_update":"0001-01-01T00:00:00Z","name_a2s":"Uncletopia | Chicago | 8 | Community","protocol":17,"map":"workshop/pl_corrode_rc2.ugc546577989","folder":"tf","game":"Team Fortress","app_id":440,"player_count":24,"max_players":24,"Bots":0,"server_type":"Dedicated","server_os":"Linux","password":true,"vac":true,"version":"7757534","steam_id":85568392924866365,"keywords":["nocrits","nodmgspread","payload","uncletopia"],"game_id":440,"stv_port":27046,"stv_name":"Uncletopia | Chicago | 8 | Community | STV","players":[{"user_id":372,"name":"gista","steam_id":76561198120225915,"connected_time":822000000000,"state":"active","ping":72},{"user_id":343,"name":"fr","steam_id":76561198119826352,"connected_time":2612000000000,"state":"active","ping":76},{"user_id":359,"name":"Theguy1225","steam_id":76561198260452111,"connected_time":1099000000000,"state":"active","ping":57},{"user_id":361,"name":"PaPá Soulzuneヅ","steam_id":76561198139615052,"connected_time":1096000000000,"state":"active","ping":111},{"user_id":362,"name":"pjork","steam_id":76561198354195423,"connected_time":1091000000000,"state":"active","ping":86},{"user_id":367,"name":"Voraxic","steam_id":76561198148266239,"connected_time":966000000000,"state":"active","ping":53},{"user_id":364,"name":"The Incredible Fem Boy","steam_id":76561198355754259,"connected_time":1057000000000,"state":"active","ping":82},{"user_id":370,"name":"GAME GAMING","steam_id":76561199222119901,"connected_time":902000000000,"state":"active","ping":97},{"user_id":371,"name":"21ST CENTURY SCHIZOID MAN","steam_id":76561198081681647,"connected_time":826000000000,"state":"active","ping":75},{"user_id":351,"name":"Aldinach","steam_id":76561198079912615,"connected_time":1987000000000,"state":"active","ping":58},{"user_id":369,"name":"Goofball","steam_id":76561198061211537,"connected_time":946000000000,"state":"active","ping":67},{"user_id":352,"name":"logna","steam_id":76561198977633937,"connected_time":1982000000000,"state":"active","ping":62},{"user_id":373,"name":"LogieMBerra","steam_id":76561198384661534,"connected_time":810000000000,"state":"active","ping":82},{"user_id":377,"name":"Spyfall","steam_id":76561198081729993,"connected_time":713000000000,"state":"active","ping":90},{"user_id":374,"name":"Black Pill","steam_id":76561198065920486,"connected_time":796000000000,"state":"active","ping":62},{"user_id":382,"name":"☼Barracuda☼","steam_id":76561198013022083,"connected_time":543000000000,"state":"active","ping":67},{"user_id":356,"name":"beastierbeast","steam_id":76561199030645530,"connected_time":1481000000000,"state":"active","ping":68},{"user_id":376,"name":"t h e n a","steam_id":76561198169736062,"connected_time":778000000000,"state":"active","ping":97},{"user_id":378,"name":"Phae","steam_id":76561198024763351,"connected_time":708000000000,"state":"active","ping":84},{"user_id":383,"name":"girl pisser","steam_id":76561198065848254,"connected_time":489000000000,"state":"active","ping":82},{"user_id":357,"name":"jaydn","steam_id":76561198086615208,"connected_time":1265000000000,"state":"active","ping":63},{"user_id":317,"name":"MrCalmL.I","steam_id":76561198966598137,"connected_time":4497000000000,"state":"active","ping":81},{"user_id":386,"name":"Deal yo","steam_id":76561198282395338,"connected_time":131000000000,"state":"active","ping":85},{"user_id":381,"name":"CFG Ponder","steam_id":76561198127039453,"connected_time":619000000000,"state":"active","ping":106}]},{"server_id":8,"name":"Uncletopia | Dallas | 1 | All Maps","name_short":"dal-1","host":"dal-1.us.uncletopia.com","port":27015,"enabled":true,"region":"us-central","cc":"us","latitude":32.779167,"longitude":-96.80889,"reserved":0,"last_update":"0001-01-01T00:00:00Z","name_a2s":"Uncletopia | Dallas | 1 | All Maps","protocol":17,"map":"cp_sunshine","folder":"tf","game":"Team Fortress","app_id":440,"player_count":24,"max_players":24,"Bots":0,"server_type":"Dedicated","server_os":"Linux","password":true,"vac":true,"version":"7757534","steam_id":85568392924469986,"keywords":["cp","nocrits","nodmgspread","uncletopia"],"game_id":440,"stv_port":27016,"stv_name":"Uncletopia | Dallas | 1 | All Maps | STV","players":[{"user_id":347,"name":"Jelpo","steam_id":76561198406920072,"connected_time":3373000000000,"state":"active","ping":79},{"user_id":376,"name":"[LINUX] Purple Penguin Pybro","steam_id":76561198093538786,"connected_time":649000000000,"state":"active","ping":54},{"user_id":336,"name":"DargaribdusPersonOfLordlyCalibe","steam_id":76561198020876416,"connected_time":4563000000000,"state":"active","ping":65},{"user_id":343,"name":"Yuri Tarded","steam_id":76561198034339940,"connected_time":3934000000000,"state":"active","ping":78},{"user_id":337,"name":"poop tbh","steam_id":76561198056186750,"connected_time":4552000000000,"state":"active","ping":73},{"user_id":381,"name":"jturner1nm","steam_id":76561198344493652,"connected_time":507000000000,"state":"active","ping":94},{"user_id":375,"name":"Ghoulish Gains  Case","steam_id":76561199388186818,"connected_time":678000000000,"state":"active","ping":110},{"user_id":369,"name":"Woozy","steam_id":76561198008220735,"connected_time":892000000000,"state":"active","ping":75},{"user_id":309,"name":"Moonflower ✦","steam_id":76561198191782483,"connected_time":5788000000000,"state":"active","ping":54},{"user_id":349,"name":"snoop","steam_id":76561197986760351,"connected_time":2671000000000,"state":"active","ping":56},{"user_id":383,"name":"leopardo123atl","steam_id":76561198872648238,"connected_time":267000000000,"state":"active","ping":80},{"user_id":364,"name":"joe biden's cookie eater","steam_id":76561198412786186,"connected_time":2073000000000,"state":"active","ping":60},{"user_id":333,"name":"Estetrius","steam_id":76561198016993850,"connected_time":4654000000000,"state":"active","ping":55},{"user_id":380,"name":"UNIT 220","steam_id":76561198042243497,"connected_time":554000000000,"state":"active","ping":80},{"user_id":382,"name":"Pinder","steam_id":76561198176708643,"connected_time":404000000000,"state":"active","ping":55},{"user_id":302,"name":"radiohead enjoyer","steam_id":76561198397662124,"connected_time":6338000000000,"state":"active","ping":66},{"user_id":368,"name":"mkl","steam_id":76561197986401685,"connected_time":1493000000000,"state":"active","ping":61},{"user_id":351,"name":"tj3002rocks","steam_id":76561199017921546,"connected_time":2564000000000,"state":"active","ping":55},{"user_id":365,"name":"FluttyPutty","steam_id":76561198218446556,"connected_time":1804000000000,"state":"active","ping":68},{"user_id":373,"name":"Shame","steam_id":76561198100490994,"connected_time":708000000000,"state":"active","ping":76},{"user_id":307,"name":"NATASCHA SUPREMACY","steam_id":76561198400058665,"connected_time":6034000000000,"state":"active","ping":90},{"user_id":377,"name":"Joe Biden","steam_id":76561198238699798,"connected_time":648000000000,"state":"active","ping":82},{"user_id":372,"name":"Ayumu \"Oakland\" Kasuga","steam_id":76561198345276434,"connected_time":776000000000,"state":"active","ping":73},{"user_id":379,"name":"pluto","steam_id":76561198199079731,"connected_time":599000000000,"state":"active","ping":46}]},{"server_id":108,"name":"Uncletopia | Dallas | 2 | All Maps","name_short":"dal-2","host":"dal-1.us.uncletopia.com","port":27025,"enabled":true,"region":"us-central","cc":"us","latitude":32.779167,"longitude":-96.80889,"reserved":0,"last_update":"0001-01-01T00:00:00Z","name_a2s":"Uncletopia | Dallas | 2 | All Maps","protocol":17,"map":"cp_altitude","folder":"tf","game":"Team Fortress","app_id":440,"player_count":24,"max_players":24,"Bots":0,"server_type":"Dedicated","server_os":"Linux","password":true,"vac":true,"version":"7757534","steam_id":85568392924469988,"keywords":["cp","nocrits","nodmgspread","uncletopia"],"game_id":440,"stv_port":27026,"stv_name":"Uncletopia | Dallas | 2 | All Maps | STV","players":[{"user_id":76,"name":"John16Mark","steam_id":76561198119445407,"connected_time":1310000000000,"state":"active","ping":103},{"user_id":48,"name":"Dragons\u003eEverything","steam_id":76561199140784635,"connected_time":2282000000000,"state":"active","ping":68},{"user_id":47,"name":"SEABISCUIT","steam_id":76561198122994652,"connected_time":2482000000000,"state":"active","ping":105},{"user_id":49,"name":"NotThePotato","steam_id":76561199214934899,"connected_time":2166000000000,"state":"active","ping":69},{"user_id":93,"name":"Mof","steam_id":76561198871385923,"connected_time":214000000000,"state":"active","ping":68},{"user_id":51,"name":"Sup m8","steam_id":76561198081659121,"connected_time":1967000000000,"state":"active","ping":47},{"user_id":55,"name":"Neocherry","steam_id":76561198137036962,"connected_time":1811000000000,"state":"active","ping":65},{"user_id":56,"name":"Foof","steam_id":76561198068996707,"connected_time":1789000000000,"state":"active","ping":58},{"user_id":57,"name":"papa youtuber real!!!!","steam_id":76561198795657236,"connected_time":1789000000000,"state":"active","ping":89},{"user_id":58,"name":"vareh","steam_id":76561197993190926,"connected_time":1783000000000,"state":"active","ping":116},{"user_id":82,"name":"crumblebungus","steam_id":76561199323707429,"connected_time":1257000000000,"state":"active","ping":81},{"user_id":60,"name":"dirty30","steam_id":76561198021226566,"connected_time":1760000000000,"state":"active","ping":103},{"user_id":61,"name":"Voicez The Lunatic","steam_id":76561199261271286,"connected_time":1750000000000,"state":"active","ping":71},{"user_id":62,"name":"Chef Boyardee","steam_id":76561198963501589,"connected_time":1707000000000,"state":"active","ping":106},{"user_id":79,"name":"LG_Fridge_User","steam_id":76561198977815014,"connected_time":1287000000000,"state":"active","ping":77},{"user_id":84,"name":"inzang","steam_id":76561198088318074,"connected_time":916000000000,"state":"active","ping":55},{"user_id":65,"name":"Inigo Montoya","steam_id":76561198010603881,"connected_time":1684000000000,"state":"active","ping":79},{"user_id":86,"name":"Gaming123","steam_id":76561198801780168,"connected_time":886000000000,"state":"active","ping":91},{"user_id":91,"name":"Lichy","steam_id":76561198310682841,"connected_time":593000000000,"state":"active","ping":74},{"user_id":80,"name":"MECHA OBAMA","steam_id":76561198046972750,"connected_time":1270000000000,"state":"active","ping":86},{"user_id":92,"name":"Bobbn","steam_id":76561198876124683,"connected_time":335000000000,"state":"active","ping":88},{"user_id":88,"name":"Venom","steam_id":76561198024966415,"connected_time":869000000000,"state":"active","ping":83},{"user_id":89,"name":"thock enjoyer","steam_id":76561198392539722,"connected_time":742000000000,"state":"active","ping":92},{"user_id":81,"name":"dairy","steam_id":76561198117033273,"connected_time":1267000000000,"state":"active","ping":175}]},{"server_id":5,"name":"Uncletopia | Frankfurt | 1 | All Maps","name_short":"frk-1","host":"frk-1.de.uncletopia.com","port":27015,"enabled":true,"region":"eu","cc":"de","latitude":50.110924,"longitude":8.682127,"reserved":0,"last_update":"0001-01-01T00:00:00Z","name_a2s":"Uncletopia | Frankfurt | 1 | All Maps","protocol":17,"map":"pl_pier","folder":"tf","game":"Team Fortress","app_id":440,"player_count":0,"max_players":24,"Bots":0,"server_type":"Dedicated","server_os":"Linux","password":true,"vac":true,"version":"7757534","steam_id":85568392924469989,"keywords":["nocrits","nodmgspread","payload","uncletopia"],"game_id":440,"stv_port":27016,"stv_name":"Uncletopia | Frankfurt | 1 | All Maps | STV","players":null},{"server_id":110,"name":"Uncletopia | Frankfurt | 2 | All Maps","name_short":"frk-2","host":"frk-1.de.uncletopia.com","port":27025,"enabled":true,"region":"eu","cc":"de","latitude":50.110924,"longitude":8.682127,"reserved":0,"last_update":"0001-01-01T00:00:00Z","name_a2s":"Uncletopia | Frankfurt | 2 | All Maps","protocol":17,"map":"pl_borneo","folder":"tf","game":"Team Fortress","app_id":440,"player_count":24,"max_players":24,"Bots":0,"server_type":"Dedicated","server_os":"Linux","password":true,"vac":true,"version":"7757534","steam_id":85568392924469990,"keywords":["nocrits","nodmgspread","payload","uncletopia"],"game_id":440,"stv_port":27026,"stv_name":"Uncletopia | Frankfurt | 2 | All Maps | STV","players":[{"user_id":686,"name":"brainrot","steam_id":76561199414716848,"connected_time":1366000000000,"state":"active","ping":61},{"user_id":665,"name":"AsuX","steam_id":76561197990333289,"connected_time":3528000000000,"state":"active","ping":60},{"user_id":680,"name":"General Petrov","steam_id":76561198027204104,"connected_time":1673000000000,"state":"active","ping":90},{"user_id":640,"name":"dinger","steam_id":76561198038748489,"connected_time":5729000000000,"state":"active","ping":74},{"user_id":609,"name":"Bobirulez","steam_id":76561198009125458,"connected_time":8431000000000,"state":"active","ping":90},{"user_id":688,"name":"S4mura!","steam_id":76561198374412262,"connected_time":933000000000,"state":"active","ping":75},{"user_id":714,"name":"gagalak","steam_id":76561198089979108,"connected_time":14000000000,"state":"active","ping":98},{"user_id":711,"name":"khamba","steam_id":76561198054783240,"connected_time":165000000000,"state":"active","ping":119},{"user_id":626,"name":"SOGET","steam_id":76561198859799048,"connected_time":7193000000000,"state":"active","ping":83},{"user_id":644,"name":"mondocane","steam_id":76561199233979726,"connected_time":4940000000000,"state":"active","ping":88},{"user_id":712,"name":"multiflex","steam_id":76561198049639319,"connected_time":46000000000,"state":"active","ping":75},{"user_id":645,"name":"Valkaisin","steam_id":76561198061197114,"connected_time":4925000000000,"state":"active","ping":70},{"user_id":658,"name":"inV Un4given","steam_id":76561198147078303,"connected_time":3900000000000,"state":"active","ping":78},{"user_id":673,"name":"OTHER BIRDS WOULD HAVE","steam_id":76561198049405872,"connected_time":2829000000000,"state":"active","ping":38},{"user_id":689,"name":"frosty","steam_id":76561198094560834,"connected_time":930000000000,"state":"active","ping":88},{"user_id":675,"name":"♔apple","steam_id":76561198116932635,"connected_time":2630000000000,"state":"active","ping":47},{"user_id":696,"name":"E X 0","steam_id":76561198059474779,"connected_time":295000000000,"state":"active","ping":82},{"user_id":690,"name":"Canis[Magnus]Pectus","steam_id":76561198363775072,"connected_time":907000000000,"state":"active","ping":120},{"user_id":699,"name":"Pingutaro","steam_id":76561198112803718,"connected_time":258000000000,"state":"active","ping":72},{"user_id":681,"name":"[Sheep] Tomco","steam_id":76561198388549261,"connected_time":1645000000000,"state":"active","ping":74},{"user_id":653,"name":"jar","steam_id":76561198156384007,"connected_time":4729000000000,"state":"active","ping":56},{"user_id":627,"name":"cinny","steam_id":76561198832112629,"connected_time":7178000000000,"state":"active","ping":77},{"user_id":617,"name":"Gnaisse","steam_id":76561198010560642,"connected_time":8200000000000,"state":"active","ping":90},{"user_id":693,"name":"SuperBob103","steam_id":76561199175360012,"connected_time":613000000000,"state":"active","ping":67}]},{"server_id":308,"name":"Uncletopia | Frankfurt | 3 | All Maps","name_short":"frk-3","host":"frk-1.de.uncletopia.com","port":27035,"enabled":true,"region":"eu","cc":"de","latitude":50.110924,"longitude":8.682127,"reserved":0,"last_update":"0001-01-01T00:00:00Z","name_a2s":"Uncletopia | Frankfurt | 3 | All Maps","protocol":17,"map":"koth_suijin","folder":"tf","game":"Team Fortress","app_id":440,"player_count":0,"max_players":24,"Bots":0,"server_type":"Dedicated","server_os":"Linux","password":true,"vac":true,"version":"7757534","steam_id":85568392924504274,"keywords":["cp","nocrits","nodmgspread","uncletopia"],"game_id":440,"stv_port":27036,"stv_name":"Uncletopia | Frankfurt | 3 | All Maps | STV","players":null},{"server_id":309,"name":"Uncletopia | Frankfurt | 4 | All Maps","name_short":"frk-4","host":"frk-1.de.uncletopia.com","port":27045,"enabled":true,"region":"eu","cc":"de","latitude":50.110924,"longitude":8.682127,"reserved":0,"last_update":"0001-01-01T00:00:00Z","name_a2s":"Uncletopia | Frankfurt | 4 | All Maps","protocol":17,"map":"koth_cascade","folder":"tf","game":"Team Fortress","app_id":440,"player_count":0,"max_players":24,"Bots":0,"server_type":"Dedicated","server_os":"Linux","password":true,"vac":true,"version":"7757534","steam_id":85568392924504275,"keywords":["cp","nocrits","nodmgspread","uncletopia"],"game_id":440,"stv_port":27046,"stv_name":"Uncletopia | Frankfurt | 4 | All Maps | STV","players":null},{"server_id":310,"name":"Uncletopia | Frankfurt | 5 | All Maps","name_short":"frk-5","host":"frk-1.de.uncletopia.com","port":27055,"enabled":true,"region":"eu","cc":"de","latitude":50.110924,"longitude":8.682127,"reserved":0,"last_update":"0001-01-01T00:00:00Z","name_a2s":"Uncletopia | Frankfurt | 5 | All Maps","protocol":17,"map":"pl_swiftwater_final1","folder":"tf","game":"Team Fortress","app_id":440,"player_count":0,"max_players":24,"Bots":0,"server_type":"Dedicated","server_os":"Linux","password":true,"vac":true,"version":"7757534","steam_id":85568392924504277,"keywords":["nocrits","nodmgspread","payload","uncletopia"],"game_id":440,"stv_port":27056,"stv_name":"Uncletopia | Frankfurt | 5 | All Maps | STV","players":null},{"server_id":311,"name":"Uncletopia | Frankfurt | 6 | All Maps","name_short":"frk-6","host":"frk-1.de.uncletopia.com","port":27065,"enabled":true,"region":"eu","cc":"de","latitude":50.110924,"longitude":8.682127,"reserved":0,"last_update":"0001-01-01T00:00:00Z","name_a2s":"Uncletopia | Frankfurt | 6 | All Maps","protocol":17,"map":"cp_sunshine","folder":"tf","game":"Team Fortress","app_id":440,"player_count":0,"max_players":24,"Bots":0,"server_type":"Dedicated","server_os":"Linux","password":true,"vac":true,"version":"7757534","steam_id":85568392924504278,"keywords":["cp","nocrits","nodmgspread","uncletopia"],"game_id":440,"stv_port":27066,"stv_name":"Uncletopia | Frankfurt | 6 | All Maps | STV","players":null},{"server_id":23,"name":"Uncletopia | Frankfurt | 7 | Stopwatch Beta","name_short":"frk-7","host":"frk-1.de.uncletopia.com","port":27075,"enabled":true,"region":"eu","cc":"de","latitude":50.110924,"longitude":8.682127,"reserved":0,"last_update":"0001-01-01T00:00:00Z","name_a2s":"Uncletopia | Frankfurt | 7 | Stopwatch Beta","protocol":17,"map":"pl_borneo","folder":"tf","game":"Team Fortress","app_id":440,"player_count":0,"max_players":24,"Bots":0,"server_type":"Dedicated","server_os":"Linux","password":true,"vac":true,"version":"7757534","steam_id":85568392924742827,"keywords":["nocrits","nodmgspread","payload","uncletopia"],"game_id":440,"stv_port":27076,"stv_name":"Uncletopia | Frankfurt | 7 | Stopwatch Beta | STV","players":null},{"server_id":24,"name":"Uncletopia | Frankfurt | 8 | Community","name_short":"frk-8","host":"frk-1.de.uncletopia.com","port":27085,"enabled":true,"region":"eu","cc":"de","latitude":50.110924,"longitude":8.682127,"reserved":0,"last_update":"0001-01-01T00:00:00Z","name_a2s":"Uncletopia | Frankfurt | 8 | Community","protocol":17,"map":"workshop/koth_bagel_rc6.ugc2514036946","folder":"tf","game":"Team Fortress","app_id":440,"player_count":0,"max_players":24,"Bots":0,"server_type":"Dedicated","server_os":"Linux","password":true,"vac":true,"version":"7757534","steam_id":85568392924742828,"keywords":["cp","nocrits","nodmgspread","uncletopia"],"game_id":440,"stv_port":27086,"stv_name":"Uncletopia | Frankfurt | 8 | Community | STV","players":null},{"server_id":202,"name":"Uncletopia | Hong Kong | 1 | All Maps","name_short":"hgk-1","host":"hgk-1.hk.uncletopia.com","port":27015,"enabled":true,"region":"asia","cc":"hk","latitude":22.302711,"longitude":114.177216,"reserved":0,"last_update":"0001-01-01T00:00:00Z","name_a2s":"Uncletopia | Hong Kong | 1 | All Maps","protocol":17,"map":"pl_swiftwater_final1","folder":"tf","game":"Team Fortress","app_id":440,"player_count":0,"max_players":24,"Bots":0,"server_type":"Dedicated","server_os":"Linux","password":true,"vac":true,"version":"7757534","steam_id":85568392924494504,"keywords":["nocrits","nodmgspread","payload","uncletopia"],"game_id":440,"stv_port":27016,"stv_name":"Uncletopia | Hong Kong | 1 | All Maps | STV","players":null},{"server_id":1,"name":"Uncletopia | Los Angeles | 1 | All Maps","name_short":"lax-1","host":"lax-1.us.uncletopia.com","port":27015,"enabled":true,"region":"us-west","cc":"us","latitude":33.94279,"longitude":-118.41004,"reserved":0,"last_update":"0001-01-01T00:00:00Z","name_a2s":"Uncletopia | Los Angeles | 1 | All Maps","protocol":17,"map":"cp_dustbowl","folder":"tf","game":"Team Fortress","app_id":440,"player_count":24,"max_players":24,"Bots":0,"server_type":"Dedicated","server_os":"Linux","password":true,"vac":true,"version":"7757534","steam_id":85568392924469991,"keywords":["cp","nocrits","nodmgspread","uncletopia"],"game_id":440,"stv_port":27016,"stv_name":"Uncletopia | Los Angeles | 1 | All Maps | STV","players":[{"user_id":145,"name":"Big Jackalicious","steam_id":76561199135213338,"connected_time":1241000000000,"state":"active","ping":91},{"user_id":142,"name":"HAT-WEARING™ Maggot Gamer Cat","steam_id":76561197973992705,"connected_time":1481000000000,"state":"active","ping":69},{"user_id":177,"name":"plutonium","steam_id":76561198319442494,"connected_time":68000000000,"state":"active","ping":57},{"user_id":140,"name":"getting money still sad too","steam_id":76561199382661194,"connected_time":1607000000000,"state":"active","ping":40},{"user_id":148,"name":"bro i think i got rabies","steam_id":76561198204169516,"connected_time":1176000000000,"state":"active","ping":77},{"user_id":16,"name":"Troy Winters","steam_id":76561198051442422,"connected_time":11387000000000,"state":"active","ping":60},{"user_id":176,"name":"Tmiracle","steam_id":76561198052375275,"connected_time":149000000000,"state":"active","ping":46},{"user_id":149,"name":"Demonic Cipher","steam_id":76561198066082088,"connected_time":1169000000000,"state":"active","ping":106},{"user_id":144,"name":"[PINGU™] Tiny Tuna","steam_id":76561198193611579,"connected_time":1463000000000,"state":"active","ping":115},{"user_id":164,"name":"Some Retard","steam_id":76561197994544587,"connected_time":701000000000,"state":"active","ping":46},{"user_id":20,"name":"||:♩♩♩♪:|| Opplydead","steam_id":76561198028630334,"connected_time":10989000000000,"state":"active","ping":52},{"user_id":150,"name":"rick and morty based philosophy","steam_id":76561198069190432,"connected_time":1161000000000,"state":"active","ping":122},{"user_id":124,"name":"TeriyakiDynamite","steam_id":76561198050049346,"connected_time":2804000000000,"state":"active","ping":61},{"user_id":151,"name":"Re-Crix","steam_id":76561198351895601,"connected_time":1128000000000,"state":"active","ping":61},{"user_id":170,"name":"Trolldier 76","steam_id":76561198036504161,"connected_time":459000000000,"state":"active","ping":148},{"user_id":165,"name":"lag","steam_id":76561197963872739,"connected_time":700000000000,"state":"active","ping":65},{"user_id":163,"name":"K_spam","steam_id":76561198121433617,"connected_time":743000000000,"state":"active","ping":122},{"user_id":167,"name":"Gamba","steam_id":76561198069264650,"connected_time":581000000000,"state":"active","ping":114},{"user_id":129,"name":"Biznickel","steam_id":76561199422511230,"connected_time":2662000000000,"state":"active","ping":82},{"user_id":158,"name":"Bevan(The Manager)","steam_id":76561198073890273,"connected_time":1075000000000,"state":"active","ping":89},{"user_id":77,"name":"Jolly","steam_id":76561198116357972,"connected_time":6833000000000,"state":"active","ping":47},{"user_id":166,"name":"gamer_2099","steam_id":76561199058461779,"connected_time":652000000000,"state":"active","ping":61},{"user_id":160,"name":"MF MilkMan","steam_id":76561198386529485,"connected_time":1047000000000,"state":"active","ping":48},{"user_id":175,"name":"ExplosiveGamer21","steam_id":76561198132370955,"connected_time":187000000000,"state":"active","ping":74}]},{"server_id":112,"name":"Uncletopia | Los Angeles | 2 | All Maps","name_short":"lax-2","host":"lax-1.us.uncletopia.com","port":27025,"enabled":true,"region":"us-west","cc":"us","latitude":33.94279,"longitude":-118.41004,"reserved":0,"last_update":"0001-01-01T00:00:00Z","name_a2s":"Uncletopia | Los Angeles | 2 | All Maps","protocol":17,"map":"koth_viaduct","folder":"tf","game":"Team Fortress","app_id":440,"player_count":22,"max_players":24,"Bots":0,"server_type":"Dedicated","server_os":"Linux","password":true,"vac":true,"version":"7757534","steam_id":85568392924469992,"keywords":["cp","nocrits","nodmgspread","uncletopia"],"game_id":440,"stv_port":27026,"stv_name":"Uncletopia | Los Angeles | 2 | All Maps | STV","players":[{"user_id":50,"name":"Nickorea","steam_id":76561198025784788,"connected_time":22000000000,"state":"active","ping":101},{"user_id":8,"name":"Dop_Pop_Bop","steam_id":76561198803110941,"connected_time":1508000000000,"state":"active","ping":66},{"user_id":23,"name":"Fractured_Mango","steam_id":76561199013113268,"connected_time":1012000000000,"state":"active","ping":69},{"user_id":24,"name":"donutdagger","steam_id":76561199203048300,"connected_time":1001000000000,"state":"active","ping":63},{"user_id":25,"name":"★SuperBurgerBoy★","steam_id":76561198856387197,"connected_time":994000000000,"state":"active","ping":51},{"user_id":48,"name":"DuckyCC","steam_id":76561198204224427,"connected_time":188000000000,"state":"active","ping":71},{"user_id":17,"name":"Schwing","steam_id":76561198270959777,"connected_time":1297000000000,"state":"active","ping":82},{"user_id":49,"name":"Sh3ba Spaniel","steam_id":76561198047412394,"connected_time":182000000000,"state":"active","ping":112},{"user_id":20,"name":"LX-24","steam_id":76561198016168993,"connected_time":1072000000000,"state":"active","ping":82},{"user_id":22,"name":"zurgeg","steam_id":76561198284155373,"connected_time":1060000000000,"state":"active","ping":116},{"user_id":26,"name":"tomiz","steam_id":76561198827013832,"connected_time":988000000000,"state":"active","ping":50},{"user_id":28,"name":"Boogieman Sam","steam_id":76561198249255320,"connected_time":939000000000,"state":"active","ping":127},{"user_id":29,"name":"Mufflerman","steam_id":76561198037325752,"connected_time":934000000000,"state":"active","ping":124},{"user_id":30,"name":"Jellojiggler","steam_id":76561198094320477,"connected_time":932000000000,"state":"active","ping":89},{"user_id":31,"name":"El pandora","steam_id":76561198075490385,"connected_time":927000000000,"state":"active","ping":45},{"user_id":32,"name":"buscemi","steam_id":76561198087745432,"connected_time":925000000000,"state":"active","ping":105},{"user_id":33,"name":"LMGmounted","steam_id":76561198853628870,"connected_time":883000000000,"state":"active","ping":86},{"user_id":34,"name":"ComputerFritz","steam_id":76561198368730970,"connected_time":859000000000,"state":"active","ping":75},{"user_id":35,"name":"StarGuyVI","steam_id":76561199366304746,"connected_time":835000000000,"state":"active","ping":106},{"user_id":38,"name":"Woahhh3","steam_id":76561198340525780,"connected_time":796000000000,"state":"active","ping":108},{"user_id":46,"name":"Saulce","steam_id":76561198066142119,"connected_time":442000000000,"state":"active","ping":57},{"user_id":41,"name":"michael myers gaming","steam_id":76561198155843685,"connected_time":772000000000,"state":"active","ping":44}]},{"server_id":324,"name":"Uncletopia | Los Angeles | 3 | All Maps","name_short":"lax-3","host":"lax-1.us.uncletopia.com","port":27035,"enabled":true,"region":"us-west","cc":"us","latitude":33.94279,"longitude":-118.41004,"reserved":0,"last_update":"0001-01-01T00:00:00Z","name_a2s":"Uncletopia | Los Angeles | 3 | All Maps","protocol":17,"map":"cp_snakewater_final1","folder":"tf","game":"Team Fortress","app_id":440,"player_count":0,"max_players":24,"Bots":0,"server_type":"Dedicated","server_os":"Linux","password":true,"vac":true,"version":"7757534","steam_id":85568392924510198,"keywords":["cp","nocrits","nodmgspread","uncletopia"],"game_id":440,"stv_port":27036,"stv_name":"Uncletopia | Los Angeles | 3 | All Maps | STV","players":null},{"server_id":25,"name":"Uncletopia | Los Angeles | 4 | Stopwatch Beta","name_short":"lax-4","host":"lax-1.us.uncletopia.com","port":27045,"enabled":true,"region":"us-west","cc":"us","latitude":33.94279,"longitude":-118.41004,"reserved":0,"last_update":"0001-01-01T00:00:00Z","name_a2s":"Uncletopia | Los Angeles | 4 | Stopwatch Beta","protocol":17,"map":"cp_dustbowl","folder":"tf","game":"Team Fortress","app_id":440,"player_count":0,"max_players":24,"Bots":0,"server_type":"Dedicated","server_os":"Linux","password":true,"vac":true,"version":"7757534","steam_id":85568392924510199,"keywords":["cp","nocrits","nodmgspread","uncletopia"],"game_id":440,"stv_port":27046,"stv_name":"Uncletopia | Los Angeles | 4 | Stopwatch Beta | STV","players":null},{"server_id":11,"name":"Uncletopia | London | 1 | All Maps","name_short":"lon-1","host":"lon-1.uk.uncletopia.com","port":27015,"enabled":true,"region":"eu","cc":"gb","latitude":51.509865,"longitude":-0.118092,"reserved":0,"last_update":"0001-01-01T00:00:00Z","name_a2s":"Uncletopia | London | 1 | All Maps","protocol":17,"map":"pl_snowycoast","folder":"tf","game":"Team Fortress","app_id":440,"player_count":0,"max_players":24,"Bots":0,"server_type":"Dedicated","server_os":"Linux","password":true,"vac":true,"version":"7757534","steam_id":85568392924367362,"keywords":["nocrits","nodmgspread","payload","uncletopia"],"game_id":440,"stv_port":27016,"stv_name":"Uncletopia | London | 1 | All Maps | STV","players":null},{"server_id":114,"name":"Uncletopia | London | 2 | All Maps","name_short":"lon-2","host":"lon-1.uk.uncletopia.com","port":27025,"enabled":true,"region":"eu","cc":"gb","latitude":51.509865,"longitude":-0.118092,"reserved":0,"last_update":"0001-01-01T00:00:00Z","name_a2s":"Uncletopia | London | 2 | All Maps","protocol":17,"map":"koth_viaduct","folder":"tf","game":"Team Fortress","app_id":440,"player_count":0,"max_players":24,"Bots":0,"server_type":"Dedicated","server_os":"Linux","password":true,"vac":true,"version":"7757534","steam_id":85568392924470941,"keywords":["cp","nocrits","nodmgspread","uncletopia"],"game_id":440,"stv_port":27026,"stv_name":"Uncletopia | London | 2 | All Maps | STV","players":null},{"server_id":320,"name":"Uncletopia | London | 3 | All Maps","name_short":"lon-3","host":"lon-1.uk.uncletopia.com","port":27035,"enabled":true,"region":"eu","cc":"gb","latitude":51.509865,"longitude":-0.118092,"reserved":0,"last_update":"0001-01-01T00:00:00Z","name_a2s":"Uncletopia | London | 3 | All Maps","protocol":17,"map":"cp_altitude","folder":"tf","game":"Team Fortress","app_id":440,"player_count":0,"max_players":24,"Bots":0,"server_type":"Dedicated","server_os":"Linux","password":true,"vac":true,"version":"7757534","steam_id":85568392924510192,"keywords":["cp","nocrits","nodmgspread","uncletopia"],"game_id":440,"stv_port":27036,"stv_name":"Uncletopia | London | 3 | All Maps | STV","players":null},{"server_id":321,"name":"Uncletopia | London | 4 | All Maps","name_short":"lon-4","host":"lon-1.uk.uncletopia.com","port":27045,"enabled":true,"region":"eu","cc":"gb","latitude":51.509865,"longitude":-0.118092,"reserved":0,"last_update":"0001-01-01T00:00:00Z","name_a2s":"Uncletopia | London | 4 | All Maps","protocol":17,"map":"pl_barnblitz","folder":"tf","game":"Team Fortress","app_id":440,"player_count":0,"max_players":24,"Bots":0,"server_type":"Dedicated","server_os":"Linux","password":true,"vac":true,"version":"7757534","steam_id":85568392924510193,"keywords":["nocrits","nodmgspread","payload","uncletopia"],"game_id":440,"stv_port":27046,"stv_name":"Uncletopia | London | 4 | All Maps | STV","players":null},{"server_id":21,"name":"Uncletopia | London | 5 | All Maps","name_short":"lon-5","host":"lon-1.uk.uncletopia.com","port":27055,"enabled":true,"region":"eu","cc":"gb","latitude":51.509865,"longitude":-0.118092,"reserved":0,"last_update":"0001-01-01T00:00:00Z","name_a2s":"Uncletopia | London | 5 | All Maps","protocol":17,"map":"koth_lakeside_final","folder":"tf","game":"Team Fortress","app_id":440,"player_count":0,"max_players":24,"Bots":0,"server_type":"Dedicated","server_os":"Linux","password":true,"vac":true,"version":"7757534","steam_id":85568392924742829,"keywords":["cp","nocrits","nodmgspread","uncletopia"],"game_id":440,"stv_port":27056,"stv_name":"Uncletopia | London | 5 | All Maps | STV","players":null},{"server_id":22,"name":"Uncletopia | London | 6 | All Maps","name_short":"lon-6","host":"lon-1.uk.uncletopia.com","port":27065,"enabled":true,"region":"eu","cc":"gb","latitude":51.509865,"longitude":-0.118092,"reserved":0,"last_update":"0001-01-01T00:00:00Z","name_a2s":"Uncletopia | London | 6 | All Maps","protocol":17,"map":"koth_lakeside_final","folder":"tf","game":"Team Fortress","app_id":440,"player_count":0,"max_players":24,"Bots":0,"server_type":"Dedicated","server_os":"Linux","password":true,"vac":true,"version":"7757534","steam_id":85568392924742830,"keywords":["cp","nocrits","nodmgspread","uncletopia"],"game_id":440,"stv_port":27066,"stv_name":"Uncletopia | London | 6 | All Maps | STV","players":null},{"server_id":40,"name":"Uncletopia | London | 7 | No Payload","name_short":"lon-7","host":"lon-1.uk.uncletopia.com","port":27075,"enabled":true,"region":"eu","cc":"gb","latitude":51.509865,"longitude":-0.118092,"reserved":0,"last_update":"0001-01-01T00:00:00Z","name_a2s":"Uncletopia | London | 7 | No Payload","protocol":17,"map":"cp_metalworks","folder":"tf","game":"Team Fortress","app_id":440,"player_count":0,"max_players":24,"Bots":0,"server_type":"Dedicated","server_os":"Linux","password":true,"vac":true,"version":"7757534","steam_id":85568392924964314,"keywords":["cp","nocrits","nodmgspread","uncletopia"],"game_id":440,"stv_port":27076,"stv_name":"Uncletopia | London | 7 | No Payload | STV","players":null},{"server_id":41,"name":"Uncletopia | London | 8 | Community","name_short":"lon-8","host":"lon-1.uk.uncletopia.com","port":27085,"enabled":true,"region":"eu","cc":"gb","latitude":51.509865,"longitude":-0.118092,"reserved":0,"last_update":"0001-01-01T00:00:00Z","name_a2s":"Uncletopia | London | 8 | Community","protocol":17,"map":"workshop/cp_alloy_rc3.ugc592805587","folder":"tf","game":"Team Fortress","app_id":440,"player_count":0,"max_players":24,"Bots":0,"server_type":"Dedicated","server_os":"Linux","password":true,"vac":true,"version":"7757534","steam_id":85568392924964315,"keywords":["cp","nocrits","nodmgspread","uncletopia"],"game_id":440,"stv_port":27086,"stv_name":"Uncletopia | London | 8 | Community | STV","players":null},{"server_id":300,"name":"Uncletopia | Montréal | 1 | All Maps","name_short":"mtl-1","host":"mtl-1.ca.uncletopia.com","port":27015,"enabled":true,"region":"us-east","cc":"ca","latitude":45.50889,"longitude":-73.56167,"reserved":0,"last_update":"0001-01-01T00:00:00Z","name_a2s":"Uncletopia | Montréal | 1 | All Maps","protocol":17,"map":"cp_altitude","folder":"tf","game":"Team Fortress","app_id":440,"player_count":0,"max_players":24,"Bots":0,"server_type":"Dedicated","server_os":"Linux","password":true,"vac":true,"version":"7757534","steam_id":85568392924500087,"keywords":["cp","nocrits","nodmgspread","uncletopia"],"game_id":440,"stv_port":27016,"stv_name":"Uncletopia | Montréal | 1 | All Maps | STV","players":null},{"server_id":301,"name":"Uncletopia | Montréal | 2 | All Maps","name_short":"mtl-2","host":"mtl-1.ca.uncletopia.com","port":27025,"enabled":true,"region":"us-east","cc":"ca","latitude":45.50889,"longitude":-73.56167,"reserved":0,"last_update":"0001-01-01T00:00:00Z","name_a2s":"Uncletopia | Montréal | 2 | All Maps","protocol":17,"map":"pl_frontier_final","folder":"tf","game":"Team Fortress","app_id":440,"player_count":0,"max_players":24,"Bots":0,"server_type":"Dedicated","server_os":"Linux","password":true,"vac":true,"version":"7757534","steam_id":85568392924500088,"keywords":["nocrits","nodmgspread","payload","uncletopia"],"game_id":440,"stv_port":27026,"stv_name":"Uncletopia | Montréal | 2 | All Maps | STV","players":null},{"server_id":302,"name":"Uncletopia | Montréal | 3 | All Maps","name_short":"mtl-3","host":"mtl-1.ca.uncletopia.com","port":27035,"enabled":true,"region":"us-east","cc":"ca","latitude":45.50889,"longitude":-73.56167,"reserved":0,"last_update":"0001-01-01T00:00:00Z","name_a2s":"Uncletopia | Montréal | 3 | All Maps","protocol":17,"map":"cp_altitude","folder":"tf","game":"Team Fortress","app_id":440,"player_count":0,"max_players":24,"Bots":0,"server_type":"Dedicated","server_os":"Linux","password":true,"vac":true,"version":"7757534","steam_id":85568392924500089,"keywords":["cp","nocrits","nodmgspread","uncletopia"],"game_id":440,"stv_port":27036,"stv_name":"Uncletopia | Montréal | 3 | All Maps | STV","players":null},{"server_id":303,"name":"Uncletopia | Montréal | 4 | No Payload","name_short":"mtl-4","host":"mtl-1.ca.uncletopia.com","port":27045,"enabled":true,"region":"us-east","cc":"ca","latitude":45.50889,"longitude":-73.56167,"reserved":0,"last_update":"0001-01-01T00:00:00Z","name_a2s":"Uncletopia | Montréal | 4 | No Payload","protocol":17,"map":"plr_nightfall_final","folder":"tf","game":"Team Fortress","app_id":440,"player_count":0,"max_players":24,"Bots":0,"server_type":"Dedicated","server_os":"Linux","password":true,"vac":true,"version":"7757534","steam_id":85568392924500090,"keywords":["nocrits","nodmgspread","payload","uncletopia"],"game_id":440,"stv_port":27046,"stv_name":"Uncletopia | Montréal | 4 | No Payload | STV","players":null},{"server_id":13,"name":"Uncletopia | New York City | 1 | All Maps","name_short":"nyc-1","host":"nyc-1.us.uncletopia.com","port":27015,"enabled":true,"region":"us-east","cc":"us","latitude":40.73061,"longitude":-73.93524,"reserved":0,"last_update":"0001-01-01T00:00:00Z","name_a2s":"Uncletopia | New York City | 1 | All Maps","protocol":17,"map":"cp_sunshine","folder":"tf","game":"Team Fortress","app_id":440,"player_count":24,"max_players":24,"Bots":0,"server_type":"Dedicated","server_os":"Linux","password":true,"vac":true,"version":"7757534","steam_id":85568392924469993,"keywords":["cp","nocrits","nodmgspread","uncletopia"],"game_id":440,"stv_port":27016,"stv_name":"Uncletopia | New York City | 1 | All Maps | STV","players":[{"user_id":367,"name":"WarlockSpider109","steam_id":76561198071392630,"connected_time":219000000000,"state":"active","ping":59},{"user_id":343,"name":"Primitive","steam_id":76561198060500671,"connected_time":1037000000000,"state":"active","ping":35},{"user_id":359,"name":"GoldtoothFour","steam_id":76561198055529332,"connected_time":451000000000,"state":"active","ping":79},{"user_id":317,"name":"Chin","steam_id":76561198247426906,"connected_time":3506000000000,"state":"active","ping":63},{"user_id":337,"name":"Dom","steam_id":76561198043992490,"connected_time":1587000000000,"state":"active","ping":106},{"user_id":342,"name":"bape man","steam_id":76561198059128837,"connected_time":1129000000000,"state":"active","ping":45},{"user_id":348,"name":"Lapis","steam_id":76561198095034966,"connected_time":890000000000,"state":"active","ping":71},{"user_id":357,"name":"big if true","steam_id":76561198155403131,"connected_time":562000000000,"state":"active","ping":113},{"user_id":364,"name":"A Fancy Meat Bicycle","steam_id":76561198358757709,"connected_time":284000000000,"state":"active","ping":86},{"user_id":356,"name":"onsen episode","steam_id":76561197965022076,"connected_time":577000000000,"state":"active","ping":45},{"user_id":325,"name":"dale","steam_id":76561199231009336,"connected_time":2401000000000,"state":"active","ping":88},{"user_id":346,"name":"punchy","steam_id":76561198282811567,"connected_time":899000000000,"state":"active","ping":48},{"user_id":327,"name":"jdt631","steam_id":76561198271999934,"connected_time":2251000000000,"state":"active","ping":84},{"user_id":347,"name":"Viokik","steam_id":76561198408846602,"connected_time":896000000000,"state":"active","ping":51},{"user_id":332,"name":"peee pee man","steam_id":76561198044979205,"connected_time":1996000000000,"state":"active","ping":54},{"user_id":338,"name":"Gocel","steam_id":76561198071467515,"connected_time":1430000000000,"state":"active","ping":50},{"user_id":321,"name":"ShadBad","steam_id":76561198248287390,"connected_time":2891000000000,"state":"active","ping":135},{"user_id":341,"name":"Cassini","steam_id":76561198318526294,"connected_time":1209000000000,"state":"active","ping":59},{"user_id":345,"name":"Argo","steam_id":76561198353725622,"connected_time":914000000000,"state":"active","ping":71},{"user_id":351,"name":"pete_the_cat_2014","steam_id":76561198199266047,"connected_time":850000000000,"state":"active","ping":41},{"user_id":353,"name":"i am heavy weapons guy","steam_id":76561198311704368,"connected_time":635000000000,"state":"active","ping":68},{"user_id":366,"name":"BetoelAff es","steam_id":76561198377842585,"connected_time":266000000000,"state":"active","ping":133},{"user_id":362,"name":"2003 chevy malibu","steam_id":76561199075669125,"connected_time":374000000000,"state":"active","ping":50},{"user_id":288,"name":"Bootes","steam_id":76561197968255551,"connected_time":5695000000000,"state":"active","ping":50}]},{"server_id":14,"name":"Uncletopia | New York City | 2 | All Maps","name_short":"nyc-2","host":"nyc-1.us.uncletopia.com","port":27025,"enabled":true,"region":"us-east","cc":"us","latitude":40.73061,"longitude":-73.93524,"reserved":0,"last_update":"0001-01-01T00:00:00Z","name_a2s":"Uncletopia | New York City | 2 | All Maps","protocol":17,"map":"pl_barnblitz","folder":"tf","game":"Team Fortress","app_id":440,"player_count":24,"max_players":24,"Bots":0,"server_type":"Dedicated","server_os":"Linux","password":true,"vac":true,"version":"7757534","steam_id":85568392924469994,"keywords":["nocrits","nodmgspread","payload","uncletopia"],"game_id":440,"stv_port":27026,"stv_name":"Uncletopia | New York City | 2 | All Maps | STV","players":[{"user_id":251,"name":"Frimpimy","steam_id":76561198142605675,"connected_time":5926000000000,"state":"active","ping":74},{"user_id":295,"name":"tran can","steam_id":76561198090599678,"connected_time":3265000000000,"state":"active","ping":65},{"user_id":312,"name":"Copter_Boy","steam_id":76561198322921312,"connected_time":2320000000000,"state":"active","ping":56},{"user_id":300,"name":"IcyGlaciers (She/They)","steam_id":76561198087843846,"connected_time":2706000000000,"state":"active","ping":115},{"user_id":229,"name":"Snowy Squill","steam_id":76561198073504207,"connected_time":6953000000000,"state":"active","ping":150},{"user_id":259,"name":"tokyo","steam_id":76561199013458589,"connected_time":5242000000000,"state":"active","ping":63},{"user_id":306,"name":"saurhead","steam_id":76561198132937722,"connected_time":2403000000000,"state":"active","ping":52},{"user_id":323,"name":"Skip","steam_id":76561199014240063,"connected_time":515000000000,"state":"active","ping":46},{"user_id":320,"name":"The Land Admiral","steam_id":76561198159356609,"connected_time":550000000000,"state":"active","ping":61},{"user_id":318,"name":"milk","steam_id":76561198813251405,"connected_time":566000000000,"state":"active","ping":54},{"user_id":286,"name":"add the 3 stooges to fortnite","steam_id":76561198107343544,"connected_time":3530000000000,"state":"active","ping":70},{"user_id":321,"name":"Whys there a level 3 there?","steam_id":76561198309696109,"connected_time":544000000000,"state":"active","ping":103},{"user_id":299,"name":"Dieu-Sama","steam_id":76561198002075862,"connected_time":2717000000000,"state":"active","ping":83},{"user_id":291,"name":"Potato_Patrick","steam_id":76561198126408165,"connected_time":3407000000000,"state":"active","ping":71},{"user_id":269,"name":"Watatsuki no Yorihime","steam_id":76561198063315650,"connected_time":5111000000000,"state":"active","ping":94},{"user_id":325,"name":"Definitely Not A Replicant.","steam_id":76561198087464370,"connected_time":294000000000,"state":"active","ping":91},{"user_id":305,"name":"Nick","steam_id":76561198819975431,"connected_time":2417000000000,"state":"active","ping":84},{"user_id":271,"name":"roman","steam_id":76561198170066797,"connected_time":4907000000000,"state":"active","ping":55},{"user_id":216,"name":"General Sherman","steam_id":76561198044769376,"connected_time":7954000000000,"state":"active","ping":84},{"user_id":293,"name":"Reduced Fat Goku","steam_id":76561198067702488,"connected_time":3395000000000,"state":"active","ping":73},{"user_id":307,"name":"Monsterjessy","steam_id":76561198035630985,"connected_time":2395000000000,"state":"active","ping":58},{"user_id":302,"name":"Mackola","steam_id":76561198125958792,"connected_time":2564000000000,"state":"active","ping":67},{"user_id":322,"name":"Javaris Jamar Javarison-Lamar","steam_id":76561198146951387,"connected_time":544000000000,"state":"active","ping":60},{"user_id":309,"name":"I am very ill","steam_id":76561199195104977,"connected_time":2372000000000,"state":"active","ping":63}]},{"server_id":15,"name":"Uncletopia | New York City | 3 | Stopwatch Beta","name_short":"nyc-3","host":"nyc-1.us.uncletopia.com","port":27035,"enabled":true,"region":"us-east","cc":"us","latitude":40.73061,"longitude":-73.93524,"reserved":0,"last_update":"0001-01-01T00:00:00Z","name_a2s":"Uncletopia | New York City | 3 | Stopwatch Beta","protocol":17,"map":"pl_borneo","folder":"tf","game":"Team Fortress","app_id":440,"player_count":0,"max_players":24,"Bots":0,"server_type":"Dedicated","server_os":"Linux","password":true,"vac":true,"version":"7757534","steam_id":85568392924742820,"keywords":["nocrits","nodmgspread","payload","uncletopia"],"game_id":440,"stv_port":27036,"stv_name":"Uncletopia | New York City | 3 | Stopwatch Beta | STV","players":null},{"server_id":16,"name":"Uncletopia | New York City | 4 | Community","name_short":"nyc-4","host":"nyc-1.us.uncletopia.com","port":27045,"enabled":true,"region":"us-east","cc":"us","latitude":40.73061,"longitude":-73.93524,"reserved":0,"last_update":"0001-01-01T00:00:00Z","name_a2s":"Uncletopia | New York City | 4 | Community","protocol":17,"map":"workshop/cp_propaganda_b18.ugc1603743849","folder":"tf","game":"Team Fortress","app_id":440,"player_count":24,"max_players":24,"Bots":0,"server_type":"Dedicated","server_os":"Linux","password":true,"vac":true,"version":"7757534","steam_id":85568392924742821,"keywords":["cp","nocrits","nodmgspread","uncletopia"],"game_id":440,"stv_port":27046,"stv_name":"Uncletopia | New York City | 4 | Community | STV","players":[{"user_id":195,"name":"PinkLemonade","steam_id":76561198799286228,"connected_time":3080000000000,"state":"active","ping":49},{"user_id":213,"name":"Big G","steam_id":76561198067496197,"connected_time":2210000000000,"state":"active","ping":51},{"user_id":205,"name":"Gumit","steam_id":76561198208126512,"connected_time":2457000000000,"state":"active","ping":57},{"user_id":207,"name":"MIKE JOANS","steam_id":76561198267470325,"connected_time":2386000000000,"state":"active","ping":49},{"user_id":208,"name":"bob27","steam_id":76561198807658771,"connected_time":2374000000000,"state":"active","ping":59},{"user_id":192,"name":"muzikelretifhbr","steam_id":76561198445169719,"connected_time":3464000000000,"state":"active","ping":122},{"user_id":235,"name":"Plop","steam_id":76561198054465460,"connected_time":337000000000,"state":"active","ping":126},{"user_id":224,"name":"Diarrhea Gaming","steam_id":76561198090589784,"connected_time":1393000000000,"state":"active","ping":75},{"user_id":189,"name":"sam","steam_id":76561198217362968,"connected_time":4060000000000,"state":"active","ping":73},{"user_id":238,"name":"Eleen - Live","steam_id":76561198063800293,"connected_time":0,"state":"spawning","ping":29},{"user_id":236,"name":"Florentine","steam_id":76561198107230148,"connected_time":312000000000,"state":"active","ping":62},{"user_id":234,"name":"ᗜˬᗜ","steam_id":76561198049076233,"connected_time":576000000000,"state":"active","ping":54},{"user_id":229,"name":"bug o1","steam_id":76561198126386686,"connected_time":1275000000000,"state":"active","ping":61},{"user_id":230,"name":"jaxolotl","steam_id":76561199034893401,"connected_time":1104000000000,"state":"active","ping":63},{"user_id":202,"name":"X_adam_X","steam_id":76561198028200221,"connected_time":2781000000000,"state":"active","ping":56},{"user_id":233,"name":"ElephantInTheRoom","steam_id":76561198091991980,"connected_time":765000000000,"state":"active","ping":122},{"user_id":220,"name":"Gustavo_Banana","steam_id":76561198387866587,"connected_time":1873000000000,"state":"active","ping":171},{"user_id":193,"name":"Vegerot","steam_id":76561197997843710,"connected_time":3354000000000,"state":"active","ping":41},{"user_id":203,"name":"magic","steam_id":76561198031957385,"connected_time":2772000000000,"state":"active","ping":129},{"user_id":222,"name":"Dr. drips","steam_id":76561198209380493,"connected_time":1610000000000,"state":"active","ping":46},{"user_id":178,"name":"Astaroth","steam_id":76561198027812686,"connected_time":4314000000000,"state":"active","ping":88},{"user_id":223,"name":"emerge","steam_id":76561198186882891,"connected_time":1608000000000,"state":"active","ping":94},{"user_id":237,"name":"The Necronomiconeconomist","steam_id":76561198010358323,"connected_time":156000000000,"state":"active","ping":99},{"user_id":219,"name":"BasicPeaches","steam_id":76561198190890150,"connected_time":2038000000000,"state":"active","ping":64}]},{"server_id":142,"name":"Uncletopia | São Paulo | 1 | All Maps","name_short":"sao-1","host":"sao-1.br.uncletopia.com","port":27015,"enabled":true,"region":"sa","cc":"br","latitude":-23.533773,"longitude":-46.62529,"reserved":0,"last_update":"0001-01-01T00:00:00Z","name_a2s":"Uncletopia | São Paulo | 1 | All Maps","protocol":17,"map":"koth_viaduct","folder":"tf","game":"Team Fortress","app_id":440,"player_count":0,"max_players":24,"Bots":0,"server_type":"Dedicated","server_os":"Linux","password":true,"vac":true,"version":"7757534","steam_id":85568392924469996,"keywords":["cp","nocrits","nodmgspread","uncletopia"],"game_id":440,"stv_port":27016,"stv_name":"Uncletopia | São Paulo | 1 | All Maps | STV","players":null},{"server_id":143,"name":"Uncletopia | São Paulo | 2 | All Maps","name_short":"sao-2","host":"sao-2.br.uncletopia.com","port":27015,"enabled":true,"region":"sa","cc":"br","latitude":-23.533773,"longitude":-46.62529,"reserved":0,"last_update":"0001-01-01T00:00:00Z","name_a2s":"Uncletopia | São Paulo | 2 | All Maps","protocol":17,"map":"cp_snakewater_final1","folder":"tf","game":"Team Fortress","app_id":440,"player_count":2,"max_players":24,"Bots":0,"server_type":"Dedicated","server_os":"Linux","password":true,"vac":true,"version":"7757534","steam_id":85568392924485349,"keywords":["cp","nocrits","nodmgspread","uncletopia"],"game_id":440,"stv_port":27016,"stv_name":"Uncletopia | São Paulo | 2 | All Maps | STV","players":[{"user_id":19,"name":":)","steam_id":76561199158907231,"connected_time":3012000000000,"state":"active","ping":81},{"user_id":24,"name":"UrBackDontLie","steam_id":76561199135806379,"connected_time":1830000000000,"state":"active","ping":68}]},{"server_id":7,"name":"Uncletopia | Seattle | 1 | All Maps","name_short":"sea-1","host":"sea-1.us.uncletopia.com","port":27015,"enabled":true,"region":"us-west","cc":"us","latitude":47.608013,"longitude":-122.33517,"reserved":0,"last_update":"0001-01-01T00:00:00Z","name_a2s":"Uncletopia | Seattle | 1 | All Maps","protocol":17,"map":"koth_harvest_final","folder":"tf","game":"Team Fortress","app_id":440,"player_count":24,"max_players":24,"Bots":0,"server_type":"Dedicated","server_os":"Linux","password":true,"vac":true,"version":"7757534","steam_id":85568392924469997,"keywords":["cp","nocrits","nodmgspread","uncletopia"],"game_id":440,"stv_port":27016,"stv_name":"Uncletopia | Seattle | 1 | All Maps | STV","players":[{"user_id":452,"name":"Level 99 Mudcrab","steam_id":76561198077452771,"connected_time":910000000000,"state":"active","ping":57},{"user_id":466,"name":"Birdman743","steam_id":76561198799636748,"connected_time":30000000000,"state":"active","ping":56},{"user_id":465,"name":"It's a Doggydog World","steam_id":76561198018232414,"connected_time":62000000000,"state":"active","ping":81},{"user_id":444,"name":"Nightshade","steam_id":76561199011017814,"connected_time":1876000000000,"state":"active","ping":70},{"user_id":456,"name":"5392vin","steam_id":76561198880493511,"connected_time":310000000000,"state":"active","ping":59},{"user_id":464,"name":"American Dad Funny Moments #32","steam_id":76561198254874328,"connected_time":196000000000,"state":"active","ping":56},{"user_id":448,"name":"WACKY JIM","steam_id":76561198961641122,"connected_time":1174000000000,"state":"active","ping":55},{"user_id":461,"name":"YakubianGamer@hotmail.com","steam_id":76561198806233019,"connected_time":266000000000,"state":"active","ping":35},{"user_id":445,"name":"Court Wizard, Sir Dr. Clydesdal","steam_id":76561198149267697,"connected_time":1777000000000,"state":"active","ping":65},{"user_id":419,"name":"smeasly","steam_id":76561198028718812,"connected_time":4150000000000,"state":"active","ping":45},{"user_id":457,"name":"ORANGE","steam_id":76561198000401769,"connected_time":298000000000,"state":"active","ping":45},{"user_id":453,"name":"mumbles","steam_id":76561197994528974,"connected_time":895000000000,"state":"active","ping":84},{"user_id":454,"name":"bear1boss fan","steam_id":76561198047850813,"connected_time":871000000000,"state":"active","ping":52},{"user_id":460,"name":"oo","steam_id":76561198119626492,"connected_time":278000000000,"state":"active","ping":65},{"user_id":431,"name":"OddBread","steam_id":76561198339301792,"connected_time":2833000000000,"state":"active","ping":97},{"user_id":437,"name":"BolognaWithOlives","steam_id":76561198101262668,"connected_time":2735000000000,"state":"active","ping":82},{"user_id":384,"name":"[TrC] Nosy","steam_id":76561197978859310,"connected_time":6861000000000,"state":"active","ping":57},{"user_id":416,"name":"toes","steam_id":76561198221151676,"connected_time":4317000000000,"state":"active","ping":58},{"user_id":386,"name":"[TrC] Dackstrus","steam_id":76561197973518509,"connected_time":6098000000000,"state":"active","ping":55},{"user_id":462,"name":"Fish Daddy","steam_id":76561198028057871,"connected_time":264000000000,"state":"active","ping":65},{"user_id":392,"name":"demomanfan2008","steam_id":76561198077030486,"connected_time":6016000000000,"state":"active","ping":73},{"user_id":411,"name":"shy guy","steam_id":76561198151246059,"connected_time":4841000000000,"state":"active","ping":71},{"user_id":422,"name":"FireFighter_Jeffery","steam_id":76561198070823022,"connected_time":3461000000000,"state":"active","ping":76},{"user_id":451,"name":"doopsies","steam_id":76561198083000867,"connected_time":992000000000,"state":"active","ping":54}]},{"server_id":119,"name":"Uncletopia | Seattle | 2 | All Maps","name_short":"sea-2","host":"sea-1.us.uncletopia.com","port":27025,"enabled":true,"region":"us-west","cc":"us","latitude":47.608013,"longitude":-122.33517,"reserved":0,"last_update":"0001-01-01T00:00:00Z","name_a2s":"Uncletopia | Seattle | 2 | All Maps","protocol":17,"map":"pl_thundermountain","folder":"tf","game":"Team Fortress","app_id":440,"player_count":18,"max_players":24,"Bots":0,"server_type":"Dedicated","server_os":"Linux","password":true,"vac":true,"version":"7757534","steam_id":85568392924469998,"keywords":["nocrits","nodmgspread","payload","uncletopia"],"game_id":440,"stv_port":27026,"stv_name":"Uncletopia | Seattle | 2 | All Maps | STV","players":[{"user_id":272,"name":"El Viejo Paulino","steam_id":76561198211944169,"connected_time":2928000000000,"state":"active","ping":90},{"user_id":288,"name":"AmiableNebula","steam_id":76561198094306627,"connected_time":1262000000000,"state":"active","ping":74},{"user_id":297,"name":"bengineer","steam_id":76561198171912174,"connected_time":40000000000,"state":"active","ping":54},{"user_id":278,"name":"Tibetan Pop Star","steam_id":76561198844903984,"connected_time":2233000000000,"state":"active","ping":85},{"user_id":291,"name":"Giorno_Giovanna","steam_id":76561199014402406,"connected_time":936000000000,"state":"active","ping":74},{"user_id":269,"name":"Yume","steam_id":76561198018060136,"connected_time":3044000000000,"state":"active","ping":93},{"user_id":293,"name":"kodynotcody","steam_id":76561198340685758,"connected_time":62000000000,"state":"active","ping":55},{"user_id":236,"name":"Grammaring","steam_id":76561198867366139,"connected_time":4990000000000,"state":"active","ping":74},{"user_id":296,"name":"Greskrendtregk","steam_id":76561197969553142,"connected_time":49000000000,"state":"active","ping":51},{"user_id":285,"name":"FIRETROOP277","steam_id":76561198418201110,"connected_time":1725000000000,"state":"active","ping":90},{"user_id":238,"name":"Yosh","steam_id":76561198027078899,"connected_time":4925000000000,"state":"active","ping":87},{"user_id":294,"name":"Keamy","steam_id":76561199471434875,"connected_time":61000000000,"state":"active","ping":30},{"user_id":277,"name":"The Chosen One","steam_id":76561199046984627,"connected_time":2242000000000,"state":"active","ping":129},{"user_id":290,"name":"Grill Skills","steam_id":76561198053575147,"connected_time":960000000000,"state":"active","ping":62},{"user_id":231,"name":"Dr. Banana boy","steam_id":76561199012105803,"connected_time":5333000000000,"state":"active","ping":57},{"user_id":276,"name":"Algibruh","steam_id":76561199221599415,"connected_time":2417000000000,"state":"active","ping":47},{"user_id":207,"name":"dearender","steam_id":76561199427644498,"connected_time":7284000000000,"state":"active","ping":65},{"user_id":295,"name":"Dimple #TF2Center","steam_id":76561198980324190,"connected_time":60000000000,"state":"active","ping":59}]},{"server_id":406,"name":"Uncletopia | Seattle | 3 | Stopwatch Beta","name_short":"sea-3","host":"sea-1.us.uncletopia.com","port":27035,"enabled":true,"region":"us-west","cc":"us","latitude":47.608013,"longitude":-122.33517,"reserved":0,"last_update":"0001-01-01T00:00:00Z","name_a2s":"Uncletopia | Seattle | 3 | Stopwatch Beta","protocol":17,"map":"workshop/pl_barnblitz_pro7.ugc582280235","folder":"tf","game":"Team Fortress","app_id":440,"player_count":0,"max_players":24,"Bots":0,"server_type":"Dedicated","server_os":"Linux","password":true,"vac":true,"version":"7757534","steam_id":85568392924515217,"keywords":["nocrits","nodmgspread","payload","uncletopia"],"game_id":440,"stv_port":27036,"stv_name":"Uncletopia | Seattle | 3 | Stopwatch Beta | STV","players":null},{"server_id":17,"name":"Uncletopia | San Francisco | 1 | All Maps","name_short":"sfo-1","host":"sfo-1.us.uncletopia.com","port":27015,"enabled":true,"region":"us-west","cc":"us","latitude":37.77397,"longitude":-122.4313,"reserved":0,"last_update":"0001-01-01T00:00:00Z","name_a2s":"Uncletopia | San Francisco | 1 | All Maps","protocol":17,"map":"koth_cascade","folder":"tf","game":"Team Fortress","app_id":440,"player_count":24,"max_players":24,"Bots":0,"server_type":"Dedicated","server_os":"Linux","password":true,"vac":true,"version":"7757534","steam_id":85568392924469999,"keywords":["cp","nocrits","nodmgspread","uncletopia"],"game_id":440,"stv_port":27016,"stv_name":"Uncletopia | San Francisco | 1 | All Maps | STV","players":[{"user_id":640,"name":"Ulrich Stern","steam_id":76561198101739682,"connected_time":437000000000,"state":"active","ping":114},{"user_id":627,"name":"zinnk","steam_id":76561198092081825,"connected_time":944000000000,"state":"active","ping":38},{"user_id":552,"name":"spaceman","steam_id":76561198313169223,"connected_time":7278000000000,"state":"active","ping":108},{"user_id":616,"name":"SenseiMo","steam_id":76561198174022267,"connected_time":2022000000000,"state":"active","ping":118},{"user_id":629,"name":"the Good Guy","steam_id":76561198416759211,"connected_time":769000000000,"state":"active","ping":116},{"user_id":645,"name":"reverie","steam_id":76561198168158637,"connected_time":334000000000,"state":"active","ping":63},{"user_id":586,"name":"dave","steam_id":76561198052431073,"connected_time":4520000000000,"state":"active","ping":78},{"user_id":649,"name":"TabbyCat","steam_id":76561198414125672,"connected_time":87000000000,"state":"active","ping":106},{"user_id":625,"name":"M E M E  M A N","steam_id":76561198103179061,"connected_time":1310000000000,"state":"active","ping":127},{"user_id":543,"name":"meth","steam_id":76561198118715586,"connected_time":7447000000000,"state":"active","ping":108},{"user_id":619,"name":"arse77","steam_id":76561198169613105,"connected_time":1906000000000,"state":"active","ping":127},{"user_id":634,"name":"Easd","steam_id":76561198169142631,"connected_time":662000000000,"state":"active","ping":99},{"user_id":650,"name":"Truth","steam_id":76561198047385041,"connected_time":69000000000,"state":"active","ping":117},{"user_id":651,"name":"phantom titty ache","steam_id":76561199185213820,"connected_time":27000000000,"state":"spawning","ping":107},{"user_id":652,"name":"ally of big tobacco","steam_id":76561198169927835,"connected_time":9000000000,"state":"active","ping":275},{"user_id":609,"name":"Blind","steam_id":76561198986055111,"connected_time":2870000000000,"state":"active","ping":68},{"user_id":644,"name":"Camohno","steam_id":76561198283519918,"connected_time":385000000000,"state":"active","ping":55},{"user_id":642,"name":"Serene Salamander","steam_id":76561198001094770,"connected_time":425000000000,"state":"active","ping":70},{"user_id":533,"name":"Leonardo Doujinshi","steam_id":76561198073531273,"connected_time":7904000000000,"state":"active","ping":57},{"user_id":638,"name":"Dragonsofdra","steam_id":76561198253369292,"connected_time":519000000000,"state":"active","ping":58},{"user_id":624,"name":"Thiccums","steam_id":76561198291586739,"connected_time":1811000000000,"state":"active","ping":45},{"user_id":590,"name":"gNarNar","steam_id":76561197994505205,"connected_time":3980000000000,"state":"active","ping":106},{"user_id":643,"name":"I THINK COOLSVILLE SUCKS","steam_id":76561198066855998,"connected_time":424000000000,"state":"active","ping":61},{"user_id":607,"name":"Nyne","steam_id":76561198046198449,"connected_time":3153000000000,"state":"active","ping":101}]},{"server_id":18,"name":"Uncletopia | San Francisco | 2 | All Maps","name_short":"sfo-2","host":"sfo-1.us.uncletopia.com","port":27025,"enabled":true,"region":"us-west","cc":"us","latitude":37.77397,"longitude":-122.4313,"reserved":0,"last_update":"0001-01-01T00:00:00Z","name_a2s":"Uncletopia | San Francisco | 2 | All Maps","protocol":17,"map":"cp_steel","folder":"tf","game":"Team Fortress","app_id":440,"player_count":22,"max_players":24,"Bots":0,"server_type":"Dedicated","server_os":"Linux","password":true,"vac":true,"version":"7757534","steam_id":85568392924470000,"keywords":["cp","nocrits","nodmgspread","uncletopia"],"game_id":440,"stv_port":27026,"stv_name":"Uncletopia | San Francisco | 2 | All Maps | STV","players":[{"user_id":238,"name":"SomeRandomBetaFish","steam_id":76561198827731399,"connected_time":5205000000000,"state":"active","ping":87},{"user_id":284,"name":"zerpherb","steam_id":76561199111004101,"connected_time":2510000000000,"state":"active","ping":87},{"user_id":366,"name":"Puppeteer","steam_id":76561198159928108,"connected_time":493000000000,"state":"active","ping":75},{"user_id":283,"name":"GamingOCD","steam_id":76561198866287844,"connected_time":2522000000000,"state":"active","ping":76},{"user_id":327,"name":"Pinkson","steam_id":76561198097116110,"connected_time":1627000000000,"state":"active","ping":158},{"user_id":281,"name":"Bones","steam_id":76561198069911981,"connected_time":2666000000000,"state":"active","ping":76},{"user_id":333,"name":"Dimmerswitch","steam_id":76561198034782177,"connected_time":1476000000000,"state":"active","ping":31},{"user_id":367,"name":"Bikeway Naros","steam_id":76561198086676786,"connected_time":466000000000,"state":"active","ping":52},{"user_id":320,"name":"dark luigi","steam_id":76561198048007844,"connected_time":1879000000000,"state":"active","ping":57},{"user_id":365,"name":"xkcd.hoverboard","steam_id":76561199079595193,"connected_time":570000000000,"state":"active","ping":74},{"user_id":368,"name":"Minedark","steam_id":76561198250995706,"connected_time":241000000000,"state":"active","ping":72},{"user_id":289,"name":"autumnal.messenger","steam_id":76561199345816635,"connected_time":2457000000000,"state":"active","ping":72},{"user_id":369,"name":"cofferhead","steam_id":76561199191108449,"connected_time":230000000000,"state":"active","ping":67},{"user_id":370,"name":"GarboBeans","steam_id":76561198089127316,"connected_time":210000000000,"state":"active","ping":60},{"user_id":371,"name":"silly","steam_id":76561198311564850,"connected_time":205000000000,"state":"active","ping":56},{"user_id":297,"name":"MantisToboggan","steam_id":76561197969447887,"connected_time":2322000000000,"state":"active","ping":97},{"user_id":244,"name":"SilverMango","steam_id":76561198091243252,"connected_time":5091000000000,"state":"active","ping":65},{"user_id":372,"name":"the gamer","steam_id":76561198334059206,"connected_time":192000000000,"state":"active","ping":51},{"user_id":302,"name":"ChromeOwl","steam_id":76561198953786715,"connected_time":2282000000000,"state":"active","ping":72},{"user_id":299,"name":"terrorism? boy howdy","steam_id":76561198844003641,"connected_time":2301000000000,"state":"active","ping":64},{"user_id":373,"name":"Creme","steam_id":76561198034166729,"connected_time":180000000000,"state":"active","ping":132},{"user_id":351,"name":"trobin120","steam_id":76561199122420273,"connected_time":1070000000000,"state":"active","ping":107}]},{"server_id":19,"name":"Uncletopia | San Francisco | 3 | Stopwatch Beta","name_short":"sfo-3","host":"sfo-1.us.uncletopia.com","port":27035,"enabled":true,"region":"us-west","cc":"us","latitude":37.77397,"longitude":-122.4313,"reserved":0,"last_update":"0001-01-01T00:00:00Z","name_a2s":"Uncletopia | San Francisco | 3 | Stopwatch Beta","protocol":17,"map":"workshop/koth_product_final.ugc454272353","folder":"tf","game":"Team Fortress","app_id":440,"player_count":0,"max_players":24,"Bots":0,"server_type":"Dedicated","server_os":"Linux","password":true,"vac":true,"version":"7757534","steam_id":85568392924742824,"keywords":["cp","nocrits","nodmgspread","uncletopia"],"game_id":440,"stv_port":27036,"stv_name":"Uncletopia | San Francisco | 3 | Stopwatch Beta | STV","players":null},{"server_id":20,"name":"Uncletopia | San Francisco | 4 | Community","name_short":"sfo-4","host":"sfo-1.us.uncletopia.com","port":27045,"enabled":true,"region":"us-west","cc":"us","latitude":37.77397,"longitude":-122.4313,"reserved":0,"last_update":"0001-01-01T00:00:00Z","name_a2s":"Uncletopia | San Francisco | 4 | Community","protocol":17,"map":"workshop/cp_snowbase_b18.ugc2081770490","folder":"tf","game":"Team Fortress","app_id":440,"player_count":0,"max_players":24,"Bots":0,"server_type":"Dedicated","server_os":"Linux","password":true,"vac":true,"version":"7757534","steam_id":85568392924742826,"keywords":["cp","nocrits","nodmgspread","uncletopia"],"game_id":440,"stv_port":27046,"stv_name":"Uncletopia | San Francisco | 4 | Community | STV","players":null},{"server_id":141,"name":"Uncletopia | Sydney | 1 | All Maps","name_short":"syd-1","host":"syd-1.au.uncletopia.com","port":27015,"enabled":true,"region":"au","cc":"au","latitude":-33.865143,"longitude":151.2099,"reserved":0,"last_update":"0001-01-01T00:00:00Z","name_a2s":"Uncletopia | Sydney | 1 | All Maps","protocol":17,"map":"cp_snakewater_final1","folder":"tf","game":"Team Fortress","app_id":440,"player_count":20,"max_players":24,"Bots":0,"server_type":"Dedicated","server_os":"Linux","password":true,"vac":true,"version":"7757534","steam_id":85568392924470001,"keywords":["cp","nocrits","nodmgspread","uncletopia"],"game_id":440,"stv_port":27016,"stv_name":"Uncletopia | Sydney | 1 | All Maps | STV","players":[{"user_id":5,"name":"Jett","steam_id":76561198969434128,"connected_time":3824000000000,"state":"active","ping":64},{"user_id":55,"name":"Soop","steam_id":76561198396967853,"connected_time":497000000000,"state":"active","ping":42},{"user_id":58,"name":"MadmannsHat","steam_id":76561199063185304,"connected_time":338000000000,"state":"active","ping":76},{"user_id":31,"name":"CCP CHINA SPY BALLOON V2","steam_id":76561198179045463,"connected_time":1287000000000,"state":"active","ping":47},{"user_id":56,"name":"Tsolis","steam_id":76561198013950614,"connected_time":450000000000,"state":"active","ping":58},{"user_id":53,"name":"Legend27","steam_id":76561199475312777,"connected_time":526000000000,"state":"active","ping":59},{"user_id":37,"name":"⽔Ⱞ⒢⚞Ⳝ▤♆⛹⩗ⶕ","steam_id":76561198831069486,"connected_time":1046000000000,"state":"active","ping":47},{"user_id":20,"name":"Ralph Wiggum","steam_id":76561198243808014,"connected_time":1612000000000,"state":"active","ping":61},{"user_id":52,"name":"DSCO","steam_id":76561198093271918,"connected_time":577000000000,"state":"active","ping":32},{"user_id":23,"name":"Hammy From Over The Hedge (2006","steam_id":76561199262196710,"connected_time":1514000000000,"state":"active","ping":42},{"user_id":24,"name":"DrebbNacho","steam_id":76561198850944396,"connected_time":1501000000000,"state":"active","ping":56},{"user_id":63,"name":"4 Day Old Meat","steam_id":76561198992922627,"connected_time":110000000000,"state":"active","ping":91},{"user_id":39,"name":"MindlessTie","steam_id":76561198107844324,"connected_time":879000000000,"state":"active","ping":67},{"user_id":57,"name":"catboy vs doggirl deathmatch","steam_id":76561198021736544,"connected_time":384000000000,"state":"active","ping":98},{"user_id":60,"name":"SaltierThanYou","steam_id":76561198444395188,"connected_time":257000000000,"state":"active","ping":84},{"user_id":35,"name":"hive","steam_id":76561199099744527,"connected_time":1251000000000,"state":"active","ping":45},{"user_id":62,"name":"FrodoFrogs","steam_id":76561198001134675,"connected_time":221000000000,"state":"active","ping":32},{"user_id":66,"name":"das conk creet baybee","steam_id":76561198256416570,"connected_time":8000000000,"state":"spawning","ping":59},{"user_id":54,"name":"Cosmo Lumina","steam_id":76561198095744048,"connected_time":526000000000,"state":"active","ping":96},{"user_id":47,"name":"octavia","steam_id":76561199029851609,"connected_time":728000000000,"state":"active","ping":51}]},{"server_id":123,"name":"Uncletopia | Sydney | 2 | All Maps","name_short":"syd-2","host":"syd-1.au.uncletopia.com","port":27025,"enabled":true,"region":"au","cc":"au","latitude":-33.865143,"longitude":151.2099,"reserved":0,"last_update":"0001-01-01T00:00:00Z","name_a2s":"Uncletopia | Sydney | 2 | All Maps","protocol":17,"map":"koth_highpass","folder":"tf","game":"Team Fortress","app_id":440,"player_count":0,"max_players":24,"Bots":0,"server_type":"Dedicated","server_os":"Linux","password":true,"vac":true,"version":"7757534","steam_id":85568392924470002,"keywords":["cp","nocrits","nodmgspread","uncletopia"],"game_id":440,"stv_port":27026,"stv_name":"Uncletopia | Sydney | 2 | All Maps | STV","players":null},{"server_id":395,"name":"Uncletopia | Sydney | 3 | All Maps","name_short":"syd-3","host":"syd-1.au.uncletopia.com","port":27035,"enabled":true,"region":"au","cc":"au","latitude":-33.865143,"longitude":151.2099,"reserved":0,"last_update":"0001-01-01T00:00:00Z","name_a2s":"Uncletopia | Sydney | 3 | All Maps","protocol":17,"map":"cp_altitude","folder":"tf","game":"Team Fortress","app_id":440,"player_count":0,"max_players":24,"Bots":0,"server_type":"Dedicated","server_os":"Linux","password":true,"vac":true,"version":"7757534","steam_id":85568392925194467,"keywords":["cp","nocrits","nodmgspread","uncletopia"],"game_id":440,"stv_port":27036,"stv_name":"Uncletopia | Sydney | 3 | All Maps | STV","players":null},{"server_id":396,"name":"Uncletopia | Sydney | 4 | All Maps","name_short":"syd-4","host":"syd-1.au.uncletopia.com","port":27045,"enabled":true,"region":"au","cc":"au","latitude":-33.865143,"longitude":151.2099,"reserved":0,"last_update":"0001-01-01T00:00:00Z","name_a2s":"Uncletopia | Sydney | 4 | All Maps","protocol":17,"map":"cp_process_final","folder":"tf","game":"Team Fortress","app_id":440,"player_count":0,"max_players":24,"Bots":0,"server_type":"Dedicated","server_os":"Linux","password":true,"vac":true,"version":"7757534","steam_id":85568392925397958,"keywords":["cp","nocrits","nodmgspread","uncletopia"],"game_id":440,"stv_port":27046,"stv_name":"Uncletopia | Sydney | 4 | All Maps | STV","players":null},{"server_id":58,"name":"Uncletopia | Sydney | 5 | Stopwatch Beta","name_short":"syd-5","host":"syd-1.au.uncletopia.com","port":27055,"enabled":true,"region":"au","cc":"au","latitude":-33.865143,"longitude":151.2099,"reserved":0,"last_update":"0001-01-01T00:00:00Z","name_a2s":"Uncletopia | Sydney | 5 | Stopwatch Beta","protocol":17,"map":"koth_highpass","folder":"tf","game":"Team Fortress","app_id":440,"player_count":0,"max_players":24,"Bots":0,"server_type":"Dedicated","server_os":"Linux","password":true,"vac":true,"version":"7757534","steam_id":85568392925397959,"keywords":["cp","nocrits","nodmgspread","uncletopia"],"game_id":440,"stv_port":27056,"stv_name":"Uncletopia | Sydney | 5 | Stopwatch Beta | STV","players":null},{"server_id":59,"name":"Uncletopia | Sydney | 6 | Community","name_short":"syd-6","host":"syd-1.au.uncletopia.com","port":27065,"enabled":true,"region":"au","cc":"au","latitude":-33.865143,"longitude":151.2099,"reserved":0,"last_update":"0001-01-01T00:00:00Z","name_a2s":"Uncletopia | Sydney | 6 | Community","protocol":17,"map":"pl_badwater","folder":"tf","game":"Team Fortress","app_id":440,"player_count":0,"max_players":24,"Bots":0,"server_type":"Dedicated","server_os":"Linux","password":true,"vac":true,"version":"7757534","steam_id":85568392925397960,"keywords":["nocrits","nodmgspread","payload","uncletopia"],"game_id":440,"stv_port":27066,"stv_name":"Uncletopia | Sydney | 6 | Community | STV","players":null},{"server_id":49,"name":"Uncletopia | Warsaw | 1 | All Maps","name_short":"waw-1","host":"waw-1.pl.uncletopia.com","port":27015,"enabled":true,"region":"eu","cc":"pl","latitude":52.2297,"longitude":21.017532,"reserved":0,"last_update":"0001-01-01T00:00:00Z","name_a2s":"","protocol":0,"map":"","folder":"","game":"","app_id":0,"player_count":0,"max_players":0,"Bots":0,"server_type":"","server_os":"","password":false,"vac":false,"version":"","steam_id":0,"keywords":null,"game_id":0,"stv_port":0,"stv_name":"","players":null},{"server_id":50,"name":"Uncletopia | Warsaw | 2 | All Maps","name_short":"waw-2","host":"waw-1.pl.uncletopia.com","port":27025,"enabled":true,"region":"eu","cc":"pl","latitude":52.2297,"longitude":21.017532,"reserved":0,"last_update":"0001-01-01T00:00:00Z","name_a2s":"Uncletopia | Warsaw | 2 | All Maps","protocol":17,"map":"cp_altitude","folder":"tf","game":"Team Fortress","app_id":440,"player_count":0,"max_players":24,"Bots":0,"server_type":"Dedicated","server_os":"Linux","password":true,"vac":true,"version":"7757534","steam_id":85568392925397851,"keywords":["cp","nocrits","nodmgspread","uncletopia"],"game_id":440,"stv_port":27026,"stv_name":"Uncletopia | Warsaw | 2 | All Maps | STV","players":null},{"server_id":51,"name":"Uncletopia | Warsaw | 3 | All Maps","name_short":"waw-3","host":"waw-1.pl.uncletopia.com","port":27035,"enabled":true,"region":"eu","cc":"pl","latitude":52.2297,"longitude":21.017532,"reserved":0,"last_update":"0001-01-01T00:00:00Z","name_a2s":"Uncletopia | Warsaw | 3 | All Maps","protocol":17,"map":"koth_cascade","folder":"tf","game":"Team Fortress","app_id":440,"player_count":0,"max_players":24,"Bots":0,"server_type":"Dedicated","server_os":"Linux","password":true,"vac":true,"version":"7757534","steam_id":85568392925397852,"keywords":["cp","nocrits","nodmgspread","uncletopia"],"game_id":440,"stv_port":27036,"stv_name":"Uncletopia | Warsaw | 3 | All Maps | STV","players":null},{"server_id":52,"name":"Uncletopia | Warsaw | 4 | All Maps","name_short":"waw-4","host":"waw-1.pl.uncletopia.com","port":27045,"enabled":true,"region":"eu","cc":"pl","latitude":52.2297,"longitude":21.017532,"reserved":0,"last_update":"0001-01-01T00:00:00Z","name_a2s":"Uncletopia | Warsaw | 4 | All Maps","protocol":17,"map":"pl_upward","folder":"tf","game":"Team Fortress","app_id":440,"player_count":0,"max_players":24,"Bots":0,"server_type":"Dedicated","server_os":"Linux","password":true,"vac":true,"version":"7757534","steam_id":85568392925397853,"keywords":["nocrits","nodmgspread","payload","uncletopia"],"game_id":440,"stv_port":27046,"stv_name":"Uncletopia | Warsaw | 4 | All Maps | STV","players":null},{"server_id":53,"name":"Uncletopia | Warsaw | 5 | Stopwatch Beta","name_short":"waw-5","host":"waw-1.pl.uncletopia.com","port":27055,"enabled":true,"region":"eu","cc":"pl","latitude":52.2297,"longitude":21.017532,"reserved":0,"last_update":"0001-01-01T00:00:00Z","name_a2s":"Uncletopia | Warsaw | 5 | Stopwatch Beta","protocol":17,"map":"pl_pier","folder":"tf","game":"Team Fortress","app_id":440,"player_count":0,"max_players":24,"Bots":0,"server_type":"Dedicated","server_os":"Linux","password":true,"vac":true,"version":"7757534","steam_id":85568392925397854,"keywords":["nocrits","nodmgspread","payload","uncletopia"],"game_id":440,"stv_port":27056,"stv_name":"Uncletopia | Warsaw | 5 | Stopwatch Beta | STV","players":null},{"server_id":54,"name":"Uncletopia | Warsaw | 6 | Community","name_short":"waw-6","host":"waw-1.pl.uncletopia.com","port":27065,"enabled":true,"region":"eu","cc":"pl","latitude":52.2297,"longitude":21.017532,"reserved":0,"last_update":"0001-01-01T00:00:00Z","name_a2s":"Uncletopia | Warsaw | 6 | Community","protocol":17,"map":"koth_highpass","folder":"tf","game":"Team Fortress","app_id":440,"player_count":0,"max_players":24,"Bots":0,"server_type":"Dedicated","server_os":"Linux","password":true,"vac":true,"version":"7757534","steam_id":85568392925397856,"keywords":["cp","nocrits","nodmgspread","uncletopia"],"game_id":440,"stv_port":27066,"stv_name":"Uncletopia | Warsaw | 6 | Community | STV","players":null}]}