{"status":true,"message":"","result":[{"server_id":9,"name":"Uncletopia | Atlanta | 1 | All Maps","name_short":"atl-1","host":"atl-1.us.uncletopia.com","port":27015,"enabled":true,"region":"us-east","cc":"us","latitude":33.753746,"longitude":-84.38633,"reserved":0,"last_update":"0001-01-01T00:00:00Z","name_a2s":"Uncletopia | Atlanta | 1 | All Maps","protocol":17,"map":"pl_borneo","folder":"tf","game":"Team Fortress","app_id":440,"player_count":24,"max_players":24,"Bots":0,"server_type":"Dedicated","server_os":"Linux","password":true,"vac":true,"version":"7961495","steam_id":85568392924469982,"keywords":["nocrits","nodmgspread","payload","uncletopia"],"game_id":440,"stv_port":27016,"stv_name":"Uncletopia | Atlanta | 1 | All Maps | STV","players":null},{"server_id":104,"name":"Uncletopia | Atlanta | 2 | All Maps","name_short":"atl-2","host":"atl-1.us.uncletopia.com","port":27025,"enabled":true,"region":"us-east","cc":"us","latitude":33.753746,"longitude":-84.38633,"reserved":0,"last_update":"0001-01-01T00:00:00Z","name_a2s":"Uncletopia | Atlanta | 2 | All Maps","protocol":17,"map":"pl_borneo","folder":"tf","game":"Team Fortress","app_id":440,"player_count":24,"max_players":24,"Bots":0,"server_type":"Dedicated","server_os":"Linux","password":true,"vac":true,"version":"7961495","steam_id":85568392924469983,"keywords":["nocrits","nodmgspread","payload","uncletopia"],"game_id":440,"stv_port":27026,"stv_name":"Uncletopia | Atlanta | 2 | All Maps | STV","players":null},{"server_id":400,"name":"Uncletopia | Atlanta | 3 | All Maps","name_short":"atl-3","host":"atl-1.us.uncletopia.com","port":27035,"enabled":true,"region":"us-east","cc":"us","latitude":33.753746,"longitude":-84.38633,"reserved":0,"last_update":"0001-01-01T00:00:00Z","name_a2s":"Uncletopia | Atlanta | 3 | All Maps","protocol":17,"map":"pl_pier","folder":"tf","game":"Team Fortress","app_id":440,"player_count":0,"max_players":24,"Bots":0,"server_type":"Dedicated","server_os":"Linux","password":true,"vac":true,"version":"7961495","steam_id":85568392924515187,"keywords":["nocrits","nodmgspread","payload","uncletopia"],"game_id":440,"stv_port":27036,"stv_name":"Uncletopia | Atlanta | 3 | All Maps | STV","players":null},{"server_id":401,"name":"Uncletopia | Atlanta | 4 | Community","name_short":"atl-4","host":"atl-1.us.uncletopia.com","port":27045,"enabled":true,"region":"us-east","cc":"us","latitude":33.753746,"longitude":-84.38633,"reserved":0,"last_update":"0001-01-01T00:00:00Z","name_a2s":"Uncletopia | Atlanta | 4 | Community","protocol":17,"map":"cp_dustbowl","folder":"tf","game":"Team Fortress","app_id":440,"player_count":0,"max_players":24,"Bots":0,"server_type":"Dedicated","server_os":"Linux","password":true,"vac":true,"version":"7961495","steam_id":85568392924515188,"keywords":["cp","nocrits","nodmgspread","uncletopia"],"game_id":440,"stv_port":27046,"stv_name":"Uncletopia | Atlanta | 4 | Community | STV","players":null},{"server_id":2,"name":"Uncletopia | Chicago | 1 | All Maps","name_short":"chi-1","host":"chi-1.us.uncletopia.com","port":27015,"enabled":true,"region":"us-central","cc":"us","latitude":41.881832,"longitude":-87.62318,"reserved":0,"last_update":"0001-01-01T00:00:00Z","name_a2s":"Uncletopia | Chicago | 1 | All Maps","protocol":17,"map":"pl_frontier_final","folder":"tf","game":"Team Fortress","app_id":440,"player_count":24,"max_players":24,"Bots":0,"server_type":"Dedicated","server_os":"Linux","password":true,"vac":true,"version":"7961495","steam_id":85568392924469984,"keywords":["nocrits","nodmgspread","payload","uncletopia"],"game_id":440,"stv_port":27016,"stv_name":"Uncletopia | Chicago | 1 | All Maps | STV","players":[{"user_id":417,"name":"Core Grind","steam_id":76561198354108114,"connected_time":1376000000000,"state":"active","ping":80},{"user_id":420,"name":"TATARA","steam_id":76561199098759517,"connected_time":1263000000000,"state":"active","ping":134},{"user_id":435,"name":"Provocator","steam_id":76561197961830410,"connected_time":257000000000,"state":"active","ping":93},{"user_id":432,"name":"Pinhead Larry","steam_id":76561199088542196,"connected_time":532000000000,"state":"active","ping":58},{"user_id":427,"name":"Navis","steam_id":76561198996230924,"connected_time":602000000000,"state":"active","ping":53},{"user_id":428,"name":"custodian","steam_id":76561198058793778,"connected_time":591000000000,"state":"active","ping":65},{"user_id":439,"name":"THOTDADDY","steam_id":76561198069868942,"connected_time":11000000000,"state":"spawning","ping":74},{"user_id":440,"name":"-œÄ- BakaD","steam_id":76561197960559169,"connected_time":5000000000,"state":"active","ping":61},{"user_id":424,"name":"Mank","steam_id":76561198189421005,"connected_time":709000000000,"state":"active","ping":46},{"user_id":400,"name":"PKBEAST_7","steam_id":76561198177136537,"connected_time":2124000000000,"state":"active","ping":86},{"user_id":436,"name":"RPGnoob","steam_id":76561198384913758,"connected_time":244000000000,"state":"active","ping":75},{"user_id":430,"name":"A better name","steam_id":76561198357330520,"connected_time":567000000000,"state":"active","ping":91},{"user_id":405,"name":"I haven't even begun to peak","steam_id":76561198022302843,"connected_time":1746000000000,"state":"active","ping":77},{"user_id":438,"name":"cowboy","steam_id":76561199079124758,"connected_time":81000000000,"state":"active","ping":58},{"user_id":397,"name":"Lunartik","steam_id":76561199004827382,"connected_time":2395000000000,"state":"active","ping":68},{"user_id":406,"name":"Mehman","steam_id":76561199020244051,"connected_time":1736000000000,"state":"active","ping":99},{"user_id":379,"name":"Sergeant Joker #savetf2","steam_id":76561198854616604,"connected_time":3257000000000,"state":"active","ping":63},{"user_id":437,"name":"Medic Bag","steam_id":76561198403209900,"connected_time":102000000000,"state":"active","ping":59},{"user_id":419,"name":"jimmyfnaf172198yay","steam_id":76561198311446636,"connected_time":1278000000000,"state":"active","ping":60},{"user_id":389,"name":"Rat_Kisser","steam_id":76561198129883955,"connected_time":2771000000000,"state":"active","ping":77},{"user_id":431,"name":"TeaCat","steam_id":76561198814841367,"connected_time":565000000000,"state":"active","ping":62},{"user_id":421,"name":"Green Mario","steam_id":76561198922644496,"connected_time":1245000000000,"state":"active","ping":89},{"user_id":414,"name":"Hey","steam_id":76561198447517893,"connected_time":1542000000000,"state":"active","ping":84},{"user_id":403,"name":"PK_Lawnmower","steam_id":76561198145324531,"connected_time":1840000000000,"state":"active","ping":74}]},{"server_id":106,"name":"Uncletopia | Chicago | 2 | All Maps","name_short":"chi-2","host":"chi-1.us.uncletopia.com","port":27025,"enabled":true,"region":"us-central","cc":"us","latitude":41.881832,"longitude":-87.62318,"reserved":0,"last_update":"0001-01-01T00:00:00Z","name_a2s":"Uncletopia | Chicago | 2 | All Maps","protocol":17,"map":"pl_upward","folder":"tf","game":"Team Fortress","app_id":440,"player_count":24,"max_players":24,"Bots":0,"server_type":"Dedicated","server_os":"Linux","password":true,"vac":true,"version":"7961495","steam_id":85568392924469985,"keywords":["nocrits","nodmgspread","payload","uncletopia"],"game_id":440,"stv_port":27026,"stv_name":"Uncletopia | Chicago | 2 | All Maps | STV","players":[{"user_id":324,"name":"Keymaster","steam_id":76561198881514228,"connected_time":700000000000,"state":"active","ping":75},{"user_id":291,"name":"god loves you","steam_id":76561198066619792,"connected_time":2024000000000,"state":"active","ping":72},{"user_id":307,"name":"Willy","steam_id":76561198046508940,"connected_time":1121000000000,"state":"active","ping":71},{"user_id":326,"name":"Crystall","steam_id":76561198346607700,"connected_time":638000000000,"state":"active","ping":70},{"user_id":286,"name":"Grumpicake","steam_id":76561198292927842,"connected_time":2272000000000,"state":"active","ping":71},{"user_id":295,"name":"cacos","steam_id":76561199130242847,"connected_time":1888000000000,"state":"active","ping":104},{"user_id":323,"name":"caption cool","steam_id":76561197990612056,"connected_time":741000000000,"state":"active","ping":38},{"user_id":302,"name":"falls","steam_id":76561198278436346,"connected_time":1447000000000,"state":"active","ping":60},{"user_id":298,"name":"bdlance","steam_id":76561198218846360,"connected_time":1681000000000,"state":"active","ping":54},{"user_id":304,"name":"pump","steam_id":76561198071705442,"connected_time":1279000000000,"state":"active","ping":70},{"user_id":305,"name":"Hugs","steam_id":76561198062726277,"connected_time":1144000000000,"state":"active","ping":60},{"user_id":306,"name":"dunk","steam_id":76561198132476501,"connected_time":1129000000000,"state":"active","ping":52},{"user_id":325,"name":"niche","steam_id":76561198320793517,"connected_time":657000000000,"state":"active","ping":60},{"user_id":310,"name":"Skeleton Hotel","steam_id":76561198041704727,"connected_time":1082000000000,"state":"active","ping":56},{"user_id":328,"name":"A Puppy","steam_id":76561198828184456,"connected_time":441000000000,"state":"active","ping":60},{"user_id":312,"name":"UNCLE RUCKUS","steam_id":76561199380604147,"connected_time":1043000000000,"state":"active","ping":59},{"user_id":329,"name":"Levi","steam_id":76561198089832776,"connected_time":16000000000,"state":"spawning","ping":71},{"user_id":313,"name":"SolmonFish","steam_id":76561198942169006,"connected_time":1001000000000,"state":"active","ping":82},{"user_id":322,"name":"The new day","steam_id":76561198855144603,"connected_time":752000000000,"state":"active","ping":57},{"user_id":315,"name":"Wehttam","steam_id":76561199229493583,"connected_time":959000000000,"state":"active","ping":91},{"user_id":318,"name":"I-die-often","steam_id":76561197996780327,"connected_time":913000000000,"state":"active","ping":70},{"user_id":317,"name":"Patton","steam_id":76561198087871688,"connected_time":916000000000,"state":"active","ping":54},{"user_id":327,"name":"lol","steam_id":76561199099376333,"connected_time":635000000000,"state":"active","ping":111},{"user_id":320,"name":"AkimboAoki","steam_id":76561198158323058,"connected_time":849000000000,"state":"active","ping":100}]},{"server_id":402,"name":"Uncletopia | Chicago | 3 | All Maps","name_short":"chi-3","host":"chi-1.us.uncletopia.com","port":27035,"enabled":true,"region":"us-central","cc":"us","latitude":41.881832,"longitude":-87.62318,"reserved":0,"last_update":"0001-01-01T00:00:00Z","name_a2s":"Uncletopia | Chicago | 3 | All Maps","protocol":17,"map":"pl_snowycoast","folder":"tf","game":"Team Fortress","app_id":440,"player_count":24,"max_players":24,"Bots":0,"server_type":"Dedicated","server_os":"Linux","password":true,"vac":true,"version":"7961495","steam_id":85568392924515191,"keywords":["nocrits","nodmgspread","payload","uncletopia"],"game_id":440,"stv_port":27036,"stv_name":"Uncletopia | Chicago | 3 | All Maps | STV","players":[{"user_id":32,"name":"[82DK] Ike","steam_id":76561198135256526,"connected_time":3534000000000,"state":"active","ping":88},{"user_id":33,"name":"Mortal Flame","steam_id":76561198130698418,"connected_time":3524000000000,"state":"active","ping":81},{"user_id":34,"name":"Artyom","steam_id":76561198132986712,"connected_time":3489000000000,"state":"active","ping":101},{"user_id":43,"name":"Michaelfirefox","steam_id":76561198060462079,"connected_time":2462000000000,"state":"active","ping":115},{"user_id":44,"name":"Thequirka","steam_id":76561198968058652,"connected_time":2459000000000,"state":"active","ping":99},{"user_id":78,"name":"Boomer Gaming","steam_id":76561198037803087,"connected_time":687000000000,"state":"active","ping":72},{"user_id":73,"name":"Frank","steam_id":76561198428759980,"connected_time":971000000000,"state":"active","ping":81},{"user_id":82,"name":"Five","steam_id":76561198026640473,"connected_time":246000000000,"state":"active","ping":65},{"user_id":80,"name":"Penrose42","steam_id":76561198288577396,"connected_time":508000000000,"state":"active","ping":91},{"user_id":54,"name":"Trubuckifan","steam_id":76561197990991360,"connected_time":1697000000000,"state":"active","ping":83},{"user_id":47,"name":"Smile from God","steam_id":76561198032663494,"connected_time":2352000000000,"state":"active","ping":65},{"user_id":57,"name":"Dreszerg","steam_id":76561198838757422,"connected_time":1514000000000,"state":"active","ping":82},{"user_id":74,"name":"Malibu","steam_id":76561199141321381,"connected_time":946000000000,"state":"active","ping":97},{"user_id":75,"name":"a fool","steam_id":76561198097857418,"connected_time":896000000000,"state":"active","ping":91},{"user_id":62,"name":"Lawn Mower","steam_id":76561199029189825,"connected_time":1292000000000,"state":"active","ping":63},{"user_id":64,"name":"Rhutebeer","steam_id":76561198018302761,"connected_time":1163000000000,"state":"active","ping":103},{"user_id":65,"name":"PyroTechno","steam_id":76561198060929872,"connected_time":1117000000000,"state":"active","ping":67},{"user_id":77,"name":"my name jeff","steam_id":76561198179816898,"connected_time":773000000000,"state":"active","ping":77},{"user_id":67,"name":"gaming time","steam_id":76561198960683356,"connected_time":1094000000000,"state":"active","ping":74},{"user_id":68,"name":"garette‚Ñ¢","steam_id":76561198330911140,"connected_time":1078000000000,"state":"active","ping":89},{"user_id":83,"name":"SURRENDER FREEMEN","steam_id":76561198072277956,"connected_time":71000000000,"state":"active","ping":107},{"user_id":70,"name":"Soda","steam_id":76561198219209367,"connected_time":1068000000000,"state":"active","ping":66},{"user_id":79,"name":"vekinuma","steam_id":76561198946972267,"connected_time":568000000000,"state":"active","ping":79},{"user_id":72,"name":"Festive Panda","steam_id":76561198025758017,"connected_time":1054000000000,"state":"active","ping":56}]},{"server_id":403,"name":"Uncletopia | Chicago | 4 | All Maps","name_short":"chi-4","host":"chi-1.us.uncletopia.com","port":27045,"enabled":true,"region":"us-central","cc":"us","latitude":41.881832,"longitude":-87.62318,"reserved":0,"last_update":"0001-01-01T00:00:00Z","name_a2s":"Uncletopia | Chicago | 4 | All Maps","protocol":17,"map":"pl_swiftwater_final1","folder":"tf","game":"Team Fortress","app_id":440,"player_count":24,"max_players":24,"Bots":0,"server_type":"Dedicated","server_os":"Linux","password":true,"vac":true,"version":"7961495","steam_id":85568392924515193,"keywords":["nocrits","nodmgspread","payload","uncletopia"],"game_id":440,"stv_port":27046,"stv_name":"Uncletopia | Chicago | 4 | All Maps | STV","players":[{"user_id":416,"name":"mel0n","steam_id":76561198034817244,"connected_time":48000000000,"state":"active","ping":60},{"user_id":298,"name":"177013","steam_id":76561198072303290,"connected_time":9967000000000,"state":"active","ping":61},{"user_id":410,"name":"DustBowl TF2","steam_id":76561199171572966,"connected_time":649000000000,"state":"active","ping":40},{"user_id":411,"name":"femtofarad‚Ñ¢","steam_id":76561198308583053,"connected_time":646000000000,"state":"active","ping":85},{"user_id":409,"name":"FAT medic (Real)","steam_id":76561198084582998,"connected_time":672000000000,"state":"active","ping":72},{"user_id":391,"name":"TheSnipersHat","steam_id":76561198057684066,"connected_time":2320000000000,"state":"active","ping":60},{"user_id":314,"name":"dick kickem (real)","steam_id":76561198084335030,"connected_time":9522000000000,"state":"active","ping":81},{"user_id":408,"name":"[NAME-REDACTED]","steam_id":76561198035682975,"connected_time":1207000000000,"state":"active","ping":67},{"user_id":347,"name":"Zamich","steam_id":76561198170659337,"connected_time":5859000000000,"state":"active","ping":70},{"user_id":401,"name":"glorpo male","steam_id":76561198110320334,"connected_time":1617000000000,"state":"active","ping":62},{"user_id":380,"name":"big joe's car company","steam_id":76561198204995668,"connected_time":3398000000000,"state":"active","ping":77},{"user_id":394,"name":"0100101101100001011100100110110","steam_id":76561198034028769,"connected_time":2188000000000,"state":"active","ping":64},{"user_id":385,"name":"catface","steam_id":76561198096347625,"connected_time":3177000000000,"state":"active","ping":76},{"user_id":395,"name":"dulg","steam_id":76561198127640309,"connected_time":2182000000000,"state":"active","ping":87},{"user_id":415,"name":"pele","steam_id":76561198021224745,"connected_time":207000000000,"state":"active","ping":58},{"user_id":412,"name":"503","steam_id":76561198211225164,"connected_time":616000000000,"state":"active","ping":87},{"user_id":414,"name":"Oni","steam_id":76561198112066584,"connected_time":574000000000,"state":"active","ping":64},{"user_id":389,"name":"giant_dork","steam_id":76561199105606956,"connected_time":2933000000000,"state":"active","ping":72},{"user_id":306,"name":"YeetethYoteth","steam_id":76561198957396090,"connected_time":9707000000000,"state":"active","ping":63},{"user_id":316,"name":"Chunk Stuffer","steam_id":76561198856508573,"connected_time":9495000000000,"state":"active","ping":59},{"user_id":390,"name":"OctillionaireSigmaMale","steam_id":76561198816005207,"connected_time":2587000000000,"state":"active","ping":82},{"user_id":387,"name":"Kev","steam_id":76561198310880776,"connected_time":3025000000000,"state":"active","ping":77},{"user_id":417,"name":"Gobl1n","steam_id":76561198808610991,"connected_time":11000000000,"state":"active","ping":87},{"user_id":407,"name":"HoodooHooligan","steam_id":76561198372836206,"connected_time":1230000000000,"state":"active","ping":61}]},{"server_id":36,"name":"Uncletopia | Chicago | 5 | All Maps","name_short":"chi-5","host":"chi-2.us.uncletopia.com","port":27015,"enabled":true,"region":"us-central","cc":"us","latitude":41.881832,"longitude":-87.62318,"reserved":0,"last_update":"0001-01-01T00:00:00Z","name_a2s":"Uncletopia | Chicago | 5 | All Maps","protocol":17,"map":"pl_barnblitz","folder":"tf","game":"Team Fortress","app_id":440,"player_count":0,"max_players":24,"Bots":0,"server_type":"Dedicated","server_os":"Linux","password":true,"vac":true,"version":"7961495","steam_id":85568392924866362,"keywords":["nocrits","nodmgspread","payload","uncletopia"],"game_id":440,"stv_port":27016,"stv_name":"Uncletopia | Chicago | 5 | All Maps | STV","players":null},{"server_id":37,"name":"Uncletopia | Chicago | 6 | All Maps","name_short":"chi-6","host":"chi-2.us.uncletopia.com","port":27025,"enabled":true,"region":"us-central","cc":"us","latitude":41.881832,"longitude":-87.62318,"reserved":0,"last_update":"0001-01-01T00:00:00Z","name_a2s":"Uncletopia | Chicago | 6 | All Maps","protocol":17,"map":"cp_altitude","folder":"tf","game":"Team Fortress","app_id":440,"player_count":24,"max_players":24,"Bots":0,"server_type":"Dedicated","server_os":"Linux","password":true,"vac":true,"version":"7961495","steam_id":85568392924866363,"keywords":["cp","nocrits","nodmgspread","uncletopia"],"game_id":440,"stv_port":27026,"stv_name":"Uncletopia | Chicago | 6 | All Maps | STV","players":[{"user_id":296,"name":"CrazyKermitRubes","steam_id":76561198009065204,"connected_time":1660000000000,"state":"active","ping":84},{"user_id":306,"name":"CamSoup","steam_id":76561198202483168,"connected_time":1533000000000,"state":"active","ping":71},{"user_id":325,"name":"Fightin Cow","steam_id":76561198080941486,"connected_time":391000000000,"state":"active","ping":82},{"user_id":300,"name":"RAWRWAIFU","steam_id":76561198032118386,"connected_time":1634000000000,"state":"active","ping":96},{"user_id":328,"name":"I MISS FAUNA","steam_id":76561198045144546,"connected_time":131000000000,"state":"active","ping":85},{"user_id":269,"name":"Park","steam_id":76561198057222814,"connected_time":3648000000000,"state":"active","ping":61},{"user_id":301,"name":"general.b","steam_id":76561198162480519,"connected_time":1624000000000,"state":"active","ping":57},{"user_id":295,"name":"aiden","steam_id":76561198449527009,"connected_time":1680000000000,"state":"active","ping":90},{"user_id":324,"name":"Joe Family guy","steam_id":76561198065327106,"connected_time":415000000000,"state":"active","ping":67},{"user_id":314,"name":"Person","steam_id":76561198093244204,"connected_time":1012000000000,"state":"active","ping":75},{"user_id":292,"name":"blobb","steam_id":76561198950448488,"connected_time":1992000000000,"state":"active","ping":55},{"user_id":329,"name":"The Foolish Samurai","steam_id":76561198094494945,"connected_time":76000000000,"state":"active","ping":118},{"user_id":251,"name":"yoodle doodle","steam_id":76561198054897884,"connected_time":5961000000000,"state":"active","ping":74},{"user_id":326,"name":"Cipherlock | YT","steam_id":76561198075994493,"connected_time":343000000000,"state":"active","ping":61},{"user_id":273,"name":"lil guy","steam_id":76561198030786504,"connected_time":3118000000000,"state":"active","ping":95},{"user_id":311,"name":"Ridley","steam_id":76561198248615662,"connected_time":1165000000000,"state":"active","ping":116},{"user_id":327,"name":"battle clown","steam_id":76561198045788371,"connected_time":166000000000,"state":"active","ping":67},{"user_id":320,"name":"Plant Enthusiast","steam_id":76561198045718960,"connected_time":832000000000,"state":"active","ping":63},{"user_id":315,"name":"Okpar","steam_id":76561199221067945,"connected_time":988000000000,"state":"active","ping":100},{"user_id":317,"name":"starwarstg4","steam_id":76561198819508237,"connected_time":912000000000,"state":"active","ping":134},{"user_id":282,"name":"Kobold With A Gun","steam_id":76561199160414689,"connected_time":2856000000000,"state":"active","ping":73},{"user_id":298,"name":"Jazz2T","steam_id":76561198154418867,"connected_time":1655000000000,"state":"active","ping":111},{"user_id":321,"name":"General Mightyian11","steam_id":76561199125278476,"connected_time":739000000000,"state":"active","ping":69},{"user_id":299,"name":"horse","steam_id":76561198115578117,"connected_time":1653000000000,"state":"active","ping":83}]},{"server_id":38,"name":"Uncletopia | Chicago | 7 | Stopwatch Beta","name_short":"chi-7","host":"chi-2.us.uncletopia.com","port":27035,"enabled":true,"region":"us-central","cc":"us","latitude":41.881832,"longitude":-87.62318,"reserved":0,"last_update":"0001-01-01T00:00:00Z","name_a2s":"Uncletopia | Chicago | 7 | Stopwatch Beta","protocol":17,"map":"pl_borneo","folder":"tf","game":"Team Fortress","app_id":440,"player_count":0,"max_players":24,"Bots":0,"server_type":"Dedicated","server_os":"Linux","password":true,"vac":true,"version":"7961495","steam_id":85568392924866364,"keywords":["nocrits","nodmgspread","payload","uncletopia"],"game_id":440,"stv_port":27036,"stv_name":"Uncletopia | Chicago | 7 | Stopwatch Beta | STV","players":null},{"server_id":39,"name":"Uncletopia | Chicago | 8 | Community","name_short":"chi-8","host":"chi-2.us.uncletopia.com","port":27045,"enabled":true,"region":"us-central","cc":"us","latitude":41.881832,"longitude":-87.62318,"reserved":0,"last_update":"0001-01-01T00:00:00Z","name_a2s":"Uncletopia | Chicago | 8 | Community","protocol":17,"map":"pl_barnblitz","folder":"tf","game":"Team Fortress","app_id":440,"player_count":0,"max_players":24,"Bots":0,"server_type":"Dedicated","server_os":"Linux","password":true,"vac":true,"version":"7961495","steam_id":85568392924866365,"keywords":["nocrits","nodmgspread","payload","uncletopia"],"game_id":440,"stv_port":27046,"stv_name":"Uncletopia | Chicago | 8 | Community | STV","players":null},{"server_id":8,"name":"Uncletopia | Dallas | 1 | All Maps","name_short":"dal-1","host":"dal-1.us.uncletopia.com","port":27015,"enabled":true,"region":"us-central","cc":"us","latitude":32.779167,"longitude":-96.80889,"reserved":0,"last_update":"0001-01-01T00:00:00Z","name_a2s":"Uncletopia | Dallas | 1 | All Maps","protocol":17,"map":"pl_swiftwater_final1","folder":"tf","game":"Team Fortress","app_id":440,"player_count":12,"max_players":24,"Bots":0,"server_type":"Dedicated","server_os":"Linux","password":true,"vac":true,"version":"7961495","steam_id":85568392924469986,"keywords":["nocrits","nodmgspread","payload","uncletopia"],"game_id":440,"stv_port":27016,"stv_name":"Uncletopia | Dallas | 1 | All Maps | STV","players":[{"user_id":221,"name":"Emberdened","steam_id":76561199163688421,"connected_time":496000000000,"state":"active","ping":71},{"user_id":224,"name":"davidj","steam_id":76561199251324883,"connected_time":136000000000,"state":"spawning","ping":118},{"user_id":225,"name":"Kermit","steam_id":76561198034559979,"connected_time":110000000000,"state":"active","ping":82},{"user_id":228,"name":"Hot Dog 7","steam_id":76561198080859660,"connected_time":12000000000,"state":"active","ping":289},{"user_id":209,"name":"Gamerfan64","steam_id":76561198801410962,"connected_time":1300000000000,"state":"active","ping":47},{"user_id":226,"name":"dolph","steam_id":76561198341304816,"connected_time":106000000000,"state":"active","ping":96},{"user_id":227,"name":"PintSized","steam_id":76561199077031492,"connected_time":102000000000,"state":"active","ping":86},{"user_id":191,"name":"Dallas","steam_id":76561198066542919,"connected_time":2773000000000,"state":"active","ping":115},{"user_id":222,"name":"Mad{}Mouse","steam_id":76561198162576354,"connected_time":450000000000,"state":"active","ping":77},{"user_id":199,"name":"Slepii","steam_id":76561198881786224,"connected_time":2480000000000,"state":"active","ping":63},{"user_id":214,"name":"foxgamer217","steam_id":76561199069245916,"connected_time":1162000000000,"state":"active","ping":79},{"user_id":216,"name":"se√±ora","steam_id":76561199353185652,"connected_time":1151000000000,"state":"active","ping":117}]},{"server_id":108,"name":"Uncletopia | Dallas | 2 | All Maps","name_short":"dal-2","host":"dal-1.us.uncletopia.com","port":27025,"enabled":true,"region":"us-central","cc":"us","latitude":32.779167,"longitude":-96.80889,"reserved":0,"last_update":"0001-01-01T00:00:00Z","name_a2s":"Uncletopia | Dallas | 2 | All Maps","protocol":17,"map":"koth_cascade","folder":"tf","game":"Team Fortress","app_id":440,"player_count":24,"max_players":24,"Bots":0,"server_type":"Dedicated","server_os":"Linux","password":true,"vac":true,"version":"7961495","steam_id":85568392924469988,"keywords":["cp","nocrits","nodmgspread","uncletopia"],"game_id":440,"stv_port":27026,"stv_name":"Uncletopia | Dallas | 2 | All Maps | STV","players":[{"user_id":120,"name":"Triwq","steam_id":76561198054810406,"connected_time":688000000000,"state":"active","ping":45},{"user_id":137,"name":"zinqi","steam_id":76561198376838848,"connected_time":77000000000,"state":"active","ping":113},{"user_id":138,"name":"Dude","steam_id":76561199058616824,"connected_time":74000000000,"state":"active","ping":71},{"user_id":65,"name":"Sup m8","steam_id":76561198081659121,"connected_time":3920000000000,"state":"active","ping":45},{"user_id":103,"name":"Workplace Daydreamer","steam_id":76561199230019748,"connected_time":1416000000000,"state":"active","ping":81},{"user_id":98,"name":"Slashes","steam_id":76561197968573499,"connected_time":1655000000000,"state":"active","ping":81},{"user_id":129,"name":"trash beast","steam_id":76561198015792736,"connected_time":306000000000,"state":"active","ping":76},{"user_id":121,"name":"Gavil√°n","steam_id":76561198285212453,"connected_time":675000000000,"state":"active","ping":74},{"user_id":114,"name":"turnip","steam_id":76561197999375941,"connected_time":1031000000000,"state":"active","ping":60},{"user_id":134,"name":"Kirby.exe","steam_id":76561198242714582,"connected_time":145000000000,"state":"active","ping":56},{"user_id":92,"name":"OrangeSodaMachine","steam_id":76561198079230156,"connected_time":2063000000000,"state":"active","ping":75},{"user_id":122,"name":"NayLind","steam_id":76561198797896810,"connected_time":644000000000,"state":"active","ping":54},{"user_id":127,"name":"Amigo de Videojuegos","steam_id":76561198125965363,"connected_time":465000000000,"state":"active","ping":43},{"user_id":30,"name":"A Fruit","steam_id":76561198951830050,"connected_time":6789000000000,"state":"active","ping":48},{"user_id":96,"name":"AnimeHjonker989","steam_id":76561199122139727,"connected_time":1704000000000,"state":"active","ping":74},{"user_id":97,"name":"Joe For Mayor","steam_id":76561198399003970,"connected_time":1679000000000,"state":"active","ping":74},{"user_id":123,"name":"GojoPreto","steam_id":76561198979348045,"connected_time":626000000000,"state":"active","ping":96},{"user_id":101,"name":"Blubbering Toad","steam_id":76561199489855499,"connected_time":1528000000000,"state":"active","ping":124},{"user_id":102,"name":"Klip","steam_id":76561198316254429,"connected_time":1482000000000,"state":"active","ping":57},{"user_id":136,"name":"literally tyler durden","steam_id":76561199014628655,"connected_time":115000000000,"state":"active","ping":60},{"user_id":118,"name":"JtsRes","steam_id":76561197994809241,"connected_time":737000000000,"state":"active","ping":101},{"user_id":139,"name":"PowerGem3000","steam_id":76561198944644691,"connected_time":40000000000,"state":"active","ping":81},{"user_id":63,"name":"Petebros","steam_id":76561198892196829,"connected_time":4094000000000,"state":"active","ping":88},{"user_id":116,"name":"eryn üó∫","steam_id":76561198004433070,"connected_time":870000000000,"state":"active","ping":60}]},{"server_id":404,"name":"Uncletopia | Dallas | 3 | All Maps","name_short":"dal-3","host":"dal-1.us.uncletopia.com","port":27035,"enabled":true,"region":"us-central","cc":"us","latitude":32.779167,"longitude":-96.80889,"reserved":0,"last_update":"0001-01-01T00:00:00Z","name_a2s":"Uncletopia | Dallas | 3 | All Maps","protocol":17,"map":"koth_highpass","folder":"tf","game":"Team Fortress","app_id":440,"player_count":0,"max_players":24,"Bots":0,"server_type":"Dedicated","server_os":"Linux","password":true,"vac":true,"version":"7961495","steam_id":85568392924515219,"keywords":["cp","nocrits","nodmgspread","uncletopia"],"game_id":440,"stv_port":27036,"stv_name":"Uncletopia | Dallas | 3 | All Maps | STV","players":null},{"server_id":405,"name":"Uncletopia | Dallas | 4 | Community","name_short":"dal-4","host":"dal-1.us.uncletopia.com","port":27045,"enabled":true,"region":"us-central","cc":"us","latitude":32.779167,"longitude":-96.80889,"reserved":0,"last_update":"0001-01-01T00:00:00Z","name_a2s":"Uncletopia | Dallas | 4 | Community","protocol":17,"map":"workshop/cp_kalinka_rc6a.ugc1272700588","folder":"tf","game":"Team Fortress","app_id":440,"player_count":0,"max_players":24,"Bots":0,"server_type":"Dedicated","server_os":"Linux","password":true,"vac":true,"version":"7961495","steam_id":85568392924515220,"keywords":["cp","nocrits","nodmgspread","uncletopia"],"game_id":440,"stv_port":27046,"stv_name":"Uncletopia | Dallas | 4 | Community | STV","players":null},{"server_id":5,"name":"Uncletopia | Frankfurt | 1 | All Maps","name_short":"frk-1","host":"frk-1.de.uncletopia.com","port":27015,"enabled":true,"region":"eu","cc":"de","latitude":50.110924,"longitude":8.682127,"reserved":0,"last_update":"0001-01-01T00:00:00Z","name_a2s":"Uncletopia | Frankfurt | 1 | All Maps","protocol":17,"map":"pl_swiftwater_final1","folder":"tf","game":"Team Fortress","app_id":440,"player_count":24,"max_players":24,"Bots":0,"server_type":"Dedicated","server_os":"Linux","password":true,"vac":true,"version":"7961495","steam_id":85568392924469989,"keywords":["nocrits","nodmgspread","payload","uncletopia"],"game_id":440,"stv_port":27016,"stv_name":"Uncletopia | Frankfurt | 1 | All Maps | STV","players":[{"user_id":954,"name":"thomas3003","steam_id":76561198209860039,"connected_time":141000000000,"state":"active","ping":57},{"user_id":959,"name":"highest noon","steam_id":76561199103959197,"connected_time":115000000000,"state":"active","ping":88},{"user_id":955,"name":"matej","steam_id":76561198242482338,"connected_time":126000000000,"state":"active","ping":63},{"user_id":894,"name":"Tone-Deaf Bard","steam_id":76561199261267271,"connected_time":1730000000000,"state":"active","ping":97},{"user_id":956,"name":"Predrag218","steam_id":76561199242439630,"connected_time":122000000000,"state":"active","ping":118},{"user_id":836,"name":"T–Ωunde–≥Cu–ø—Ç","steam_id":76561198135091800,"connected_time":2680000000000,"state":"active","ping":42},{"user_id":920,"name":"HUGO","steam_id":76561198317134996,"connected_time":1175000000000,"state":"active","ping":85},{"user_id":828,"name":"monke gaming","steam_id":76561198128028307,"connected_time":2931000000000,"state":"active","ping":95},{"user_id":928,"name":"Ducks","steam_id":76561198096092510,"connected_time":966000000000,"state":"active","ping":61},{"user_id":820,"name":"mohemmedmokhter2005","steam_id":76561199197650506,"connected_time":3210000000000,"state":"active","ping":104},{"user_id":939,"name":"Flashback","steam_id":76561197973978552,"connected_time":726000000000,"state":"active","ping":70},{"user_id":957,"name":"Grimbeard","steam_id":76561197961823531,"connected_time":121000000000,"state":"active","ping":59},{"user_id":726,"name":"Ceiling fan enthusiast","steam_id":76561197989214268,"connected_time":5132000000000,"state":"active","ping":67},{"user_id":958,"name":"Mza28","steam_id":76561198873993324,"connected_time":120000000000,"state":"active","ping":70},{"user_id":936,"name":"Naomi","steam_id":76561198060307235,"connected_time":776000000000,"state":"active","ping":68},{"user_id":753,"name":"Geoff the Oracle","steam_id":76561198053759965,"connected_time":4725000000000,"state":"active","ping":67},{"user_id":938,"name":"Jiipeeze","steam_id":76561198316154333,"connected_time":735000000000,"state":"active","ping":83},{"user_id":960,"name":"Dandolive","steam_id":76561199436592277,"connected_time":93000000000,"state":"active","ping":69},{"user_id":862,"name":"Testicular torsion","steam_id":76561198119547399,"connected_time":2235000000000,"state":"active","ping":57},{"user_id":910,"name":"Empyrean","steam_id":76561198138552502,"connected_time":1296000000000,"state":"active","ping":70},{"user_id":633,"name":"Carl","steam_id":76561198045638738,"connected_time":6663000000000,"state":"active","ping":66},{"user_id":952,"name":"Dr. Jabbinton","steam_id":76561198180007387,"connected_time":188000000000,"state":"active","ping":46},{"user_id":634,"name":"cheriberry","steam_id":76561198093577036,"connected_time":6661000000000,"state":"active","ping":51},{"user_id":949,"name":"Ë™∞„Åã„ÅåË¶ã„Å¶„ÅÑ„Çã","steam_id":76561198834913692,"connected_time":281000000000,"state":"active","ping":68}]},{"server_id":110,"name":"Uncletopia | Frankfurt | 2 | All Maps","name_short":"frk-2","host":"frk-1.de.uncletopia.com","port":27025,"enabled":true,"region":"eu","cc":"de","latitude":50.110924,"longitude":8.682127,"reserved":0,"last_update":"0001-01-01T00:00:00Z","name_a2s":"Uncletopia | Frankfurt | 2 | All Maps","protocol":17,"map":"cp_snakewater_final1","folder":"tf","game":"Team Fortress","app_id":440,"player_count":14,"max_players":24,"Bots":0,"server_type":"Dedicated","server_os":"Linux","password":true,"vac":true,"version":"7961495","steam_id":85568392924469990,"keywords":["cp","nocrits","nodmgspread","uncletopia"],"game_id":440,"stv_port":27026,"stv_name":"Uncletopia | Frankfurt | 2 | All Maps | STV","players":[{"user_id":447,"name":"niandits","steam_id":76561198419798900,"connected_time":264000000000,"state":"active","ping":125},{"user_id":448,"name":"Bes Dedarfs","steam_id":76561198261621643,"connected_time":260000000000,"state":"active","ping":40},{"user_id":450,"name":"i kill time","steam_id":76561199266547847,"connected_time":61000000000,"state":"active","ping":105},{"user_id":430,"name":"Pain in a Box","steam_id":76561197990777173,"connected_time":2198000000000,"state":"active","ping":98},{"user_id":431,"name":"robu","steam_id":76561198113874116,"connected_time":2121000000000,"state":"active","ping":70},{"user_id":445,"name":"Intimatt","steam_id":76561198066393546,"connected_time":449000000000,"state":"active","ping":69},{"user_id":446,"name":"Whackyone5588","steam_id":76561198846242972,"connected_time":382000000000,"state":"active","ping":121},{"user_id":451,"name":"≈ÅEPEK02","steam_id":76561198230715748,"connected_time":5000000000,"state":"spawning","ping":97},{"user_id":444,"name":"Cream","steam_id":76561198204266952,"connected_time":791000000000,"state":"active","ping":109},{"user_id":411,"name":"Arsonist","steam_id":76561199087953833,"connected_time":3335000000000,"state":"active","ping":96},{"user_id":438,"name":"Cava","steam_id":76561198054840118,"connected_time":1239000000000,"state":"active","ping":70},{"user_id":436,"name":"live funny joke reaction cam","steam_id":76561198346324423,"connected_time":1559000000000,"state":"active","ping":103},{"user_id":428,"name":"MadMatts","steam_id":76561198801690324,"connected_time":2593000000000,"state":"active","ping":59},{"user_id":422,"name":"Brisingaer","steam_id":76561198120707128,"connected_time":3018000000000,"state":"active","ping":172}]},{"server_id":308,"name":"Uncletopia | Frankfurt | 3 | All Maps","name_short":"frk-3","host":"frk-1.de.uncletopia.com","port":27035,"enabled":true,"region":"eu","cc":"de","latitude":50.110924,"longitude":8.682127,"reserved":0,"last_update":"0001-01-01T00:00:00Z","name_a2s":"Uncletopia | Frankfurt | 3 | All Maps","protocol":17,"map":"plr_hightower","folder":"tf","game":"Team Fortress","app_id":440,"player_count":24,"max_players":24,"Bots":0,"server_type":"Dedicated","server_os":"Linux","password":true,"vac":true,"version":"7961495","steam_id":85568392924504274,"keywords":["nocrits","nodmgspread","payload","uncletopia"],"game_id":440,"stv_port":27036,"stv_name":"Uncletopia | Frankfurt | 3 | All Maps | STV","players":[{"user_id":247,"name":"Jucatron","steam_id":76561198044259577,"connected_time":644000000000,"state":"active","ping":87},{"user_id":239,"name":"SHARA–ìA","steam_id":76561198145055526,"connected_time":1234000000000,"state":"active","ping":120},{"user_id":158,"name":"Rune","steam_id":76561198066157645,"connected_time":8308000000000,"state":"active","ping":54},{"user_id":216,"name":"Toxic_Cicity","steam_id":76561198165753440,"connected_time":4232000000000,"state":"active","ping":84},{"user_id":248,"name":"Federal Republic of Yugoslavia","steam_id":76561198883033062,"connected_time":574000000000,"state":"active","ping":95},{"user_id":173,"name":"Spine fluid","steam_id":76561198180020222,"connected_time":7627000000000,"state":"active","ping":70},{"user_id":240,"name":"Skatnaset","steam_id":76561198298457353,"connected_time":1170000000000,"state":"active","ping":84},{"user_id":241,"name":"Osmo","steam_id":76561199286764992,"connected_time":1162000000000,"state":"active","ping":74},{"user_id":245,"name":"Mak≈Çowicz","steam_id":76561198281831506,"connected_time":757000000000,"state":"active","ping":75},{"user_id":209,"name":"MR BUBBLES","steam_id":76561198019005259,"connected_time":5141000000000,"state":"active","ping":101},{"user_id":233,"name":"he is coming","steam_id":76561198301907564,"connected_time":1488000000000,"state":"active","ping":74},{"user_id":213,"name":"Utkunator","steam_id":76561198967463151,"connected_time":4416000000000,"state":"active","ping":104},{"user_id":252,"name":"Husk","steam_id":76561198271808519,"connected_time":465000000000,"state":"active","ping":56},{"user_id":253,"name":"LE$KA","steam_id":76561198211434744,"connected_time":435000000000,"state":"active","ping":83},{"user_id":229,"name":"Archive","steam_id":76561198071255385,"connected_time":1585000000000,"state":"active","ping":88},{"user_id":171,"name":"Wade Wilson's Spoilt C4","steam_id":76561198013884709,"connected_time":7695000000000,"state":"active","ping":80},{"user_id":147,"name":"Not a Sober Person","steam_id":76561198042593027,"connected_time":9089000000000,"state":"active","ping":86},{"user_id":235,"name":"Just_another_zombie","steam_id":76561198375305253,"connected_time":1402000000000,"state":"active","ping":133},{"user_id":236,"name":"Borloxos","steam_id":76561198123110073,"connected_time":1385000000000,"state":"active","ping":62},{"user_id":237,"name":"Jake from State Farm #Save TF2","steam_id":76561198277987173,"connected_time":1372000000000,"state":"active","ping":157},{"user_id":254,"name":"sloppy transgirl toppy","steam_id":76561198057092208,"connected_time":378000000000,"state":"active","ping":60},{"user_id":255,"name":"Lag","steam_id":76561198159360376,"connected_time":316000000000,"state":"active","ping":55},{"user_id":244,"name":"Chef","steam_id":76561198392489772,"connected_time":1022000000000,"state":"active","ping":56},{"user_id":207,"name":"Romultra","steam_id":76561198354105082,"connected_time":5761000000000,"state":"active","ping":45}]},{"server_id":309,"name":"Uncletopia | Frankfurt | 4 | All Maps","name_short":"frk-4","host":"frk-1.de.uncletopia.com","port":27045,"enabled":true,"region":"eu","cc":"de","latitude":50.110924,"longitude":8.682127,"reserved":0,"last_update":"0001-01-01T00:00:00Z","name_a2s":"Uncletopia | Frankfurt | 4 | All Maps","protocol":17,"map":"pl_badwater","folder":"tf","game":"Team Fortress","app_id":440,"player_count":24,"max_players":24,"Bots":0,"server_type":"Dedicated","server_os":"Linux","password":true,"vac":true,"version":"7961495","steam_id":85568392924504275,"keywords":["nocrits","nodmgspread","payload","uncletopia"],"game_id":440,"stv_port":27046,"stv_name":"Uncletopia | Frankfurt | 4 | All Maps | STV","players":[{"user_id":727,"name":"quarks and stuff","steam_id":76561198137869662,"connected_time":2085000000000,"state":"active","ping":39},{"user_id":735,"name":"Galex","steam_id":76561198045637579,"connected_time":1678000000000,"state":"active","ping":45},{"user_id":738,"name":"Aspect","steam_id":76561198215661695,"connected_time":1602000000000,"state":"active","ping":135},{"user_id":737,"name":"capslocked","steam_id":76561198095960796,"connected_time":1625000000000,"state":"active","ping":59},{"user_id":715,"name":"Di","steam_id":76561198073471392,"connected_time":3423000000000,"state":"active","ping":56},{"user_id":754,"name":"mrk","steam_id":76561198120166752,"connected_time":267000000000,"state":"active","ping":70},{"user_id":734,"name":"‚òÜbladee‚òÜdior‚òÜf/w2016‚òÜ","steam_id":76561198082352159,"connected_time":1711000000000,"state":"active","ping":95},{"user_id":720,"name":"avalon","steam_id":76561198003212528,"connected_time":2589000000000,"state":"active","ping":61},{"user_id":736,"name":"Zedespook","steam_id":76561198265479349,"connected_time":1642000000000,"state":"active","ping":55},{"user_id":752,"name":"pine cone","steam_id":76561198168254686,"connected_time":513000000000,"state":"active","ping":100},{"user_id":740,"name":"Genesis | IDGAF","steam_id":76561198999652040,"connected_time":1520000000000,"state":"active","ping":45},{"user_id":741,"name":"doker","steam_id":76561198251840154,"connected_time":1486000000000,"state":"active","ping":60},{"user_id":755,"name":"matzi","steam_id":76561198038472045,"connected_time":251000000000,"state":"active","ping":61},{"user_id":749,"name":"Headless","steam_id":76561199093367930,"connected_time":620000000000,"state":"active","ping":80},{"user_id":719,"name":"Tichy‚òÜ","steam_id":76561198026218934,"connected_time":2733000000000,"state":"active","ping":49},{"user_id":750,"name":"I have no duck and I must quack","steam_id":76561198061920656,"connected_time":591000000000,"state":"active","ping":82},{"user_id":716,"name":"RainbowLlama","steam_id":76561198132079405,"connected_time":3264000000000,"state":"active","ping":63},{"user_id":714,"name":"Sand","steam_id":76561198103761268,"connected_time":3428000000000,"state":"active","ping":53},{"user_id":713,"name":"Summer ‚ô•","steam_id":76561198047723907,"connected_time":3470000000000,"state":"active","ping":58},{"user_id":666,"name":"FNF","steam_id":76561199151422826,"connected_time":6256000000000,"state":"active","ping":127},{"user_id":743,"name":"kaacper340","steam_id":76561198267621418,"connected_time":1440000000000,"state":"active","ping":67},{"user_id":744,"name":"8 Ball","steam_id":76561197960988736,"connected_time":929000000000,"state":"active","ping":66},{"user_id":756,"name":"Automated death","steam_id":76561198977420882,"connected_time":244000000000,"state":"active","ping":51},{"user_id":664,"name":"madhead200","steam_id":76561198119498666,"connected_time":6267000000000,"state":"active","ping":86}]},{"server_id":310,"name":"Uncletopia | Frankfurt | 5 | All Maps","name_short":"frk-5","host":"frk-1.de.uncletopia.com","port":27055,"enabled":true,"region":"eu","cc":"de","latitude":50.110924,"longitude":8.682127,"reserved":0,"last_update":"0001-01-01T00:00:00Z","name_a2s":"Uncletopia | Frankfurt | 5 | All Maps","protocol":17,"map":"koth_highpass","folder":"tf","game":"Team Fortress","app_id":440,"player_count":24,"max_players":24,"Bots":0,"server_type":"Dedicated","server_os":"Linux","password":true,"vac":true,"version":"7961495","steam_id":85568392924504277,"keywords":["cp","nocrits","nodmgspread","uncletopia"],"game_id":440,"stv_port":27056,"stv_name":"Uncletopia | Frankfurt | 5 | All Maps | STV","players":[{"user_id":414,"name":"flave","steam_id":76561198056372101,"connected_time":6150000000000,"state":"active","ping":90},{"user_id":476,"name":"Pyr0s_Fx","steam_id":76561198057201503,"connected_time":950000000000,"state":"active","ping":55},{"user_id":491,"name":"tomtslgaming","steam_id":76561199112773288,"connected_time":286000000000,"state":"active","ping":92},{"user_id":477,"name":"So True!!!","steam_id":76561198253503043,"connected_time":887000000000,"state":"active","ping":62},{"user_id":479,"name":"Golden Boy","steam_id":76561198193905753,"connected_time":881000000000,"state":"active","ping":72},{"user_id":464,"name":"[SSRB] Kiri","steam_id":76561198193983787,"connected_time":1580000000000,"state":"active","ping":141},{"user_id":456,"name":"Glenn Danzig","steam_id":76561198124159344,"connected_time":2334000000000,"state":"active","ping":46},{"user_id":493,"name":"Tuborgcs","steam_id":76561197987562652,"connected_time":164000000000,"state":"active","ping":59},{"user_id":480,"name":"Ririan | Scorched","steam_id":76561198799379621,"connected_time":876000000000,"state":"active","ping":80},{"user_id":481,"name":"WildFox","steam_id":76561198181083101,"connected_time":873000000000,"state":"active","ping":82},{"user_id":482,"name":"ThunderCluckz","steam_id":76561198055066162,"connected_time":867000000000,"state":"active","ping":80},{"user_id":483,"name":"God_Speed","steam_id":76561198344899942,"connected_time":783000000000,"state":"active","ping":80},{"user_id":490,"name":"Vince","steam_id":76561199103000131,"connected_time":304000000000,"state":"active","ping":45},{"user_id":488,"name":"Perci","steam_id":76561198097789669,"connected_time":524000000000,"state":"active","ping":60},{"user_id":454,"name":"ZePequenio","steam_id":76561197968506094,"connected_time":2339000000000,"state":"active","ping":63},{"user_id":485,"name":"cheeselover5","steam_id":76561198105189907,"connected_time":707000000000,"state":"active","ping":45},{"user_id":468,"name":"Gioni","steam_id":76561198395912581,"connected_time":1226000000000,"state":"active","ping":107},{"user_id":424,"name":"Gibby","steam_id":76561198048213112,"connected_time":5579000000000,"state":"active","ping":51},{"user_id":492,"name":"Hoxton","steam_id":76561198129209505,"connected_time":270000000000,"state":"active","ping":73},{"user_id":458,"name":"Lyncurion","steam_id":76561199260022725,"connected_time":2326000000000,"state":"active","ping":79},{"user_id":487,"name":"M A G E","steam_id":76561198063072513,"connected_time":571000000000,"state":"active","ping":79},{"user_id":473,"name":"Ajron Wejder","steam_id":76561198307468158,"connected_time":990000000000,"state":"active","ping":80},{"user_id":433,"name":"realness","steam_id":76561199129226935,"connected_time":4389000000000,"state":"active","ping":100},{"user_id":494,"name":"Maddox","steam_id":76561198026419869,"connected_time":81000000000,"state":"active","ping":67}]},{"server_id":311,"name":"Uncletopia | Frankfurt | 6 | All Maps","name_short":"frk-6","host":"frk-1.de.uncletopia.com","port":27065,"enabled":true,"region":"eu","cc":"de","latitude":50.110924,"longitude":8.682127,"reserved":0,"last_update":"0001-01-01T00:00:00Z","name_a2s":"Uncletopia | Frankfurt | 6 | All Maps","protocol":17,"map":"pl_upward","folder":"tf","game":"Team Fortress","app_id":440,"player_count":24,"max_players":24,"Bots":0,"server_type":"Dedicated","server_os":"Linux","password":true,"vac":true,"version":"7961495","steam_id":85568392924504278,"keywords":["nocrits","nodmgspread","payload","uncletopia"],"game_id":440,"stv_port":27066,"stv_name":"Uncletopia | Frankfurt | 6 | All Maps | STV","players":[{"user_id":587,"name":"modrako","steam_id":76561198171050526,"connected_time":1583000000000,"state":"active","ping":64},{"user_id":596,"name":"Lilypadio","steam_id":76561198090146457,"connected_time":972000000000,"state":"active","ping":58},{"user_id":576,"name":"Teriyaki Dick","steam_id":76561198067917216,"connected_time":2861000000000,"state":"active","ping":161},{"user_id":584,"name":"Jon (ebic gamer)","steam_id":76561199380849468,"connected_time":1755000000000,"state":"active","ping":63},{"user_id":553,"name":"After8","steam_id":76561198090750865,"connected_time":5219000000000,"state":"active","ping":71},{"user_id":586,"name":"Bill Carr","steam_id":76561198110033943,"connected_time":1706000000000,"state":"active","ping":49},{"user_id":594,"name":"stun","steam_id":76561198276681691,"connected_time":1198000000000,"state":"active","ping":61},{"user_id":538,"name":"Koli","steam_id":76561197992428783,"connected_time":6180000000000,"state":"active","ping":58},{"user_id":599,"name":"Wilderhammer","steam_id":76561198132133702,"connected_time":485000000000,"state":"active","ping":45},{"user_id":577,"name":"LOKKI","steam_id":76561198259022887,"connected_time":2822000000000,"state":"active","ping":62},{"user_id":589,"name":"A stripper","steam_id":76561198034865891,"connected_time":1281000000000,"state":"active","ping":69},{"user_id":541,"name":"Funny Cat Song","steam_id":76561199229682408,"connected_time":5554000000000,"state":"active","ping":60},{"user_id":574,"name":"YeetusFeetus","steam_id":76561199043598948,"connected_time":3352000000000,"state":"active","ping":109},{"user_id":590,"name":"pedestrianise gloucester rd","steam_id":76561198126022039,"connected_time":1264000000000,"state":"active","ping":61},{"user_id":597,"name":"Les pringles de p√¢ques","steam_id":76561198798803845,"connected_time":927000000000,"state":"active","ping":57},{"user_id":598,"name":"emojis on my grave","steam_id":76561198088624259,"connected_time":909000000000,"state":"active","ping":62},{"user_id":575,"name":"frosty","steam_id":76561198094560834,"connected_time":2891000000000,"state":"active","ping":63},{"user_id":568,"name":"coella","steam_id":76561198442803577,"connected_time":4154000000000,"state":"active","ping":70},{"user_id":561,"name":"Ixsus\u003c3","steam_id":76561198094756869,"connected_time":4969000000000,"state":"active","ping":57},{"user_id":583,"name":"Sza","steam_id":76561198022132105,"connected_time":1766000000000,"state":"active","ping":60},{"user_id":592,"name":"avatarvic","steam_id":76561198305931255,"connected_time":1249000000000,"state":"active","ping":71},{"user_id":593,"name":"Seth MacShartlane","steam_id":76561198307037169,"connected_time":1244000000000,"state":"active","ping":70},{"user_id":540,"name":"cazador","steam_id":76561198123096922,"connected_time":5651000000000,"state":"active","ping":84},{"user_id":567,"name":"Pepegi","steam_id":76561198001230113,"connected_time":4462000000000,"state":"active","ping":77}]},{"server_id":23,"name":"Uncletopia | Frankfurt | 7 | Stopwatch Beta","name_short":"frk-7","host":"frk-1.de.uncletopia.com","port":27075,"enabled":true,"region":"eu","cc":"de","latitude":50.110924,"longitude":8.682127,"reserved":0,"last_update":"0001-01-01T00:00:00Z","name_a2s":"Uncletopia | Frankfurt | 7 | Stopwatch Beta","protocol":17,"map":"workshop/pl_barnblitz_pro7.ugc582280235","folder":"tf","game":"Team Fortress","app_id":440,"player_count":0,"max_players":24,"Bots":0,"server_type":"Dedicated","server_os":"Linux","password":true,"vac":true,"version":"7961495","steam_id":85568392924742827,"keywords":["nocrits","nodmgspread","payload","uncletopia"],"game_id":440,"stv_port":27076,"stv_name":"Uncletopia | Frankfurt | 7 | Stopwatch Beta | STV","players":null},{"server_id":24,"name":"Uncletopia | Frankfurt | 8 | Community","name_short":"frk-8","host":"frk-1.de.uncletopia.com","port":27085,"enabled":true,"region":"eu","cc":"de","latitude":50.110924,"longitude":8.682127,"reserved":0,"last_update":"0001-01-01T00:00:00Z","name_a2s":"Uncletopia | Frankfurt | 8 | Community","protocol":17,"map":"workshop/koth_ashville_final.ugc2130459942","folder":"tf","game":"Team Fortress","app_id":440,"player_count":0,"max_players":24,"Bots":0,"server_type":"Dedicated","server_os":"Linux","password":true,"vac":true,"version":"7961495","steam_id":85568392924742828,"keywords":["cp","nocrits","nodmgspread","uncletopia"],"game_id":440,"stv_port":27086,"stv_name":"Uncletopia | Frankfurt | 8 | Community | STV","players":null},{"server_id":202,"name":"Uncletopia | Hong Kong | 1 | All Maps","name_short":"hgk-1","host":"hgk-1.hk.uncletopia.com","port":27015,"enabled":true,"region":"asia","cc":"hk","latitude":22.302711,"longitude":114.177216,"reserved":0,"last_update":"0001-01-01T00:00:00Z","name_a2s":"Uncletopia | Hong Kong | 1 | All Maps","protocol":17,"map":"cp_sunshine","folder":"tf","game":"Team Fortress","app_id":440,"player_count":0,"max_players":24,"Bots":0,"server_type":"Dedicated","server_os":"Linux","password":true,"vac":true,"version":"7961495","steam_id":85568392924494504,"keywords":["cp","nocrits","nodmgspread","uncletopia"],"game_id":440,"stv_port":27016,"stv_name":"Uncletopia | Hong Kong | 1 | All Maps | STV","players":null},{"server_id":1,"name":"Uncletopia | Los Angeles | 1 | All Maps","name_short":"lax-1","host":"lax-1.us.uncletopia.com","port":27015,"enabled":true,"region":"us-west","cc":"us","latitude":33.94279,"longitude":-118.41004,"reserved":0,"last_update":"0001-01-01T00:00:00Z","name_a2s":"Uncletopia | Los Angeles | 1 | All Maps","protocol":17,"map":"pl_frontier_final","folder":"tf","game":"Team Fortress","app_id":440,"player_count":18,"max_players":24,"Bots":0,"server_type":"Dedicated","server_os":"Linux","password":true,"vac":true,"version":"7961495","steam_id":85568392924469991,"keywords":["nocrits","nodmgspread","payload","uncletopia"],"game_id":440,"stv_port":27016,"stv_name":"Uncletopia | Los Angeles | 1 | All Maps | STV","players":[{"user_id":206,"name":"hyazZaza","steam_id":76561199100342013,"connected_time":2202000000000,"state":"active","ping":45},{"user_id":225,"name":"Its my birthy","steam_id":76561198314284316,"connected_time":57000000000,"state":"spawning","ping":74},{"user_id":216,"name":"nae nae goblin68","steam_id":76561199115259028,"connected_time":1413000000000,"state":"active","ping":97},{"user_id":167,"name":"Sailor","steam_id":76561199081983517,"connected_time":4386000000000,"state":"active","ping":80},{"user_id":151,"name":"anotherl2","steam_id":76561198354418895,"connected_time":6158000000000,"state":"active","ping":87},{"user_id":191,"name":"Karthos","steam_id":76561198040827487,"connected_time":3091000000000,"state":"active","ping":103},{"user_id":174,"name":"cool beans","steam_id":76561198045758072,"connected_time":3988000000000,"state":"active","ping":56},{"user_id":212,"name":"Seshreb","steam_id":76561198846614634,"connected_time":1656000000000,"state":"active","ping":55},{"user_id":224,"name":"KOJAKK","steam_id":76561199060841878,"connected_time":126000000000,"state":"active","ping":75},{"user_id":215,"name":"Keamy","steam_id":76561199471434875,"connected_time":1509000000000,"state":"active","ping":60},{"user_id":205,"name":"cran","steam_id":76561198178840075,"connected_time":2273000000000,"state":"active","ping":79},{"user_id":207,"name":"skelatr8tr2","steam_id":76561198834082869,"connected_time":2193000000000,"state":"active","ping":83},{"user_id":222,"name":"myunicorn","steam_id":76561199391478575,"connected_time":507000000000,"state":"active","ping":99},{"user_id":208,"name":"CheeseCake488","steam_id":76561199407617942,"connected_time":2179000000000,"state":"active","ping":84},{"user_id":142,"name":"Karg","steam_id":76561198091387866,"connected_time":6668000000000,"state":"active","ping":62},{"user_id":220,"name":"Lock'd","steam_id":76561198170108230,"connected_time":1075000000000,"state":"active","ping":44},{"user_id":218,"name":"Mr. DeLarge","steam_id":76561198336820066,"connected_time":1381000000000,"state":"active","ping":88},{"user_id":204,"name":"np3","steam_id":76561198019824641,"connected_time":2592000000000,"state":"active","ping":79}]},{"server_id":112,"name":"Uncletopia | Los Angeles | 2 | All Maps","name_short":"lax-2","host":"lax-1.us.uncletopia.com","port":27025,"enabled":true,"region":"us-west","cc":"us","latitude":33.94279,"longitude":-118.41004,"reserved":0,"last_update":"0001-01-01T00:00:00Z","name_a2s":"Uncletopia | Los Angeles | 2 | All Maps","protocol":17,"map":"cp_dustbowl","folder":"tf","game":"Team Fortress","app_id":440,"player_count":0,"max_players":24,"Bots":0,"server_type":"Dedicated","server_os":"Linux","password":true,"vac":true,"version":"7961495","steam_id":85568392924469992,"keywords":["cp","nocrits","nodmgspread","uncletopia"],"game_id":440,"stv_port":27026,"stv_name":"Uncletopia | Los Angeles | 2 | All Maps | STV","players":null},{"server_id":324,"name":"Uncletopia | Los Angeles | 3 | All Maps","name_short":"lax-3","host":"lax-1.us.uncletopia.com","port":27035,"enabled":true,"region":"us-west","cc":"us","latitude":33.94279,"longitude":-118.41004,"reserved":0,"last_update":"0001-01-01T00:00:00Z","name_a2s":"Uncletopia | Los Angeles | 3 | All Maps","protocol":17,"map":"cp_powerhouse","folder":"tf","game":"Team Fortress","app_id":440,"player_count":22,"max_players":24,"Bots":0,"server_type":"Dedicated","server_os":"Linux","password":true,"vac":true,"version":"7961495","steam_id":85568392924510198,"keywords":["cp","nocrits","nodmgspread","uncletopia"],"game_id":440,"stv_port":27036,"stv_name":"Uncletopia | Los Angeles | 3 | All Maps | STV","players":[{"user_id":373,"name":"vertice","steam_id":76561199117182718,"connected_time":1392000000000,"state":"active","ping":47},{"user_id":390,"name":"sleepy boy","steam_id":76561198049220780,"connected_time":585000000000,"state":"active","ping":48},{"user_id":381,"name":"Abraham Lincoln","steam_id":76561198004065704,"connected_time":883000000000,"state":"active","ping":118},{"user_id":391,"name":"Lesbian Futa Mommy","steam_id":76561198130479030,"connected_time":580000000000,"state":"active","ping":83},{"user_id":394,"name":"Dino_Nuggets47","steam_id":76561199307739902,"connected_time":425000000000,"state":"active","ping":59},{"user_id":363,"name":"Seberster","steam_id":76561198136958624,"connected_time":2313000000000,"state":"active","ping":109},{"user_id":392,"name":"Sorry","steam_id":76561198040722720,"connected_time":498000000000,"state":"active","ping":113},{"user_id":376,"name":"‚ú™ Y V E S","steam_id":76561198299479796,"connected_time":1192000000000,"state":"active","ping":40},{"user_id":393,"name":"vozz","steam_id":76561198242065410,"connected_time":464000000000,"state":"active","ping":45},{"user_id":396,"name":"EatSomeBEES","steam_id":76561198047334307,"connected_time":348000000000,"state":"active","ping":74},{"user_id":385,"name":"American freedom bird","steam_id":76561198366142388,"connected_time":719000000000,"state":"active","ping":59},{"user_id":397,"name":"XxChocola20xX","steam_id":76561199108579557,"connected_time":196000000000,"state":"active","ping":70},{"user_id":395,"name":"Kanye Asada","steam_id":76561198186678831,"connected_time":392000000000,"state":"active","ping":59},{"user_id":384,"name":"here2he1p","steam_id":76561199216977630,"connected_time":776000000000,"state":"active","ping":87},{"user_id":398,"name":"Japes","steam_id":76561198079625724,"connected_time":166000000000,"state":"active","ping":118},{"user_id":366,"name":"Envi","steam_id":76561198040700667,"connected_time":1899000000000,"state":"active","ping":108},{"user_id":354,"name":"EAT SPIT!","steam_id":76561198096836451,"connected_time":3298000000000,"state":"active","ping":56},{"user_id":388,"name":"LCL_Juice","steam_id":76561198171093095,"connected_time":654000000000,"state":"active","ping":86},{"user_id":399,"name":"Fiestaknight","steam_id":76561198037847385,"connected_time":150000000000,"state":"active","ping":79},{"user_id":400,"name":"Acidbrawler","steam_id":76561198174803983,"connected_time":115000000000,"state":"active","ping":86},{"user_id":403,"name":"Sirfub","steam_id":76561198160767583,"connected_time":30000000000,"state":"active","ping":98},{"user_id":402,"name":"Hastur Tera.gg","steam_id":76561198845636217,"connected_time":96000000000,"state":"active","ping":76}]},{"server_id":25,"name":"Uncletopia | Los Angeles | 4 | Stopwatch Beta","name_short":"lax-4","host":"lax-1.us.uncletopia.com","port":27045,"enabled":true,"region":"us-west","cc":"us","latitude":33.94279,"longitude":-118.41004,"reserved":0,"last_update":"0001-01-01T00:00:00Z","name_a2s":"Uncletopia | Los Angeles | 4 | Stopwatch Beta","protocol":17,"map":"koth_highpass","folder":"tf","game":"Team Fortress","app_id":440,"player_count":0,"max_players":24,"Bots":0,"server_type":"Dedicated","server_os":"Linux","password":true,"vac":true,"version":"7961495","steam_id":85568392924510199,"keywords":["cp","nocrits","nodmgspread","uncletopia"],"game_id":440,"stv_port":27046,"stv_name":"Uncletopia | Los Angeles | 4 | Stopwatch Beta | STV","players":null},{"server_id":11,"name":"Uncletopia | London | 1 | All Maps","name_short":"lon-1","host":"lon-1.uk.uncletopia.com","port":27015,"enabled":true,"region":"eu","cc":"gb","latitude":51.509865,"longitude":-0.118092,"reserved":0,"last_update":"0001-01-01T00:00:00Z","name_a2s":"Uncletopia | London | 1 | All Maps","protocol":17,"map":"pl_snowycoast","folder":"tf","game":"Team Fortress","app_id":440,"player_count":24,"max_players":24,"Bots":0,"server_type":"Dedicated","server_os":"Linux","password":true,"vac":true,"version":"7961495","steam_id":85568392924367362,"keywords":["nocrits","nodmgspread","payload","uncletopia"],"game_id":440,"stv_port":27016,"stv_name":"Uncletopia | London | 1 | All Maps | STV","players":[{"user_id":967,"name":"Kphi(i)","steam_id":76561198970587061,"connected_time":5845000000000,"state":"active","ping":57},{"user_id":1005,"name":"Vexu","steam_id":76561198113145846,"connected_time":2205000000000,"state":"active","ping":89},{"user_id":1019,"name":"*breaks into your home*","steam_id":76561198877414879,"connected_time":289000000000,"state":"active","ping":67},{"user_id":978,"name":"jermany","steam_id":76561198126599355,"connected_time":5519000000000,"state":"active","ping":59},{"user_id":1017,"name":"GoblinGaming","steam_id":76561198360395476,"connected_time":377000000000,"state":"active","ping":50},{"user_id":999,"name":"gibb (official)","steam_id":76561198074097655,"connected_time":3158000000000,"state":"active","ping":45},{"user_id":982,"name":"gr3821","steam_id":76561198091531010,"connected_time":5138000000000,"state":"active","ping":44},{"user_id":1003,"name":"ra","steam_id":76561198239927434,"connected_time":2228000000000,"state":"active","ping":92},{"user_id":1018,"name":"tone","steam_id":76561197975301462,"connected_time":336000000000,"state":"active","ping":76},{"user_id":1022,"name":"Judex","steam_id":76561198110409052,"connected_time":242000000000,"state":"active","ping":79},{"user_id":993,"name":"Kahvi","steam_id":76561198723244199,"connected_time":3957000000000,"state":"active","ping":78},{"user_id":1020,"name":"333res","steam_id":76561198148106704,"connected_time":268000000000,"state":"active","ping":86},{"user_id":1023,"name":"‚ôÇ Twink Hunter ‚ôÇ","steam_id":76561198397024973,"connected_time":240000000000,"state":"active","ping":32},{"user_id":1025,"name":"Velvet | BNKR","steam_id":76561198282866752,"connected_time":101000000000,"state":"active","ping":102},{"user_id":992,"name":"summer","steam_id":76561198170056395,"connected_time":4202000000000,"state":"active","ping":53},{"user_id":1026,"name":"bon","steam_id":76561198145465595,"connected_time":70000000000,"state":"active","ping":40},{"user_id":1015,"name":"teddy","steam_id":76561198007436837,"connected_time":943000000000,"state":"active","ping":30},{"user_id":1027,"name":"Krefa12","steam_id":76561198268375393,"connected_time":57000000000,"state":"active","ping":93},{"user_id":1028,"name":"Tomfool","steam_id":76561197993256481,"connected_time":52000000000,"state":"active","ping":84},{"user_id":1029,"name":"wodwod","steam_id":76561198118013237,"connected_time":45000000000,"state":"active","ping":57},{"user_id":1030,"name":"0","steam_id":76561198175606813,"connected_time":5000000000,"state":"spawning","ping":48},{"user_id":1011,"name":"trite","steam_id":76561197983765323,"connected_time":1395000000000,"state":"active","ping":54},{"user_id":955,"name":"Ziemniaczki","steam_id":76561198061866742,"connected_time":7346000000000,"state":"active","ping":81},{"user_id":1013,"name":"Slifer the GiantEnemy SkyDragon","steam_id":76561198062255803,"connected_time":1159000000000,"state":"active","ping":72}]},{"server_id":114,"name":"Uncletopia | London | 2 | All Maps","name_short":"lon-2","host":"lon-1.uk.uncletopia.com","port":27025,"enabled":true,"region":"eu","cc":"gb","latitude":51.509865,"longitude":-0.118092,"reserved":0,"last_update":"0001-01-01T00:00:00Z","name_a2s":"Uncletopia | London | 2 | All Maps","protocol":17,"map":"pl_pier","folder":"tf","game":"Team Fortress","app_id":440,"player_count":24,"max_players":24,"Bots":0,"server_type":"Dedicated","server_os":"Linux","password":true,"vac":true,"version":"7961495","steam_id":85568392924470941,"keywords":["nocrits","nodmgspread","payload","uncletopia"],"game_id":440,"stv_port":27026,"stv_name":"Uncletopia | London | 2 | All Maps | STV","players":[{"user_id":535,"name":"SQUASH","steam_id":76561198012248872,"connected_time":171000000000,"state":"active","ping":56},{"user_id":543,"name":"H-say","steam_id":76561198177400362,"connected_time":25000000000,"state":"active","ping":110},{"user_id":489,"name":"Woman (Real)","steam_id":76561199151823932,"connected_time":2640000000000,"state":"active","ping":87},{"user_id":532,"name":"Hann√º","steam_id":76561197969886128,"connected_time":532000000000,"state":"active","ping":54},{"user_id":498,"name":"fence_","steam_id":76561198150386379,"connected_time":1797000000000,"state":"active","ping":47},{"user_id":507,"name":"Mr.O","steam_id":76561198039567498,"connected_time":1606000000000,"state":"active","ping":56},{"user_id":499,"name":"FloatingEmpire3","steam_id":76561198809514696,"connected_time":1788000000000,"state":"active","ping":69},{"user_id":523,"name":"Fizz","steam_id":76561197994814990,"connected_time":876000000000,"state":"active","ping":79},{"user_id":524,"name":"noquieronitengo","steam_id":76561198108020034,"connected_time":870000000000,"state":"active","ping":75},{"user_id":528,"name":"s a i","steam_id":76561197970379754,"connected_time":685000000000,"state":"active","ping":60},{"user_id":509,"name":"fp","steam_id":76561198817940142,"connected_time":1555000000000,"state":"active","ping":47},{"user_id":502,"name":"Implywood (they/them)","steam_id":76561198096762648,"connected_time":1706000000000,"state":"active","ping":53},{"user_id":517,"name":"mothsprings","steam_id":76561198928604937,"connected_time":1216000000000,"state":"active","ping":137},{"user_id":540,"name":"Bineapple","steam_id":76561198983650763,"connected_time":76000000000,"state":"active","ping":47},{"user_id":459,"name":"overman","steam_id":76561198038348301,"connected_time":5036000000000,"state":"active","ping":73},{"user_id":536,"name":"Jimmy","steam_id":76561198056581739,"connected_time":158000000000,"state":"active","ping":54},{"user_id":530,"name":"Ibelieveto","steam_id":76561198831479712,"connected_time":617000000000,"state":"active","ping":53},{"user_id":525,"name":"Gugu","steam_id":76561198161822358,"connected_time":824000000000,"state":"active","ping":72},{"user_id":410,"name":"Ar|es","steam_id":76561198819160313,"connected_time":9543000000000,"state":"active","ping":92},{"user_id":512,"name":"msh","steam_id":76561198367669395,"connected_time":1510000000000,"state":"active","ping":40},{"user_id":514,"name":"jalones al pecho","steam_id":76561198112986842,"connected_time":1488000000000,"state":"active","ping":59},{"user_id":531,"name":"‚òûLaZe‚òú","steam_id":76561198202191400,"connected_time":616000000000,"state":"active","ping":56},{"user_id":519,"name":"lizard fucker","steam_id":76561198139729249,"connected_time":1038000000000,"state":"active","ping":96},{"user_id":541,"name":"Tipp (gonna kms!!)","steam_id":76561198184360615,"connected_time":73000000000,"state":"active","ping":108}]},{"server_id":320,"name":"Uncletopia | London | 3 | All Maps","name_short":"lon-3","host":"lon-1.uk.uncletopia.com","port":27035,"enabled":true,"region":"eu","cc":"gb","latitude":51.509865,"longitude":-0.118092,"reserved":0,"last_update":"0001-01-01T00:00:00Z","name_a2s":"Uncletopia | London | 3 | All Maps","protocol":17,"map":"pl_pier","folder":"tf","game":"Team Fortress","app_id":440,"player_count":24,"max_players":24,"Bots":0,"server_type":"Dedicated","server_os":"Linux","password":true,"vac":true,"version":"7961495","steam_id":85568392924510192,"keywords":["nocrits","nodmgspread","payload","uncletopia"],"game_id":440,"stv_port":27036,"stv_name":"Uncletopia | London | 3 | All Maps | STV","players":[{"user_id":285,"name":"my mom","steam_id":76561199225201569,"connected_time":2907000000000,"state":"active","ping":121},{"user_id":305,"name":"RedWater","steam_id":76561198016406576,"connected_time":2040000000000,"state":"active","ping":89},{"user_id":320,"name":"Karl Marxman","steam_id":76561197988226117,"connected_time":981000000000,"state":"active","ping":81},{"user_id":319,"name":"‚ù§G a n K","steam_id":76561199125995565,"connected_time":1123000000000,"state":"active","ping":63},{"user_id":307,"name":"Flippy","steam_id":76561197970181048,"connected_time":2025000000000,"state":"active","ping":59},{"user_id":323,"name":"bruh","steam_id":76561197993922244,"connected_time":904000000000,"state":"active","ping":65},{"user_id":321,"name":"Hazo","steam_id":76561198137686270,"connected_time":956000000000,"state":"active","ping":68},{"user_id":332,"name":"The Power","steam_id":76561198060566884,"connected_time":484000000000,"state":"active","ping":41},{"user_id":317,"name":"MaRo","steam_id":76561198992286676,"connected_time":1520000000000,"state":"active","ping":58},{"user_id":304,"name":"Raulca25","steam_id":76561199068256964,"connected_time":2112000000000,"state":"active","ping":75},{"user_id":310,"name":"BoxLag","steam_id":76561198303995144,"connected_time":1968000000000,"state":"active","ping":64},{"user_id":303,"name":"W","steam_id":76561198273623211,"connected_time":2209000000000,"state":"active","ping":91},{"user_id":322,"name":"Grillem Dafoe","steam_id":76561198306874574,"connected_time":930000000000,"state":"active","ping":177},{"user_id":330,"name":"Weenie Hut Jr's","steam_id":76561198050515739,"connected_time":688000000000,"state":"active","ping":45},{"user_id":286,"name":"Mc Cheezy","steam_id":76561198834780242,"connected_time":2887000000000,"state":"active","ping":104},{"user_id":273,"name":"Moondrop","steam_id":76561199421181719,"connected_time":3745000000000,"state":"active","ping":78},{"user_id":324,"name":"maidcore","steam_id":76561198095560087,"connected_time":894000000000,"state":"active","ping":77},{"user_id":325,"name":"SmoothJazz","steam_id":76561198143044358,"connected_time":889000000000,"state":"active","ping":73},{"user_id":269,"name":"Arno","steam_id":76561198025329937,"connected_time":4005000000000,"state":"active","ping":46},{"user_id":326,"name":"Utvar","steam_id":76561198131838460,"connected_time":885000000000,"state":"active","ping":58},{"user_id":327,"name":"Icaras","steam_id":76561198416724843,"connected_time":877000000000,"state":"active","ping":30},{"user_id":331,"name":"slnc","steam_id":76561198041151496,"connected_time":675000000000,"state":"active","ping":75},{"user_id":229,"name":"Gubbly Bubbins","steam_id":76561198101451654,"connected_time":6540000000000,"state":"active","ping":48},{"user_id":333,"name":"ketamine","steam_id":76561198031325797,"connected_time":435000000000,"state":"active","ping":42}]},{"server_id":321,"name":"Uncletopia | London | 4 | All Maps","name_short":"lon-4","host":"lon-1.uk.uncletopia.com","port":27045,"enabled":true,"region":"eu","cc":"gb","latitude":51.509865,"longitude":-0.118092,"reserved":0,"last_update":"0001-01-01T00:00:00Z","name_a2s":"Uncletopia | London | 4 | All Maps","protocol":17,"map":"pl_pier","folder":"tf","game":"Team Fortress","app_id":440,"player_count":24,"max_players":24,"Bots":0,"server_type":"Dedicated","server_os":"Linux","password":true,"vac":true,"version":"7961495","steam_id":85568392924510193,"keywords":["nocrits","nodmgspread","payload","uncletopia"],"game_id":440,"stv_port":27046,"stv_name":"Uncletopia | London | 4 | All Maps | STV","players":[{"user_id":507,"name":"Cool Uncle Bean","steam_id":76561199053506366,"connected_time":1287000000000,"state":"active","ping":69},{"user_id":530,"name":"Lyell","steam_id":76561198350329389,"connected_time":145000000000,"state":"active","ping":75},{"user_id":515,"name":"METhOphetamine","steam_id":76561198068216224,"connected_time":921000000000,"state":"active","ping":63},{"user_id":513,"name":"cowb√∂y","steam_id":76561198048990716,"connected_time":937000000000,"state":"active","ping":100},{"user_id":536,"name":"gaming gamer","steam_id":76561198212488780,"connected_time":32000000000,"state":"spawning","ping":75},{"user_id":518,"name":"Epexegeticus","steam_id":76561198164545360,"connected_time":690000000000,"state":"active","ping":69},{"user_id":495,"name":"ham","steam_id":76561198092186935,"connected_time":2398000000000,"state":"active","ping":47},{"user_id":516,"name":"Ravertimes","steam_id":76561199042406576,"connected_time":904000000000,"state":"active","ping":64},{"user_id":496,"name":"Batch Number 443714","steam_id":76561197977497969,"connected_time":2300000000000,"state":"active","ping":50},{"user_id":487,"name":"McMonty","steam_id":76561198028973788,"connected_time":2823000000000,"state":"active","ping":60},{"user_id":517,"name":"Buterbrod","steam_id":76561198829880730,"connected_time":743000000000,"state":"active","ping":113},{"user_id":519,"name":"chowsiq","steam_id":76561198809018035,"connected_time":577000000000,"state":"active","ping":59},{"user_id":520,"name":"padillacampos","steam_id":76561198161923970,"connected_time":570000000000,"state":"active","ping":74},{"user_id":488,"name":"Rocadinis","steam_id":76561198095910616,"connected_time":2794000000000,"state":"active","ping":105},{"user_id":490,"name":"Suetolog","steam_id":76561199053090212,"connected_time":2697000000000,"state":"active","ping":63},{"user_id":469,"name":"Potshott","steam_id":76561198184014158,"connected_time":3728000000000,"state":"active","ping":55},{"user_id":521,"name":"Dane_","steam_id":76561198088448077,"connected_time":551000000000,"state":"active","ping":56},{"user_id":532,"name":"Gijsie_","steam_id":76561198831416559,"connected_time":122000000000,"state":"active","ping":64},{"user_id":523,"name":"Lukey","steam_id":76561198052076168,"connected_time":543000000000,"state":"active","ping":70},{"user_id":524,"name":"Pirkage #transrights","steam_id":76561198323002691,"connected_time":530000000000,"state":"active","ping":73},{"user_id":533,"name":"zen","steam_id":76561198358006442,"connected_time":116000000000,"state":"active","ping":73},{"user_id":534,"name":"Avarus","steam_id":76561198040324008,"connected_time":113000000000,"state":"active","ping":59},{"user_id":503,"name":"in love with hello kitty girl","steam_id":76561198181134706,"connected_time":1624000000000,"state":"active","ping":62},{"user_id":535,"name":"Uncle Dane","steam_id":76561198839047710,"connected_time":68000000000,"state":"active","ping":57}]},{"server_id":21,"name":"Uncletopia | London | 5 | All Maps","name_short":"lon-5","host":"lon-1.uk.uncletopia.com","port":27055,"enabled":true,"region":"eu","cc":"gb","latitude":51.509865,"longitude":-0.118092,"reserved":0,"last_update":"0001-01-01T00:00:00Z","name_a2s":"Uncletopia | London | 5 | All Maps","protocol":17,"map":"koth_nucleus","folder":"tf","game":"Team Fortress","app_id":440,"player_count":24,"max_players":24,"Bots":0,"server_type":"Dedicated","server_os":"Linux","password":true,"vac":true,"version":"7961495","steam_id":85568392924742829,"keywords":["cp","nocrits","nodmgspread","uncletopia"],"game_id":440,"stv_port":27056,"stv_name":"Uncletopia | London | 5 | All Maps | STV","players":[{"user_id":432,"name":"Cosmetic brain","steam_id":76561198055936410,"connected_time":896000000000,"state":"active","ping":86},{"user_id":389,"name":"Rustyunderscore","steam_id":76561198277177996,"connected_time":2585000000000,"state":"active","ping":54},{"user_id":340,"name":"Noam","steam_id":76561198057789807,"connected_time":5359000000000,"state":"active","ping":90},{"user_id":445,"name":"HealthHazard","steam_id":76561198212549753,"connected_time":61000000000,"state":"active","ping":45},{"user_id":448,"name":"crystalcentury","steam_id":76561198141147602,"connected_time":3000000000,"state":"spawning","ping":43},{"user_id":371,"name":"prot√´in","steam_id":76561197998423616,"connected_time":4183000000000,"state":"active","ping":72},{"user_id":434,"name":"Ullr","steam_id":76561198140547483,"connected_time":809000000000,"state":"active","ping":43},{"user_id":395,"name":"Bottle O' Scrumpy","steam_id":76561199244250562,"connected_time":2324000000000,"state":"active","ping":130},{"user_id":430,"name":"StingyLettuce","steam_id":76561199010337406,"connected_time":940000000000,"state":"active","ping":116},{"user_id":397,"name":"Castellan","steam_id":76561197994861142,"connected_time":2314000000000,"state":"active","ping":70},{"user_id":314,"name":"Dogdigger","steam_id":76561198032893130,"connected_time":8142000000000,"state":"active","ping":105},{"user_id":437,"name":"bailey","steam_id":76561198327418768,"connected_time":608000000000,"state":"active","ping":45},{"user_id":406,"name":"Dog Barf","steam_id":76561198073586987,"connected_time":2208000000000,"state":"active","ping":82},{"user_id":439,"name":"Hillnick","steam_id":76561198287764464,"connected_time":466000000000,"state":"active","ping":73},{"user_id":444,"name":"walrus","steam_id":76561198167898969,"connected_time":135000000000,"state":"active","ping":62},{"user_id":446,"name":"Qdarks","steam_id":76561198013391340,"connected_time":31000000000,"state":"active","ping":152},{"user_id":385,"name":"heavy sings (real)","steam_id":76561199023804405,"connected_time":3009000000000,"state":"active","ping":63},{"user_id":409,"name":"Hetmanych","steam_id":76561198870926865,"connected_time":2096000000000,"state":"active","ping":36},{"user_id":403,"name":"Vermin","steam_id":76561198045527771,"connected_time":2256000000000,"state":"active","ping":96},{"user_id":404,"name":"‚ô•ImWithMilk","steam_id":76561198269577569,"connected_time":2233000000000,"state":"active","ping":49},{"user_id":447,"name":"doodgie","steam_id":76561198264934115,"connected_time":25000000000,"state":"active","ping":65},{"user_id":442,"name":"stonebum","steam_id":76561198057004606,"connected_time":164000000000,"state":"active","ping":56},{"user_id":408,"name":"install gentoo","steam_id":76561198185257982,"connected_time":2178000000000,"state":"active","ping":63},{"user_id":421,"name":"FrostyTM","steam_id":76561198067703191,"connected_time":1393000000000,"state":"active","ping":61}]},{"server_id":22,"name":"Uncletopia | London | 6 | All Maps","name_short":"lon-6","host":"lon-1.uk.uncletopia.com","port":27065,"enabled":true,"region":"eu","cc":"gb","latitude":51.509865,"longitude":-0.118092,"reserved":0,"last_update":"0001-01-01T00:00:00Z","name_a2s":"Uncletopia | London | 6 | All Maps","protocol":17,"map":"pl_borneo","folder":"tf","game":"Team Fortress","app_id":440,"player_count":24,"max_players":24,"Bots":0,"server_type":"Dedicated","server_os":"Linux","password":true,"vac":true,"version":"7961495","steam_id":85568392924742830,"keywords":["nocrits","nodmgspread","payload","uncletopia"],"game_id":440,"stv_port":27066,"stv_name":"Uncletopia | London | 6 | All Maps | STV","players":[{"user_id":370,"name":"The Lady","steam_id":76561198029895809,"connected_time":5768000000000,"state":"active","ping":91},{"user_id":436,"name":"Puss in Boots","steam_id":76561198211599767,"connected_time":1692000000000,"state":"active","ping":54},{"user_id":344,"name":"prophits","steam_id":76561198011854314,"connected_time":7635000000000,"state":"active","ping":59},{"user_id":409,"name":"mercenarypit","steam_id":76561198161935108,"connected_time":2959000000000,"state":"active","ping":59},{"user_id":422,"name":"Madlag","steam_id":76561199481854201,"connected_time":2667000000000,"state":"active","ping":130},{"user_id":455,"name":"bombo112","steam_id":76561198059743551,"connected_time":441000000000,"state":"active","ping":59},{"user_id":448,"name":"hichem","steam_id":76561198056197307,"connected_time":1032000000000,"state":"active","ping":60},{"user_id":444,"name":"AxeWorld","steam_id":76561198048940625,"connected_time":1488000000000,"state":"active","ping":68},{"user_id":446,"name":"t0ast","steam_id":76561198141722573,"connected_time":1263000000000,"state":"active","ping":44},{"user_id":459,"name":"Kernel Panic","steam_id":76561198215811047,"connected_time":6000000000,"state":"spawning","ping":62},{"user_id":405,"name":"sgt Bytheway","steam_id":76561198094169965,"connected_time":3303000000000,"state":"active","ping":75},{"user_id":429,"name":"TheBeardedM1G","steam_id":76561198040208946,"connected_time":2126000000000,"state":"active","ping":46},{"user_id":453,"name":"Hercules","steam_id":76561198041164170,"connected_time":554000000000,"state":"active","ping":66},{"user_id":449,"name":"zulfie","steam_id":76561198117390056,"connected_time":984000000000,"state":"active","ping":41},{"user_id":458,"name":"janvaljen","steam_id":76561198017781450,"connected_time":230000000000,"state":"active","ping":102},{"user_id":424,"name":"IMFEELINGGOODIMFEELINGGREAT!!","steam_id":76561198118695769,"connected_time":2648000000000,"state":"active","ping":45},{"user_id":457,"name":"boxama","steam_id":76561198040721321,"connected_time":270000000000,"state":"active","ping":47},{"user_id":440,"name":"Bromoneto","steam_id":76561198876695014,"connected_time":1604000000000,"state":"active","ping":93},{"user_id":441,"name":"John Noob","steam_id":76561197999170026,"connected_time":1599000000000,"state":"active","ping":94},{"user_id":454,"name":"Syd","steam_id":76561198020515027,"connected_time":553000000000,"state":"active","ping":72},{"user_id":402,"name":"Gaslight Gaming","steam_id":76561198012300440,"connected_time":3517000000000,"state":"active","ping":52},{"user_id":407,"name":"ratsnrats","steam_id":76561199187258021,"connected_time":3286000000000,"state":"active","ping":46},{"user_id":408,"name":"edward cullen from twilight","steam_id":76561198038827937,"connected_time":3268000000000,"state":"active","ping":54},{"user_id":388,"name":"lorislk989","steam_id":76561199224251630,"connected_time":4334000000000,"state":"active","ping":73}]},{"server_id":40,"name":"Uncletopia | London | 7 | No Payload","name_short":"lon-7","host":"lon-1.uk.uncletopia.com","port":27075,"enabled":true,"region":"eu","cc":"gb","latitude":51.509865,"longitude":-0.118092,"reserved":0,"last_update":"0001-01-01T00:00:00Z","name_a2s":"Uncletopia | London | 7 | No Payload","protocol":17,"map":"koth_viaduct","folder":"tf","game":"Team Fortress","app_id":440,"player_count":4,"max_players":24,"Bots":0,"server_type":"Dedicated","server_os":"Linux","password":true,"vac":true,"version":"7961495","steam_id":85568392924964314,"keywords":["cp","nocrits","nodmgspread","uncletopia"],"game_id":440,"stv_port":27076,"stv_name":"Uncletopia | London | 7 | No Payload | STV","players":[{"user_id":454,"name":"Deemask√©","steam_id":76561199225833593,"connected_time":145000000000,"state":"active","ping":63},{"user_id":449,"name":"Cursed","steam_id":76561198381491880,"connected_time":1522000000000,"state":"active","ping":98},{"user_id":437,"name":"j√π xiƒì","steam_id":76561198096189399,"connected_time":2318000000000,"state":"active","ping":59},{"user_id":441,"name":"toomas2018 gaming","steam_id":76561199105796083,"connected_time":2240000000000,"state":"active","ping":80}]},{"server_id":41,"name":"Uncletopia | London | 8 | Community","name_short":"lon-8","host":"lon-1.uk.uncletopia.com","port":27085,"enabled":true,"region":"eu","cc":"gb","latitude":51.509865,"longitude":-0.118092,"reserved":0,"last_update":"0001-01-01T00:00:00Z","name_a2s":"Uncletopia | London | 8 | Community","protocol":17,"map":"workshop/pl_cactuscanyon_redux_final2.ugc2579644293","folder":"tf","game":"Team Fortress","app_id":440,"player_count":2,"max_players":24,"Bots":0,"server_type":"Dedicated","server_os":"Linux","password":true,"vac":true,"version":"7961495","steam_id":85568392924964315,"keywords":["nocrits","nodmgspread","payload","uncletopia"],"game_id":440,"stv_port":27086,"stv_name":"Uncletopia | London | 8 | Community | STV","players":[{"user_id":20,"name":"Psyche","steam_id":76561198091662001,"connected_time":4138000000000,"state":"active","ping":64},{"user_id":29,"name":"lipaul777","steam_id":76561199090751367,"connected_time":2798000000000,"state":"active","ping":73}]},{"server_id":300,"name":"Uncletopia | Montr√©al | 1 | All Maps","name_short":"mtl-1","host":"mtl-1.ca.uncletopia.com","port":27015,"enabled":true,"region":"us-east","cc":"ca","latitude":45.50889,"longitude":-73.56167,"reserved":0,"last_update":"0001-01-01T00:00:00Z","name_a2s":"","protocol":0,"map":"","folder":"","game":"","app_id":0,"player_count":0,"max_players":0,"Bots":0,"server_type":"","server_os":"","password":false,"vac":false,"version":"","steam_id":0,"keywords":null,"game_id":0,"stv_port":0,"stv_name":"","players":null},{"server_id":301,"name":"Uncletopia | Montr√©al | 2 | All Maps","name_short":"mtl-2","host":"mtl-1.ca.uncletopia.com","port":27025,"enabled":true,"region":"us-east","cc":"ca","latitude":45.50889,"longitude":-73.56167,"reserved":0,"last_update":"0001-01-01T00:00:00Z","name_a2s":"","protocol":0,"map":"","folder":"","game":"","app_id":0,"player_count":0,"max_players":0,"Bots":0,"server_type":"","server_os":"","password":false,"vac":false,"version":"","steam_id":0,"keywords":null,"game_id":0,"stv_port":0,"stv_name":"","players":null},{"server_id":302,"name":"Uncletopia | Montr√©al | 3 | All Maps","name_short":"mtl-3","host":"mtl-1.ca.uncletopia.com","port":27035,"enabled":true,"region":"us-east","cc":"ca","latitude":45.50889,"longitude":-73.56167,"reserved":0,"last_update":"0001-01-01T00:00:00Z","name_a2s":"","protocol":0,"map":"","folder":"","game":"","app_id":0,"player_count":0,"max_players":0,"Bots":0,"server_type":"","server_os":"","password":false,"vac":false,"version":"","steam_id":0,"keywords":null,"game_id":0,"stv_port":0,"stv_name":"","players":null},{"server_id":303,"name":"Uncletopia | Montr√©al | 4 | No Payload","name_short":"mtl-4","host":"mtl-1.ca.uncletopia.com","port":27045,"enabled":true,"region":"us-east","cc":"ca","latitude":45.50889,"longitude":-73.56167,"reserved":0,"last_update":"0001-01-01T00:00:00Z","name_a2s":"","protocol":0,"map":"","folder":"","game":"","app_id":0,"player_count":0,"max_players":0,"Bots":0,"server_type":"","server_os":"","password":false,"vac":false,"version":"","steam_id":0,"keywords":null,"game_id":0,"stv_port":0,"stv_name":"","players":null},{"server_id":13,"name":"Uncletopia | New York City | 1 | All Maps","name_short":"nyc-1","host":"nyc-1.us.uncletopia.com","port":27015,"enabled":true,"region":"us-east","cc":"us","latitude":40.73061,"longitude":-73.93524,"reserved":0,"last_update":"0001-01-01T00:00:00Z","name_a2s":"Uncletopia | New York City | 1 | All Maps","protocol":17,"map":"plr_hightower","folder":"tf","game":"Team Fortress","app_id":440,"player_count":17,"max_players":24,"Bots":0,"server_type":"Dedicated","server_os":"Linux","password":true,"vac":true,"version":"7961495","steam_id":85568392924469993,"keywords":["nocrits","nodmgspread","payload","uncletopia"],"game_id":440,"stv_port":27016,"stv_name":"Uncletopia | New York City | 1 | All Maps | STV","players":[{"user_id":332,"name":"Poi","steam_id":76561198176914898,"connected_time":791000000000,"state":"active","ping":85},{"user_id":309,"name":"Pigeon","steam_id":76561198846193209,"connected_time":1871000000000,"state":"active","ping":84},{"user_id":339,"name":"Blue‚õßMelon","steam_id":76561197970926435,"connected_time":92000000000,"state":"active","ping":52},{"user_id":294,"name":"toucant lie","steam_id":76561198098001998,"connected_time":2863000000000,"state":"active","ping":49},{"user_id":221,"name":"GummybearKillr","steam_id":76561198031235750,"connected_time":8437000000000,"state":"active","ping":54},{"user_id":299,"name":"breathingtrees","steam_id":76561198118931690,"connected_time":2677000000000,"state":"active","ping":57},{"user_id":167,"name":"googa","steam_id":76561198133130452,"connected_time":13083000000000,"state":"active","ping":35},{"user_id":340,"name":"SmokyDank","steam_id":76561198045782886,"connected_time":58000000000,"state":"active","ping":89},{"user_id":292,"name":"froge","steam_id":76561198304959766,"connected_time":2965000000000,"state":"active","ping":138},{"user_id":333,"name":"antoniov00gaming","steam_id":76561198364632073,"connected_time":415000000000,"state":"active","ping":82},{"user_id":330,"name":"6ix *","steam_id":76561198415484497,"connected_time":1186000000000,"state":"active","ping":164},{"user_id":326,"name":"zweibier","steam_id":76561197970844561,"connected_time":1476000000000,"state":"active","ping":125},{"user_id":335,"name":"Sigiferd","steam_id":76561198148788110,"connected_time":326000000000,"state":"active","ping":131},{"user_id":310,"name":"Nightman","steam_id":76561198089513762,"connected_time":1846000000000,"state":"active","ping":71},{"user_id":268,"name":"epsilene","steam_id":76561198027468624,"connected_time":4841000000000,"state":"active","ping":44},{"user_id":315,"name":"Aviyarn","steam_id":76561199074194652,"connected_time":1664000000000,"state":"active","ping":69},{"user_id":324,"name":"AXZIOM","steam_id":76561198255074952,"connected_time":1566000000000,"state":"active","ping":61}]},{"server_id":14,"name":"Uncletopia | New York City | 2 | All Maps","name_short":"nyc-2","host":"nyc-1.us.uncletopia.com","port":27025,"enabled":true,"region":"us-east","cc":"us","latitude":40.73061,"longitude":-73.93524,"reserved":0,"last_update":"0001-01-01T00:00:00Z","name_a2s":"Uncletopia | New York City | 2 | All Maps","protocol":17,"map":"koth_lakeside_final","folder":"tf","game":"Team Fortress","app_id":440,"player_count":0,"max_players":24,"Bots":0,"server_type":"Dedicated","server_os":"Linux","password":true,"vac":true,"version":"7961495","steam_id":85568392924469994,"keywords":["cp","nocrits","nodmgspread","uncletopia"],"game_id":440,"stv_port":27026,"stv_name":"Uncletopia | New York City | 2 | All Maps | STV","players":null},{"server_id":15,"name":"Uncletopia | New York City | 3 | Stopwatch Beta","name_short":"nyc-3","host":"nyc-1.us.uncletopia.com","port":27035,"enabled":true,"region":"us-east","cc":"us","latitude":40.73061,"longitude":-73.93524,"reserved":0,"last_update":"0001-01-01T00:00:00Z","name_a2s":"Uncletopia | New York City | 3 | Stopwatch Beta","protocol":17,"map":"workshop/cp_reckoner_rc6.ugc674719999","folder":"tf","game":"Team Fortress","app_id":440,"player_count":0,"max_players":24,"Bots":0,"server_type":"Dedicated","server_os":"Linux","password":true,"vac":true,"version":"7961495","steam_id":85568392924742820,"keywords":["cp","nocrits","nodmgspread","uncletopia"],"game_id":440,"stv_port":27036,"stv_name":"Uncletopia | New York City | 3 | Stopwatch Beta | STV","players":null},{"server_id":16,"name":"Uncletopia | New York City | 4 | Community","name_short":"nyc-4","host":"nyc-1.us.uncletopia.com","port":27045,"enabled":true,"region":"us-east","cc":"us","latitude":40.73061,"longitude":-73.93524,"reserved":0,"last_update":"0001-01-01T00:00:00Z","name_a2s":"Uncletopia | New York City | 4 | Community","protocol":17,"map":"workshop/koth_slaughter_rc1.ugc1712845210","folder":"tf","game":"Team Fortress","app_id":440,"player_count":0,"max_players":24,"Bots":0,"server_type":"Dedicated","server_os":"Linux","password":true,"vac":true,"version":"7961495","steam_id":85568392924742821,"keywords":["cp","nocrits","nodmgspread","uncletopia"],"game_id":440,"stv_port":27046,"stv_name":"Uncletopia | New York City | 4 | Community | STV","players":null},{"server_id":142,"name":"Uncletopia | S√£o Paulo | 1 | All Maps","name_short":"sao-1","host":"sao-1.br.uncletopia.com","port":27015,"enabled":true,"region":"sa","cc":"br","latitude":-23.533773,"longitude":-46.62529,"reserved":0,"last_update":"0001-01-01T00:00:00Z","name_a2s":"Uncletopia | S√£o Paulo | 1 | All Maps","protocol":17,"map":"koth_king","folder":"tf","game":"Team Fortress","app_id":440,"player_count":5,"max_players":24,"Bots":0,"server_type":"Dedicated","server_os":"Linux","password":true,"vac":true,"version":"7961495","steam_id":85568392924469996,"keywords":["cp","nocrits","nodmgspread","uncletopia"],"game_id":440,"stv_port":27016,"stv_name":"Uncletopia | S√£o Paulo | 1 | All Maps | STV","players":[{"user_id":7,"name":"Granemann","steam_id":76561198086827008,"connected_time":1729000000000,"state":"active","ping":59},{"user_id":8,"name":"agiota interestelar","steam_id":76561199110940098,"connected_time":1642000000000,"state":"active","ping":57},{"user_id":9,"name":"joaovictor k1111","steam_id":76561198960899857,"connected_time":593000000000,"state":"active","ping":85},{"user_id":10,"name":"HomerGaming","steam_id":76561199223982565,"connected_time":178000000000,"state":"active","ping":81},{"user_id":11,"name":"ZiDenn","steam_id":76561198979010251,"connected_time":27000000000,"state":"spawning","ping":58}]},{"server_id":143,"name":"Uncletopia | S√£o Paulo | 2 | Community","name_short":"sao-2","host":"sao-2.br.uncletopia.com","port":27015,"enabled":true,"region":"sa","cc":"br","latitude":-23.533773,"longitude":-46.62529,"reserved":0,"last_update":"0001-01-01T00:00:00Z","name_a2s":"Uncletopia | S√£o Paulo | 2 | Community","protocol":17,"map":"workshop/cp_glassworks_rc6a.ugc454118349","folder":"tf","game":"Team Fortress","app_id":440,"player_count":0,"max_players":24,"Bots":0,"server_type":"Dedicated","server_os":"Linux","password":true,"vac":true,"version":"7961495","steam_id":85568392924485349,"keywords":["cp","nocrits","nodmgspread","uncletopia"],"game_id":440,"stv_port":27016,"stv_name":"Uncletopia | S√£o Paulo | 2 | Community | STV","players":null},{"server_id":7,"name":"Uncletopia | Seattle | 1 | All Maps","name_short":"sea-1","host":"sea-1.us.uncletopia.com","port":27015,"enabled":true,"region":"us-west","cc":"us","latitude":47.608013,"longitude":-122.33517,"reserved":0,"last_update":"0001-01-01T00:00:00Z","name_a2s":"Uncletopia | Seattle | 1 | All Maps","protocol":17,"map":"koth_nucleus","folder":"tf","game":"Team Fortress","app_id":440,"player_count":24,"max_players":24,"Bots":0,"server_type":"Dedicated","server_os":"Linux","password":true,"vac":true,"version":"7961495","steam_id":85568392924469997,"keywords":["cp","nocrits","nodmgspread","uncletopia"],"game_id":440,"stv_port":27016,"stv_name":"Uncletopia | Seattle | 1 | All Maps | STV","players":[{"user_id":143,"name":"Mr defrost","steam_id":76561198322125657,"connected_time":3360000000000,"state":"active","ping":60},{"user_id":163,"name":"toes","steam_id":76561198221151676,"connected_time":957000000000,"state":"active","ping":58},{"user_id":162,"name":"Arrythmia","steam_id":76561198093748123,"connected_time":1028000000000,"state":"active","ping":39},{"user_id":174,"name":"Octopus","steam_id":76561198114639980,"connected_time":459000000000,"state":"active","ping":63},{"user_id":130,"name":"JesterJasper","steam_id":76561198025338925,"connected_time":3760000000000,"state":"active","ping":45},{"user_id":184,"name":"NEBULA","steam_id":76561198086878595,"connected_time":164000000000,"state":"active","ping":75},{"user_id":173,"name":"DIGGY","steam_id":76561198991238982,"connected_time":549000000000,"state":"active","ping":46},{"user_id":161,"name":"strawberry","steam_id":76561198101926397,"connected_time":1296000000000,"state":"active","ping":120},{"user_id":166,"name":"Kobicha","steam_id":76561198144970720,"connected_time":865000000000,"state":"active","ping":126},{"user_id":153,"name":"THE_DARK_TRICKSTER","steam_id":76561198870649125,"connected_time":2148000000000,"state":"active","ping":84},{"user_id":123,"name":":^1 Hekken","steam_id":76561198109933577,"connected_time":3853000000000,"state":"active","ping":56},{"user_id":81,"name":"[TrC] Nosy","steam_id":76561197978859310,"connected_time":7272000000000,"state":"active","ping":56},{"user_id":171,"name":"ItsDrPuppers","steam_id":76561198084049607,"connected_time":669000000000,"state":"active","ping":82},{"user_id":186,"name":"wile","steam_id":76561198125261443,"connected_time":87000000000,"state":"active","ping":62},{"user_id":84,"name":"[TrC] Dackstrus","steam_id":76561197973518509,"connected_time":7193000000000,"state":"active","ping":57},{"user_id":183,"name":"wintersEmbrace","steam_id":76561198205428892,"connected_time":181000000000,"state":"active","ping":65},{"user_id":177,"name":"Bocchi The Rock Johnson","steam_id":76561198216017952,"connected_time":427000000000,"state":"active","ping":69},{"user_id":178,"name":"Skippy Dinglechalk","steam_id":76561198133291980,"connected_time":423000000000,"state":"active","ping":167},{"user_id":187,"name":"SnoDot","steam_id":76561198062209970,"connected_time":78000000000,"state":"active","ping":32},{"user_id":179,"name":"D34dR4bbit","steam_id":76561198167411455,"connected_time":412000000000,"state":"active","ping":57},{"user_id":159,"name":"Owl Of Delos","steam_id":76561198437116566,"connected_time":1429000000000,"state":"active","ping":63},{"user_id":181,"name":"xLeoparrd","steam_id":76561198940657194,"connected_time":319000000000,"state":"active","ping":100},{"user_id":185,"name":"Crispy Toast‚Ñ¢","steam_id":76561198247144444,"connected_time":131000000000,"state":"active","ping":57},{"user_id":188,"name":"ThePriceIsRice","steam_id":76561198079069543,"connected_time":11000000000,"state":"spawning","ping":58}]},{"server_id":119,"name":"Uncletopia | Seattle | 2 | All Maps","name_short":"sea-2","host":"sea-1.us.uncletopia.com","port":27025,"enabled":true,"region":"us-west","cc":"us","latitude":47.608013,"longitude":-122.33517,"reserved":0,"last_update":"0001-01-01T00:00:00Z","name_a2s":"Uncletopia | Seattle | 2 | All Maps","protocol":17,"map":"koth_viaduct","folder":"tf","game":"Team Fortress","app_id":440,"player_count":0,"max_players":24,"Bots":0,"server_type":"Dedicated","server_os":"Linux","password":true,"vac":true,"version":"7961495","steam_id":85568392924469998,"keywords":["cp","nocrits","nodmgspread","uncletopia"],"game_id":440,"stv_port":27026,"stv_name":"Uncletopia | Seattle | 2 | All Maps | STV","players":null},{"server_id":406,"name":"Uncletopia | Seattle | 3 | Stopwatch Beta","name_short":"sea-3","host":"sea-1.us.uncletopia.com","port":27035,"enabled":true,"region":"us-west","cc":"us","latitude":47.608013,"longitude":-122.33517,"reserved":0,"last_update":"0001-01-01T00:00:00Z","name_a2s":"Uncletopia | Seattle | 3 | Stopwatch Beta","protocol":17,"map":"cp_mountainlab","folder":"tf","game":"Team Fortress","app_id":440,"player_count":0,"max_players":24,"Bots":0,"server_type":"Dedicated","server_os":"Linux","password":true,"vac":true,"version":"7961495","steam_id":85568392924515217,"keywords":["cp","nocrits","nodmgspread","uncletopia"],"game_id":440,"stv_port":27036,"stv_name":"Uncletopia | Seattle | 3 | Stopwatch Beta | STV","players":null},{"server_id":17,"name":"Uncletopia | San Francisco | 1 | All Maps","name_short":"sfo-1","host":"sfo-1.us.uncletopia.com","port":27015,"enabled":true,"region":"us-west","cc":"us","latitude":37.77397,"longitude":-122.4313,"reserved":0,"last_update":"0001-01-01T00:00:00Z","name_a2s":"Uncletopia | San Francisco | 1 | All Maps","protocol":17,"map":"pl_upward","folder":"tf","game":"Team Fortress","app_id":440,"player_count":0,"max_players":24,"Bots":0,"server_type":"Dedicated","server_os":"Linux","password":true,"vac":true,"version":"7961495","steam_id":85568392924469999,"keywords":["nocrits","nodmgspread","payload","uncletopia"],"game_id":440,"stv_port":27016,"stv_name":"Uncletopia | San Francisco | 1 | All Maps | STV","players":null},{"server_id":18,"name":"Uncletopia | San Francisco | 2 | All Maps","name_short":"sfo-2","host":"sfo-1.us.uncletopia.com","port":27025,"enabled":true,"region":"us-west","cc":"us","latitude":37.77397,"longitude":-122.4313,"reserved":0,"last_update":"0001-01-01T00:00:00Z","name_a2s":"Uncletopia | San Francisco | 2 | All Maps","protocol":17,"map":"pl_badwater","folder":"tf","game":"Team Fortress","app_id":440,"player_count":24,"max_players":24,"Bots":0,"server_type":"Dedicated","server_os":"Linux","password":true,"vac":true,"version":"7961495","steam_id":85568392924470000,"keywords":["nocrits","nodmgspread","payload","uncletopia"],"game_id":440,"stv_port":27026,"stv_name":"Uncletopia | San Francisco | 2 | All Maps | STV","players":[{"user_id":15,"name":"Quigi","steam_id":76561198144645874,"connected_time":1181000000000,"state":"active","ping":69},{"user_id":40,"name":"Dropped Dababi","steam_id":76561197990495205,"connected_time":368000000000,"state":"active","ping":120},{"user_id":8,"name":"BoyKisser","steam_id":76561199200969139,"connected_time":2215000000000,"state":"active","ping":126},{"user_id":9,"name":"bcharlton","steam_id":76561199007186253,"connected_time":2209000000000,"state":"active","ping":113},{"user_id":10,"name":"Droozlex","steam_id":76561198157221366,"connected_time":1936000000000,"state":"active","ping":73},{"user_id":42,"name":"Sheev Palpatine","steam_id":76561198252332430,"connected_time":111000000000,"state":"active","ping":65},{"user_id":12,"name":"riSygneD","steam_id":76561198331618687,"connected_time":1731000000000,"state":"active","ping":46},{"user_id":17,"name":"Caspian","steam_id":76561199041466962,"connected_time":1117000000000,"state":"active","ping":58},{"user_id":14,"name":"beans","steam_id":76561199082781884,"connected_time":1648000000000,"state":"active","ping":64},{"user_id":18,"name":"EpicNGamerz","steam_id":76561198304292582,"connected_time":1090000000000,"state":"active","ping":126},{"user_id":28,"name":"Matches_","steam_id":76561198048925904,"connected_time":639000000000,"state":"active","ping":71},{"user_id":20,"name":"Atrix","steam_id":76561198084930312,"connected_time":980000000000,"state":"active","ping":58},{"user_id":21,"name":"mrbeast109385079350229083479082","steam_id":76561198370687830,"connected_time":890000000000,"state":"active","ping":113},{"user_id":22,"name":"rollypollyolie","steam_id":76561198039539380,"connected_time":874000000000,"state":"active","ping":85},{"user_id":36,"name":"SeamossDNB","steam_id":76561198820923011,"connected_time":506000000000,"state":"active","ping":94},{"user_id":26,"name":"ju n","steam_id":76561199026569241,"connected_time":691000000000,"state":"active","ping":150},{"user_id":27,"name":"the real linkin park","steam_id":76561198857245232,"connected_time":690000000000,"state":"active","ping":116},{"user_id":29,"name":"Ninja Decoy","steam_id":76561198041298180,"connected_time":618000000000,"state":"active","ping":86},{"user_id":30,"name":"Pluto","steam_id":76561198338593690,"connected_time":601000000000,"state":"active","ping":118},{"user_id":31,"name":"Aviid‚Ñ¢","steam_id":76561198065846452,"connected_time":598000000000,"state":"active","ping":139},{"user_id":33,"name":"DroidX19","steam_id":76561198867783457,"connected_time":557000000000,"state":"active","ping":60},{"user_id":34,"name":"RyInc","steam_id":76561198874261643,"connected_time":516000000000,"state":"active","ping":103},{"user_id":35,"name":"mongi","steam_id":76561198412781056,"connected_time":510000000000,"state":"active","ping":111},{"user_id":41,"name":"SLiPpeRyJoe.nosound","steam_id":76561197977206359,"connected_time":255000000000,"state":"active","ping":115}]},{"server_id":19,"name":"Uncletopia | San Francisco | 3 | Stopwatch Beta","name_short":"sfo-3","host":"sfo-1.us.uncletopia.com","port":27035,"enabled":true,"region":"us-west","cc":"us","latitude":37.77397,"longitude":-122.4313,"reserved":0,"last_update":"0001-01-01T00:00:00Z","name_a2s":"Uncletopia | San Francisco | 3 | Stopwatch Beta","protocol":17,"map":"pl_upward","folder":"tf","game":"Team Fortress","app_id":440,"player_count":0,"max_players":24,"Bots":0,"server_type":"Dedicated","server_os":"Linux","password":true,"vac":true,"version":"7961495","steam_id":85568392924742824,"keywords":["nocrits","nodmgspread","payload","uncletopia"],"game_id":440,"stv_port":27036,"stv_name":"Uncletopia | San Francisco | 3 | Stopwatch Beta | STV","players":null},{"server_id":20,"name":"Uncletopia | San Francisco | 4 | Community","name_short":"sfo-4","host":"sfo-1.us.uncletopia.com","port":27045,"enabled":true,"region":"us-west","cc":"us","latitude":37.77397,"longitude":-122.4313,"reserved":0,"last_update":"0001-01-01T00:00:00Z","name_a2s":"Uncletopia | San Francisco | 4 | Community","protocol":17,"map":"pl_snowycoast","folder":"tf","game":"Team Fortress","app_id":440,"player_count":0,"max_players":24,"Bots":0,"server_type":"Dedicated","server_os":"Linux","password":true,"vac":true,"version":"7961495","steam_id":85568392924742826,"keywords":["nocrits","nodmgspread","payload","uncletopia"],"game_id":440,"stv_port":27046,"stv_name":"Uncletopia | San Francisco | 4 | Community | STV","players":null},{"server_id":141,"name":"Uncletopia | Sydney | 1 | All Maps","name_short":"syd-1","host":"syd-1.au.uncletopia.com","port":27015,"enabled":true,"region":"au","cc":"au","latitude":-33.865143,"longitude":151.2099,"reserved":0,"last_update":"0001-01-01T00:00:00Z","name_a2s":"Uncletopia | Sydney | 1 | All Maps","protocol":17,"map":"pl_frontier_final","folder":"tf","game":"Team Fortress","app_id":440,"player_count":0,"max_players":24,"Bots":0,"server_type":"Dedicated","server_os":"Linux","password":true,"vac":true,"version":"7961495","steam_id":85568392924470001,"keywords":["nocrits","nodmgspread","payload","uncletopia"],"game_id":440,"stv_port":27016,"stv_name":"Uncletopia | Sydney | 1 | All Maps | STV","players":null},{"server_id":123,"name":"Uncletopia | Sydney | 2 | All Maps","name_short":"syd-2","host":"syd-1.au.uncletopia.com","port":27025,"enabled":true,"region":"au","cc":"au","latitude":-33.865143,"longitude":151.2099,"reserved":0,"last_update":"0001-01-01T00:00:00Z","name_a2s":"Uncletopia | Sydney | 2 | All Maps","protocol":17,"map":"koth_viaduct","folder":"tf","game":"Team Fortress","app_id":440,"player_count":0,"max_players":24,"Bots":0,"server_type":"Dedicated","server_os":"Linux","password":true,"vac":true,"version":"7961495","steam_id":85568392924470002,"keywords":["cp","nocrits","nodmgspread","uncletopia"],"game_id":440,"stv_port":27026,"stv_name":"Uncletopia | Sydney | 2 | All Maps | STV","players":null},{"server_id":395,"name":"Uncletopia | Sydney | 3 | All Maps","name_short":"syd-3","host":"syd-1.au.uncletopia.com","port":27035,"enabled":true,"region":"au","cc":"au","latitude":-33.865143,"longitude":151.2099,"reserved":0,"last_update":"0001-01-01T00:00:00Z","name_a2s":"Uncletopia | Sydney | 3 | All Maps","protocol":17,"map":"pl_pier","folder":"tf","game":"Team Fortress","app_id":440,"player_count":0,"max_players":24,"Bots":0,"server_type":"Dedicated","server_os":"Linux","password":true,"vac":true,"version":"7961495","steam_id":85568392925194467,"keywords":["nocrits","nodmgspread","payload","uncletopia"],"game_id":440,"stv_port":27036,"stv_name":"Uncletopia | Sydney | 3 | All Maps | STV","players":null},{"server_id":396,"name":"Uncletopia | Sydney | 4 | All Maps","name_short":"syd-4","host":"syd-1.au.uncletopia.com","port":27045,"enabled":true,"region":"au","cc":"au","latitude":-33.865143,"longitude":151.2099,"reserved":0,"last_update":"0001-01-01T00:00:00Z","name_a2s":"Uncletopia | Sydney | 4 | All Maps","protocol":17,"map":"pl_barnblitz","folder":"tf","game":"Team Fortress","app_id":440,"player_count":0,"max_players":24,"Bots":0,"server_type":"Dedicated","server_os":"Linux","password":true,"vac":true,"version":"7961495","steam_id":85568392925397958,"keywords":["nocrits","nodmgspread","payload","uncletopia"],"game_id":440,"stv_port":27046,"stv_name":"Uncletopia | Sydney | 4 | All Maps | STV","players":null},{"server_id":58,"name":"Uncletopia | Sydney | 5 | Stopwatch Beta","name_short":"syd-5","host":"syd-1.au.uncletopia.com","port":27055,"enabled":true,"region":"au","cc":"au","latitude":-33.865143,"longitude":151.2099,"reserved":0,"last_update":"0001-01-01T00:00:00Z","name_a2s":"Uncletopia | Sydney | 5 | Stopwatch Beta","protocol":17,"map":"pl_frontier_final","folder":"tf","game":"Team Fortress","app_id":440,"player_count":0,"max_players":24,"Bots":0,"server_type":"Dedicated","server_os":"Linux","password":true,"vac":true,"version":"7961495","steam_id":85568392925397959,"keywords":["nocrits","nodmgspread","payload","uncletopia"],"game_id":440,"stv_port":27056,"stv_name":"Uncletopia | Sydney | 5 | Stopwatch Beta | STV","players":null},{"server_id":59,"name":"Uncletopia | Sydney | 6 | Community","name_short":"syd-6","host":"syd-1.au.uncletopia.com","port":27065,"enabled":true,"region":"au","cc":"au","latitude":-33.865143,"longitude":151.2099,"reserved":0,"last_update":"0001-01-01T00:00:00Z","name_a2s":"Uncletopia | Sydney | 6 | Community","protocol":17,"map":"pl_swiftwater_final1","folder":"tf","game":"Team Fortress","app_id":440,"player_count":0,"max_players":24,"Bots":0,"server_type":"Dedicated","server_os":"Linux","password":true,"vac":true,"version":"7961495","steam_id":85568392925397960,"keywords":["nocrits","nodmgspread","payload","uncletopia"],"game_id":440,"stv_port":27066,"stv_name":"Uncletopia | Sydney | 6 | Community | STV","players":null},{"server_id":49,"name":"Uncletopia | Warsaw | 1 | All Maps","name_short":"waw-1","host":"waw-1.pl.uncletopia.com","port":27015,"enabled":true,"region":"eu","cc":"pl","latitude":52.2297,"longitude":21.017532,"reserved":0,"last_update":"0001-01-01T00:00:00Z","name_a2s":"Uncletopia | Warsaw | 1 | All Maps","protocol":17,"map":"koth_lakeside_final","folder":"tf","game":"Team Fortress","app_id":440,"player_count":0,"max_players":24,"Bots":0,"server_type":"Dedicated","server_os":"Linux","password":true,"vac":true,"version":"7961495","steam_id":85568392925397850,"keywords":["cp","nocrits","nodmgspread","uncletopia"],"game_id":440,"stv_port":27016,"stv_name":"Uncletopia | Warsaw | 1 | All Maps | STV","players":null},{"server_id":50,"name":"Uncletopia | Warsaw | 2 | All Maps","name_short":"waw-2","host":"waw-1.pl.uncletopia.com","port":27025,"enabled":true,"region":"eu","cc":"pl","latitude":52.2297,"longitude":21.017532,"reserved":0,"last_update":"0001-01-01T00:00:00Z","name_a2s":"Uncletopia | Warsaw | 2 | All Maps","protocol":17,"map":"cp_dustbowl","folder":"tf","game":"Team Fortress","app_id":440,"player_count":0,"max_players":24,"Bots":0,"server_type":"Dedicated","server_os":"Linux","password":true,"vac":true,"version":"7961495","steam_id":85568392925397851,"keywords":["cp","nocrits","nodmgspread","uncletopia"],"game_id":440,"stv_port":27026,"stv_name":"Uncletopia | Warsaw | 2 | All Maps | STV","players":null},{"server_id":51,"name":"Uncletopia | Warsaw | 3 | All Maps","name_short":"waw-3","host":"waw-1.pl.uncletopia.com","port":27035,"enabled":true,"region":"eu","cc":"pl","latitude":52.2297,"longitude":21.017532,"reserved":0,"last_update":"0001-01-01T00:00:00Z","name_a2s":"Uncletopia | Warsaw | 3 | All Maps","protocol":17,"map":"koth_highpass","folder":"tf","game":"Team Fortress","app_id":440,"player_count":0,"max_players":24,"Bots":0,"server_type":"Dedicated","server_os":"Linux","password":true,"vac":true,"version":"7961495","steam_id":85568392925397852,"keywords":["cp","nocrits","nodmgspread","uncletopia"],"game_id":440,"stv_port":27036,"stv_name":"Uncletopia | Warsaw | 3 | All Maps | STV","players":null},{"server_id":52,"name":"Uncletopia | Warsaw | 4 | All Maps","name_short":"waw-4","host":"waw-1.pl.uncletopia.com","port":27045,"enabled":true,"region":"eu","cc":"pl","latitude":52.2297,"longitude":21.017532,"reserved":0,"last_update":"0001-01-01T00:00:00Z","name_a2s":"Uncletopia | Warsaw | 4 | All Maps","protocol":17,"map":"koth_viaduct","folder":"tf","game":"Team Fortress","app_id":440,"player_count":0,"max_players":24,"Bots":0,"server_type":"Dedicated","server_os":"Linux","password":true,"vac":true,"version":"7961495","steam_id":85568392925397853,"keywords":["cp","nocrits","nodmgspread","uncletopia"],"game_id":440,"stv_port":27046,"stv_name":"Uncletopia | Warsaw | 4 | All Maps | STV","players":null},{"server_id":53,"name":"Uncletopia | Warsaw | 5 | Stopwatch Beta","name_short":"waw-5","host":"waw-1.pl.uncletopia.com","port":27055,"enabled":true,"region":"eu","cc":"pl","latitude":52.2297,"longitude":21.017532,"reserved":0,"last_update":"0001-01-01T00:00:00Z","name_a2s":"Uncletopia | Warsaw | 5 | Stopwatch Beta","protocol":17,"map":"workshop/pl_summercoast_rc8e.ugc1761528829","folder":"tf","game":"Team Fortress","app_id":440,"player_count":0,"max_players":24,"Bots":0,"server_type":"Dedicated","server_os":"Linux","password":true,"vac":true,"version":"7961495","steam_id":85568392925397854,"keywords":["nocrits","nodmgspread","payload","uncletopia"],"game_id":440,"stv_port":27056,"stv_name":"Uncletopia | Warsaw | 5 | Stopwatch Beta | STV","players":null},{"server_id":54,"name":"Uncletopia | Warsaw | 6 | Community","name_short":"waw-6","host":"waw-1.pl.uncletopia.com","port":27065,"enabled":true,"region":"eu","cc":"pl","latitude":52.2297,"longitude":21.017532,"reserved":0,"last_update":"0001-01-01T00:00:00Z","name_a2s":"Uncletopia | Warsaw | 6 | Community","protocol":17,"map":"workshop/koth_product_final.ugc454272353","folder":"tf","game":"Team Fortress","app_id":440,"player_count":0,"max_players":24,"Bots":0,"server_type":"Dedicated","server_os":"Linux","password":true,"vac":true,"version":"7961495","steam_id":85568392925397856,"keywords":["cp","nocrits","nodmgspread","uncletopia"],"game_id":440,"stv_port":27066,"stv_name":"Uncletopia | Warsaw | 6 | Community | STV","players":null}]}