{"status":true,"message":"","result":[{"server_id":9,"name":"Uncletopia | Atlanta | 1 | All Maps","name_short":"atl-1","host":"atl-1.us.uncletopia.com","port":27015,"enabled":true,"region":"us-east","cc":"us","latitude":33.753746,"longitude":-84.38633,"reserved":0,"last_update":"0001-01-01T00:00:00Z","name_a2s":"Uncletopia | Atlanta | 1 | All Maps","protocol":17,"map":"cp_dustbowl","folder":"tf","game":"Team Fortress","app_id":440,"player_count":24,"max_players":24,"Bots":0,"server_type":"Dedicated","server_os":"Linux","password":true,"vac":true,"version":"7882260","steam_id":85568392924469982,"keywords":["cp","nocrits","nodmgspread","uncletopia"],"game_id":440,"stv_port":27016,"stv_name":"Uncletopia | Atlanta | 1 | All Maps | STV","players":[{"user_id":557,"name":"Intro Bonito","steam_id":76561198119478838,"connected_time":2202000000000,"state":"active","ping":48},{"user_id":543,"name":"Im High","steam_id":76561198049954886,"connected_time":4135000000000,"state":"active","ping":67},{"user_id":563,"name":"Messy_","steam_id":76561199095580664,"connected_time":1914000000000,"state":"active","ping":120},{"user_id":551,"name":"Tue","steam_id":76561198181668501,"connected_time":3027000000000,"state":"active","ping":62},{"user_id":565,"name":"AdmiralCrunch","steam_id":76561198117444710,"connected_time":1877000000000,"state":"active","ping":49},{"user_id":548,"name":"DuckMann","steam_id":76561198197058638,"connected_time":3235000000000,"state":"active","ping":49},{"user_id":534,"name":"Nexxii (They/She)","steam_id":76561198323633947,"connected_time":4832000000000,"state":"active","ping":78},{"user_id":567,"name":"Rando","steam_id":76561198969936465,"connected_time":49000000000,"state":"active","ping":72},{"user_id":470,"name":"eish","steam_id":76561198089463603,"connected_time":7473000000000,"state":"active","ping":120},{"user_id":362,"name":"hi","steam_id":76561198809577048,"connected_time":16908000000000,"state":"active","ping":96},{"user_id":537,"name":"Skinny Pete","steam_id":76561198801608576,"connected_time":4758000000000,"state":"active","ping":73},{"user_id":480,"name":"Le4n!!!","steam_id":76561198045522596,"connected_time":7168000000000,"state":"active","ping":72},{"user_id":538,"name":"ATL1 | wire-guided","steam_id":76561198055407168,"connected_time":4512000000000,"state":"active","ping":59},{"user_id":542,"name":"TheRealMud","steam_id":76561198138312993,"connected_time":4182000000000,"state":"active","ping":86},{"user_id":556,"name":"paetho YT","steam_id":76561198152690003,"connected_time":2456000000000,"state":"active","ping":45},{"user_id":554,"name":"Jabawakai","steam_id":76561198088881254,"connected_time":2626000000000,"state":"active","ping":74},{"user_id":541,"name":"morphine","steam_id":76561198072124799,"connected_time":4199000000000,"state":"active","ping":116},{"user_id":461,"name":"ash","steam_id":76561198127890645,"connected_time":7640000000000,"state":"active","ping":61},{"user_id":559,"name":"Sophie","steam_id":76561198170408057,"connected_time":2159000000000,"state":"active","ping":54},{"user_id":533,"name":"nomad","steam_id":76561197998740399,"connected_time":4928000000000,"state":"active","ping":67},{"user_id":81,"name":"lil hog","steam_id":76561199230929836,"connected_time":46344000000000,"state":"active","ping":81},{"user_id":358,"name":"joe","steam_id":76561198045781320,"connected_time":17829000000000,"state":"active","ping":64},{"user_id":547,"name":"ƒ†1 ‚ô¶ Synth","steam_id":76561198058660228,"connected_time":3689000000000,"state":"active","ping":45},{"user_id":524,"name":"DiGiorno's Pizza","steam_id":76561198142244035,"connected_time":5945000000000,"state":"active","ping":76}]},{"server_id":104,"name":"Uncletopia | Atlanta | 2 | All Maps","name_short":"atl-2","host":"atl-1.us.uncletopia.com","port":27025,"enabled":true,"region":"us-east","cc":"us","latitude":33.753746,"longitude":-84.38633,"reserved":0,"last_update":"0001-01-01T00:00:00Z","name_a2s":"Uncletopia | Atlanta | 2 | All Maps","protocol":17,"map":"plr_hightower","folder":"tf","game":"Team Fortress","app_id":440,"player_count":23,"max_players":24,"Bots":0,"server_type":"Dedicated","server_os":"Linux","password":true,"vac":true,"version":"7882260","steam_id":85568392924469983,"keywords":["nocrits","nodmgspread","payload","uncletopia"],"game_id":440,"stv_port":27026,"stv_name":"Uncletopia | Atlanta | 2 | All Maps | STV","players":[{"user_id":698,"name":"trove","steam_id":76561198110970476,"connected_time":2159000000000,"state":"active","ping":42},{"user_id":736,"name":"Pib","steam_id":76561197994926573,"connected_time":427000000000,"state":"active","ping":84},{"user_id":694,"name":"spy","steam_id":76561198453824178,"connected_time":2466000000000,"state":"active","ping":119},{"user_id":702,"name":"french businessman","steam_id":76561199440272639,"connected_time":1971000000000,"state":"active","ping":93},{"user_id":682,"name":"„ÅÑ„Å°„Åî„Åæ„Çç","steam_id":76561198166100997,"connected_time":3985000000000,"state":"active","ping":61},{"user_id":697,"name":"Pombley","steam_id":76561198141227263,"connected_time":2197000000000,"state":"active","ping":77},{"user_id":714,"name":"FHC | Nyle","steam_id":76561198045652639,"connected_time":1468000000000,"state":"active","ping":120},{"user_id":712,"name":"thebuttergod","steam_id":76561198143454433,"connected_time":1493000000000,"state":"active","ping":63},{"user_id":645,"name":"DR.JONES","steam_id":76561197999709845,"connected_time":7475000000000,"state":"active","ping":73},{"user_id":731,"name":"üéÑAndreaJinglingüéÑ","steam_id":76561198198658783,"connected_time":542000000000,"state":"active","ping":139},{"user_id":703,"name":".jpegged","steam_id":76561198120078454,"connected_time":1970000000000,"state":"active","ping":64},{"user_id":751,"name":"TheGrassMan (He/Him)","steam_id":76561198118984048,"connected_time":56000000000,"state":"active","ping":81},{"user_id":706,"name":"1998 Ford Ranger XLT","steam_id":76561199121043102,"connected_time":1842000000000,"state":"active","ping":111},{"user_id":688,"name":"aspiceeone","steam_id":76561198335426817,"connected_time":3656000000000,"state":"active","ping":64},{"user_id":747,"name":"Bong Rips 4 Jesus","steam_id":76561198062678615,"connected_time":168000000000,"state":"active","ping":68},{"user_id":622,"name":"Mobius","steam_id":76561199121973450,"connected_time":8872000000000,"state":"active","ping":68},{"user_id":717,"name":"danielarmvt","steam_id":76561198799723201,"connected_time":1083000000000,"state":"active","ping":83},{"user_id":709,"name":"Live at Red Rocks '22","steam_id":76561198007464245,"connected_time":1820000000000,"state":"active","ping":60},{"user_id":693,"name":"Monkey Mode","steam_id":76561197961267543,"connected_time":2512000000000,"state":"active","ping":57},{"user_id":710,"name":"Lspan","steam_id":76561199002806208,"connected_time":1782000000000,"state":"active","ping":116},{"user_id":720,"name":"‚ô•Bunny‚ô•Slut‚ô•","steam_id":76561198206376851,"connected_time":741000000000,"state":"active","ping":108},{"user_id":729,"name":"sjpete61","steam_id":76561199103543529,"connected_time":583000000000,"state":"active","ping":114},{"user_id":719,"name":"Broken Cereal‚àö","steam_id":76561198087489795,"connected_time":755000000000,"state":"active","ping":64}]},{"server_id":400,"name":"Uncletopia | Atlanta | 3 | Community","name_short":"atl-3","host":"atl-1.us.uncletopia.com","port":27035,"enabled":true,"region":"us-east","cc":"us","latitude":33.753746,"longitude":-84.38633,"reserved":0,"last_update":"0001-01-01T00:00:00Z","name_a2s":"Uncletopia | Atlanta | 3 | Community","protocol":17,"map":"workshop/pl_emerge_rc2.ugc888027758","folder":"tf","game":"Team Fortress","app_id":440,"player_count":24,"max_players":24,"Bots":0,"server_type":"Dedicated","server_os":"Linux","password":true,"vac":true,"version":"7882260","steam_id":85568392924515187,"keywords":["nocrits","nodmgspread","payload","uncletopia"],"game_id":440,"stv_port":27036,"stv_name":"Uncletopia | Atlanta | 3 | Community | STV","players":[{"user_id":531,"name":"Galactamarx","steam_id":76561198028065755,"connected_time":86000000000,"state":"active","ping":102},{"user_id":528,"name":"+]3D[+ Kirbs","steam_id":76561198368039510,"connected_time":377000000000,"state":"active","ping":52},{"user_id":524,"name":"blue","steam_id":76561198342449098,"connected_time":613000000000,"state":"active","ping":79},{"user_id":521,"name":"WowItsKaylie","steam_id":76561198142049545,"connected_time":773000000000,"state":"active","ping":55},{"user_id":503,"name":"Kaluka","steam_id":76561198036861445,"connected_time":1216000000000,"state":"active","ping":54},{"user_id":517,"name":"R     i     q","steam_id":76561198105485586,"connected_time":809000000000,"state":"active","ping":61},{"user_id":505,"name":"‚òô Corrupt ‚ùß","steam_id":76561197977631915,"connected_time":1089000000000,"state":"active","ping":54},{"user_id":506,"name":"Fluff Butt","steam_id":76561199008334604,"connected_time":1044000000000,"state":"active","ping":73},{"user_id":529,"name":"LionHeart","steam_id":76561198075573693,"connected_time":145000000000,"state":"active","ping":50},{"user_id":525,"name":"hygge","steam_id":76561197960327792,"connected_time":553000000000,"state":"active","ping":60},{"user_id":518,"name":"Omarmeister","steam_id":76561198088369586,"connected_time":794000000000,"state":"active","ping":69},{"user_id":486,"name":"Golurk with some bitches","steam_id":76561198085888959,"connected_time":2143000000000,"state":"active","ping":47},{"user_id":479,"name":"Barlon","steam_id":76561198023717515,"connected_time":2510000000000,"state":"active","ping":75},{"user_id":510,"name":"thom gaming","steam_id":76561198083497855,"connected_time":920000000000,"state":"active","ping":61},{"user_id":526,"name":"Toasty","steam_id":76561198274170167,"connected_time":539000000000,"state":"active","ping":62},{"user_id":519,"name":"Coconut","steam_id":76561198048287788,"connected_time":792000000000,"state":"active","ping":82},{"user_id":494,"name":"jaydn","steam_id":76561198086615208,"connected_time":1633000000000,"state":"active","ping":50},{"user_id":527,"name":"StarManMatt","steam_id":76561198125513574,"connected_time":492000000000,"state":"active","ping":95},{"user_id":532,"name":"Audiphon","steam_id":76561198051340300,"connected_time":60000000000,"state":"spawning","ping":209},{"user_id":460,"name":"Neophyte","steam_id":76561198027183394,"connected_time":3727000000000,"state":"active","ping":103},{"user_id":500,"name":"Wiggee","steam_id":76561197972792989,"connected_time":1378000000000,"state":"active","ping":63},{"user_id":523,"name":"Ninty","steam_id":76561199364725776,"connected_time":725000000000,"state":"active","ping":69},{"user_id":533,"name":"DeletedTaters","steam_id":76561198040773153,"connected_time":33000000000,"state":"active","ping":46},{"user_id":482,"name":"k3ramb1t","steam_id":76561198097880352,"connected_time":2461000000000,"state":"active","ping":72}]},{"server_id":401,"name":"Uncletopia | Atlanta | 4 | No Payload","name_short":"atl-4","host":"atl-1.us.uncletopia.com","port":27045,"enabled":true,"region":"us-east","cc":"us","latitude":33.753746,"longitude":-84.38633,"reserved":0,"last_update":"0001-01-01T00:00:00Z","name_a2s":"","protocol":0,"map":"","folder":"","game":"","app_id":0,"player_count":0,"max_players":0,"Bots":0,"server_type":"","server_os":"","password":false,"vac":false,"version":"","steam_id":0,"keywords":null,"game_id":0,"stv_port":0,"stv_name":"","players":null},{"server_id":2,"name":"Uncletopia | Chicago | 1 | All Maps","name_short":"chi-1","host":"chi-1.us.uncletopia.com","port":27015,"enabled":true,"region":"us-central","cc":"us","latitude":41.881832,"longitude":-87.62318,"reserved":0,"last_update":"0001-01-01T00:00:00Z","name_a2s":"Uncletopia | Chicago | 1 | All Maps","protocol":17,"map":"pl_upward","folder":"tf","game":"Team Fortress","app_id":440,"player_count":23,"max_players":24,"Bots":0,"server_type":"Dedicated","server_os":"Linux","password":true,"vac":true,"version":"7882260","steam_id":85568392924469984,"keywords":["nocrits","nodmgspread","payload","uncletopia"],"game_id":440,"stv_port":27016,"stv_name":"Uncletopia | Chicago | 1 | All Maps | STV","players":[{"user_id":688,"name":"I cum when tazed","steam_id":76561198085813708,"connected_time":3825000000000,"state":"active","ping":62},{"user_id":702,"name":"Thatoneguybunchanumbers","steam_id":76561198028039160,"connected_time":2800000000000,"state":"active","ping":82},{"user_id":748,"name":"Your Local Queer Librarian","steam_id":76561198013077080,"connected_time":12000000000,"state":"spawning","ping":46},{"user_id":704,"name":"Society","steam_id":76561198084167611,"connected_time":2568000000000,"state":"active","ping":61},{"user_id":746,"name":"Dutch van der linde","steam_id":76561198977083959,"connected_time":85000000000,"state":"active","ping":97},{"user_id":749,"name":"top 10 rap battles gone sexual","steam_id":76561198081220016,"connected_time":11000000000,"state":"active","ping":54},{"user_id":721,"name":"Smithex","steam_id":76561198882520378,"connected_time":1755000000000,"state":"active","ping":71},{"user_id":729,"name":"pim","steam_id":76561198095163441,"connected_time":1210000000000,"state":"active","ping":70},{"user_id":719,"name":"canadian birds","steam_id":76561198059466588,"connected_time":1798000000000,"state":"active","ping":65},{"user_id":738,"name":"Lancer Fan Club","steam_id":76561198355495948,"connected_time":511000000000,"state":"active","ping":66},{"user_id":730,"name":"Hoop","steam_id":76561199124865843,"connected_time":1106000000000,"state":"active","ping":58},{"user_id":643,"name":"Sunfly","steam_id":76561198034307439,"connected_time":7115000000000,"state":"active","ping":37},{"user_id":745,"name":"Linkis","steam_id":76561198018192643,"connected_time":98000000000,"state":"active","ping":69},{"user_id":739,"name":"kermitcreeper(ZAZA)","steam_id":76561199222829972,"connected_time":433000000000,"state":"active","ping":54},{"user_id":711,"name":"David De Bergerac","steam_id":76561198010306294,"connected_time":2130000000000,"state":"active","ping":84},{"user_id":717,"name":"Pingle","steam_id":76561198096221632,"connected_time":1831000000000,"state":"active","ping":59},{"user_id":731,"name":"Kuwait Grips","steam_id":76561198292689973,"connected_time":1054000000000,"state":"active","ping":76},{"user_id":747,"name":"stupid ape","steam_id":76561198350027075,"connected_time":30000000000,"state":"spawning","ping":68},{"user_id":735,"name":"Goober","steam_id":76561198825837058,"connected_time":675000000000,"state":"active","ping":52},{"user_id":722,"name":"VLC Media Player","steam_id":76561198103243847,"connected_time":1745000000000,"state":"active","ping":79},{"user_id":732,"name":"hoboways","steam_id":76561198168035195,"connected_time":936000000000,"state":"active","ping":86},{"user_id":718,"name":"Qeolvdxu","steam_id":76561198083102653,"connected_time":1830000000000,"state":"active","ping":66},{"user_id":737,"name":"c00kie","steam_id":76561198418178297,"connected_time":544000000000,"state":"active","ping":46}]},{"server_id":106,"name":"Uncletopia | Chicago | 2 | All Maps","name_short":"chi-2","host":"chi-1.us.uncletopia.com","port":27025,"enabled":true,"region":"us-central","cc":"us","latitude":41.881832,"longitude":-87.62318,"reserved":0,"last_update":"0001-01-01T00:00:00Z","name_a2s":"Uncletopia | Chicago | 2 | All Maps","protocol":17,"map":"cp_snakewater_final1","folder":"tf","game":"Team Fortress","app_id":440,"player_count":23,"max_players":24,"Bots":0,"server_type":"Dedicated","server_os":"Linux","password":true,"vac":true,"version":"7882260","steam_id":85568392924469985,"keywords":["cp","nocrits","nodmgspread","uncletopia"],"game_id":440,"stv_port":27026,"stv_name":"Uncletopia | Chicago | 2 | All Maps | STV","players":[{"user_id":636,"name":"DonoC","steam_id":76561198274473338,"connected_time":2840000000000,"state":"active","ping":83},{"user_id":677,"name":"ElizaLee","steam_id":76561198041239707,"connected_time":532000000000,"state":"active","ping":96},{"user_id":674,"name":"diggyhazard","steam_id":76561198206506481,"connected_time":573000000000,"state":"active","ping":105},{"user_id":670,"name":"Mehman","steam_id":76561199020244051,"connected_time":745000000000,"state":"active","ping":98},{"user_id":664,"name":"hellofreshesports","steam_id":76561198035535731,"connected_time":1581000000000,"state":"active","ping":53},{"user_id":673,"name":"s9","steam_id":76561198065339248,"connected_time":606000000000,"state":"active","ping":91},{"user_id":668,"name":"Â¶ÇÈ°ò","steam_id":76561198038486613,"connected_time":965000000000,"state":"active","ping":72},{"user_id":675,"name":"PILK?!?!?!?!?","steam_id":76561198969045943,"connected_time":571000000000,"state":"active","ping":141},{"user_id":656,"name":"Rajakz","steam_id":76561198220741160,"connected_time":1979000000000,"state":"active","ping":59},{"user_id":647,"name":"HOTA","steam_id":76561199002778841,"connected_time":2267000000000,"state":"active","ping":71},{"user_id":669,"name":"Aristotle Voulton","steam_id":76561198100174923,"connected_time":902000000000,"state":"active","ping":105},{"user_id":684,"name":"Zeta Enthusiast","steam_id":76561198046822122,"connected_time":422000000000,"state":"active","ping":81},{"user_id":659,"name":"herb","steam_id":76561198185980055,"connected_time":1736000000000,"state":"active","ping":85},{"user_id":660,"name":"N0SNitro","steam_id":76561198026157327,"connected_time":1718000000000,"state":"active","ping":65},{"user_id":641,"name":"99RM","steam_id":76561198107382571,"connected_time":2769000000000,"state":"active","ping":124},{"user_id":682,"name":"Tommy Provolone","steam_id":76561198170062377,"connected_time":486000000000,"state":"active","ping":73},{"user_id":680,"name":"Homunculus Gambino","steam_id":76561198158433378,"connected_time":518000000000,"state":"active","ping":64},{"user_id":681,"name":"Penser","steam_id":76561198798194358,"connected_time":516000000000,"state":"active","ping":66},{"user_id":646,"name":"a table","steam_id":76561198158461279,"connected_time":2508000000000,"state":"active","ping":64},{"user_id":629,"name":"Rya‚ò∫","steam_id":76561198370128860,"connected_time":4162000000000,"state":"active","ping":75},{"user_id":655,"name":"Commander Kuiper Belt","steam_id":76561198125216576,"connected_time":2022000000000,"state":"active","ping":86},{"user_id":683,"name":"MJ","steam_id":76561198141852956,"connected_time":483000000000,"state":"active","ping":47}]},{"server_id":402,"name":"Uncletopia | Chicago | 3 | All Maps","name_short":"chi-3","host":"chi-1.us.uncletopia.com","port":27035,"enabled":true,"region":"us-central","cc":"us","latitude":41.881832,"longitude":-87.62318,"reserved":0,"last_update":"0001-01-01T00:00:00Z","name_a2s":"Uncletopia | Chicago | 3 | All Maps","protocol":17,"map":"pl_badwater","folder":"tf","game":"Team Fortress","app_id":440,"player_count":24,"max_players":24,"Bots":0,"server_type":"Dedicated","server_os":"Linux","password":true,"vac":true,"version":"7882260","steam_id":85568392924515191,"keywords":["nocrits","nodmgspread","payload","uncletopia"],"game_id":440,"stv_port":27036,"stv_name":"Uncletopia | Chicago | 3 | All Maps | STV","players":[{"user_id":633,"name":"potato AFK","steam_id":76561198050552558,"connected_time":23000000000,"state":"active","ping":73},{"user_id":586,"name":"Skeleton Dad","steam_id":76561198021489595,"connected_time":2423000000000,"state":"active","ping":73},{"user_id":631,"name":"RainbowHeavy","steam_id":76561198070800159,"connected_time":532000000000,"state":"active","ping":101},{"user_id":619,"name":"blossom","steam_id":76561198042735130,"connected_time":657000000000,"state":"active","ping":104},{"user_id":620,"name":"Buddybudman","steam_id":76561198144316911,"connected_time":655000000000,"state":"active","ping":60},{"user_id":601,"name":"nelly modelo","steam_id":76561198044875206,"connected_time":1879000000000,"state":"active","ping":90},{"user_id":615,"name":"ÊàëÊùØÂ≠êÈáåÁöÑÊ≥•","steam_id":76561198081243580,"connected_time":705000000000,"state":"active","ping":61},{"user_id":621,"name":"Rat Bastard","steam_id":76561198153443658,"connected_time":653000000000,"state":"active","ping":78},{"user_id":611,"name":"insane jester","steam_id":76561198079609974,"connected_time":891000000000,"state":"active","ping":102},{"user_id":622,"name":"Hammerhead","steam_id":76561198897122890,"connected_time":641000000000,"state":"active","ping":58},{"user_id":576,"name":"LACTAID","steam_id":76561198276585202,"connected_time":3282000000000,"state":"active","ping":90},{"user_id":591,"name":"CyberZord","steam_id":76561198388195527,"connected_time":2368000000000,"state":"active","ping":62},{"user_id":614,"name":"Rukh","steam_id":76561197999361315,"connected_time":709000000000,"state":"active","ping":93},{"user_id":593,"name":"fatass","steam_id":76561199439477857,"connected_time":2336000000000,"state":"active","ping":73},{"user_id":606,"name":"The Nikocado Enjoyer","steam_id":76561198263154374,"connected_time":1592000000000,"state":"active","ping":56},{"user_id":634,"name":"Lil' King Trashmouth","steam_id":76561198073442946,"connected_time":18000000000,"state":"spawning","ping":65},{"user_id":632,"name":"Nobody","steam_id":76561198160544586,"connected_time":38000000000,"state":"active","ping":70},{"user_id":603,"name":"Raydn","steam_id":76561198418414338,"connected_time":1831000000000,"state":"active","ping":70},{"user_id":608,"name":"McHarbleBarf","steam_id":76561198307393107,"connected_time":1177000000000,"state":"active","ping":83},{"user_id":604,"name":"gnotagnome","steam_id":76561198027294307,"connected_time":1829000000000,"state":"active","ping":62},{"user_id":630,"name":"I C U P","steam_id":76561198349252490,"connected_time":564000000000,"state":"active","ping":71},{"user_id":626,"name":"A Flying Kidney","steam_id":76561198046208175,"connected_time":620000000000,"state":"active","ping":120},{"user_id":612,"name":"Odd Life","steam_id":76561198244979998,"connected_time":866000000000,"state":"active","ping":105},{"user_id":627,"name":"L√∏st","steam_id":76561198035677801,"connected_time":620000000000,"state":"active","ping":61}]},{"server_id":403,"name":"Uncletopia | Chicago | 4 | All Maps","name_short":"chi-4","host":"chi-1.us.uncletopia.com","port":27045,"enabled":true,"region":"us-central","cc":"us","latitude":41.881832,"longitude":-87.62318,"reserved":0,"last_update":"0001-01-01T00:00:00Z","name_a2s":"Uncletopia | Chicago | 4 | All Maps","protocol":17,"map":"pl_frontier_final","folder":"tf","game":"Team Fortress","app_id":440,"player_count":24,"max_players":24,"Bots":0,"server_type":"Dedicated","server_os":"Linux","password":true,"vac":true,"version":"7882260","steam_id":85568392924515193,"keywords":["nocrits","nodmgspread","payload","uncletopia"],"game_id":440,"stv_port":27046,"stv_name":"Uncletopia | Chicago | 4 | All Maps | STV","players":[{"user_id":490,"name":"harvest cheddar sun chips","steam_id":76561198366682623,"connected_time":1611000000000,"state":"active","ping":67},{"user_id":493,"name":"Predicta","steam_id":76561198017630616,"connected_time":1074000000000,"state":"active","ping":45},{"user_id":486,"name":"Chode Mode","steam_id":76561198353840477,"connected_time":1658000000000,"state":"active","ping":53},{"user_id":445,"name":"Rukks","steam_id":76561197993918954,"connected_time":4717000000000,"state":"active","ping":86},{"user_id":494,"name":"Alice in Rubberland","steam_id":76561198087328346,"connected_time":1045000000000,"state":"active","ping":45},{"user_id":469,"name":"Makina","steam_id":76561198057475567,"connected_time":2801000000000,"state":"active","ping":69},{"user_id":495,"name":"Herr M√ºller","steam_id":76561198064876829,"connected_time":1044000000000,"state":"active","ping":94},{"user_id":477,"name":"Grave Shifter15","steam_id":76561198036381323,"connected_time":1901000000000,"state":"active","ping":58},{"user_id":485,"name":"Rainfire","steam_id":76561198041293730,"connected_time":1691000000000,"state":"active","ping":44},{"user_id":491,"name":"Maverick","steam_id":76561198322829814,"connected_time":1492000000000,"state":"active","ping":78},{"user_id":484,"name":"boardgame","steam_id":76561198254976082,"connected_time":1741000000000,"state":"active","ping":44},{"user_id":453,"name":"Epicmullen","steam_id":76561198259850795,"connected_time":4438000000000,"state":"active","ping":80},{"user_id":458,"name":"JestinJester","steam_id":76561198411846094,"connected_time":4041000000000,"state":"active","ping":72},{"user_id":499,"name":"4th era standards","steam_id":76561198083345384,"connected_time":55000000000,"state":"active","ping":90},{"user_id":498,"name":"QwQ","steam_id":76561198432226673,"connected_time":277000000000,"state":"active","ping":101},{"user_id":479,"name":"Schizo-Senpai","steam_id":76561198175982857,"connected_time":1850000000000,"state":"active","ping":45},{"user_id":423,"name":"sammie.tebo","steam_id":76561199212495985,"connected_time":6838000000000,"state":"active","ping":81},{"user_id":472,"name":"Marshall","steam_id":76561198042570322,"connected_time":2198000000000,"state":"active","ping":85},{"user_id":492,"name":"Sam","steam_id":76561198079393512,"connected_time":1148000000000,"state":"active","ping":77},{"user_id":471,"name":"Murrdogg","steam_id":76561198210491188,"connected_time":2482000000000,"state":"active","ping":65},{"user_id":496,"name":"the nuisance","steam_id":76561198396326793,"connected_time":1015000000000,"state":"active","ping":91},{"user_id":482,"name":"UUuuuooooohhHHH","steam_id":76561198216978832,"connected_time":1785000000000,"state":"active","ping":45},{"user_id":497,"name":"Vile Toad","steam_id":76561198004860610,"connected_time":707000000000,"state":"active","ping":65},{"user_id":467,"name":"Pizza","steam_id":76561198118748364,"connected_time":3400000000000,"state":"active","ping":78}]},{"server_id":36,"name":"Uncletopia | Chicago | 5 | All Maps","name_short":"chi-5","host":"chi-2.us.uncletopia.com","port":27015,"enabled":true,"region":"us-central","cc":"us","latitude":41.881832,"longitude":-87.62318,"reserved":0,"last_update":"0001-01-01T00:00:00Z","name_a2s":"Uncletopia | Chicago | 5 | All Maps","protocol":17,"map":"cp_powerhouse","folder":"tf","game":"Team Fortress","app_id":440,"player_count":24,"max_players":24,"Bots":0,"server_type":"Dedicated","server_os":"Linux","password":true,"vac":true,"version":"7882260","steam_id":85568392924866362,"keywords":["cp","nocrits","nodmgspread","uncletopia"],"game_id":440,"stv_port":27016,"stv_name":"Uncletopia | Chicago | 5 | All Maps | STV","players":[{"user_id":710,"name":"Shorts","steam_id":76561198025009692,"connected_time":5054000000000,"state":"active","ping":76},{"user_id":731,"name":"The Horny","steam_id":76561198863639459,"connected_time":3538000000000,"state":"active","ping":109},{"user_id":749,"name":"Scottygofast","steam_id":76561199140785887,"connected_time":2769000000000,"state":"active","ping":90},{"user_id":770,"name":"averagesoldiermain","steam_id":76561198158447466,"connected_time":80000000000,"state":"active","ping":78},{"user_id":767,"name":"Spinch","steam_id":76561198296224166,"connected_time":955000000000,"state":"active","ping":89},{"user_id":766,"name":"Kelpy G","steam_id":76561198105330587,"connected_time":1227000000000,"state":"active","ping":83},{"user_id":774,"name":"Shellion","steam_id":76561198117936548,"connected_time":50000000000,"state":"active","ping":70},{"user_id":680,"name":"Marc Antony","steam_id":76561198011366517,"connected_time":7324000000000,"state":"active","ping":57},{"user_id":756,"name":"Stormz64(But weezer)","steam_id":76561198239036482,"connected_time":1517000000000,"state":"active","ping":50},{"user_id":764,"name":"WhoIsDst","steam_id":76561199065021451,"connected_time":1278000000000,"state":"active","ping":71},{"user_id":742,"name":"Jill","steam_id":76561198097398193,"connected_time":2900000000000,"state":"active","ping":93},{"user_id":746,"name":"[„èà] Bumpercars","steam_id":76561198061591743,"connected_time":2831000000000,"state":"active","ping":70},{"user_id":771,"name":"blitzkriiegi","steam_id":76561198200944766,"connected_time":71000000000,"state":"active","ping":47},{"user_id":772,"name":"Antifa Supersoldier","steam_id":76561198141816516,"connected_time":70000000000,"state":"active","ping":77},{"user_id":765,"name":"nalezinik","steam_id":76561198030026119,"connected_time":1261000000000,"state":"active","ping":63},{"user_id":744,"name":"Sychke","steam_id":76561198067144055,"connected_time":2881000000000,"state":"active","ping":54},{"user_id":761,"name":"[S]Mr. X [No Monitor]","steam_id":76561197963746035,"connected_time":1336000000000,"state":"active","ping":145},{"user_id":745,"name":"CreativeName","steam_id":76561198853344895,"connected_time":2859000000000,"state":"active","ping":104},{"user_id":773,"name":"win stupid prizes","steam_id":76561198262827851,"connected_time":62000000000,"state":"active","ping":79},{"user_id":747,"name":"APOTATO","steam_id":76561198118199858,"connected_time":2828000000000,"state":"active","ping":90},{"user_id":775,"name":"Mythical Lag","steam_id":76561198347031281,"connected_time":9000000000,"state":"spawning","ping":97},{"user_id":768,"name":"Publo","steam_id":76561198161777140,"connected_time":765000000000,"state":"active","ping":76},{"user_id":741,"name":"Am I Good At The Video Game?","steam_id":76561198046053281,"connected_time":2990000000000,"state":"active","ping":67},{"user_id":750,"name":"AlexeiStukov","steam_id":76561197993272929,"connected_time":2058000000000,"state":"active","ping":68}]},{"server_id":37,"name":"Uncletopia | Chicago | 6 | All Maps","name_short":"chi-6","host":"chi-2.us.uncletopia.com","port":27025,"enabled":true,"region":"us-central","cc":"us","latitude":41.881832,"longitude":-87.62318,"reserved":0,"last_update":"0001-01-01T00:00:00Z","name_a2s":"Uncletopia | Chicago | 6 | All Maps","protocol":17,"map":"pl_goldrush","folder":"tf","game":"Team Fortress","app_id":440,"player_count":23,"max_players":24,"Bots":0,"server_type":"Dedicated","server_os":"Linux","password":true,"vac":true,"version":"7882260","steam_id":85568392924866363,"keywords":["nocrits","nodmgspread","payload","uncletopia"],"game_id":440,"stv_port":27026,"stv_name":"Uncletopia | Chicago | 6 | All Maps | STV","players":[{"user_id":515,"name":"African Despot","steam_id":76561198169966346,"connected_time":1336000000000,"state":"active","ping":77},{"user_id":505,"name":"Orion","steam_id":76561198000418837,"connected_time":2159000000000,"state":"active","ping":84},{"user_id":524,"name":"GoldtoothFour","steam_id":76561198055529332,"connected_time":594000000000,"state":"active","ping":55},{"user_id":510,"name":"sam","steam_id":76561198217362968,"connected_time":1776000000000,"state":"active","ping":60},{"user_id":435,"name":"ZofoJackson","steam_id":76561197998366861,"connected_time":7721000000000,"state":"active","ping":60},{"user_id":429,"name":"Panda Loser","steam_id":76561198828745176,"connected_time":7854000000000,"state":"active","ping":93},{"user_id":533,"name":"unfriendly pyro","steam_id":76561198104086771,"connected_time":71000000000,"state":"active","ping":97},{"user_id":522,"name":"Whoops!","steam_id":76561198151315898,"connected_time":806000000000,"state":"active","ping":61},{"user_id":508,"name":"DarkWolf","steam_id":76561198392222947,"connected_time":1912000000000,"state":"active","ping":80},{"user_id":392,"name":"BigPimpin","steam_id":76561198119549348,"connected_time":10017000000000,"state":"active","ping":75},{"user_id":459,"name":"thecal","steam_id":76561198307893384,"connected_time":5917000000000,"state":"active","ping":89},{"user_id":503,"name":"Also Known As Assteeth","steam_id":76561198049837377,"connected_time":2173000000000,"state":"active","ping":52},{"user_id":521,"name":"gonk","steam_id":76561198061206732,"connected_time":964000000000,"state":"active","ping":74},{"user_id":390,"name":"Dzhoshua","steam_id":76561198071915251,"connected_time":10243000000000,"state":"active","ping":66},{"user_id":526,"name":"Lift_","steam_id":76561198863467430,"connected_time":450000000000,"state":"active","ping":62},{"user_id":520,"name":"-W3E- grim10465","steam_id":76561198045698581,"connected_time":983000000000,"state":"active","ping":59},{"user_id":528,"name":"BurritoCat","steam_id":76561198059822805,"connected_time":403000000000,"state":"active","ping":116},{"user_id":499,"name":"Samvich","steam_id":76561198263319227,"connected_time":3208000000000,"state":"active","ping":106},{"user_id":529,"name":"REspecWizard","steam_id":76561198097950624,"connected_time":391000000000,"state":"active","ping":115},{"user_id":509,"name":"Neocherry","steam_id":76561198137036962,"connected_time":1905000000000,"state":"active","ping":88},{"user_id":517,"name":"Surinferior","steam_id":76561198008953177,"connected_time":1304000000000,"state":"active","ping":74},{"user_id":473,"name":"PinkLemonade","steam_id":76561198799286228,"connected_time":5089000000000,"state":"active","ping":71},{"user_id":534,"name":"accele—èator","steam_id":76561198046842513,"connected_time":69000000000,"state":"active","ping":101}]},{"server_id":38,"name":"Uncletopia | Chicago | 7 | Stopwatch Beta","name_short":"chi-7","host":"chi-2.us.uncletopia.com","port":27035,"enabled":true,"region":"us-central","cc":"us","latitude":41.881832,"longitude":-87.62318,"reserved":0,"last_update":"0001-01-01T00:00:00Z","name_a2s":"Uncletopia | Chicago | 7 | Stopwatch Beta","protocol":17,"map":"cp_sunshine","folder":"tf","game":"Team Fortress","app_id":440,"player_count":16,"max_players":24,"Bots":0,"server_type":"Dedicated","server_os":"Linux","password":true,"vac":true,"version":"7882260","steam_id":85568392924866364,"keywords":["cp","nocrits","nodmgspread","uncletopia"],"game_id":440,"stv_port":27036,"stv_name":"Uncletopia | Chicago | 7 | Stopwatch Beta | STV","players":[{"user_id":428,"name":"mEch114","steam_id":76561198236936060,"connected_time":1163000000000,"state":"active","ping":59},{"user_id":427,"name":"Sprucelass","steam_id":76561197998391724,"connected_time":1206000000000,"state":"active","ping":51},{"user_id":439,"name":"Monke man","steam_id":76561199156094909,"connected_time":744000000000,"state":"active","ping":83},{"user_id":442,"name":"Butters495","steam_id":76561197998689042,"connected_time":151000000000,"state":"active","ping":78},{"user_id":435,"name":"DuskDragon911","steam_id":76561198996036702,"connected_time":974000000000,"state":"active","ping":71},{"user_id":430,"name":"Absurdism","steam_id":76561198284997681,"connected_time":1112000000000,"state":"active","ping":64},{"user_id":401,"name":"ooflex","steam_id":76561199190199627,"connected_time":3175000000000,"state":"active","ping":79},{"user_id":436,"name":"log","steam_id":76561198977633937,"connected_time":943000000000,"state":"active","ping":59},{"user_id":368,"name":"BB Lorexav","steam_id":76561198207565988,"connected_time":4666000000000,"state":"active","ping":68},{"user_id":437,"name":"awesomebrololo","steam_id":76561198374283489,"connected_time":936000000000,"state":"active","ping":129},{"user_id":416,"name":"themadlad67","steam_id":76561199309554436,"connected_time":2190000000000,"state":"active","ping":111},{"user_id":381,"name":"Infineable","steam_id":76561198358100698,"connected_time":4318000000000,"state":"active","ping":59},{"user_id":409,"name":"cwb","steam_id":76561198135667240,"connected_time":2447000000000,"state":"active","ping":87},{"user_id":382,"name":"Zoawsome","steam_id":76561198018758753,"connected_time":4315000000000,"state":"active","ping":49},{"user_id":393,"name":"Atlas (Skylar)","steam_id":76561198041531774,"connected_time":3666000000000,"state":"active","ping":44},{"user_id":400,"name":"neet","steam_id":76561197968115168,"connected_time":3289000000000,"state":"active","ping":57}]},{"server_id":39,"name":"Uncletopia | Chicago | 8 | Community","name_short":"chi-8","host":"chi-2.us.uncletopia.com","port":27045,"enabled":true,"region":"us-central","cc":"us","latitude":41.881832,"longitude":-87.62318,"reserved":0,"last_update":"0001-01-01T00:00:00Z","name_a2s":"Uncletopia | Chicago | 8 | Community","protocol":17,"map":"workshop/pl_cashworks_final1.ugc2904065412","folder":"tf","game":"Team Fortress","app_id":440,"player_count":21,"max_players":24,"Bots":0,"server_type":"Dedicated","server_os":"Linux","password":true,"vac":true,"version":"7882260","steam_id":85568392924866365,"keywords":["nocrits","nodmgspread","payload","uncletopia"],"game_id":440,"stv_port":27046,"stv_name":"Uncletopia | Chicago | 8 | Community | STV","players":[{"user_id":398,"name":"White Boy Freestyle #337","steam_id":76561198880396651,"connected_time":1401000000000,"state":"active","ping":83},{"user_id":408,"name":"Goobed!","steam_id":76561198804349470,"connected_time":732000000000,"state":"active","ping":76},{"user_id":395,"name":"Sudo","steam_id":76561198123714026,"connected_time":1553000000000,"state":"active","ping":112},{"user_id":336,"name":"Spillproff","steam_id":76561198082337619,"connected_time":6369000000000,"state":"active","ping":64},{"user_id":396,"name":"Walka","steam_id":76561198074325951,"connected_time":1474000000000,"state":"active","ping":81},{"user_id":404,"name":"Light Up Skechers","steam_id":76561198066669093,"connected_time":1264000000000,"state":"active","ping":70},{"user_id":341,"name":"Dogemetri","steam_id":76561198274982830,"connected_time":5962000000000,"state":"active","ping":55},{"user_id":376,"name":"Knooper","steam_id":76561198096149824,"connected_time":3530000000000,"state":"active","ping":108},{"user_id":405,"name":"ttv/Rocatex (HalloweenEnjoyer)","steam_id":76561199095053897,"connected_time":1109000000000,"state":"active","ping":69},{"user_id":400,"name":"Red Ball","steam_id":76561199054205242,"connected_time":1328000000000,"state":"active","ping":125},{"user_id":407,"name":"I am a mooshroom","steam_id":76561198104198295,"connected_time":955000000000,"state":"active","ping":94},{"user_id":401,"name":"Lud","steam_id":76561198359217809,"connected_time":1324000000000,"state":"active","ping":186},{"user_id":410,"name":"Weema!","steam_id":76561198256509860,"connected_time":116000000000,"state":"active","ping":77},{"user_id":382,"name":"misterspud","steam_id":76561198195306218,"connected_time":3133000000000,"state":"active","ping":45},{"user_id":389,"name":"Slippery Jim","steam_id":76561198014552029,"connected_time":2156000000000,"state":"active","ping":103},{"user_id":387,"name":"Gram Tokers Count Doinkula","steam_id":76561198112811565,"connected_time":2823000000000,"state":"active","ping":72},{"user_id":402,"name":"Soda Drink Shartblast","steam_id":76561198134187113,"connected_time":1305000000000,"state":"active","ping":84},{"user_id":409,"name":"SiurWurg","steam_id":76561198799928755,"connected_time":716000000000,"state":"active","ping":74},{"user_id":383,"name":"bocaJ","steam_id":76561198374535092,"connected_time":3046000000000,"state":"active","ping":89},{"user_id":394,"name":"Fostrel","steam_id":76561198152160601,"connected_time":1751000000000,"state":"active","ping":74},{"user_id":411,"name":"Monkerty","steam_id":76561199168114427,"connected_time":113000000000,"state":"active","ping":134}]},{"server_id":8,"name":"Uncletopia | Dallas | 1 | All Maps","name_short":"dal-1","host":"dal-1.us.uncletopia.com","port":27015,"enabled":true,"region":"us-central","cc":"us","latitude":32.779167,"longitude":-96.80889,"reserved":0,"last_update":"0001-01-01T00:00:00Z","name_a2s":"Uncletopia | Dallas | 1 | All Maps","protocol":17,"map":"koth_lazarus","folder":"tf","game":"Team Fortress","app_id":440,"player_count":23,"max_players":24,"Bots":0,"server_type":"Dedicated","server_os":"Linux","password":true,"vac":true,"version":"7882260","steam_id":85568392924469986,"keywords":["cp","nocrits","nodmgspread","uncletopia"],"game_id":440,"stv_port":27016,"stv_name":"Uncletopia | Dallas | 1 | All Maps | STV","players":[{"user_id":659,"name":"EvilPigglet","steam_id":76561197987243470,"connected_time":5168000000000,"state":"active","ping":82},{"user_id":719,"name":"JtsRes","steam_id":76561197994809241,"connected_time":760000000000,"state":"active","ping":70},{"user_id":706,"name":"iluvtoust","steam_id":76561198869269207,"connected_time":1985000000000,"state":"active","ping":49},{"user_id":695,"name":"Jesus Christ","steam_id":76561198360789770,"connected_time":2649000000000,"state":"active","ping":88},{"user_id":723,"name":"Anne","steam_id":76561198355654742,"connected_time":596000000000,"state":"active","ping":168},{"user_id":727,"name":"RusticCarp42989","steam_id":76561198361151865,"connected_time":393000000000,"state":"active","ping":100},{"user_id":728,"name":"HmCloud","steam_id":76561198390473149,"connected_time":373000000000,"state":"active","ping":83},{"user_id":703,"name":"MasterGeek.MX","steam_id":76561198063355220,"connected_time":2017000000000,"state":"active","ping":115},{"user_id":699,"name":"plink","steam_id":76561198057829889,"connected_time":2483000000000,"state":"active","ping":57},{"user_id":729,"name":"MeMyBongusAndTheGreatOutdoors","steam_id":76561198097708978,"connected_time":368000000000,"state":"active","ping":57},{"user_id":722,"name":"The White Banded Red Tophat","steam_id":76561198821328722,"connected_time":721000000000,"state":"active","ping":43},{"user_id":704,"name":"An Unhappy Clown","steam_id":76561198175516514,"connected_time":2014000000000,"state":"active","ping":54},{"user_id":730,"name":"Mellow Marshal","steam_id":76561198828607652,"connected_time":367000000000,"state":"active","ping":76},{"user_id":731,"name":"Argon","steam_id":76561199254804349,"connected_time":359000000000,"state":"active","ping":79},{"user_id":733,"name":"Grumby","steam_id":76561198149175262,"connected_time":27000000000,"state":"active","ping":194},{"user_id":717,"name":"FanaticSalt","steam_id":76561199380123059,"connected_time":778000000000,"state":"active","ping":53},{"user_id":707,"name":"BANGARANG","steam_id":76561198816597453,"connected_time":1975000000000,"state":"active","ping":72},{"user_id":724,"name":"Frogmeister","steam_id":76561198276954381,"connected_time":550000000000,"state":"active","ping":70},{"user_id":691,"name":"TheOtherBrush","steam_id":76561199048222977,"connected_time":2840000000000,"state":"active","ping":92},{"user_id":683,"name":"SadVeggie","steam_id":76561198163430099,"connected_time":3614000000000,"state":"active","ping":121},{"user_id":715,"name":"A Straw","steam_id":76561199367935846,"connected_time":1160000000000,"state":"active","ping":71},{"user_id":709,"name":"goooot","steam_id":76561198155591052,"connected_time":1921000000000,"state":"active","ping":55},{"user_id":658,"name":"Squiliam","steam_id":76561198025278006,"connected_time":5202000000000,"state":"active","ping":59}]},{"server_id":108,"name":"Uncletopia | Dallas | 2 | All Maps","name_short":"dal-2","host":"dal-1.us.uncletopia.com","port":27025,"enabled":true,"region":"us-central","cc":"us","latitude":32.779167,"longitude":-96.80889,"reserved":0,"last_update":"0001-01-01T00:00:00Z","name_a2s":"Uncletopia | Dallas | 2 | All Maps","protocol":17,"map":"pl_borneo","folder":"tf","game":"Team Fortress","app_id":440,"player_count":24,"max_players":24,"Bots":0,"server_type":"Dedicated","server_os":"Linux","password":true,"vac":true,"version":"7882260","steam_id":85568392924469988,"keywords":["nocrits","nodmgspread","payload","uncletopia"],"game_id":440,"stv_port":27026,"stv_name":"Uncletopia | Dallas | 2 | All Maps | STV","players":[{"user_id":498,"name":"Divine Kitty","steam_id":76561198293490689,"connected_time":3251000000000,"state":"active","ping":126},{"user_id":499,"name":"BADWOLF42","steam_id":76561198055447523,"connected_time":3246000000000,"state":"active","ping":56},{"user_id":511,"name":"Lil' Croissant","steam_id":76561198059494343,"connected_time":1865000000000,"state":"active","ping":119},{"user_id":485,"name":"[GUT] RiDiK¬Æ","steam_id":76561197969756446,"connected_time":4799000000000,"state":"active","ping":72},{"user_id":513,"name":"errant","steam_id":76561197961758410,"connected_time":1568000000000,"state":"active","ping":32},{"user_id":509,"name":"Cool Cool Mountain","steam_id":76561199004839490,"connected_time":2204000000000,"state":"active","ping":83},{"user_id":517,"name":"Frost","steam_id":76561198272014381,"connected_time":1001000000000,"state":"active","ping":86},{"user_id":505,"name":"potatofox98","steam_id":76561198083721201,"connected_time":2632000000000,"state":"active","ping":91},{"user_id":510,"name":"dweaver","steam_id":76561198119610135,"connected_time":1909000000000,"state":"active","ping":70},{"user_id":504,"name":"TechnoBear2099","steam_id":76561198238863596,"connected_time":2648000000000,"state":"active","ping":45},{"user_id":442,"name":"Theory-Y","steam_id":76561198116419931,"connected_time":8798000000000,"state":"active","ping":109},{"user_id":515,"name":"slyallycat184","steam_id":76561198842409724,"connected_time":1007000000000,"state":"active","ping":70},{"user_id":512,"name":"General","steam_id":76561198171237341,"connected_time":1810000000000,"state":"active","ping":69},{"user_id":523,"name":"Pleiades, the Sorceror","steam_id":76561198079590693,"connected_time":619000000000,"state":"active","ping":65},{"user_id":524,"name":"c0wmanglr","steam_id":76561198025342064,"connected_time":566000000000,"state":"active","ping":62},{"user_id":503,"name":"Va1lentine","steam_id":76561198216281649,"connected_time":2659000000000,"state":"active","ping":100},{"user_id":507,"name":"Psychosis","steam_id":76561198078659070,"connected_time":2604000000000,"state":"active","ping":85},{"user_id":508,"name":"PerliousFalcon","steam_id":76561198124801907,"connected_time":2454000000000,"state":"active","ping":96},{"user_id":516,"name":"[GUT] 13","steam_id":76561197985209820,"connected_time":1004000000000,"state":"active","ping":80},{"user_id":514,"name":"Gas-station pump #3","steam_id":76561198108655677,"connected_time":1395000000000,"state":"active","ping":90},{"user_id":518,"name":"reptar","steam_id":76561198070164185,"connected_time":989000000000,"state":"active","ping":71},{"user_id":526,"name":"Space_Cowboy","steam_id":76561198202240772,"connected_time":204000000000,"state":"active","ping":58},{"user_id":522,"name":"Yunky","steam_id":76561197966495749,"connected_time":760000000000,"state":"active","ping":63},{"user_id":495,"name":"Alkimia","steam_id":76561198385763137,"connected_time":3540000000000,"state":"active","ping":151}]},{"server_id":5,"name":"Uncletopia | Frankfurt | 1 | All Maps","name_short":"frk-1","host":"frk-1.de.uncletopia.com","port":27015,"enabled":true,"region":"eu","cc":"de","latitude":50.110924,"longitude":8.682127,"reserved":0,"last_update":"0001-01-01T00:00:00Z","name_a2s":"Uncletopia | Frankfurt | 1 | All Maps","protocol":17,"map":"cp_sunshine","folder":"tf","game":"Team Fortress","app_id":440,"player_count":0,"max_players":24,"Bots":0,"server_type":"Dedicated","server_os":"Linux","password":true,"vac":true,"version":"7882260","steam_id":85568392924469989,"keywords":["cp","nocrits","nodmgspread","uncletopia"],"game_id":440,"stv_port":27016,"stv_name":"Uncletopia | Frankfurt | 1 | All Maps | STV","players":null},{"server_id":110,"name":"Uncletopia | Frankfurt | 2 | All Maps","name_short":"frk-2","host":"frk-1.de.uncletopia.com","port":27025,"enabled":true,"region":"eu","cc":"de","latitude":50.110924,"longitude":8.682127,"reserved":0,"last_update":"0001-01-01T00:00:00Z","name_a2s":"Uncletopia | Frankfurt | 2 | All Maps","protocol":17,"map":"koth_cascade","folder":"tf","game":"Team Fortress","app_id":440,"player_count":0,"max_players":24,"Bots":0,"server_type":"Dedicated","server_os":"Linux","password":true,"vac":true,"version":"7882260","steam_id":85568392924469990,"keywords":["cp","nocrits","nodmgspread","uncletopia"],"game_id":440,"stv_port":27026,"stv_name":"Uncletopia | Frankfurt | 2 | All Maps | STV","players":null},{"server_id":308,"name":"Uncletopia | Frankfurt | 3 | All Maps","name_short":"frk-3","host":"frk-1.de.uncletopia.com","port":27035,"enabled":true,"region":"eu","cc":"de","latitude":50.110924,"longitude":8.682127,"reserved":0,"last_update":"0001-01-01T00:00:00Z","name_a2s":"Uncletopia | Frankfurt | 3 | All Maps","protocol":17,"map":"pl_pier","folder":"tf","game":"Team Fortress","app_id":440,"player_count":3,"max_players":24,"Bots":0,"server_type":"Dedicated","server_os":"Linux","password":true,"vac":true,"version":"7882260","steam_id":85568392924504274,"keywords":["nocrits","nodmgspread","payload","uncletopia"],"game_id":440,"stv_port":27036,"stv_name":"Uncletopia | Frankfurt | 3 | All Maps | STV","players":[{"user_id":783,"name":"TalieAustrine","steam_id":76561198852156363,"connected_time":940000000000,"state":"active","ping":222},{"user_id":784,"name":"awed","steam_id":76561198835480271,"connected_time":512000000000,"state":"active","ping":105},{"user_id":785,"name":"odacovA","steam_id":76561199383345208,"connected_time":496000000000,"state":"active","ping":155}]},{"server_id":309,"name":"Uncletopia | Frankfurt | 4 | All Maps","name_short":"frk-4","host":"frk-1.de.uncletopia.com","port":27045,"enabled":true,"region":"eu","cc":"de","latitude":50.110924,"longitude":8.682127,"reserved":0,"last_update":"0001-01-01T00:00:00Z","name_a2s":"Uncletopia | Frankfurt | 4 | All Maps","protocol":17,"map":"koth_suijin","folder":"tf","game":"Team Fortress","app_id":440,"player_count":0,"max_players":24,"Bots":0,"server_type":"Dedicated","server_os":"Linux","password":true,"vac":true,"version":"7882260","steam_id":85568392924504275,"keywords":["cp","nocrits","nodmgspread","uncletopia"],"game_id":440,"stv_port":27046,"stv_name":"Uncletopia | Frankfurt | 4 | All Maps | STV","players":null},{"server_id":310,"name":"Uncletopia | Frankfurt | 5 | All Maps","name_short":"frk-5","host":"frk-1.de.uncletopia.com","port":27055,"enabled":true,"region":"eu","cc":"de","latitude":50.110924,"longitude":8.682127,"reserved":0,"last_update":"0001-01-01T00:00:00Z","name_a2s":"Uncletopia | Frankfurt | 5 | All Maps","protocol":17,"map":"koth_highpass","folder":"tf","game":"Team Fortress","app_id":440,"player_count":0,"max_players":24,"Bots":0,"server_type":"Dedicated","server_os":"Linux","password":true,"vac":true,"version":"7882260","steam_id":85568392924504277,"keywords":["cp","nocrits","nodmgspread","uncletopia"],"game_id":440,"stv_port":27056,"stv_name":"Uncletopia | Frankfurt | 5 | All Maps | STV","players":null},{"server_id":311,"name":"Uncletopia | Frankfurt | 6 | All Maps","name_short":"frk-6","host":"frk-1.de.uncletopia.com","port":27065,"enabled":true,"region":"eu","cc":"de","latitude":50.110924,"longitude":8.682127,"reserved":0,"last_update":"0001-01-01T00:00:00Z","name_a2s":"Uncletopia | Frankfurt | 6 | All Maps","protocol":17,"map":"pl_frontier_final","folder":"tf","game":"Team Fortress","app_id":440,"player_count":0,"max_players":24,"Bots":0,"server_type":"Dedicated","server_os":"Linux","password":true,"vac":true,"version":"7882260","steam_id":85568392924504278,"keywords":["nocrits","nodmgspread","payload","uncletopia"],"game_id":440,"stv_port":27066,"stv_name":"Uncletopia | Frankfurt | 6 | All Maps | STV","players":null},{"server_id":23,"name":"Uncletopia | Frankfurt | 7 | Stopwatch Beta","name_short":"frk-7","host":"frk-1.de.uncletopia.com","port":27075,"enabled":true,"region":"eu","cc":"de","latitude":50.110924,"longitude":8.682127,"reserved":0,"last_update":"0001-01-01T00:00:00Z","name_a2s":"Uncletopia | Frankfurt | 7 | Stopwatch Beta","protocol":17,"map":"pl_upward","folder":"tf","game":"Team Fortress","app_id":440,"player_count":0,"max_players":24,"Bots":0,"server_type":"Dedicated","server_os":"Linux","password":true,"vac":true,"version":"7882260","steam_id":85568392924742827,"keywords":["nocrits","nodmgspread","payload","uncletopia"],"game_id":440,"stv_port":27076,"stv_name":"Uncletopia | Frankfurt | 7 | Stopwatch Beta | STV","players":null},{"server_id":24,"name":"Uncletopia | Frankfurt | 8 | Community","name_short":"frk-8","host":"frk-1.de.uncletopia.com","port":27085,"enabled":true,"region":"eu","cc":"de","latitude":50.110924,"longitude":8.682127,"reserved":0,"last_update":"0001-01-01T00:00:00Z","name_a2s":"Uncletopia | Frankfurt | 8 | Community","protocol":17,"map":"workshop/koth_product_final.ugc454272353","folder":"tf","game":"Team Fortress","app_id":440,"player_count":0,"max_players":24,"Bots":0,"server_type":"Dedicated","server_os":"Linux","password":true,"vac":true,"version":"7882260","steam_id":85568392924742828,"keywords":["cp","nocrits","nodmgspread","uncletopia"],"game_id":440,"stv_port":27086,"stv_name":"Uncletopia | Frankfurt | 8 | Community | STV","players":null},{"server_id":202,"name":"Uncletopia | Hong Kong | 1 | All Maps","name_short":"hgk-1","host":"hgk-1.hk.uncletopia.com","port":27015,"enabled":true,"region":"asia","cc":"hk","latitude":22.302711,"longitude":114.177216,"reserved":0,"last_update":"0001-01-01T00:00:00Z","name_a2s":"Uncletopia | Hong Kong | 1 | All Maps","protocol":17,"map":"koth_cascade","folder":"tf","game":"Team Fortress","app_id":440,"player_count":0,"max_players":24,"Bots":0,"server_type":"Dedicated","server_os":"Linux","password":true,"vac":true,"version":"7882260","steam_id":85568392924494504,"keywords":["cp","nocrits","nodmgspread","uncletopia"],"game_id":440,"stv_port":27016,"stv_name":"Uncletopia | Hong Kong | 1 | All Maps | STV","players":null},{"server_id":1,"name":"Uncletopia | Los Angeles | 1 | All Maps","name_short":"lax-1","host":"lax-1.us.uncletopia.com","port":27015,"enabled":true,"region":"us-west","cc":"us","latitude":33.94279,"longitude":-118.41004,"reserved":0,"last_update":"0001-01-01T00:00:00Z","name_a2s":"Uncletopia | Los Angeles | 1 | All Maps","protocol":17,"map":"pl_frontier_final","folder":"tf","game":"Team Fortress","app_id":440,"player_count":24,"max_players":24,"Bots":0,"server_type":"Dedicated","server_os":"Linux","password":true,"vac":true,"version":"7882260","steam_id":85568392924469991,"keywords":["nocrits","nodmgspread","payload","uncletopia"],"game_id":440,"stv_port":27016,"stv_name":"Uncletopia | Los Angeles | 1 | All Maps | STV","players":[{"user_id":501,"name":"goopuffer","steam_id":76561198118644686,"connected_time":2942000000000,"state":"active","ping":47},{"user_id":535,"name":"Punished Jeff (Drain Messiah)","steam_id":76561198304252584,"connected_time":680000000000,"state":"active","ping":52},{"user_id":499,"name":"Djlumo18","steam_id":76561199191221872,"connected_time":3017000000000,"state":"active","ping":62},{"user_id":537,"name":"bumo","steam_id":76561197963231514,"connected_time":402000000000,"state":"active","ping":36},{"user_id":526,"name":"HauntedNobu","steam_id":76561199202411385,"connected_time":1679000000000,"state":"active","ping":52},{"user_id":503,"name":"HideOnTate","steam_id":76561198209880837,"connected_time":2880000000000,"state":"active","ping":76},{"user_id":509,"name":"MintyT21","steam_id":76561198293395470,"connected_time":2348000000000,"state":"active","ping":54},{"user_id":510,"name":"Juliocrivera","steam_id":76561198003186978,"connected_time":2344000000000,"state":"active","ping":66},{"user_id":530,"name":"Person","steam_id":76561198073885832,"connected_time":1371000000000,"state":"active","ping":63},{"user_id":477,"name":"Destroyer1004","steam_id":76561199367685913,"connected_time":4647000000000,"state":"active","ping":91},{"user_id":511,"name":"IGMGIM","steam_id":76561198053307010,"connected_time":2339000000000,"state":"active","ping":105},{"user_id":489,"name":"bobletoob","steam_id":76561199184464900,"connected_time":3395000000000,"state":"active","ping":64},{"user_id":527,"name":"Igrium","steam_id":76561198119549811,"connected_time":1676000000000,"state":"active","ping":63},{"user_id":512,"name":"BT | Emiya Shirou","steam_id":76561198293592962,"connected_time":2326000000000,"state":"active","ping":112},{"user_id":541,"name":"LogicalFurret","steam_id":76561198350604657,"connected_time":27000000000,"state":"active","ping":76},{"user_id":507,"name":"Ad3ptus","steam_id":76561198272045750,"connected_time":2492000000000,"state":"active","ping":61},{"user_id":534,"name":"chikn mcnuggies","steam_id":76561198315362578,"connected_time":718000000000,"state":"active","ping":122},{"user_id":539,"name":"Fake Chainz","steam_id":76561198312889455,"connected_time":186000000000,"state":"active","ping":98},{"user_id":538,"name":"Just a Good Friend","steam_id":76561198140052403,"connected_time":205000000000,"state":"active","ping":49},{"user_id":494,"name":"Woomy Just A Furry :3","steam_id":76561199199877614,"connected_time":3364000000000,"state":"active","ping":54},{"user_id":532,"name":"BUSY","steam_id":76561198047532250,"connected_time":1204000000000,"state":"active","ping":87},{"user_id":528,"name":"Ikari","steam_id":76561198346397468,"connected_time":1544000000000,"state":"active","ping":107},{"user_id":536,"name":"Twombly","steam_id":76561198056532348,"connected_time":676000000000,"state":"active","ping":57},{"user_id":540,"name":"LatinRhythms -2 ref","steam_id":76561198025110751,"connected_time":102000000000,"state":"active","ping":125}]},{"server_id":112,"name":"Uncletopia | Los Angeles | 2 | All Maps","name_short":"lax-2","host":"lax-1.us.uncletopia.com","port":27025,"enabled":true,"region":"us-west","cc":"us","latitude":33.94279,"longitude":-118.41004,"reserved":0,"last_update":"0001-01-01T00:00:00Z","name_a2s":"Uncletopia | Los Angeles | 2 | All Maps","protocol":17,"map":"cp_dustbowl","folder":"tf","game":"Team Fortress","app_id":440,"player_count":24,"max_players":24,"Bots":0,"server_type":"Dedicated","server_os":"Linux","password":true,"vac":true,"version":"7882260","steam_id":85568392924469992,"keywords":["cp","nocrits","nodmgspread","uncletopia"],"game_id":440,"stv_port":27026,"stv_name":"Uncletopia | Los Angeles | 2 | All Maps | STV","players":[{"user_id":375,"name":"SuperSchlong","steam_id":76561197963363115,"connected_time":73000000000,"state":"active","ping":45},{"user_id":370,"name":"merkury731","steam_id":76561198110565430,"connected_time":309000000000,"state":"active","ping":103},{"user_id":312,"name":"Sacrificial Wormy","steam_id":76561198054539200,"connected_time":4149000000000,"state":"active","ping":75},{"user_id":342,"name":"Nugakku","steam_id":76561198082346219,"connected_time":1659000000000,"state":"active","ping":75},{"user_id":300,"name":"t","steam_id":76561198175988929,"connected_time":5053000000000,"state":"active","ping":85},{"user_id":365,"name":"Mario \"Jumpman\" Mario","steam_id":76561198175748806,"connected_time":361000000000,"state":"active","ping":55},{"user_id":363,"name":"Hydroxianchaos","steam_id":76561198043786828,"connected_time":366000000000,"state":"active","ping":118},{"user_id":314,"name":"Your Casual Fox","steam_id":76561198079751767,"connected_time":4141000000000,"state":"active","ping":60},{"user_id":377,"name":"Mickmissi√≥n","steam_id":76561199133527421,"connected_time":20000000000,"state":"spawning","ping":47},{"user_id":376,"name":"spacemonkey","steam_id":76561199245106074,"connected_time":70000000000,"state":"active","ping":58},{"user_id":343,"name":"JawnyMac","steam_id":76561198179529599,"connected_time":1628000000000,"state":"active","ping":59},{"user_id":344,"name":"Dededoo","steam_id":76561198279033471,"connected_time":1626000000000,"state":"active","ping":101},{"user_id":303,"name":"George's Worst Nightmare","steam_id":76561198263739357,"connected_time":5020000000000,"state":"active","ping":57},{"user_id":352,"name":"stub","steam_id":76561199060788308,"connected_time":1279000000000,"state":"active","ping":108},{"user_id":368,"name":"Can You Feel It Mr.Krabs","steam_id":76561198128302414,"connected_time":338000000000,"state":"active","ping":53},{"user_id":371,"name":"Socialism Enjoyer","steam_id":76561197991817974,"connected_time":305000000000,"state":"active","ping":70},{"user_id":293,"name":"Gin","steam_id":76561198410387482,"connected_time":5258000000000,"state":"active","ping":117},{"user_id":302,"name":"Tohru Adachi","steam_id":76561198302118756,"connected_time":5031000000000,"state":"active","ping":60},{"user_id":378,"name":"Laxoloni","steam_id":76561199197045700,"connected_time":16000000000,"state":"active","ping":104},{"user_id":373,"name":"Reggie","steam_id":76561198835737236,"connected_time":196000000000,"state":"active","ping":127},{"user_id":374,"name":"Chin, Bruce Lee's Relative","steam_id":76561198240105522,"connected_time":178000000000,"state":"active","ping":111},{"user_id":372,"name":"kurt cobain shotgun","steam_id":76561198887610246,"connected_time":299000000000,"state":"active","ping":72},{"user_id":354,"name":"Dob Bole","steam_id":76561198056367220,"connected_time":1108000000000,"state":"active","ping":44},{"user_id":359,"name":"Qwerts","steam_id":76561198199410747,"connected_time":561000000000,"state":"active","ping":85}]},{"server_id":324,"name":"Uncletopia | Los Angeles | 3 | All Maps","name_short":"lax-3","host":"lax-1.us.uncletopia.com","port":27035,"enabled":true,"region":"us-west","cc":"us","latitude":33.94279,"longitude":-118.41004,"reserved":0,"last_update":"0001-01-01T00:00:00Z","name_a2s":"Uncletopia | Los Angeles | 3 | All Maps","protocol":17,"map":"pl_barnblitz","folder":"tf","game":"Team Fortress","app_id":440,"player_count":24,"max_players":24,"Bots":0,"server_type":"Dedicated","server_os":"Linux","password":true,"vac":true,"version":"7882260","steam_id":85568392924510198,"keywords":["nocrits","nodmgspread","payload","uncletopia"],"game_id":440,"stv_port":27036,"stv_name":"Uncletopia | Los Angeles | 3 | All Maps | STV","players":[{"user_id":470,"name":"Aiko","steam_id":76561198262395873,"connected_time":439000000000,"state":"active","ping":57},{"user_id":468,"name":"Cav","steam_id":76561198170621723,"connected_time":909000000000,"state":"active","ping":88},{"user_id":453,"name":"Tummy Sunday","steam_id":76561198031336957,"connected_time":1481000000000,"state":"active","ping":90},{"user_id":454,"name":"Swag_Master_1999","steam_id":76561198068654268,"connected_time":1467000000000,"state":"active","ping":101},{"user_id":455,"name":"AAGooseman","steam_id":76561198378941369,"connected_time":1440000000000,"state":"active","ping":42},{"user_id":456,"name":"[DATS‚û°] Sugar Meowth","steam_id":76561197995251793,"connected_time":1430000000000,"state":"active","ping":72},{"user_id":437,"name":"Aequalis747","steam_id":76561199456589841,"connected_time":2197000000000,"state":"active","ping":63},{"user_id":444,"name":"Spoon Salesman","steam_id":76561199281974488,"connected_time":1912000000000,"state":"active","ping":117},{"user_id":441,"name":"Pot Head Pixie","steam_id":76561198083024504,"connected_time":2110000000000,"state":"active","ping":80},{"user_id":471,"name":"LivingRaccoon","steam_id":76561198035425632,"connected_time":423000000000,"state":"active","ping":59},{"user_id":469,"name":"John Wick's puppy","steam_id":76561198064662875,"connected_time":691000000000,"state":"active","ping":58},{"user_id":467,"name":"AtomSQRRL","steam_id":76561199151951364,"connected_time":1013000000000,"state":"active","ping":52},{"user_id":457,"name":"MeeM Medic","steam_id":76561198310121645,"connected_time":1409000000000,"state":"active","ping":93},{"user_id":443,"name":"fart with reverb","steam_id":76561198861823583,"connected_time":2099000000000,"state":"active","ping":114},{"user_id":446,"name":"TheGhostThatWas","steam_id":76561198055836483,"connected_time":1856000000000,"state":"active","ping":105},{"user_id":405,"name":"iKickBabies","steam_id":76561199337400258,"connected_time":4222000000000,"state":"active","ping":74},{"user_id":458,"name":"crow spy","steam_id":76561198357318776,"connected_time":1400000000000,"state":"active","ping":108},{"user_id":459,"name":"Rose","steam_id":76561198955581861,"connected_time":1370000000000,"state":"active","ping":50},{"user_id":472,"name":"The Horselords and Animal Gods","steam_id":76561197975094050,"connected_time":393000000000,"state":"active","ping":55},{"user_id":461,"name":"Geight","steam_id":76561197991645292,"connected_time":1301000000000,"state":"active","ping":93},{"user_id":462,"name":"retro games","steam_id":76561198242179176,"connected_time":1240000000000,"state":"active","ping":85},{"user_id":475,"name":"Grilled Jizo","steam_id":76561199250875340,"connected_time":214000000000,"state":"active","ping":97},{"user_id":463,"name":"OmniMoto","steam_id":76561198091298557,"connected_time":1239000000000,"state":"active","ping":76},{"user_id":474,"name":"Richiebeans","steam_id":76561198026558654,"connected_time":336000000000,"state":"active","ping":119}]},{"server_id":25,"name":"Uncletopia | Los Angeles | 4 | Stopwatch Beta","name_short":"lax-4","host":"lax-1.us.uncletopia.com","port":27045,"enabled":true,"region":"us-west","cc":"us","latitude":33.94279,"longitude":-118.41004,"reserved":0,"last_update":"0001-01-01T00:00:00Z","name_a2s":"Uncletopia | Los Angeles | 4 | Stopwatch Beta","protocol":17,"map":"cp_snakewater_final1","folder":"tf","game":"Team Fortress","app_id":440,"player_count":5,"max_players":24,"Bots":0,"server_type":"Dedicated","server_os":"Linux","password":true,"vac":true,"version":"7882260","steam_id":85568392924510199,"keywords":["cp","nocrits","nodmgspread","uncletopia"],"game_id":440,"stv_port":27046,"stv_name":"Uncletopia | Los Angeles | 4 | Stopwatch Beta | STV","players":[{"user_id":92,"name":"Uluyo","steam_id":76561198065857148,"connected_time":499000000000,"state":"active","ping":74},{"user_id":94,"name":"TangenT","steam_id":76561198211278067,"connected_time":206000000000,"state":"active","ping":76},{"user_id":89,"name":"ApplesMate","steam_id":76561198832763278,"connected_time":1150000000000,"state":"active","ping":46},{"user_id":72,"name":"FragmantizedLemon","steam_id":76561198313580674,"connected_time":2528000000000,"state":"active","ping":246},{"user_id":97,"name":"Pyrolimited","steam_id":76561198195455657,"connected_time":138000000000,"state":"active","ping":70}]},{"server_id":11,"name":"Uncletopia | London | 1 | All Maps","name_short":"lon-1","host":"lon-1.uk.uncletopia.com","port":27015,"enabled":true,"region":"eu","cc":"gb","latitude":51.509865,"longitude":-0.118092,"reserved":0,"last_update":"0001-01-01T00:00:00Z","name_a2s":"Uncletopia | London | 1 | All Maps","protocol":17,"map":"pl_pier","folder":"tf","game":"Team Fortress","app_id":440,"player_count":0,"max_players":24,"Bots":0,"server_type":"Dedicated","server_os":"Linux","password":true,"vac":true,"version":"7882260","steam_id":85568392924367362,"keywords":["nocrits","nodmgspread","payload","uncletopia"],"game_id":440,"stv_port":27016,"stv_name":"Uncletopia | London | 1 | All Maps | STV","players":null},{"server_id":114,"name":"Uncletopia | London | 2 | All Maps","name_short":"lon-2","host":"lon-1.uk.uncletopia.com","port":27025,"enabled":true,"region":"eu","cc":"gb","latitude":51.509865,"longitude":-0.118092,"reserved":0,"last_update":"0001-01-01T00:00:00Z","name_a2s":"Uncletopia | London | 2 | All Maps","protocol":17,"map":"pl_badwater","folder":"tf","game":"Team Fortress","app_id":440,"player_count":0,"max_players":24,"Bots":0,"server_type":"Dedicated","server_os":"Linux","password":true,"vac":true,"version":"7882260","steam_id":85568392924470941,"keywords":["nocrits","nodmgspread","payload","uncletopia"],"game_id":440,"stv_port":27026,"stv_name":"Uncletopia | London | 2 | All Maps | STV","players":null},{"server_id":320,"name":"Uncletopia | London | 3 | All Maps","name_short":"lon-3","host":"lon-1.uk.uncletopia.com","port":27035,"enabled":true,"region":"eu","cc":"gb","latitude":51.509865,"longitude":-0.118092,"reserved":0,"last_update":"0001-01-01T00:00:00Z","name_a2s":"Uncletopia | London | 3 | All Maps","protocol":17,"map":"cp_mountainlab","folder":"tf","game":"Team Fortress","app_id":440,"player_count":0,"max_players":24,"Bots":0,"server_type":"Dedicated","server_os":"Linux","password":true,"vac":true,"version":"7882260","steam_id":85568392924510192,"keywords":["cp","nocrits","nodmgspread","uncletopia"],"game_id":440,"stv_port":27036,"stv_name":"Uncletopia | London | 3 | All Maps | STV","players":null},{"server_id":321,"name":"Uncletopia | London | 4 | All Maps","name_short":"lon-4","host":"lon-1.uk.uncletopia.com","port":27045,"enabled":true,"region":"eu","cc":"gb","latitude":51.509865,"longitude":-0.118092,"reserved":0,"last_update":"0001-01-01T00:00:00Z","name_a2s":"Uncletopia | London | 4 | All Maps","protocol":17,"map":"cp_dustbowl","folder":"tf","game":"Team Fortress","app_id":440,"player_count":24,"max_players":24,"Bots":0,"server_type":"Dedicated","server_os":"Linux","password":true,"vac":true,"version":"7882260","steam_id":85568392924510193,"keywords":["cp","nocrits","nodmgspread","uncletopia"],"game_id":440,"stv_port":27046,"stv_name":"Uncletopia | London | 4 | All Maps | STV","players":[{"user_id":388,"name":"DiscoTraveler","steam_id":76561199240168088,"connected_time":5974000000000,"state":"active","ping":107},{"user_id":486,"name":"OREO","steam_id":76561199229118371,"connected_time":973000000000,"state":"active","ping":110},{"user_id":489,"name":"Seduce!_!Me_!213","steam_id":76561198857556368,"connected_time":262000000000,"state":"active","ping":159},{"user_id":469,"name":"Bambi","steam_id":76561198166972711,"connected_time":1904000000000,"state":"active","ping":54},{"user_id":461,"name":"Dizzy","steam_id":76561198010192462,"connected_time":2181000000000,"state":"active","ping":59},{"user_id":420,"name":"proph","steam_id":76561197998803950,"connected_time":3775000000000,"state":"active","ping":58},{"user_id":484,"name":"putrid weasel","steam_id":76561198012955043,"connected_time":1252000000000,"state":"active","ping":52},{"user_id":491,"name":"LetRagMerc","steam_id":76561198083505031,"connected_time":115000000000,"state":"active","ping":45},{"user_id":467,"name":"cl1x","steam_id":76561198066687157,"connected_time":1990000000000,"state":"active","ping":91},{"user_id":493,"name":"Sedoy","steam_id":76561198390666516,"connected_time":64000000000,"state":"active","ping":90},{"user_id":485,"name":"Sputnik","steam_id":76561198138660241,"connected_time":1237000000000,"state":"active","ping":63},{"user_id":460,"name":"Perpetual Pub Push","steam_id":76561198256714846,"connected_time":2813000000000,"state":"active","ping":41},{"user_id":474,"name":"Qxillum","steam_id":76561198037201297,"connected_time":1675000000000,"state":"active","ping":59},{"user_id":472,"name":"ASS?!?!?!?!?","steam_id":76561199159262388,"connected_time":1811000000000,"state":"active","ping":96},{"user_id":473,"name":"The Subway Scientist","steam_id":76561198193757646,"connected_time":1763000000000,"state":"active","ping":46},{"user_id":418,"name":"LionKing","steam_id":76561198023399545,"connected_time":3917000000000,"state":"active","ping":62},{"user_id":479,"name":"wumbology study of wumbo","steam_id":76561198981630094,"connected_time":1528000000000,"state":"active","ping":166},{"user_id":492,"name":"JeiVron","steam_id":76561199115124869,"connected_time":98000000000,"state":"active","ping":186},{"user_id":428,"name":"phantASSm","steam_id":76561199480942903,"connected_time":3428000000000,"state":"active","ping":75},{"user_id":463,"name":"Controller Gaming","steam_id":76561198134805479,"connected_time":2165000000000,"state":"active","ping":45},{"user_id":494,"name":"[CF] katana on the trains","steam_id":76561198202464032,"connected_time":38000000000,"state":"active","ping":67},{"user_id":481,"name":"RobTheKid","steam_id":76561198346638308,"connected_time":1352000000000,"state":"active","ping":48},{"user_id":361,"name":"Enigmus","steam_id":76561197994063627,"connected_time":8993000000000,"state":"active","ping":90},{"user_id":458,"name":"Captain Scrumpe","steam_id":76561198032206577,"connected_time":2933000000000,"state":"active","ping":82}]},{"server_id":21,"name":"Uncletopia | London | 5 | All Maps","name_short":"lon-5","host":"lon-1.uk.uncletopia.com","port":27055,"enabled":true,"region":"eu","cc":"gb","latitude":51.509865,"longitude":-0.118092,"reserved":0,"last_update":"0001-01-01T00:00:00Z","name_a2s":"Uncletopia | London | 5 | All Maps","protocol":17,"map":"cp_altitude","folder":"tf","game":"Team Fortress","app_id":440,"player_count":0,"max_players":24,"Bots":0,"server_type":"Dedicated","server_os":"Linux","password":true,"vac":true,"version":"7882260","steam_id":85568392924742829,"keywords":["cp","nocrits","nodmgspread","uncletopia"],"game_id":440,"stv_port":27056,"stv_name":"Uncletopia | London | 5 | All Maps | STV","players":null},{"server_id":22,"name":"Uncletopia | London | 6 | All Maps","name_short":"lon-6","host":"lon-1.uk.uncletopia.com","port":27065,"enabled":true,"region":"eu","cc":"gb","latitude":51.509865,"longitude":-0.118092,"reserved":0,"last_update":"0001-01-01T00:00:00Z","name_a2s":"Uncletopia | London | 6 | All Maps","protocol":17,"map":"cp_process_final","folder":"tf","game":"Team Fortress","app_id":440,"player_count":0,"max_players":24,"Bots":0,"server_type":"Dedicated","server_os":"Linux","password":true,"vac":true,"version":"7882260","steam_id":85568392924742830,"keywords":["cp","nocrits","nodmgspread","uncletopia"],"game_id":440,"stv_port":27066,"stv_name":"Uncletopia | London | 6 | All Maps | STV","players":null},{"server_id":40,"name":"Uncletopia | London | 7 | No Payload","name_short":"lon-7","host":"lon-1.uk.uncletopia.com","port":27075,"enabled":true,"region":"eu","cc":"gb","latitude":51.509865,"longitude":-0.118092,"reserved":0,"last_update":"0001-01-01T00:00:00Z","name_a2s":"Uncletopia | London | 7 | No Payload","protocol":17,"map":"cp_egypt_final","folder":"tf","game":"Team Fortress","app_id":440,"player_count":0,"max_players":24,"Bots":0,"server_type":"Dedicated","server_os":"Linux","password":true,"vac":true,"version":"7882260","steam_id":85568392924964314,"keywords":["cp","nocrits","nodmgspread","uncletopia"],"game_id":440,"stv_port":27076,"stv_name":"Uncletopia | London | 7 | No Payload | STV","players":null},{"server_id":41,"name":"Uncletopia | London | 8 | Community","name_short":"lon-8","host":"lon-1.uk.uncletopia.com","port":27085,"enabled":true,"region":"eu","cc":"gb","latitude":51.509865,"longitude":-0.118092,"reserved":0,"last_update":"0001-01-01T00:00:00Z","name_a2s":"Uncletopia | London | 8 | Community","protocol":17,"map":"workshop/cp_logjam_rc12.ugc454812035","folder":"tf","game":"Team Fortress","app_id":440,"player_count":0,"max_players":24,"Bots":0,"server_type":"Dedicated","server_os":"Linux","password":true,"vac":true,"version":"7882260","steam_id":85568392924964315,"keywords":["cp","nocrits","nodmgspread","uncletopia"],"game_id":440,"stv_port":27086,"stv_name":"Uncletopia | London | 8 | Community | STV","players":null},{"server_id":300,"name":"Uncletopia | Montr√©al | 1 | All Maps","name_short":"mtl-1","host":"mtl-1.ca.uncletopia.com","port":27015,"enabled":true,"region":"us-east","cc":"ca","latitude":45.50889,"longitude":-73.56167,"reserved":0,"last_update":"0001-01-01T00:00:00Z","name_a2s":"Uncletopia | Montr√©al | 1 | All Maps","protocol":17,"map":"pl_frontier_final","folder":"tf","game":"Team Fortress","app_id":440,"player_count":0,"max_players":24,"Bots":0,"server_type":"Dedicated","server_os":"Linux","password":true,"vac":true,"version":"7882260","steam_id":85568392924500087,"keywords":["nocrits","nodmgspread","payload","uncletopia"],"game_id":440,"stv_port":27016,"stv_name":"Uncletopia | Montr√©al | 1 | All Maps | STV","players":null},{"server_id":301,"name":"Uncletopia | Montr√©al | 2 | All Maps","name_short":"mtl-2","host":"mtl-1.ca.uncletopia.com","port":27025,"enabled":true,"region":"us-east","cc":"ca","latitude":45.50889,"longitude":-73.56167,"reserved":0,"last_update":"0001-01-01T00:00:00Z","name_a2s":"Uncletopia | Montr√©al | 2 | All Maps","protocol":17,"map":"koth_highpass","folder":"tf","game":"Team Fortress","app_id":440,"player_count":22,"max_players":24,"Bots":0,"server_type":"Dedicated","server_os":"Linux","password":true,"vac":true,"version":"7882260","steam_id":85568392924500088,"keywords":["cp","nocrits","nodmgspread","uncletopia"],"game_id":440,"stv_port":27026,"stv_name":"Uncletopia | Montr√©al | 2 | All Maps | STV","players":[{"user_id":316,"name":"Lalo","steam_id":76561198827278421,"connected_time":646000000000,"state":"active","ping":81},{"user_id":293,"name":"Lore","steam_id":76561198098407538,"connected_time":1705000000000,"state":"active","ping":60},{"user_id":289,"name":"Risemonger","steam_id":76561198326896596,"connected_time":2109000000000,"state":"active","ping":118},{"user_id":284,"name":"DO NOT call me BART SIMPSON!!","steam_id":76561198069113375,"connected_time":2267000000000,"state":"active","ping":53},{"user_id":294,"name":"Furrio","steam_id":76561198174104607,"connected_time":1451000000000,"state":"active","ping":74},{"user_id":320,"name":"tiananmensquare1989","steam_id":76561199076837870,"connected_time":169000000000,"state":"active","ping":105},{"user_id":321,"name":"Post nut clarity","steam_id":76561198060246831,"connected_time":138000000000,"state":"active","ping":62},{"user_id":296,"name":"brood","steam_id":76561198013781700,"connected_time":1397000000000,"state":"active","ping":145},{"user_id":287,"name":"Luna","steam_id":76561198020696265,"connected_time":2194000000000,"state":"active","ping":61},{"user_id":305,"name":"Monsieur l'INGENIEUR","steam_id":76561198090504334,"connected_time":1051000000000,"state":"active","ping":56},{"user_id":297,"name":"FRANKIEonPCP","steam_id":76561198208451949,"connected_time":1394000000000,"state":"active","ping":86},{"user_id":310,"name":"crayonnipple","steam_id":76561198070253331,"connected_time":886000000000,"state":"active","ping":46},{"user_id":322,"name":"theghazinator","steam_id":76561198188027695,"connected_time":52000000000,"state":"active","ping":48},{"user_id":318,"name":"Female Gamer (Mythic)","steam_id":76561198261007627,"connected_time":599000000000,"state":"active","ping":69},{"user_id":290,"name":"Krom","steam_id":76561198107896376,"connected_time":2098000000000,"state":"active","ping":34},{"user_id":304,"name":"ogenez","steam_id":76561198252596234,"connected_time":1136000000000,"state":"active","ping":83},{"user_id":265,"name":"Piyono","steam_id":76561197962188504,"connected_time":4401000000000,"state":"active","ping":60},{"user_id":308,"name":"The Map","steam_id":76561198138812108,"connected_time":957000000000,"state":"active","ping":54},{"user_id":314,"name":"inexperienced great horned owl","steam_id":76561198047077020,"connected_time":792000000000,"state":"active","ping":46},{"user_id":307,"name":"BOOTZ","steam_id":76561198042750746,"connected_time":968000000000,"state":"active","ping":133},{"user_id":323,"name":"SomeFuckingGuy #SAVETF2","steam_id":76561199239165015,"connected_time":38000000000,"state":"active","ping":104},{"user_id":313,"name":"023e20902o0239ee02390o239e","steam_id":76561198175741741,"connected_time":843000000000,"state":"active","ping":92}]},{"server_id":302,"name":"Uncletopia | Montr√©al | 3 | All Maps","name_short":"mtl-3","host":"mtl-1.ca.uncletopia.com","port":27035,"enabled":true,"region":"us-east","cc":"ca","latitude":45.50889,"longitude":-73.56167,"reserved":0,"last_update":"0001-01-01T00:00:00Z","name_a2s":"Uncletopia | Montr√©al | 3 | All Maps","protocol":17,"map":"pl_badwater","folder":"tf","game":"Team Fortress","app_id":440,"player_count":24,"max_players":24,"Bots":0,"server_type":"Dedicated","server_os":"Linux","password":true,"vac":true,"version":"7882260","steam_id":85568392924500089,"keywords":["nocrits","nodmgspread","payload","uncletopia"],"game_id":440,"stv_port":27036,"stv_name":"Uncletopia | Montr√©al | 3 | All Maps | STV","players":[{"user_id":100,"name":"alset333","steam_id":76561198405345260,"connected_time":1988000000000,"state":"active","ping":55},{"user_id":117,"name":"lynt","steam_id":76561198988333976,"connected_time":246000000000,"state":"active","ping":65},{"user_id":88,"name":"Ka Xin Yu","steam_id":76561198057116531,"connected_time":2553000000000,"state":"active","ping":46},{"user_id":107,"name":"Freya","steam_id":76561198068912131,"connected_time":808000000000,"state":"active","ping":57},{"user_id":53,"name":"FudginAwesome","steam_id":76561198127421314,"connected_time":3631000000000,"state":"active","ping":78},{"user_id":108,"name":"RyInc","steam_id":76561198874261643,"connected_time":804000000000,"state":"active","ping":37},{"user_id":97,"name":"Spring Beans","steam_id":76561197978546259,"connected_time":2153000000000,"state":"active","ping":71},{"user_id":120,"name":"JohhnyFromCali :7","steam_id":76561198044015725,"connected_time":34000000000,"state":"active","ping":111},{"user_id":106,"name":"epic engine gamer","steam_id":76561198075216115,"connected_time":1333000000000,"state":"active","ping":153},{"user_id":116,"name":"Socioeconomic Factors","steam_id":76561197965022076,"connected_time":365000000000,"state":"active","ping":42},{"user_id":68,"name":"EvilMrPotoo ÔΩ°‚óï‚Äø‚óïÔΩ°","steam_id":76561198012566870,"connected_time":3111000000000,"state":"active","ping":53},{"user_id":54,"name":"TheWanderingExplorer33","steam_id":76561198853345070,"connected_time":3625000000000,"state":"active","ping":103},{"user_id":48,"name":"ApertureCity","steam_id":76561198004153607,"connected_time":4169000000000,"state":"active","ping":103},{"user_id":109,"name":"Mr. Pink","steam_id":76561198065858172,"connected_time":794000000000,"state":"active","ping":66},{"user_id":115,"name":"Xyverle","steam_id":76561198799726415,"connected_time":502000000000,"state":"active","ping":89},{"user_id":111,"name":"BeeseDeez","steam_id":76561198011012347,"connected_time":733000000000,"state":"active","ping":76},{"user_id":112,"name":"Illuminati42","steam_id":76561198372901972,"connected_time":706000000000,"state":"active","ping":55},{"user_id":94,"name":"BaconWizard4","steam_id":76561198384591745,"connected_time":2381000000000,"state":"active","ping":67},{"user_id":113,"name":"jibby","steam_id":76561198046872382,"connected_time":636000000000,"state":"active","ping":60},{"user_id":69,"name":"bobby peanstalk","steam_id":76561198040495463,"connected_time":3101000000000,"state":"active","ping":74},{"user_id":119,"name":"cheetaz","steam_id":76561198224614084,"connected_time":193000000000,"state":"active","ping":60},{"user_id":91,"name":"Riddle","steam_id":76561198892207399,"connected_time":2423000000000,"state":"active","ping":59},{"user_id":70,"name":"money getting 1 percenter","steam_id":76561198012796388,"connected_time":3100000000000,"state":"active","ping":72},{"user_id":103,"name":"chicken pot pie gaming","steam_id":76561198104800182,"connected_time":1547000000000,"state":"active","ping":75}]},{"server_id":303,"name":"Uncletopia | Montr√©al | 4 | No Payload","name_short":"mtl-4","host":"mtl-1.ca.uncletopia.com","port":27045,"enabled":true,"region":"us-east","cc":"ca","latitude":45.50889,"longitude":-73.56167,"reserved":0,"last_update":"0001-01-01T00:00:00Z","name_a2s":"Uncletopia | Montr√©al | 4 | No Payload","protocol":17,"map":"koth_highpass","folder":"tf","game":"Team Fortress","app_id":440,"player_count":0,"max_players":24,"Bots":0,"server_type":"Dedicated","server_os":"Linux","password":true,"vac":true,"version":"7882260","steam_id":85568392924500090,"keywords":["cp","nocrits","nodmgspread","uncletopia"],"game_id":440,"stv_port":27046,"stv_name":"Uncletopia | Montr√©al | 4 | No Payload | STV","players":null},{"server_id":13,"name":"Uncletopia | New York City | 1 | All Maps","name_short":"nyc-1","host":"nyc-1.us.uncletopia.com","port":27015,"enabled":true,"region":"us-east","cc":"us","latitude":40.73061,"longitude":-73.93524,"reserved":0,"last_update":"0001-01-01T00:00:00Z","name_a2s":"Uncletopia | New York City | 1 | All Maps","protocol":17,"map":"pl_snowycoast","folder":"tf","game":"Team Fortress","app_id":440,"player_count":24,"max_players":24,"Bots":0,"server_type":"Dedicated","server_os":"Linux","password":true,"vac":true,"version":"7882260","steam_id":85568392924469993,"keywords":["nocrits","nodmgspread","payload","uncletopia"],"game_id":440,"stv_port":27016,"stv_name":"Uncletopia | New York City | 1 | All Maps | STV","players":[{"user_id":607,"name":"peee pee man","steam_id":76561198044979205,"connected_time":2362000000000,"state":"active","ping":58},{"user_id":632,"name":"King Smegma","steam_id":76561198139389573,"connected_time":236000000000,"state":"active","ping":64},{"user_id":633,"name":"Orangutan","steam_id":76561198151262554,"connected_time":232000000000,"state":"active","ping":60},{"user_id":634,"name":"big golden rock boy","steam_id":76561199384986721,"connected_time":232000000000,"state":"active","ping":57},{"user_id":613,"name":"john milk","steam_id":76561199029030831,"connected_time":1700000000000,"state":"active","ping":73},{"user_id":611,"name":"cereal with water","steam_id":76561198091332884,"connected_time":1815000000000,"state":"active","ping":49},{"user_id":590,"name":"wack","steam_id":76561198095697330,"connected_time":2993000000000,"state":"active","ping":76},{"user_id":614,"name":"ramen with milk","steam_id":76561198119096403,"connected_time":1688000000000,"state":"active","ping":52},{"user_id":609,"name":"Kixill","steam_id":76561198125346006,"connected_time":2224000000000,"state":"active","ping":56},{"user_id":625,"name":"i did it","steam_id":76561198277163301,"connected_time":979000000000,"state":"active","ping":75},{"user_id":616,"name":"happypurple","steam_id":76561198114782270,"connected_time":1580000000000,"state":"active","ping":108},{"user_id":628,"name":"WibbyOne","steam_id":76561198052843846,"connected_time":707000000000,"state":"active","ping":40},{"user_id":617,"name":"daemon","steam_id":76561198001541433,"connected_time":1575000000000,"state":"active","ping":62},{"user_id":575,"name":"Fiendish Frog","steam_id":76561198029478821,"connected_time":4025000000000,"state":"active","ping":58},{"user_id":635,"name":"Nukeboy","steam_id":76561198147058560,"connected_time":223000000000,"state":"active","ping":136},{"user_id":619,"name":"Gamerdude313","steam_id":76561198869211435,"connected_time":1555000000000,"state":"active","ping":73},{"user_id":641,"name":"Soulsted","steam_id":76561198048889257,"connected_time":132000000000,"state":"active","ping":58},{"user_id":636,"name":"Uzi bin Laden","steam_id":76561198218811453,"connected_time":204000000000,"state":"active","ping":59},{"user_id":627,"name":";^)","steam_id":76561198269497358,"connected_time":749000000000,"state":"active","ping":87},{"user_id":622,"name":"Charlie","steam_id":76561199098209171,"connected_time":1502000000000,"state":"active","ping":75},{"user_id":637,"name":"Bheem","steam_id":76561198170453459,"connected_time":192000000000,"state":"active","ping":114},{"user_id":626,"name":"C papi","steam_id":76561198027779564,"connected_time":975000000000,"state":"active","ping":61},{"user_id":638,"name":"faze pantalla","steam_id":76561198250215734,"connected_time":183000000000,"state":"active","ping":119},{"user_id":639,"name":"bubby","steam_id":76561198988285392,"connected_time":177000000000,"state":"active","ping":117}]},{"server_id":14,"name":"Uncletopia | New York City | 2 | All Maps","name_short":"nyc-2","host":"nyc-1.us.uncletopia.com","port":27025,"enabled":true,"region":"us-east","cc":"us","latitude":40.73061,"longitude":-73.93524,"reserved":0,"last_update":"0001-01-01T00:00:00Z","name_a2s":"Uncletopia | New York City | 2 | All Maps","protocol":17,"map":"cp_powerhouse","folder":"tf","game":"Team Fortress","app_id":440,"player_count":24,"max_players":24,"Bots":0,"server_type":"Dedicated","server_os":"Linux","password":true,"vac":true,"version":"7882260","steam_id":85568392924469994,"keywords":["cp","nocrits","nodmgspread","uncletopia"],"game_id":440,"stv_port":27026,"stv_name":"Uncletopia | New York City | 2 | All Maps | STV","players":[{"user_id":736,"name":"Bulk","steam_id":76561199009814535,"connected_time":292000000000,"state":"active","ping":50},{"user_id":727,"name":"Amanda (she/her)","steam_id":76561198348941784,"connected_time":1769000000000,"state":"active","ping":92},{"user_id":738,"name":"HundchenTanque","steam_id":76561198122692754,"connected_time":200000000000,"state":"active","ping":46},{"user_id":739,"name":"_normal","steam_id":76561198338505734,"connected_time":172000000000,"state":"active","ping":59},{"user_id":718,"name":"Horrizan","steam_id":76561197965028480,"connected_time":2173000000000,"state":"active","ping":85},{"user_id":728,"name":"Ordo","steam_id":76561198014205068,"connected_time":1658000000000,"state":"active","ping":132},{"user_id":737,"name":"JelloMotion","steam_id":76561198045892038,"connected_time":268000000000,"state":"active","ping":61},{"user_id":740,"name":"St. Michael","steam_id":76561198037611052,"connected_time":139000000000,"state":"active","ping":77},{"user_id":703,"name":"KooKooKachue","steam_id":76561198391195262,"connected_time":2953000000000,"state":"active","ping":108},{"user_id":741,"name":"Wonder of You","steam_id":76561198374060339,"connected_time":120000000000,"state":"active","ping":93},{"user_id":735,"name":"gorf?","steam_id":76561198142286417,"connected_time":315000000000,"state":"active","ping":105},{"user_id":742,"name":"Omni-S","steam_id":76561198082396372,"connected_time":119000000000,"state":"active","ping":76},{"user_id":743,"name":"gertchy","steam_id":76561199111932529,"connected_time":117000000000,"state":"active","ping":32},{"user_id":686,"name":"Metapod","steam_id":76561198008725465,"connected_time":4120000000000,"state":"active","ping":69},{"user_id":670,"name":"The Owenator","steam_id":76561198124311404,"connected_time":4874000000000,"state":"active","ping":71},{"user_id":722,"name":"CrunchCisco","steam_id":76561199162724832,"connected_time":1975000000000,"state":"active","ping":91},{"user_id":744,"name":"The Don","steam_id":76561198016807790,"connected_time":115000000000,"state":"active","ping":56},{"user_id":723,"name":"seems_fishy","steam_id":76561199028846656,"connected_time":1955000000000,"state":"active","ping":49},{"user_id":745,"name":"The Notorious RBG","steam_id":76561198014275148,"connected_time":97000000000,"state":"active","ping":57},{"user_id":746,"name":"Copter_Boy","steam_id":76561198322921312,"connected_time":91000000000,"state":"active","ping":48},{"user_id":664,"name":"Eazy_Peazy16","steam_id":76561198079056194,"connected_time":5434000000000,"state":"active","ping":85},{"user_id":731,"name":"Bee","steam_id":76561198074681324,"connected_time":791000000000,"state":"active","ping":46},{"user_id":733,"name":"Osama Jr.","steam_id":76561199062155197,"connected_time":580000000000,"state":"active","ping":61},{"user_id":715,"name":"Rumble","steam_id":76561199170926322,"connected_time":2355000000000,"state":"active","ping":79}]},{"server_id":15,"name":"Uncletopia | New York City | 3 | Stopwatch Beta","name_short":"nyc-3","host":"nyc-1.us.uncletopia.com","port":27035,"enabled":true,"region":"us-east","cc":"us","latitude":40.73061,"longitude":-73.93524,"reserved":0,"last_update":"0001-01-01T00:00:00Z","name_a2s":"Uncletopia | New York City | 3 | Stopwatch Beta","protocol":17,"map":"workshop/koth_ramjam_rc1.ugc459778887","folder":"tf","game":"Team Fortress","app_id":440,"player_count":22,"max_players":24,"Bots":0,"server_type":"Dedicated","server_os":"Linux","password":true,"vac":true,"version":"7882260","steam_id":85568392924742820,"keywords":["cp","nocrits","nodmgspread","uncletopia"],"game_id":440,"stv_port":27036,"stv_name":"Uncletopia | New York City | 3 | Stopwatch Beta | STV","players":[{"user_id":69,"name":"blue drink","steam_id":76561199260739414,"connected_time":1190000000000,"state":"active","ping":75},{"user_id":75,"name":"Decot","steam_id":76561198042016967,"connected_time":960000000000,"state":"active","ping":55},{"user_id":74,"name":"Sniff_Snorff51","steam_id":76561199054227249,"connected_time":1006000000000,"state":"active","ping":54},{"user_id":89,"name":"Contrasted Red","steam_id":76561198305271450,"connected_time":230000000000,"state":"active","ping":87},{"user_id":77,"name":"p4","steam_id":76561198078400787,"connected_time":884000000000,"state":"active","ping":50},{"user_id":72,"name":"zachrjthompson","steam_id":76561198833882741,"connected_time":1088000000000,"state":"active","ping":111},{"user_id":80,"name":"Crumb Goblin","steam_id":76561198070752858,"connected_time":610000000000,"state":"active","ping":71},{"user_id":81,"name":"TommoSFMO","steam_id":76561198855070608,"connected_time":570000000000,"state":"active","ping":66},{"user_id":83,"name":"AltrA","steam_id":76561198117148323,"connected_time":370000000000,"state":"active","ping":61},{"user_id":35,"name":"Liver stealer","steam_id":76561199029954287,"connected_time":3631000000000,"state":"active","ping":132},{"user_id":84,"name":"CatLike Pigeon","steam_id":76561198171716030,"connected_time":342000000000,"state":"active","ping":135},{"user_id":53,"name":"Brother Pudge","steam_id":76561198247815090,"connected_time":2706000000000,"state":"active","ping":66},{"user_id":85,"name":"GanZ","steam_id":76561199378883538,"connected_time":318000000000,"state":"active","ping":67},{"user_id":93,"name":"Mr.Bady","steam_id":76561199094651706,"connected_time":0,"state":"spawning","ping":22},{"user_id":86,"name":"Chao Ming \"Charles Mingus\" Êòé","steam_id":76561198111975583,"connected_time":301000000000,"state":"active","ping":89},{"user_id":87,"name":"waewae","steam_id":76561198429949450,"connected_time":290000000000,"state":"active","ping":48},{"user_id":90,"name":"Wiener Hole Paper Cut","steam_id":76561198000808203,"connected_time":179000000000,"state":"active","ping":59},{"user_id":52,"name":"xavier64","steam_id":76561199405220871,"connected_time":2752000000000,"state":"active","ping":119},{"user_id":91,"name":"sky_guy","steam_id":76561198058668342,"connected_time":137000000000,"state":"active","ping":55},{"user_id":92,"name":"mepng","steam_id":76561199018758598,"connected_time":49000000000,"state":"active","ping":95},{"user_id":66,"name":"Just A Potato","steam_id":76561198056360867,"connected_time":1445000000000,"state":"active","ping":76},{"user_id":70,"name":"Suck Her Dick Sunday","steam_id":76561198029274581,"connected_time":1187000000000,"state":"active","ping":72}]},{"server_id":16,"name":"Uncletopia | New York City | 4 | Community","name_short":"nyc-4","host":"nyc-1.us.uncletopia.com","port":27045,"enabled":true,"region":"us-east","cc":"us","latitude":40.73061,"longitude":-73.93524,"reserved":0,"last_update":"0001-01-01T00:00:00Z","name_a2s":"Uncletopia | New York City | 4 | Community","protocol":17,"map":"workshop/pl_eruption_b9a.ugc2807898013","folder":"tf","game":"Team Fortress","app_id":440,"player_count":0,"max_players":24,"Bots":0,"server_type":"Dedicated","server_os":"Linux","password":true,"vac":true,"version":"7882260","steam_id":85568392924742821,"keywords":["nocrits","nodmgspread","payload","uncletopia"],"game_id":440,"stv_port":27046,"stv_name":"Uncletopia | New York City | 4 | Community | STV","players":null},{"server_id":142,"name":"Uncletopia | S√£o Paulo | 1 | All Maps","name_short":"sao-1","host":"sao-1.br.uncletopia.com","port":27015,"enabled":true,"region":"sa","cc":"br","latitude":-23.533773,"longitude":-46.62529,"reserved":0,"last_update":"0001-01-01T00:00:00Z","name_a2s":"Uncletopia | S√£o Paulo | 1 | All Maps","protocol":17,"map":"pl_barnblitz","folder":"tf","game":"Team Fortress","app_id":440,"player_count":0,"max_players":24,"Bots":0,"server_type":"Dedicated","server_os":"Linux","password":true,"vac":true,"version":"7882260","steam_id":85568392924469996,"keywords":["nocrits","nodmgspread","payload","uncletopia"],"game_id":440,"stv_port":27016,"stv_name":"Uncletopia | S√£o Paulo | 1 | All Maps | STV","players":null},{"server_id":143,"name":"Uncletopia | S√£o Paulo | 2 | All Maps","name_short":"sao-2","host":"sao-2.br.uncletopia.com","port":27015,"enabled":true,"region":"sa","cc":"br","latitude":-23.533773,"longitude":-46.62529,"reserved":0,"last_update":"0001-01-01T00:00:00Z","name_a2s":"Uncletopia | S√£o Paulo | 2 | All Maps","protocol":17,"map":"koth_viaduct","folder":"tf","game":"Team Fortress","app_id":440,"player_count":0,"max_players":24,"Bots":0,"server_type":"Dedicated","server_os":"Linux","password":true,"vac":true,"version":"7882260","steam_id":85568392924485349,"keywords":["cp","nocrits","nodmgspread","uncletopia"],"game_id":440,"stv_port":27016,"stv_name":"Uncletopia | S√£o Paulo | 2 | All Maps | STV","players":null},{"server_id":7,"name":"Uncletopia | Seattle | 1 | All Maps","name_short":"sea-1","host":"sea-1.us.uncletopia.com","port":27015,"enabled":true,"region":"us-west","cc":"us","latitude":47.608013,"longitude":-122.33517,"reserved":0,"last_update":"0001-01-01T00:00:00Z","name_a2s":"Uncletopia | Seattle | 1 | All Maps","protocol":17,"map":"pl_thundermountain","folder":"tf","game":"Team Fortress","app_id":440,"player_count":24,"max_players":24,"Bots":0,"server_type":"Dedicated","server_os":"Linux","password":true,"vac":true,"version":"7882260","steam_id":85568392924469997,"keywords":["nocrits","nodmgspread","payload","uncletopia"],"game_id":440,"stv_port":27016,"stv_name":"Uncletopia | Seattle | 1 | All Maps | STV","players":[{"user_id":588,"name":"Arsonist Goose","steam_id":76561198147441830,"connected_time":3967000000000,"state":"active","ping":68},{"user_id":551,"name":"HaphazardHazel","steam_id":76561198316812693,"connected_time":8341000000000,"state":"active","ping":134},{"user_id":586,"name":"Peppy","steam_id":76561198866629645,"connected_time":3974000000000,"state":"active","ping":87},{"user_id":587,"name":"Saint Pablo","steam_id":76561198083300159,"connected_time":3973000000000,"state":"active","ping":66},{"user_id":628,"name":"Schaephyr","steam_id":76561199153886364,"connected_time":1157000000000,"state":"active","ping":57},{"user_id":602,"name":"blinkerton city","steam_id":76561198054270410,"connected_time":2654000000000,"state":"active","ping":53},{"user_id":554,"name":"V A R M I N T","steam_id":76561198417042268,"connected_time":8233000000000,"state":"active","ping":65},{"user_id":635,"name":"blozet","steam_id":76561199120161035,"connected_time":181000000000,"state":"active","ping":91},{"user_id":604,"name":"AST Sir Pantoja","steam_id":76561198118858300,"connected_time":2644000000000,"state":"active","ping":87},{"user_id":552,"name":"Ayayayayayahuasca","steam_id":76561199002906056,"connected_time":8301000000000,"state":"active","ping":46},{"user_id":626,"name":"Gary, 40, soul sucking 9-5","steam_id":76561198073812888,"connected_time":1172000000000,"state":"active","ping":61},{"user_id":575,"name":"Luca","steam_id":76561198125087140,"connected_time":6332000000000,"state":"active","ping":46},{"user_id":625,"name":"Trackpad Gaming","steam_id":76561198189062066,"connected_time":1183000000000,"state":"active","ping":73},{"user_id":636,"name":"Democrat","steam_id":76561198280832649,"connected_time":181000000000,"state":"active","ping":105},{"user_id":598,"name":"Dani","steam_id":76561198348012378,"connected_time":3348000000000,"state":"active","ping":140},{"user_id":606,"name":"Sirphantom","steam_id":76561198125415432,"connected_time":2621000000000,"state":"active","ping":75},{"user_id":580,"name":"dinky little beanie baby","steam_id":76561197999318398,"connected_time":5634000000000,"state":"active","ping":168},{"user_id":608,"name":"Diclonius","steam_id":76561198075646647,"connected_time":2617000000000,"state":"active","ping":70},{"user_id":620,"name":"Dingelsmurf the Orange","steam_id":76561198212489267,"connected_time":1722000000000,"state":"active","ping":99},{"user_id":630,"name":"Neptune *:ÔΩ•Ôæü‚úß*:ÔΩ•Ôæü","steam_id":76561199054203198,"connected_time":929000000000,"state":"active","ping":154},{"user_id":623,"name":"999","steam_id":76561198117342640,"connected_time":1670000000000,"state":"active","ping":88},{"user_id":633,"name":"Snippykeegan","steam_id":76561198274529343,"connected_time":263000000000,"state":"active","ping":70},{"user_id":591,"name":"ultra ego vegeta","steam_id":76561198271939793,"connected_time":3569000000000,"state":"active","ping":68},{"user_id":637,"name":"William P. Ennis","steam_id":76561198073464877,"connected_time":180000000000,"state":"active","ping":90}]},{"server_id":119,"name":"Uncletopia | Seattle | 2 | All Maps","name_short":"sea-2","host":"sea-1.us.uncletopia.com","port":27025,"enabled":true,"region":"us-west","cc":"us","latitude":47.608013,"longitude":-122.33517,"reserved":0,"last_update":"0001-01-01T00:00:00Z","name_a2s":"Uncletopia | Seattle | 2 | All Maps","protocol":17,"map":"cp_steel","folder":"tf","game":"Team Fortress","app_id":440,"player_count":24,"max_players":24,"Bots":0,"server_type":"Dedicated","server_os":"Linux","password":true,"vac":true,"version":"7882260","steam_id":85568392924469998,"keywords":["cp","nocrits","nodmgspread","uncletopia"],"game_id":440,"stv_port":27026,"stv_name":"Uncletopia | Seattle | 2 | All Maps | STV","players":[{"user_id":570,"name":"TheCowledWiz","steam_id":76561198016735868,"connected_time":300000000000,"state":"active","ping":46},{"user_id":568,"name":"Blappie","steam_id":76561197980385816,"connected_time":1009000000000,"state":"active","ping":56},{"user_id":560,"name":"Fire_box41238","steam_id":76561199185673650,"connected_time":1295000000000,"state":"active","ping":53},{"user_id":558,"name":"Jones","steam_id":76561198046037216,"connected_time":1915000000000,"state":"active","ping":72},{"user_id":569,"name":"Dr. Bubs","steam_id":76561198011696595,"connected_time":1007000000000,"state":"active","ping":114},{"user_id":551,"name":"TossBoy","steam_id":76561198875428895,"connected_time":2166000000000,"state":"active","ping":143},{"user_id":531,"name":"Thezest","steam_id":76561198043895839,"connected_time":3651000000000,"state":"active","ping":38},{"user_id":545,"name":"Cheese Fiend","steam_id":76561198053602591,"connected_time":2670000000000,"state":"active","ping":96},{"user_id":567,"name":"Mr. Garfield","steam_id":76561198357316376,"connected_time":1164000000000,"state":"active","ping":143},{"user_id":574,"name":"Lime","steam_id":76561198080786408,"connected_time":167000000000,"state":"active","ping":54},{"user_id":564,"name":"Rusty","steam_id":76561198055585129,"connected_time":1225000000000,"state":"active","ping":49},{"user_id":537,"name":"doggato","steam_id":76561198114914855,"connected_time":3084000000000,"state":"active","ping":32},{"user_id":553,"name":"robotbeast1243","steam_id":76561199043928246,"connected_time":2154000000000,"state":"active","ping":131},{"user_id":572,"name":"tconnors1976","steam_id":76561198840033336,"connected_time":202000000000,"state":"active","ping":55},{"user_id":573,"name":"Noremac_","steam_id":76561198074701001,"connected_time":199000000000,"state":"active","ping":81},{"user_id":576,"name":"O","steam_id":76561198450073779,"connected_time":120000000000,"state":"active","ping":52},{"user_id":565,"name":"SanitysEdge","steam_id":76561198130732813,"connected_time":1223000000000,"state":"active","ping":75},{"user_id":556,"name":"Sussyrats420","steam_id":76561199363493860,"connected_time":2121000000000,"state":"active","ping":84},{"user_id":559,"name":"TheInventor","steam_id":76561198898516778,"connected_time":1489000000000,"state":"active","ping":65},{"user_id":484,"name":"Elfy","steam_id":76561199166448617,"connected_time":7261000000000,"state":"active","ping":59},{"user_id":547,"name":"Mr defrost","steam_id":76561198322125657,"connected_time":2583000000000,"state":"active","ping":68},{"user_id":542,"name":"=Silver=","steam_id":76561198292307127,"connected_time":2890000000000,"state":"active","ping":72},{"user_id":575,"name":"phfez","steam_id":76561198046150386,"connected_time":166000000000,"state":"active","ping":132},{"user_id":532,"name":"Feasent","steam_id":76561198987316504,"connected_time":3614000000000,"state":"active","ping":60}]},{"server_id":406,"name":"Uncletopia | Seattle | 3 | Stopwatch Beta","name_short":"sea-3","host":"sea-1.us.uncletopia.com","port":27035,"enabled":true,"region":"us-west","cc":"us","latitude":47.608013,"longitude":-122.33517,"reserved":0,"last_update":"0001-01-01T00:00:00Z","name_a2s":"Uncletopia | Seattle | 3 | Stopwatch Beta","protocol":17,"map":"workshop/koth_ashville_final.ugc2130459942","folder":"tf","game":"Team Fortress","app_id":440,"player_count":24,"max_players":24,"Bots":0,"server_type":"Dedicated","server_os":"Linux","password":true,"vac":true,"version":"7882260","steam_id":85568392924515217,"keywords":["cp","nocrits","nodmgspread","uncletopia"],"game_id":440,"stv_port":27036,"stv_name":"Uncletopia | Seattle | 3 | Stopwatch Beta | STV","players":[{"user_id":242,"name":"RoboCop Gaming","steam_id":76561198078378023,"connected_time":1459000000000,"state":"active","ping":93},{"user_id":267,"name":"CPTforever","steam_id":76561198237767198,"connected_time":376000000000,"state":"active","ping":61},{"user_id":272,"name":"medium p bands","steam_id":76561198202843510,"connected_time":1000000000,"state":"spawning","ping":85},{"user_id":239,"name":"arnold pootis","steam_id":76561198216487540,"connected_time":1687000000000,"state":"active","ping":47},{"user_id":204,"name":"DarkMewMew","steam_id":76561199471715552,"connected_time":3657000000000,"state":"active","ping":85},{"user_id":219,"name":"KOJAKK","steam_id":76561199060841878,"connected_time":3006000000000,"state":"active","ping":65},{"user_id":270,"name":"RentalBurrito","steam_id":76561198309435304,"connected_time":256000000000,"state":"active","ping":72},{"user_id":249,"name":"Giselle","steam_id":76561198162593640,"connected_time":1132000000000,"state":"active","ping":124},{"user_id":205,"name":"air arbitrator","steam_id":76561198838282369,"connected_time":3657000000000,"state":"active","ping":118},{"user_id":245,"name":"Steven ‚ò≠","steam_id":76561197999653804,"connected_time":1325000000000,"state":"active","ping":65},{"user_id":256,"name":"5 whoppers and then 5 more :)","steam_id":76561198231068624,"connected_time":754000000000,"state":"active","ping":82},{"user_id":253,"name":"Prop","steam_id":76561198253186509,"connected_time":829000000000,"state":"active","ping":101},{"user_id":268,"name":"handsincarnadine","steam_id":76561198102422084,"connected_time":376000000000,"state":"active","ping":81},{"user_id":207,"name":"\u003c- FULL OF EVIL","steam_id":76561198798667624,"connected_time":3517000000000,"state":"active","ping":45},{"user_id":254,"name":"Firedude","steam_id":76561198852497745,"connected_time":806000000000,"state":"active","ping":114},{"user_id":255,"name":"Mom's Spaghetti","steam_id":76561198131338197,"connected_time":791000000000,"state":"active","ping":127},{"user_id":262,"name":"VOY BOT","steam_id":76561199094836444,"connected_time":611000000000,"state":"active","ping":85},{"user_id":233,"name":"Bad Namesman","steam_id":76561198027205470,"connected_time":2176000000000,"state":"active","ping":87},{"user_id":264,"name":"Chilihuahua","steam_id":76561198004929152,"connected_time":571000000000,"state":"active","ping":85},{"user_id":258,"name":"Grungus","steam_id":76561198047700230,"connected_time":722000000000,"state":"active","ping":67},{"user_id":271,"name":"Natedatboi_20","steam_id":76561199468952442,"connected_time":229000000000,"state":"active","ping":85},{"user_id":269,"name":"duckypotato","steam_id":76561198047703790,"connected_time":364000000000,"state":"active","ping":60},{"user_id":261,"name":"Czechoslovakia!","steam_id":76561198214713811,"connected_time":669000000000,"state":"active","ping":151},{"user_id":266,"name":"tryingmybestijustsuck","steam_id":76561198304193131,"connected_time":547000000000,"state":"active","ping":130}]},{"server_id":17,"name":"Uncletopia | San Francisco | 1 | All Maps","name_short":"sfo-1","host":"sfo-1.us.uncletopia.com","port":27015,"enabled":true,"region":"us-west","cc":"us","latitude":37.77397,"longitude":-122.4313,"reserved":0,"last_update":"0001-01-01T00:00:00Z","name_a2s":"Uncletopia | San Francisco | 1 | All Maps","protocol":17,"map":"cp_process_final","folder":"tf","game":"Team Fortress","app_id":440,"player_count":0,"max_players":24,"Bots":0,"server_type":"Dedicated","server_os":"Linux","password":true,"vac":true,"version":"7757534","steam_id":85568392924469999,"keywords":["cp","nocrits","nodmgspread","uncletopia"],"game_id":440,"stv_port":27016,"stv_name":"Uncletopia | San Francisco | 1 | All Maps | STV","players":null},{"server_id":18,"name":"Uncletopia | San Francisco | 2 | All Maps","name_short":"sfo-2","host":"sfo-1.us.uncletopia.com","port":27025,"enabled":true,"region":"us-west","cc":"us","latitude":37.77397,"longitude":-122.4313,"reserved":0,"last_update":"0001-01-01T00:00:00Z","name_a2s":"Uncletopia | San Francisco | 2 | All Maps","protocol":17,"map":"koth_highpass","folder":"tf","game":"Team Fortress","app_id":440,"player_count":0,"max_players":24,"Bots":0,"server_type":"Dedicated","server_os":"Linux","password":true,"vac":true,"version":"7757534","steam_id":85568392924470000,"keywords":["cp","nocrits","nodmgspread","uncletopia"],"game_id":440,"stv_port":27026,"stv_name":"Uncletopia | San Francisco | 2 | All Maps | STV","players":null},{"server_id":19,"name":"Uncletopia | San Francisco | 3 | Stopwatch Beta","name_short":"sfo-3","host":"sfo-1.us.uncletopia.com","port":27035,"enabled":true,"region":"us-west","cc":"us","latitude":37.77397,"longitude":-122.4313,"reserved":0,"last_update":"0001-01-01T00:00:00Z","name_a2s":"Uncletopia | San Francisco | 3 | Stopwatch Beta","protocol":17,"map":"koth_lakeside_final","folder":"tf","game":"Team Fortress","app_id":440,"player_count":0,"max_players":24,"Bots":0,"server_type":"Dedicated","server_os":"Linux","password":true,"vac":true,"version":"7757534","steam_id":85568392924742824,"keywords":["cp","nocrits","nodmgspread","uncletopia"],"game_id":440,"stv_port":27036,"stv_name":"Uncletopia | San Francisco | 3 | Stopwatch Beta | STV","players":null},{"server_id":20,"name":"Uncletopia | San Francisco | 4 | Community","name_short":"sfo-4","host":"sfo-1.us.uncletopia.com","port":27045,"enabled":true,"region":"us-west","cc":"us","latitude":37.77397,"longitude":-122.4313,"reserved":0,"last_update":"0001-01-01T00:00:00Z","name_a2s":"Uncletopia | San Francisco | 4 | Community","protocol":17,"map":"cp_altitude","folder":"tf","game":"Team Fortress","app_id":440,"player_count":0,"max_players":24,"Bots":0,"server_type":"Dedicated","server_os":"Linux","password":true,"vac":true,"version":"7757534","steam_id":85568392924742826,"keywords":["cp","nocrits","nodmgspread","uncletopia"],"game_id":440,"stv_port":27046,"stv_name":"Uncletopia | San Francisco | 4 | Community | STV","players":null},{"server_id":141,"name":"Uncletopia | Sydney | 1 | All Maps","name_short":"syd-1","host":"syd-1.au.uncletopia.com","port":27015,"enabled":true,"region":"au","cc":"au","latitude":-33.865143,"longitude":151.2099,"reserved":0,"last_update":"0001-01-01T00:00:00Z","name_a2s":"Uncletopia | Sydney | 1 | All Maps","protocol":17,"map":"koth_cascade","folder":"tf","game":"Team Fortress","app_id":440,"player_count":12,"max_players":24,"Bots":0,"server_type":"Dedicated","server_os":"Linux","password":true,"vac":true,"version":"7882260","steam_id":85568392924470001,"keywords":["cp","nocrits","nodmgspread","uncletopia"],"game_id":440,"stv_port":27016,"stv_name":"Uncletopia | Sydney | 1 | All Maps | STV","players":[{"user_id":4,"name":"beamerfork","steam_id":76561199013115354,"connected_time":11573000000000,"state":"active","ping":86},{"user_id":137,"name":"fovai","steam_id":76561198223471072,"connected_time":930000000000,"state":"active","ping":64},{"user_id":138,"name":"bathtub","steam_id":76561198967804087,"connected_time":819000000000,"state":"active","ping":164},{"user_id":139,"name":"Zepi","steam_id":76561198018887052,"connected_time":726000000000,"state":"active","ping":50},{"user_id":103,"name":"Empol√©","steam_id":76561198363939040,"connected_time":4509000000000,"state":"active","ping":95},{"user_id":112,"name":"BruceWillis235","steam_id":76561198884324029,"connected_time":3198000000000,"state":"active","ping":86},{"user_id":140,"name":"sobyo","steam_id":76561198083911025,"connected_time":640000000000,"state":"active","ping":65},{"user_id":13,"name":"mc.sleek","steam_id":76561198057602720,"connected_time":10502000000000,"state":"active","ping":70},{"user_id":143,"name":"juusha","steam_id":76561198911542330,"connected_time":301000000000,"state":"active","ping":76},{"user_id":117,"name":"sweeps","steam_id":76561199162600919,"connected_time":2344000000000,"state":"active","ping":70},{"user_id":113,"name":"BloxWich","steam_id":76561198120361288,"connected_time":2381000000000,"state":"active","ping":69},{"user_id":99,"name":"Canon_Fodder","steam_id":76561199132789484,"connected_time":4587000000000,"state":"active","ping":161}]},{"server_id":123,"name":"Uncletopia | Sydney | 2 | All Maps","name_short":"syd-2","host":"syd-1.au.uncletopia.com","port":27025,"enabled":true,"region":"au","cc":"au","latitude":-33.865143,"longitude":151.2099,"reserved":0,"last_update":"0001-01-01T00:00:00Z","name_a2s":"Uncletopia | Sydney | 2 | All Maps","protocol":17,"map":"pl_barnblitz","folder":"tf","game":"Team Fortress","app_id":440,"player_count":0,"max_players":24,"Bots":0,"server_type":"Dedicated","server_os":"Linux","password":true,"vac":true,"version":"7882260","steam_id":85568392924470002,"keywords":["nocrits","nodmgspread","payload","uncletopia"],"game_id":440,"stv_port":27026,"stv_name":"Uncletopia | Sydney | 2 | All Maps | STV","players":null},{"server_id":395,"name":"Uncletopia | Sydney | 3 | All Maps","name_short":"syd-3","host":"syd-1.au.uncletopia.com","port":27035,"enabled":true,"region":"au","cc":"au","latitude":-33.865143,"longitude":151.2099,"reserved":0,"last_update":"0001-01-01T00:00:00Z","name_a2s":"Uncletopia | Sydney | 3 | All Maps","protocol":17,"map":"koth_viaduct","folder":"tf","game":"Team Fortress","app_id":440,"player_count":0,"max_players":24,"Bots":0,"server_type":"Dedicated","server_os":"Linux","password":true,"vac":true,"version":"7882260","steam_id":85568392925194467,"keywords":["cp","nocrits","nodmgspread","uncletopia"],"game_id":440,"stv_port":27036,"stv_name":"Uncletopia | Sydney | 3 | All Maps | STV","players":null},{"server_id":396,"name":"Uncletopia | Sydney | 4 | All Maps","name_short":"syd-4","host":"syd-1.au.uncletopia.com","port":27045,"enabled":true,"region":"au","cc":"au","latitude":-33.865143,"longitude":151.2099,"reserved":0,"last_update":"0001-01-01T00:00:00Z","name_a2s":"Uncletopia | Sydney | 4 | All Maps","protocol":17,"map":"cp_dustbowl","folder":"tf","game":"Team Fortress","app_id":440,"player_count":0,"max_players":24,"Bots":0,"server_type":"Dedicated","server_os":"Linux","password":true,"vac":true,"version":"7882260","steam_id":85568392925397958,"keywords":["cp","nocrits","nodmgspread","uncletopia"],"game_id":440,"stv_port":27046,"stv_name":"Uncletopia | Sydney | 4 | All Maps | STV","players":null},{"server_id":58,"name":"Uncletopia | Sydney | 5 | Stopwatch Beta","name_short":"syd-5","host":"syd-1.au.uncletopia.com","port":27055,"enabled":true,"region":"au","cc":"au","latitude":-33.865143,"longitude":151.2099,"reserved":0,"last_update":"0001-01-01T00:00:00Z","name_a2s":"Uncletopia | Sydney | 5 | Stopwatch Beta","protocol":17,"map":"workshop/pl_vigil_rc9.ugc1266210012","folder":"tf","game":"Team Fortress","app_id":440,"player_count":0,"max_players":24,"Bots":0,"server_type":"Dedicated","server_os":"Linux","password":true,"vac":true,"version":"7882260","steam_id":85568392925397959,"keywords":["nocrits","nodmgspread","payload","uncletopia"],"game_id":440,"stv_port":27056,"stv_name":"Uncletopia | Sydney | 5 | Stopwatch Beta | STV","players":null},{"server_id":59,"name":"Uncletopia | Sydney | 6 | Community","name_short":"syd-6","host":"syd-1.au.uncletopia.com","port":27065,"enabled":true,"region":"au","cc":"au","latitude":-33.865143,"longitude":151.2099,"reserved":0,"last_update":"0001-01-01T00:00:00Z","name_a2s":"Uncletopia | Sydney | 6 | Community","protocol":17,"map":"workshop/pl_divulgence_b4b.ugc2884808746","folder":"tf","game":"Team Fortress","app_id":440,"player_count":0,"max_players":24,"Bots":0,"server_type":"Dedicated","server_os":"Linux","password":true,"vac":true,"version":"7882260","steam_id":85568392925397960,"keywords":["nocrits","nodmgspread","payload","uncletopia"],"game_id":440,"stv_port":27066,"stv_name":"Uncletopia | Sydney | 6 | Community | STV","players":null},{"server_id":49,"name":"Uncletopia | Warsaw | 1 | All Maps","name_short":"waw-1","host":"waw-1.pl.uncletopia.com","port":27015,"enabled":true,"region":"eu","cc":"pl","latitude":52.2297,"longitude":21.017532,"reserved":0,"last_update":"0001-01-01T00:00:00Z","name_a2s":"","protocol":0,"map":"","folder":"","game":"","app_id":0,"player_count":0,"max_players":0,"Bots":0,"server_type":"","server_os":"","password":false,"vac":false,"version":"","steam_id":0,"keywords":null,"game_id":0,"stv_port":0,"stv_name":"","players":null},{"server_id":50,"name":"Uncletopia | Warsaw | 2 | All Maps","name_short":"waw-2","host":"waw-1.pl.uncletopia.com","port":27025,"enabled":true,"region":"eu","cc":"pl","latitude":52.2297,"longitude":21.017532,"reserved":0,"last_update":"0001-01-01T00:00:00Z","name_a2s":"Uncletopia | Warsaw | 2 | All Maps","protocol":17,"map":"cp_dustbowl","folder":"tf","game":"Team Fortress","app_id":440,"player_count":0,"max_players":24,"Bots":0,"server_type":"Dedicated","server_os":"Linux","password":true,"vac":true,"version":"7882260","steam_id":85568392925397851,"keywords":["cp","nocrits","nodmgspread","uncletopia"],"game_id":440,"stv_port":27026,"stv_name":"Uncletopia | Warsaw | 2 | All Maps | STV","players":null},{"server_id":51,"name":"Uncletopia | Warsaw | 3 | All Maps","name_short":"waw-3","host":"waw-1.pl.uncletopia.com","port":27035,"enabled":true,"region":"eu","cc":"pl","latitude":52.2297,"longitude":21.017532,"reserved":0,"last_update":"0001-01-01T00:00:00Z","name_a2s":"Uncletopia | Warsaw | 3 | All Maps","protocol":17,"map":"pl_badwater","folder":"tf","game":"Team Fortress","app_id":440,"player_count":0,"max_players":24,"Bots":0,"server_type":"Dedicated","server_os":"Linux","password":true,"vac":true,"version":"7882260","steam_id":85568392925397852,"keywords":["nocrits","nodmgspread","payload","uncletopia"],"game_id":440,"stv_port":27036,"stv_name":"Uncletopia | Warsaw | 3 | All Maps | STV","players":null},{"server_id":52,"name":"Uncletopia | Warsaw | 4 | All Maps","name_short":"waw-4","host":"waw-1.pl.uncletopia.com","port":27045,"enabled":true,"region":"eu","cc":"pl","latitude":52.2297,"longitude":21.017532,"reserved":0,"last_update":"0001-01-01T00:00:00Z","name_a2s":"Uncletopia | Warsaw | 4 | All Maps","protocol":17,"map":"koth_cascade","folder":"tf","game":"Team Fortress","app_id":440,"player_count":0,"max_players":24,"Bots":0,"server_type":"Dedicated","server_os":"Linux","password":true,"vac":true,"version":"7882260","steam_id":85568392925397853,"keywords":["cp","nocrits","nodmgspread","uncletopia"],"game_id":440,"stv_port":27046,"stv_name":"Uncletopia | Warsaw | 4 | All Maps | STV","players":null},{"server_id":53,"name":"Uncletopia | Warsaw | 5 | Stopwatch Beta","name_short":"waw-5","host":"waw-1.pl.uncletopia.com","port":27055,"enabled":true,"region":"eu","cc":"pl","latitude":52.2297,"longitude":21.017532,"reserved":0,"last_update":"0001-01-01T00:00:00Z","name_a2s":"Uncletopia | Warsaw | 5 | Stopwatch Beta","protocol":17,"map":"pl_swiftwater_final1","folder":"tf","game":"Team Fortress","app_id":440,"player_count":0,"max_players":24,"Bots":0,"server_type":"Dedicated","server_os":"Linux","password":true,"vac":true,"version":"7882260","steam_id":85568392925397854,"keywords":["nocrits","nodmgspread","payload","uncletopia"],"game_id":440,"stv_port":27056,"stv_name":"Uncletopia | Warsaw | 5 | Stopwatch Beta | STV","players":null},{"server_id":54,"name":"Uncletopia | Warsaw | 6 | Community","name_short":"waw-6","host":"waw-1.pl.uncletopia.com","port":27065,"enabled":true,"region":"eu","cc":"pl","latitude":52.2297,"longitude":21.017532,"reserved":0,"last_update":"0001-01-01T00:00:00Z","name_a2s":"Uncletopia | Warsaw | 6 | Community","protocol":17,"map":"koth_viaduct","folder":"tf","game":"Team Fortress","app_id":440,"player_count":0,"max_players":24,"Bots":0,"server_type":"Dedicated","server_os":"Linux","password":true,"vac":true,"version":"7882260","steam_id":85568392925397856,"keywords":["cp","nocrits","nodmgspread","uncletopia"],"game_id":440,"stv_port":27066,"stv_name":"Uncletopia | Warsaw | 6 | Community | STV","players":null}]}