{"status":true,"message":"","result":[{"server_id":9,"name":"Uncletopia | Atlanta | 1 | All Maps","name_short":"atl-1","host":"atl-1.us.uncletopia.com","port":27015,"enabled":true,"region":"us-east","cc":"us","latitude":33.753746,"longitude":-84.38633,"reserved":0,"last_update":"0001-01-01T00:00:00Z","name_a2s":"Uncletopia | Atlanta | 1 | All Maps","protocol":17,"map":"pl_swiftwater_final1","folder":"tf","game":"Team Fortress","app_id":440,"player_count":7,"max_players":24,"Bots":0,"server_type":"Dedicated","server_os":"Linux","password":true,"vac":true,"version":"7932396","steam_id":85568392924469982,"keywords":["nocrits","nodmgspread","payload","uncletopia"],"game_id":440,"stv_port":27016,"stv_name":"Uncletopia | Atlanta | 1 | All Maps | STV","players":[{"user_id":5,"name":"Galaxy_42","steam_id":76561198845514831,"connected_time":2265000000000,"state":"active","ping":55},{"user_id":6,"name":"gamerroo","steam_id":76561199065347643,"connected_time":2162000000000,"state":"active","ping":64},{"user_id":8,"name":"Warlock","steam_id":76561198801747883,"connected_time":1511000000000,"state":"active","ping":97},{"user_id":9,"name":"Wackydavo","steam_id":76561197990094209,"connected_time":1283000000000,"state":"active","ping":143},{"user_id":12,"name":"Arjen PSN 23","steam_id":76561198963682232,"connected_time":641000000000,"state":"active","ping":73},{"user_id":13,"name":"Don't Fuckle with Shuckle","steam_id":76561199020102367,"connected_time":591000000000,"state":"active","ping":88},{"user_id":14,"name":"the rat","steam_id":76561199033477035,"connected_time":514000000000,"state":"active","ping":143}]},{"server_id":104,"name":"Uncletopia | Atlanta | 2 | All Maps","name_short":"atl-2","host":"atl-1.us.uncletopia.com","port":27025,"enabled":true,"region":"us-east","cc":"us","latitude":33.753746,"longitude":-84.38633,"reserved":0,"last_update":"0001-01-01T00:00:00Z","name_a2s":"Uncletopia | Atlanta | 2 | All Maps","protocol":17,"map":"pl_badwater","folder":"tf","game":"Team Fortress","app_id":440,"player_count":12,"max_players":24,"Bots":0,"server_type":"Dedicated","server_os":"Linux","password":true,"vac":true,"version":"7932396","steam_id":85568392924469983,"keywords":["nocrits","nodmgspread","payload","uncletopia"],"game_id":440,"stv_port":27026,"stv_name":"Uncletopia | Atlanta | 2 | All Maps | STV","players":[{"user_id":753,"name":"andyiscolorless","steam_id":76561199239870921,"connected_time":1237000000000,"state":"active","ping":131},{"user_id":811,"name":"izzydex","steam_id":76561199101531034,"connected_time":151000000000,"state":"active","ping":87},{"user_id":812,"name":"Quakedad","steam_id":76561198055811307,"connected_time":101000000000,"state":"active","ping":124},{"user_id":777,"name":"SeaBass","steam_id":76561198278914206,"connected_time":865000000000,"state":"active","ping":62},{"user_id":813,"name":"slw0nb33ch","steam_id":76561199097101913,"connected_time":80000000000,"state":"active","ping":210},{"user_id":759,"name":":83:","steam_id":76561198858155238,"connected_time":1156000000000,"state":"active","ping":107},{"user_id":761,"name":"ok","steam_id":76561199074875663,"connected_time":1060000000000,"state":"active","ping":100},{"user_id":724,"name":"Sick The Disease","steam_id":76561199054591319,"connected_time":2209000000000,"state":"active","ping":84},{"user_id":806,"name":"stankboxers #savetf2","steam_id":76561198058609582,"connected_time":292000000000,"state":"active","ping":95},{"user_id":789,"name":"FancyBones","steam_id":76561198180198885,"connected_time":561000000000,"state":"active","ping":66},{"user_id":796,"name":"tinkercrab11","steam_id":76561198881792140,"connected_time":464000000000,"state":"active","ping":86},{"user_id":779,"name":"AGL Lr Nappa","steam_id":76561198313627753,"connected_time":842000000000,"state":"active","ping":78}]},{"server_id":400,"name":"Uncletopia | Atlanta | 3 | Community","name_short":"atl-3","host":"atl-1.us.uncletopia.com","port":27035,"enabled":true,"region":"us-east","cc":"us","latitude":33.753746,"longitude":-84.38633,"reserved":0,"last_update":"0001-01-01T00:00:00Z","name_a2s":"Uncletopia | Atlanta | 3 | Community","protocol":17,"map":"workshop/koth_trenchfoot_b1a.ugc731436616","folder":"tf","game":"Team Fortress","app_id":440,"player_count":4,"max_players":24,"Bots":0,"server_type":"Dedicated","server_os":"Linux","password":true,"vac":true,"version":"7932396","steam_id":85568392924515187,"keywords":["cp","nocrits","nodmgspread","uncletopia"],"game_id":440,"stv_port":27036,"stv_name":"Uncletopia | Atlanta | 3 | Community | STV","players":[{"user_id":93,"name":"RedPenguin_55 [Soldier main]","steam_id":76561199330977723,"connected_time":1283000000000,"state":"active","ping":108},{"user_id":94,"name":"PantherRanger08","steam_id":76561198897956262,"connected_time":1263000000000,"state":"active","ping":98},{"user_id":95,"name":"Heavy Gaming(Gaming)[Gaming]","steam_id":76561199366955312,"connected_time":1228000000000,"state":"active","ping":93},{"user_id":98,"name":"Androsynth","steam_id":76561198046846304,"connected_time":540000000000,"state":"active","ping":71}]},{"server_id":401,"name":"Uncletopia | Atlanta | 4 | No Payload","name_short":"atl-4","host":"atl-1.us.uncletopia.com","port":27045,"enabled":true,"region":"us-east","cc":"us","latitude":33.753746,"longitude":-84.38633,"reserved":0,"last_update":"0001-01-01T00:00:00Z","name_a2s":"","protocol":0,"map":"","folder":"","game":"","app_id":0,"player_count":0,"max_players":0,"Bots":0,"server_type":"","server_os":"","password":false,"vac":false,"version":"","steam_id":0,"keywords":null,"game_id":0,"stv_port":0,"stv_name":"","players":null},{"server_id":2,"name":"Uncletopia | Chicago | 1 | All Maps","name_short":"chi-1","host":"chi-1.us.uncletopia.com","port":27015,"enabled":true,"region":"us-central","cc":"us","latitude":41.881832,"longitude":-87.62318,"reserved":0,"last_update":"0001-01-01T00:00:00Z","name_a2s":"Uncletopia | Chicago | 1 | All Maps","protocol":17,"map":"pl_upward","folder":"tf","game":"Team Fortress","app_id":440,"player_count":24,"max_players":24,"Bots":0,"server_type":"Dedicated","server_os":"Linux","password":true,"vac":true,"version":"7932396","steam_id":85568392924469984,"keywords":["nocrits","nodmgspread","payload","uncletopia"],"game_id":440,"stv_port":27016,"stv_name":"Uncletopia | Chicago | 1 | All Maps | STV","players":[{"user_id":504,"name":"frostedflakes99","steam_id":76561199049292578,"connected_time":1757000000000,"state":"active","ping":106},{"user_id":516,"name":"i_love_bugs_and_slugs_666","steam_id":76561198116926113,"connected_time":466000000000,"state":"active","ping":67},{"user_id":495,"name":"‚Äî‚óÄ‚ñÆ‚ñÆ‚ñ∂„Ää„Ää (Don't ub","steam_id":76561198115467946,"connected_time":2407000000000,"state":"active","ping":76},{"user_id":513,"name":"BALD SPOTTER 5000","steam_id":76561198352909489,"connected_time":553000000000,"state":"active","ping":138},{"user_id":501,"name":"Tommy Provolone","steam_id":76561198170062377,"connected_time":1845000000000,"state":"active","ping":74},{"user_id":509,"name":"5 and 23","steam_id":76561198068538473,"connected_time":1093000000000,"state":"active","ping":76},{"user_id":498,"name":"The_Fire_Guy","steam_id":76561199102423113,"connected_time":2134000000000,"state":"active","ping":104},{"user_id":512,"name":"Soul Garg Plushy","steam_id":76561198044480181,"connected_time":860000000000,"state":"active","ping":49},{"user_id":488,"name":"King Sans","steam_id":76561198294198517,"connected_time":3299000000000,"state":"active","ping":58},{"user_id":517,"name":"b3afy","steam_id":76561198084208649,"connected_time":453000000000,"state":"active","ping":90},{"user_id":474,"name":"Maverick","steam_id":76561198322829814,"connected_time":4235000000000,"state":"active","ping":77},{"user_id":500,"name":"Quark","steam_id":76561198328155605,"connected_time":2028000000000,"state":"active","ping":52},{"user_id":503,"name":"Praise_to_the_Flashlight!","steam_id":76561199001728789,"connected_time":1763000000000,"state":"active","ping":55},{"user_id":445,"name":"DJ Chalice","steam_id":76561197974872458,"connected_time":5799000000000,"state":"active","ping":74},{"user_id":514,"name":"agert","steam_id":76561199028751406,"connected_time":551000000000,"state":"active","ping":111},{"user_id":506,"name":"Sableye","steam_id":76561198061247147,"connected_time":1712000000000,"state":"active","ping":67},{"user_id":523,"name":"Willem Dafoe","steam_id":76561198037453253,"connected_time":420000000000,"state":"active","ping":60},{"user_id":519,"name":"the stink mage","steam_id":76561198062425975,"connected_time":449000000000,"state":"active","ping":87},{"user_id":340,"name":"YoursTruely","steam_id":76561198072129131,"connected_time":10343000000000,"state":"active","ping":72},{"user_id":338,"name":"Necronoxide","steam_id":76561197997856321,"connected_time":10420000000000,"state":"active","ping":93},{"user_id":515,"name":"PenjaminVT","steam_id":76561198058874021,"connected_time":535000000000,"state":"active","ping":62},{"user_id":475,"name":"GRONT","steam_id":76561198040464533,"connected_time":3957000000000,"state":"active","ping":80},{"user_id":511,"name":"Obelisk","steam_id":76561198049416866,"connected_time":934000000000,"state":"active","ping":78},{"user_id":522,"name":"glankinator","steam_id":76561198354077256,"connected_time":429000000000,"state":"active","ping":55}]},{"server_id":106,"name":"Uncletopia | Chicago | 2 | All Maps","name_short":"chi-2","host":"chi-1.us.uncletopia.com","port":27025,"enabled":true,"region":"us-central","cc":"us","latitude":41.881832,"longitude":-87.62318,"reserved":0,"last_update":"0001-01-01T00:00:00Z","name_a2s":"Uncletopia | Chicago | 2 | All Maps","protocol":17,"map":"pl_upward","folder":"tf","game":"Team Fortress","app_id":440,"player_count":27,"max_players":24,"Bots":0,"server_type":"Dedicated","server_os":"Linux","password":true,"vac":true,"version":"7932396","steam_id":85568392924469985,"keywords":["nocrits","nodmgspread","payload","uncletopia"],"game_id":440,"stv_port":27026,"stv_name":"Uncletopia | Chicago | 2 | All Maps | STV","players":[{"user_id":419,"name":"Boomerish","steam_id":76561198083946878,"connected_time":1170000000000,"state":"active","ping":67},{"user_id":390,"name":"Raptortastic","steam_id":76561198105613110,"connected_time":3243000000000,"state":"active","ping":47},{"user_id":391,"name":"scapegoat","steam_id":76561198188722751,"connected_time":3240000000000,"state":"active","ping":100},{"user_id":439,"name":"MrVegasAguitar","steam_id":76561198084466946,"connected_time":389000000000,"state":"active","ping":92},{"user_id":425,"name":"Solstrom","steam_id":76561198313364985,"connected_time":1024000000000,"state":"active","ping":68},{"user_id":453,"name":"thisisnotaustin","steam_id":76561198074463510,"connected_time":51000000000,"state":"spawning","ping":58},{"user_id":420,"name":"give me your baby faces blaster","steam_id":76561199013442982,"connected_time":1168000000000,"state":"active","ping":102},{"user_id":409,"name":"oogie","steam_id":76561199004451589,"connected_time":2063000000000,"state":"active","ping":71},{"user_id":433,"name":"The Fiend","steam_id":76561199229771413,"connected_time":552000000000,"state":"active","ping":88},{"user_id":422,"name":"Myracle","steam_id":76561198070916920,"connected_time":1107000000000,"state":"active","ping":53},{"user_id":432,"name":"CyberZayne","steam_id":76561198002351356,"connected_time":612000000000,"state":"active","ping":84},{"user_id":364,"name":"Rookie","steam_id":76561198191763447,"connected_time":6074000000000,"state":"active","ping":73},{"user_id":442,"name":"O-mega","steam_id":76561199175970696,"connected_time":330000000000,"state":"active","ping":125},{"user_id":385,"name":"AlcoholicDad454","steam_id":76561198157414556,"connected_time":3654000000000,"state":"active","ping":80},{"user_id":357,"name":"Skipz","steam_id":76561198425244550,"connected_time":6722000000000,"state":"active","ping":78},{"user_id":396,"name":"Cmonsta625","steam_id":76561199039277599,"connected_time":3145000000000,"state":"active","ping":84},{"user_id":421,"name":"Khun Aguero Agnes","steam_id":76561198055542546,"connected_time":1167000000000,"state":"active","ping":56},{"user_id":426,"name":"chiswola","steam_id":76561198046920142,"connected_time":973000000000,"state":"active","ping":72},{"user_id":399,"name":"Lysander Crow","steam_id":76561198214659356,"connected_time":3076000000000,"state":"active","ping":110},{"user_id":403,"name":"Nite","steam_id":76561199014777092,"connected_time":2851000000000,"state":"active","ping":58},{"user_id":416,"name":"Klem","steam_id":76561198042816873,"connected_time":1566000000000,"state":"active","ping":67},{"user_id":407,"name":"OddSlaush","steam_id":76561198043898488,"connected_time":2090000000000,"state":"active","ping":103},{"user_id":400,"name":"Sugahu17S","steam_id":76561198799403828,"connected_time":3074000000000,"state":"active","ping":58},{"user_id":428,"name":"lwyr","steam_id":76561198007982579,"connected_time":760000000000,"state":"active","ping":63},{"user_id":431,"name":"Baconiumo","steam_id":76561198966160534,"connected_time":621000000000,"state":"active","ping":65},{"user_id":459,"name":"ExtremeDucks","steam_id":76561198351756464,"connected_time":3000000000,"state":"spawning","ping":79},{"user_id":460,"name":"Ojen","steam_id":76561197998414482,"connected_time":3000000000,"state":"spawning","ping":65}]},{"server_id":402,"name":"Uncletopia | Chicago | 3 | All Maps","name_short":"chi-3","host":"chi-1.us.uncletopia.com","port":27035,"enabled":true,"region":"us-central","cc":"us","latitude":41.881832,"longitude":-87.62318,"reserved":0,"last_update":"0001-01-01T00:00:00Z","name_a2s":"Uncletopia | Chicago | 3 | All Maps","protocol":17,"map":"pl_borneo","folder":"tf","game":"Team Fortress","app_id":440,"player_count":19,"max_players":24,"Bots":0,"server_type":"Dedicated","server_os":"Linux","password":true,"vac":true,"version":"7932396","steam_id":85568392924515191,"keywords":["nocrits","nodmgspread","payload","uncletopia"],"game_id":440,"stv_port":27036,"stv_name":"Uncletopia | Chicago | 3 | All Maps | STV","players":[{"user_id":29,"name":"MeKaso TropStar","steam_id":76561199109895840,"connected_time":1235000000000,"state":"spawning","ping":66},{"user_id":30,"name":"Elite_Friendly","steam_id":76561198819972127,"connected_time":1232000000000,"state":"spawning","ping":129},{"user_id":44,"name":"SalteaVT","steam_id":76561198072050521,"connected_time":75000000000,"state":"spawning","ping":98},{"user_id":32,"name":"Demonica","steam_id":76561198841858340,"connected_time":873000000000,"state":"spawning","ping":73},{"user_id":33,"name":"Tri-Dot","steam_id":76561199075186597,"connected_time":647000000000,"state":"spawning","ping":70},{"user_id":25,"name":"fasterbum","steam_id":76561198142577444,"connected_time":1401000000000,"state":"spawning","ping":72},{"user_id":26,"name":"Youralmightydino","steam_id":76561198052379730,"connected_time":1384000000000,"state":"spawning","ping":130},{"user_id":39,"name":"ShawnLmao","steam_id":76561198350691501,"connected_time":383000000000,"state":"spawning","ping":85},{"user_id":28,"name":"the main gibus protagonist","steam_id":76561199379934273,"connected_time":1330000000000,"state":"spawning","ping":94},{"user_id":36,"name":"toastloard","steam_id":76561198368386853,"connected_time":502000000000,"state":"spawning","ping":105},{"user_id":37,"name":"E P H E M E R A L","steam_id":76561198128614882,"connected_time":436000000000,"state":"spawning","ping":128},{"user_id":38,"name":"Margo_Rae","steam_id":76561198035046430,"connected_time":396000000000,"state":"spawning","ping":99},{"user_id":40,"name":"Gnome Tank","steam_id":76561198984179092,"connected_time":371000000000,"state":"spawning","ping":108},{"user_id":41,"name":"Yoyo","steam_id":76561199122577289,"connected_time":269000000000,"state":"spawning","ping":100},{"user_id":42,"name":"GooniOoni","steam_id":76561198102154561,"connected_time":226000000000,"state":"spawning","ping":57},{"user_id":43,"name":"MattJettskie","steam_id":76561199229493583,"connected_time":224000000000,"state":"spawning","ping":96},{"user_id":45,"name":"HectorSingletap300","steam_id":76561198146540388,"connected_time":69000000000,"state":"spawning","ping":329},{"user_id":46,"name":"The Noob Sire","steam_id":76561198119219754,"connected_time":67000000000,"state":"spawning","ping":97},{"user_id":47,"name":"Lummock","steam_id":76561199099083114,"connected_time":60000000000,"state":"spawning","ping":147}]},{"server_id":403,"name":"Uncletopia | Chicago | 4 | All Maps","name_short":"chi-4","host":"chi-1.us.uncletopia.com","port":27045,"enabled":true,"region":"us-central","cc":"us","latitude":41.881832,"longitude":-87.62318,"reserved":0,"last_update":"0001-01-01T00:00:00Z","name_a2s":"Uncletopia | Chicago | 4 | All Maps","protocol":17,"map":"cp_snakewater_final1","folder":"tf","game":"Team Fortress","app_id":440,"player_count":24,"max_players":24,"Bots":0,"server_type":"Dedicated","server_os":"Linux","password":true,"vac":true,"version":"7932396","steam_id":85568392924515193,"keywords":["cp","nocrits","nodmgspread","uncletopia"],"game_id":440,"stv_port":27046,"stv_name":"Uncletopia | Chicago | 4 | All Maps | STV","players":[{"user_id":59,"name":"Liebestr√§ume","steam_id":76561198038862034,"connected_time":1892000000000,"state":"active","ping":92},{"user_id":40,"name":"lexi","steam_id":76561198176299759,"connected_time":3077000000000,"state":"active","ping":93},{"user_id":48,"name":"The World's Softest Sandwich","steam_id":76561198015577707,"connected_time":2607000000000,"state":"active","ping":76},{"user_id":78,"name":"GoldtoothFour","steam_id":76561198055529332,"connected_time":470000000000,"state":"active","ping":55},{"user_id":68,"name":"GotYourNose","steam_id":76561198803527852,"connected_time":1414000000000,"state":"active","ping":60},{"user_id":81,"name":"Sorry","steam_id":76561198040722720,"connected_time":58000000000,"state":"active","ping":78},{"user_id":73,"name":"Rec","steam_id":76561198022813906,"connected_time":1037000000000,"state":"active","ping":54},{"user_id":57,"name":"GhettoSmash@freenudecelebs.com","steam_id":76561198168864083,"connected_time":2012000000000,"state":"active","ping":102},{"user_id":60,"name":"ang","steam_id":76561198435151254,"connected_time":1869000000000,"state":"active","ping":113},{"user_id":16,"name":"IlMostro","steam_id":76561197970514922,"connected_time":4026000000000,"state":"active","ping":94},{"user_id":72,"name":"lili","steam_id":76561199391478575,"connected_time":1079000000000,"state":"active","ping":112},{"user_id":77,"name":"Mikael_01","steam_id":76561199080253129,"connected_time":842000000000,"state":"active","ping":182},{"user_id":71,"name":"eBay","steam_id":76561198061214569,"connected_time":1091000000000,"state":"active","ping":96},{"user_id":79,"name":"CrazyCow","steam_id":76561198097431272,"connected_time":288000000000,"state":"active","ping":100},{"user_id":26,"name":"Fresh Lychee","steam_id":76561198045399559,"connected_time":3854000000000,"state":"active","ping":55},{"user_id":76,"name":"Dr Oshawott","steam_id":76561198042021629,"connected_time":852000000000,"state":"active","ping":66},{"user_id":67,"name":"potpurrycatcurry","steam_id":76561198349409715,"connected_time":1472000000000,"state":"active","ping":65},{"user_id":29,"name":"William Wallace","steam_id":76561199343316814,"connected_time":3752000000000,"state":"active","ping":70},{"user_id":65,"name":"caption cool","steam_id":76561197990612056,"connected_time":1590000000000,"state":"active","ping":46},{"user_id":62,"name":"evegioyidechadab","steam_id":76561198075991626,"connected_time":1828000000000,"state":"active","ping":171},{"user_id":63,"name":"josh","steam_id":76561198092176972,"connected_time":1826000000000,"state":"active","ping":74},{"user_id":55,"name":"Dr. Blair Chao","steam_id":76561198146027518,"connected_time":2172000000000,"state":"active","ping":69},{"user_id":36,"name":"Your Pal, Vegeta","steam_id":76561198064916816,"connected_time":3488000000000,"state":"active","ping":72},{"user_id":37,"name":"steakfarmasian","steam_id":76561198212754036,"connected_time":3488000000000,"state":"active","ping":53}]},{"server_id":36,"name":"Uncletopia | Chicago | 5 | All Maps","name_short":"chi-5","host":"chi-2.us.uncletopia.com","port":27015,"enabled":true,"region":"us-central","cc":"us","latitude":41.881832,"longitude":-87.62318,"reserved":0,"last_update":"0001-01-01T00:00:00Z","name_a2s":"Uncletopia | Chicago | 5 | All Maps","protocol":17,"map":"pl_swiftwater_final1","folder":"tf","game":"Team Fortress","app_id":440,"player_count":24,"max_players":24,"Bots":0,"server_type":"Dedicated","server_os":"Linux","password":true,"vac":true,"version":"7932396","steam_id":85568392924866362,"keywords":["nocrits","nodmgspread","payload","uncletopia"],"game_id":440,"stv_port":27016,"stv_name":"Uncletopia | Chicago | 5 | All Maps | STV","players":[{"user_id":42,"name":"Atlas","steam_id":76561198127975050,"connected_time":7437000000000,"state":"active","ping":72},{"user_id":111,"name":"Ice dispenser(real)","steam_id":76561198298310744,"connected_time":1287000000000,"state":"active","ping":68},{"user_id":65,"name":"hum","steam_id":76561198085457599,"connected_time":5938000000000,"state":"active","ping":76},{"user_id":103,"name":"CinnamonBoy","steam_id":76561198882330338,"connected_time":2028000000000,"state":"active","ping":71},{"user_id":105,"name":"Mungo","steam_id":76561198102195884,"connected_time":1882000000000,"state":"active","ping":48},{"user_id":122,"name":"Uncle Dad","steam_id":76561198058073652,"connected_time":211000000000,"state":"active","ping":75},{"user_id":123,"name":"Babayaga","steam_id":76561199238903829,"connected_time":150000000000,"state":"active","ping":65},{"user_id":93,"name":"[DATS‚û°] Sugar Meowth","steam_id":76561197995251793,"connected_time":2858000000000,"state":"active","ping":92},{"user_id":88,"name":"El G√ºey","steam_id":76561197970450546,"connected_time":3000000000000,"state":"active","ping":114},{"user_id":120,"name":"Breach","steam_id":76561198045060392,"connected_time":548000000000,"state":"active","ping":45},{"user_id":85,"name":"viego","steam_id":76561198273568117,"connected_time":3486000000000,"state":"active","ping":63},{"user_id":112,"name":"TheBigJabroni‚Ñ¢","steam_id":76561198066208423,"connected_time":1267000000000,"state":"active","ping":87},{"user_id":118,"name":"mndbrkn","steam_id":76561198054390505,"connected_time":699000000000,"state":"active","ping":45},{"user_id":119,"name":"blitzkriiegi","steam_id":76561198200944766,"connected_time":676000000000,"state":"active","ping":54},{"user_id":121,"name":"craxyt","steam_id":76561198050192689,"connected_time":480000000000,"state":"active","ping":103},{"user_id":124,"name":"Deltaco","steam_id":76561198094572694,"connected_time":92000000000,"state":"active","ping":112},{"user_id":97,"name":"Kally‚Ñ¢","steam_id":76561198112369159,"connected_time":2801000000000,"state":"active","ping":70},{"user_id":114,"name":"Bob \"Hell Rider\" White","steam_id":76561198979277948,"connected_time":1101000000000,"state":"active","ping":89},{"user_id":99,"name":"dak","steam_id":76561198076596506,"connected_time":2642000000000,"state":"active","ping":61},{"user_id":108,"name":"Auto_Correct","steam_id":76561198254988078,"connected_time":1583000000000,"state":"active","ping":80},{"user_id":76,"name":"Ozwald","steam_id":76561198125241562,"connected_time":4677000000000,"state":"active","ping":61},{"user_id":83,"name":"Stranger in a Strange Land","steam_id":76561198049843671,"connected_time":3570000000000,"state":"active","ping":72},{"user_id":101,"name":"LLaigend","steam_id":76561199099862138,"connected_time":2111000000000,"state":"active","ping":78},{"user_id":79,"name":"5mech","steam_id":76561198979167520,"connected_time":4414000000000,"state":"active","ping":57}]},{"server_id":37,"name":"Uncletopia | Chicago | 6 | All Maps","name_short":"chi-6","host":"chi-2.us.uncletopia.com","port":27025,"enabled":true,"region":"us-central","cc":"us","latitude":41.881832,"longitude":-87.62318,"reserved":0,"last_update":"0001-01-01T00:00:00Z","name_a2s":"Uncletopia | Chicago | 6 | All Maps","protocol":17,"map":"pl_thundermountain","folder":"tf","game":"Team Fortress","app_id":440,"player_count":19,"max_players":24,"Bots":0,"server_type":"Dedicated","server_os":"Linux","password":true,"vac":true,"version":"7932396","steam_id":85568392924866363,"keywords":["nocrits","nodmgspread","payload","uncletopia"],"game_id":440,"stv_port":27026,"stv_name":"Uncletopia | Chicago | 6 | All Maps | STV","players":[{"user_id":217,"name":"AnonymousCritter","steam_id":76561198864475187,"connected_time":698000000000,"state":"active","ping":49},{"user_id":227,"name":"Ground Beef Popsicle","steam_id":76561198045499333,"connected_time":194000000000,"state":"active","ping":57},{"user_id":228,"name":"BugsAreMyWorstEnemy","steam_id":76561199440395505,"connected_time":174000000000,"state":"active","ping":77},{"user_id":185,"name":"Nelson CSBRO","steam_id":76561198850327678,"connected_time":3285000000000,"state":"active","ping":94},{"user_id":234,"name":"Profact","steam_id":76561198019274719,"connected_time":29000000000,"state":"spawning","ping":58},{"user_id":173,"name":"Wendigo","steam_id":76561199010582245,"connected_time":3956000000000,"state":"active","ping":67},{"user_id":233,"name":"Jesus","steam_id":76561198866558435,"connected_time":160000000000,"state":"active","ping":78},{"user_id":207,"name":"Xraverz","steam_id":76561198008891628,"connected_time":1631000000000,"state":"active","ping":73},{"user_id":170,"name":"t.tv/ibbKitty‚àë:3","steam_id":76561198110858518,"connected_time":4048000000000,"state":"active","ping":54},{"user_id":203,"name":"rontu","steam_id":76561199072955534,"connected_time":1929000000000,"state":"active","ping":52},{"user_id":214,"name":"Dirt Road","steam_id":76561198210372012,"connected_time":812000000000,"state":"active","ping":73},{"user_id":197,"name":"Krewson","steam_id":76561199233067013,"connected_time":2425000000000,"state":"active","ping":101},{"user_id":215,"name":"Aquiles Baeza","steam_id":76561198081053203,"connected_time":812000000000,"state":"active","ping":125},{"user_id":216,"name":"Ingo","steam_id":76561198053932416,"connected_time":809000000000,"state":"active","ping":62},{"user_id":191,"name":"Goth Spy Boyfriend","steam_id":76561198104086771,"connected_time":2687000000000,"state":"active","ping":96},{"user_id":115,"name":"Zen56","steam_id":76561198074554894,"connected_time":8418000000000,"state":"active","ping":90},{"user_id":213,"name":"inax","steam_id":76561198398677744,"connected_time":977000000000,"state":"active","ping":112},{"user_id":122,"name":"lukas","steam_id":76561198172454407,"connected_time":7961000000000,"state":"active","ping":77},{"user_id":65,"name":"daemon","steam_id":76561198001541433,"connected_time":10928000000000,"state":"active","ping":51}]},{"server_id":38,"name":"Uncletopia | Chicago | 7 | Stopwatch Beta","name_short":"chi-7","host":"chi-2.us.uncletopia.com","port":27035,"enabled":true,"region":"us-central","cc":"us","latitude":41.881832,"longitude":-87.62318,"reserved":0,"last_update":"0001-01-01T00:00:00Z","name_a2s":"Uncletopia | Chicago | 7 | Stopwatch Beta","protocol":17,"map":"pl_borneo","folder":"tf","game":"Team Fortress","app_id":440,"player_count":0,"max_players":24,"Bots":0,"server_type":"Dedicated","server_os":"Linux","password":true,"vac":true,"version":"7932396","steam_id":85568392924866364,"keywords":["nocrits","nodmgspread","payload","uncletopia"],"game_id":440,"stv_port":27036,"stv_name":"Uncletopia | Chicago | 7 | Stopwatch Beta | STV","players":null},{"server_id":39,"name":"Uncletopia | Chicago | 8 | Community","name_short":"chi-8","host":"chi-2.us.uncletopia.com","port":27045,"enabled":true,"region":"us-central","cc":"us","latitude":41.881832,"longitude":-87.62318,"reserved":0,"last_update":"0001-01-01T00:00:00Z","name_a2s":"Uncletopia | Chicago | 8 | Community","protocol":17,"map":"workshop/koth_kemptown_rc1.ugc767410655","folder":"tf","game":"Team Fortress","app_id":440,"player_count":15,"max_players":24,"Bots":0,"server_type":"Dedicated","server_os":"Linux","password":true,"vac":true,"version":"7932396","steam_id":85568392924866365,"keywords":["cp","nocrits","nodmgspread","uncletopia"],"game_id":440,"stv_port":27046,"stv_name":"Uncletopia | Chicago | 8 | Community | STV","players":[{"user_id":243,"name":"gorf?","steam_id":76561198142286417,"connected_time":2786000000000,"state":"active","ping":52},{"user_id":260,"name":"Lovedaddy","steam_id":76561198006569710,"connected_time":1416000000000,"state":"active","ping":76},{"user_id":279,"name":"Intro Bonito","steam_id":76561198119478838,"connected_time":106000000000,"state":"active","ping":62},{"user_id":261,"name":"KeithStone","steam_id":76561197986083582,"connected_time":1384000000000,"state":"active","ping":72},{"user_id":276,"name":"Patrick Bateman","steam_id":76561198384339268,"connected_time":326000000000,"state":"active","ping":98},{"user_id":273,"name":"Onyx","steam_id":76561198275349640,"connected_time":638000000000,"state":"active","ping":98},{"user_id":280,"name":"-_-","steam_id":76561199078009116,"connected_time":93000000000,"state":"active","ping":73},{"user_id":252,"name":"typhoon","steam_id":76561198165123178,"connected_time":2266000000000,"state":"active","ping":74},{"user_id":277,"name":"Farm3rJh0nson","steam_id":76561199166153873,"connected_time":307000000000,"state":"active","ping":87},{"user_id":271,"name":"Gamering_funy","steam_id":76561199006503777,"connected_time":1018000000000,"state":"active","ping":50},{"user_id":264,"name":"Yayifications","steam_id":76561198066227208,"connected_time":1280000000000,"state":"active","ping":60},{"user_id":268,"name":"Mimik","steam_id":76561198799742232,"connected_time":1227000000000,"state":"active","ping":82},{"user_id":269,"name":"Scrux","steam_id":76561198129763115,"connected_time":1211000000000,"state":"active","ping":99},{"user_id":253,"name":"Nic0","steam_id":76561198305690218,"connected_time":2217000000000,"state":"active","ping":60},{"user_id":272,"name":"bonk","steam_id":76561198821774697,"connected_time":1008000000000,"state":"active","ping":46}]},{"server_id":8,"name":"Uncletopia | Dallas | 1 | All Maps","name_short":"dal-1","host":"dal-1.us.uncletopia.com","port":27015,"enabled":true,"region":"us-central","cc":"us","latitude":32.779167,"longitude":-96.80889,"reserved":0,"last_update":"0001-01-01T00:00:00Z","name_a2s":"Uncletopia | Dallas | 1 | All Maps","protocol":17,"map":"pl_rumford_event","folder":"tf","game":"Team Fortress","app_id":440,"player_count":23,"max_players":24,"Bots":0,"server_type":"Dedicated","server_os":"Linux","password":true,"vac":true,"version":"7932396","steam_id":85568392924469986,"keywords":["nocrits","nodmgspread","payload","uncletopia"],"game_id":440,"stv_port":27016,"stv_name":"Uncletopia | Dallas | 1 | All Maps | STV","players":[{"user_id":126,"name":"younggflylyfe","steam_id":76561199477357832,"connected_time":276000000000,"state":"active","ping":34},{"user_id":129,"name":"spiderguy","steam_id":76561198412074955,"connected_time":142000000000,"state":"active","ping":63},{"user_id":124,"name":"xLeoparrd","steam_id":76561198940657194,"connected_time":425000000000,"state":"active","ping":49},{"user_id":74,"name":"nori_420","steam_id":76561199117134203,"connected_time":4602000000000,"state":"active","ping":82},{"user_id":128,"name":"TechnoBear2099","steam_id":76561198238863596,"connected_time":168000000000,"state":"active","ping":46},{"user_id":130,"name":"Phosu","steam_id":76561198180162801,"connected_time":120000000000,"state":"active","ping":61},{"user_id":120,"name":"‚úß‚í∏‚ìò‚ìí‚ìò‚úß","steam_id":76561198090077268,"connected_time":949000000000,"state":"active","ping":53},{"user_id":135,"name":"bean d eafs","steam_id":76561199480473421,"connected_time":54000000000,"state":"active","ping":96},{"user_id":134,"name":"meo ‚ô•","steam_id":76561197992719272,"connected_time":90000000000,"state":"active","ping":70},{"user_id":106,"name":"Andreshatesmondays","steam_id":76561198889349797,"connected_time":2311000000000,"state":"active","ping":101},{"user_id":127,"name":"Rafl","steam_id":76561198055222756,"connected_time":168000000000,"state":"active","ping":44},{"user_id":92,"name":"David De Bergerac","steam_id":76561198010306294,"connected_time":2979000000000,"state":"active","ping":88},{"user_id":46,"name":"Lolxdloldx","steam_id":76561198136887125,"connected_time":5624000000000,"state":"active","ping":101},{"user_id":131,"name":"InvaderAlex","steam_id":76561198039232451,"connected_time":119000000000,"state":"active","ping":64},{"user_id":123,"name":"Voyager","steam_id":76561199128786637,"connected_time":506000000000,"state":"active","ping":103},{"user_id":81,"name":"DylChill616","steam_id":76561198194576953,"connected_time":3953000000000,"state":"active","ping":99},{"user_id":79,"name":"nothowon","steam_id":76561198937601452,"connected_time":4211000000000,"state":"active","ping":71},{"user_id":133,"name":"The Milkman #DefendHomeDepot","steam_id":76561199387783793,"connected_time":92000000000,"state":"active","ping":70},{"user_id":118,"name":"baldo","steam_id":76561198178431338,"connected_time":1053000000000,"state":"active","ping":65},{"user_id":69,"name":"!mute","steam_id":76561198219209367,"connected_time":4821000000000,"state":"active","ping":65},{"user_id":54,"name":"‚ô° thedittoguy ‚ô°","steam_id":76561199013129784,"connected_time":5466000000000,"state":"active","ping":53},{"user_id":136,"name":"Noid","steam_id":76561198227804500,"connected_time":3000000000,"state":"spawning","ping":70},{"user_id":105,"name":"Sir Severus","steam_id":76561198061295188,"connected_time":2468000000000,"state":"active","ping":105}]},{"server_id":108,"name":"Uncletopia | Dallas | 2 | All Maps","name_short":"dal-2","host":"dal-1.us.uncletopia.com","port":27025,"enabled":true,"region":"us-central","cc":"us","latitude":32.779167,"longitude":-96.80889,"reserved":0,"last_update":"0001-01-01T00:00:00Z","name_a2s":"Uncletopia | Dallas | 2 | All Maps","protocol":17,"map":"koth_lakeside_final","folder":"tf","game":"Team Fortress","app_id":440,"player_count":0,"max_players":24,"Bots":0,"server_type":"Dedicated","server_os":"Linux","password":true,"vac":true,"version":"7932396","steam_id":85568392924469988,"keywords":["cp","nocrits","nodmgspread","uncletopia"],"game_id":440,"stv_port":27026,"stv_name":"Uncletopia | Dallas | 2 | All Maps | STV","players":null},{"server_id":5,"name":"Uncletopia | Frankfurt | 1 | All Maps","name_short":"frk-1","host":"frk-1.de.uncletopia.com","port":27015,"enabled":true,"region":"eu","cc":"de","latitude":50.110924,"longitude":8.682127,"reserved":0,"last_update":"0001-01-01T00:00:00Z","name_a2s":"Uncletopia | Frankfurt | 1 | All Maps","protocol":17,"map":"pl_frontier_final","folder":"tf","game":"Team Fortress","app_id":440,"player_count":24,"max_players":24,"Bots":0,"server_type":"Dedicated","server_os":"Linux","password":true,"vac":true,"version":"7932396","steam_id":85568392924469989,"keywords":["nocrits","nodmgspread","payload","uncletopia"],"game_id":440,"stv_port":27016,"stv_name":"Uncletopia | Frankfurt | 1 | All Maps | STV","players":[{"user_id":591,"name":"Zina Tv","steam_id":76561198116530769,"connected_time":4652000000000,"state":"active","ping":91},{"user_id":637,"name":"Tea guy","steam_id":76561198797847641,"connected_time":379000000000,"state":"active","ping":74},{"user_id":563,"name":"Googlemaps","steam_id":76561198098135409,"connected_time":7379000000000,"state":"active","ping":62},{"user_id":610,"name":"cheriberry","steam_id":76561198093577036,"connected_time":1894000000000,"state":"active","ping":53},{"user_id":625,"name":"Shrimp","steam_id":76561198245939970,"connected_time":631000000000,"state":"active","ping":91},{"user_id":636,"name":"Kaishakunin","steam_id":76561198028123874,"connected_time":443000000000,"state":"active","ping":81},{"user_id":624,"name":"Toasty5050","steam_id":76561198073540881,"connected_time":638000000000,"state":"active","ping":45},{"user_id":611,"name":"Covetousix","steam_id":76561198293936824,"connected_time":1888000000000,"state":"active","ping":80},{"user_id":547,"name":"GuSkand","steam_id":76561198043775605,"connected_time":7976000000000,"state":"active","ping":79},{"user_id":630,"name":"Lanky Hank","steam_id":76561198124243120,"connected_time":608000000000,"state":"active","ping":65},{"user_id":592,"name":"nymph","steam_id":76561199249569889,"connected_time":4573000000000,"state":"active","ping":60},{"user_id":634,"name":"CollDragon","steam_id":76561198067534450,"connected_time":582000000000,"state":"active","ping":137},{"user_id":627,"name":"Rimx","steam_id":76561198053034840,"connected_time":625000000000,"state":"active","ping":96},{"user_id":626,"name":"Consider Phlebas","steam_id":76561197980736364,"connected_time":630000000000,"state":"active","ping":81},{"user_id":638,"name":"domek brexit geezerüá¨üáß","steam_id":76561198048447632,"connected_time":377000000000,"state":"active","ping":65},{"user_id":606,"name":"ArmedWithWings","steam_id":76561198154615474,"connected_time":2961000000000,"state":"active","ping":87},{"user_id":556,"name":"kevinus","steam_id":76561198059722457,"connected_time":7594000000000,"state":"active","ping":57},{"user_id":632,"name":"Nate","steam_id":76561198022122387,"connected_time":603000000000,"state":"active","ping":98},{"user_id":612,"name":"Carl","steam_id":76561198045638738,"connected_time":1886000000000,"state":"active","ping":75},{"user_id":589,"name":"H-say","steam_id":76561198177400362,"connected_time":4814000000000,"state":"active","ping":91},{"user_id":618,"name":"Julius catius","steam_id":76561198134156264,"connected_time":1427000000000,"state":"active","ping":89},{"user_id":633,"name":"Zoe","steam_id":76561198055380605,"connected_time":602000000000,"state":"active","ping":73},{"user_id":614,"name":"Mr.Usean","steam_id":76561198965758724,"connected_time":1860000000000,"state":"active","ping":67},{"user_id":616,"name":"Lartsa","steam_id":76561198275690230,"connected_time":1828000000000,"state":"active","ping":103}]},{"server_id":110,"name":"Uncletopia | Frankfurt | 2 | All Maps","name_short":"frk-2","host":"frk-1.de.uncletopia.com","port":27025,"enabled":true,"region":"eu","cc":"de","latitude":50.110924,"longitude":8.682127,"reserved":0,"last_update":"0001-01-01T00:00:00Z","name_a2s":"Uncletopia | Frankfurt | 2 | All Maps","protocol":17,"map":"cp_fastlane","folder":"tf","game":"Team Fortress","app_id":440,"player_count":24,"max_players":24,"Bots":0,"server_type":"Dedicated","server_os":"Linux","password":true,"vac":true,"version":"7932396","steam_id":85568392924469990,"keywords":["cp","nocrits","nodmgspread","uncletopia"],"game_id":440,"stv_port":27026,"stv_name":"Uncletopia | Frankfurt | 2 | All Maps | STV","players":[{"user_id":310,"name":"m√®x","steam_id":76561197975951572,"connected_time":8297000000000,"state":"active","ping":47},{"user_id":369,"name":"Gaxkang","steam_id":76561198125768571,"connected_time":5973000000000,"state":"active","ping":72},{"user_id":473,"name":"Peacebound","steam_id":76561198907692479,"connected_time":658000000000,"state":"active","ping":55},{"user_id":423,"name":"‚ôÇ Animan ‚ôÇ Studios ‚ôÇ","steam_id":76561198308302932,"connected_time":2185000000000,"state":"active","ping":96},{"user_id":472,"name":"ForniFaun","steam_id":76561198065335696,"connected_time":963000000000,"state":"active","ping":79},{"user_id":477,"name":"DOMAIN","steam_id":76561199095640319,"connected_time":637000000000,"state":"active","ping":84},{"user_id":486,"name":"Gimmick","steam_id":76561197979603871,"connected_time":195000000000,"state":"active","ping":60},{"user_id":415,"name":"roblan11","steam_id":76561198066839258,"connected_time":3043000000000,"state":"active","ping":43},{"user_id":412,"name":"ÿ£ÿØŸäÿ® ÿßŸÑÿ£ÿµŸÅÿ±","steam_id":76561198095691592,"connected_time":3157000000000,"state":"active","ping":55},{"user_id":395,"name":"anders McFlanders","steam_id":76561198022811995,"connected_time":3743000000000,"state":"active","ping":62},{"user_id":487,"name":"2BCD","steam_id":76561198178254946,"connected_time":96000000000,"state":"active","ping":61},{"user_id":480,"name":"mwr","steam_id":76561199129942647,"connected_time":608000000000,"state":"active","ping":71},{"user_id":478,"name":"Stavros","steam_id":76561198147881331,"connected_time":632000000000,"state":"active","ping":69},{"user_id":439,"name":"NoPfizer","steam_id":76561198307914381,"connected_time":1813000000000,"state":"active","ping":67},{"user_id":401,"name":"DaiDaiMu :3","steam_id":76561198052794823,"connected_time":3536000000000,"state":"active","ping":46},{"user_id":485,"name":"Dabbot","steam_id":76561199417800581,"connected_time":266000000000,"state":"active","ping":166},{"user_id":426,"name":"Renolox","steam_id":76561198036590182,"connected_time":2155000000000,"state":"active","ping":70},{"user_id":428,"name":"joachym","steam_id":76561198428579761,"connected_time":2136000000000,"state":"active","ping":66},{"user_id":484,"name":"WATANG!","steam_id":76561198040478926,"connected_time":334000000000,"state":"active","ping":74},{"user_id":481,"name":"Bird On Your Window","steam_id":76561198081933130,"connected_time":604000000000,"state":"active","ping":76},{"user_id":386,"name":"Valdis","steam_id":76561198057340489,"connected_time":4798000000000,"state":"active","ping":59},{"user_id":429,"name":"Adolf Potter","steam_id":76561198120554557,"connected_time":2105000000000,"state":"active","ping":45},{"user_id":419,"name":"Nobody","steam_id":76561198151116796,"connected_time":2702000000000,"state":"active","ping":80},{"user_id":393,"name":"Dash","steam_id":76561198041329823,"connected_time":3994000000000,"state":"active","ping":83}]},{"server_id":308,"name":"Uncletopia | Frankfurt | 3 | All Maps","name_short":"frk-3","host":"frk-1.de.uncletopia.com","port":27035,"enabled":true,"region":"eu","cc":"de","latitude":50.110924,"longitude":8.682127,"reserved":0,"last_update":"0001-01-01T00:00:00Z","name_a2s":"Uncletopia | Frankfurt | 3 | All Maps","protocol":17,"map":"koth_viaduct","folder":"tf","game":"Team Fortress","app_id":440,"player_count":0,"max_players":24,"Bots":0,"server_type":"Dedicated","server_os":"Linux","password":true,"vac":true,"version":"7932396","steam_id":85568392924504274,"keywords":["cp","nocrits","nodmgspread","uncletopia"],"game_id":440,"stv_port":27036,"stv_name":"Uncletopia | Frankfurt | 3 | All Maps | STV","players":null},{"server_id":309,"name":"Uncletopia | Frankfurt | 4 | All Maps","name_short":"frk-4","host":"frk-1.de.uncletopia.com","port":27045,"enabled":true,"region":"eu","cc":"de","latitude":50.110924,"longitude":8.682127,"reserved":0,"last_update":"0001-01-01T00:00:00Z","name_a2s":"Uncletopia | Frankfurt | 4 | All Maps","protocol":17,"map":"cp_fastlane","folder":"tf","game":"Team Fortress","app_id":440,"player_count":24,"max_players":24,"Bots":0,"server_type":"Dedicated","server_os":"Linux","password":true,"vac":true,"version":"7932396","steam_id":85568392924504275,"keywords":["cp","nocrits","nodmgspread","uncletopia"],"game_id":440,"stv_port":27046,"stv_name":"Uncletopia | Frankfurt | 4 | All Maps | STV","players":[{"user_id":429,"name":"Egor Pomidor","steam_id":76561199175688390,"connected_time":470000000000,"state":"active","ping":75},{"user_id":359,"name":"Lyncurion","steam_id":76561199260022725,"connected_time":7235000000000,"state":"active","ping":79},{"user_id":323,"name":"X-tis","steam_id":76561198043837480,"connected_time":10923000000000,"state":"active","ping":69},{"user_id":386,"name":"mark of the outsider","steam_id":76561198309246388,"connected_time":4582000000000,"state":"active","ping":45},{"user_id":344,"name":"LarsInABox","steam_id":76561198028329262,"connected_time":9751000000000,"state":"active","ping":68},{"user_id":415,"name":"Udinese Dion","steam_id":76561198067931573,"connected_time":1658000000000,"state":"active","ping":52},{"user_id":434,"name":"I Don't Know","steam_id":76561198841011430,"connected_time":111000000000,"state":"active","ping":66},{"user_id":427,"name":"Cosmetic brain","steam_id":76561198055936410,"connected_time":668000000000,"state":"active","ping":81},{"user_id":390,"name":"mt","steam_id":76561197961319303,"connected_time":3642000000000,"state":"active","ping":47},{"user_id":275,"name":"Fat Pigeon","steam_id":76561198817940142,"connected_time":14432000000000,"state":"active","ping":52},{"user_id":417,"name":"Lampinen","steam_id":76561198004936228,"connected_time":1560000000000,"state":"active","ping":77},{"user_id":433,"name":"tete","steam_id":76561198045222850,"connected_time":158000000000,"state":"active","ping":66},{"user_id":418,"name":"Incomus","steam_id":76561198058342600,"connected_time":1551000000000,"state":"active","ping":75},{"user_id":394,"name":"‚òûLaZe‚òú","steam_id":76561198202191400,"connected_time":3584000000000,"state":"active","ping":63},{"user_id":428,"name":"big boi","steam_id":76561198033467299,"connected_time":517000000000,"state":"active","ping":127},{"user_id":426,"name":"Zoppox","steam_id":76561198033930332,"connected_time":1097000000000,"state":"active","ping":75},{"user_id":419,"name":"Floppa-z","steam_id":76561199385382550,"connected_time":1538000000000,"state":"active","ping":109},{"user_id":435,"name":"Rock..","steam_id":76561198004641963,"connected_time":80000000000,"state":"active","ping":77},{"user_id":403,"name":"Fedm","steam_id":76561199020090514,"connected_time":2750000000000,"state":"active","ping":78},{"user_id":436,"name":"Ando","steam_id":76561198176784641,"connected_time":74000000000,"state":"active","ping":75},{"user_id":430,"name":"eevee","steam_id":76561198447072392,"connected_time":234000000000,"state":"active","ping":68},{"user_id":437,"name":"gmem","steam_id":76561198070006725,"connected_time":35000000000,"state":"active","ping":62},{"user_id":424,"name":"carrots have feelings too","steam_id":76561198069649097,"connected_time":1341000000000,"state":"active","ping":77},{"user_id":422,"name":"Nekramite","steam_id":76561198166617261,"connected_time":1519000000000,"state":"active","ping":63}]},{"server_id":310,"name":"Uncletopia | Frankfurt | 5 | All Maps","name_short":"frk-5","host":"frk-1.de.uncletopia.com","port":27055,"enabled":true,"region":"eu","cc":"de","latitude":50.110924,"longitude":8.682127,"reserved":0,"last_update":"0001-01-01T00:00:00Z","name_a2s":"Uncletopia | Frankfurt | 5 | All Maps","protocol":17,"map":"pl_barnblitz","folder":"tf","game":"Team Fortress","app_id":440,"player_count":24,"max_players":24,"Bots":0,"server_type":"Dedicated","server_os":"Linux","password":true,"vac":true,"version":"7932396","steam_id":85568392924504277,"keywords":["nocrits","nodmgspread","payload","uncletopia"],"game_id":440,"stv_port":27056,"stv_name":"Uncletopia | Frankfurt | 5 | All Maps | STV","players":[{"user_id":810,"name":"I sell exotic parrots","steam_id":76561199192434258,"connected_time":242000000000,"state":"active","ping":82},{"user_id":804,"name":"froglids","steam_id":76561198045466919,"connected_time":522000000000,"state":"active","ping":61},{"user_id":802,"name":"ZeeRoll","steam_id":76561198131129970,"connected_time":559000000000,"state":"active","ping":81},{"user_id":709,"name":"Bakser Swagger","steam_id":76561198199774646,"connected_time":5653000000000,"state":"active","ping":75},{"user_id":759,"name":"jge","steam_id":76561198123186387,"connected_time":2785000000000,"state":"active","ping":57},{"user_id":800,"name":"CptHavvock","steam_id":76561199189740651,"connected_time":596000000000,"state":"active","ping":86},{"user_id":792,"name":"mejmej Tjuven","steam_id":76561198202440816,"connected_time":958000000000,"state":"active","ping":84},{"user_id":803,"name":"eeeeee","steam_id":76561198017786875,"connected_time":552000000000,"state":"active","ping":57},{"user_id":712,"name":"kryhu","steam_id":76561198293327713,"connected_time":5594000000000,"state":"active","ping":65},{"user_id":776,"name":"BonnieDrag","steam_id":76561199149216429,"connected_time":1853000000000,"state":"active","ping":92},{"user_id":799,"name":"FilipeLuk","steam_id":76561198150675438,"connected_time":603000000000,"state":"active","ping":75},{"user_id":763,"name":"absolutely no fucking way","steam_id":76561198120460189,"connected_time":2610000000000,"state":"active","ping":82},{"user_id":705,"name":"Fish","steam_id":76561198182278770,"connected_time":5938000000000,"state":"active","ping":86},{"user_id":809,"name":"Carrotcracker","steam_id":76561198034862396,"connected_time":477000000000,"state":"active","ping":68},{"user_id":788,"name":"Saint","steam_id":76561198003296382,"connected_time":1298000000000,"state":"active","ping":58},{"user_id":808,"name":"executive producer larry david","steam_id":76561198057868438,"connected_time":491000000000,"state":"active","ping":61},{"user_id":806,"name":"MrClyde","steam_id":76561198132627420,"connected_time":513000000000,"state":"active","ping":63},{"user_id":811,"name":"FoOzTV","steam_id":76561197998636728,"connected_time":91000000000,"state":"active","ping":76},{"user_id":791,"name":"sex toilet","steam_id":76561198412197820,"connected_time":970000000000,"state":"active","ping":84},{"user_id":794,"name":"Luky \u003c3","steam_id":76561198124411084,"connected_time":718000000000,"state":"active","ping":63},{"user_id":783,"name":"vurtun","steam_id":76561198857395274,"connected_time":1618000000000,"state":"active","ping":59},{"user_id":787,"name":"Simon Ekpa","steam_id":76561198853658163,"connected_time":1572000000000,"state":"active","ping":86},{"user_id":798,"name":"Finnish Farmer","steam_id":76561198205366043,"connected_time":617000000000,"state":"active","ping":87},{"user_id":807,"name":"ant753","steam_id":76561198103458889,"connected_time":511000000000,"state":"active","ping":70}]},{"server_id":311,"name":"Uncletopia | Frankfurt | 6 | All Maps","name_short":"frk-6","host":"frk-1.de.uncletopia.com","port":27065,"enabled":true,"region":"eu","cc":"de","latitude":50.110924,"longitude":8.682127,"reserved":0,"last_update":"0001-01-01T00:00:00Z","name_a2s":"Uncletopia | Frankfurt | 6 | All Maps","protocol":17,"map":"cp_dustbowl","folder":"tf","game":"Team Fortress","app_id":440,"player_count":0,"max_players":24,"Bots":0,"server_type":"Dedicated","server_os":"Linux","password":true,"vac":true,"version":"7932396","steam_id":85568392924504278,"keywords":["cp","nocrits","nodmgspread","uncletopia"],"game_id":440,"stv_port":27066,"stv_name":"Uncletopia | Frankfurt | 6 | All Maps | STV","players":null},{"server_id":23,"name":"Uncletopia | Frankfurt | 7 | Stopwatch Beta","name_short":"frk-7","host":"frk-1.de.uncletopia.com","port":27075,"enabled":true,"region":"eu","cc":"de","latitude":50.110924,"longitude":8.682127,"reserved":0,"last_update":"0001-01-01T00:00:00Z","name_a2s":"Uncletopia | Frankfurt | 7 | Stopwatch Beta","protocol":17,"map":"pl_snowycoast","folder":"tf","game":"Team Fortress","app_id":440,"player_count":0,"max_players":24,"Bots":0,"server_type":"Dedicated","server_os":"Linux","password":true,"vac":true,"version":"7932396","steam_id":85568392924742827,"keywords":["nocrits","nodmgspread","payload","uncletopia"],"game_id":440,"stv_port":27076,"stv_name":"Uncletopia | Frankfurt | 7 | Stopwatch Beta | STV","players":null},{"server_id":24,"name":"Uncletopia | Frankfurt | 8 | Community","name_short":"frk-8","host":"frk-1.de.uncletopia.com","port":27085,"enabled":true,"region":"eu","cc":"de","latitude":50.110924,"longitude":8.682127,"reserved":0,"last_update":"0001-01-01T00:00:00Z","name_a2s":"Uncletopia | Frankfurt | 8 | Community","protocol":17,"map":"workshop/pl_fifthcurve_rc1.ugc648227046","folder":"tf","game":"Team Fortress","app_id":440,"player_count":0,"max_players":24,"Bots":0,"server_type":"Dedicated","server_os":"Linux","password":true,"vac":true,"version":"7932396","steam_id":85568392924742828,"keywords":["nocrits","nodmgspread","payload","uncletopia"],"game_id":440,"stv_port":27086,"stv_name":"Uncletopia | Frankfurt | 8 | Community | STV","players":null},{"server_id":202,"name":"Uncletopia | Hong Kong | 1 | All Maps","name_short":"hgk-1","host":"hgk-1.hk.uncletopia.com","port":27015,"enabled":true,"region":"asia","cc":"hk","latitude":22.302711,"longitude":114.177216,"reserved":0,"last_update":"0001-01-01T00:00:00Z","name_a2s":"Uncletopia | Hong Kong | 1 | All Maps","protocol":17,"map":"koth_viaduct","folder":"tf","game":"Team Fortress","app_id":440,"player_count":0,"max_players":24,"Bots":0,"server_type":"Dedicated","server_os":"Linux","password":true,"vac":true,"version":"7932396","steam_id":85568392924494504,"keywords":["cp","nocrits","nodmgspread","uncletopia"],"game_id":440,"stv_port":27016,"stv_name":"Uncletopia | Hong Kong | 1 | All Maps | STV","players":null},{"server_id":1,"name":"Uncletopia | Los Angeles | 1 | All Maps","name_short":"lax-1","host":"lax-1.us.uncletopia.com","port":27015,"enabled":true,"region":"us-west","cc":"us","latitude":33.94279,"longitude":-118.41004,"reserved":0,"last_update":"0001-01-01T00:00:00Z","name_a2s":"Uncletopia | Los Angeles | 1 | All Maps","protocol":17,"map":"koth_highpass","folder":"tf","game":"Team Fortress","app_id":440,"player_count":0,"max_players":24,"Bots":0,"server_type":"Dedicated","server_os":"Linux","password":true,"vac":true,"version":"7932396","steam_id":85568392924469991,"keywords":["cp","nocrits","nodmgspread","uncletopia"],"game_id":440,"stv_port":27016,"stv_name":"Uncletopia | Los Angeles | 1 | All Maps | STV","players":null},{"server_id":112,"name":"Uncletopia | Los Angeles | 2 | All Maps","name_short":"lax-2","host":"lax-1.us.uncletopia.com","port":27025,"enabled":true,"region":"us-west","cc":"us","latitude":33.94279,"longitude":-118.41004,"reserved":0,"last_update":"0001-01-01T00:00:00Z","name_a2s":"Uncletopia | Los Angeles | 2 | All Maps","protocol":17,"map":"cp_sunshine","folder":"tf","game":"Team Fortress","app_id":440,"player_count":22,"max_players":24,"Bots":0,"server_type":"Dedicated","server_os":"Linux","password":true,"vac":true,"version":"7932396","steam_id":85568392924469992,"keywords":["cp","nocrits","nodmgspread","uncletopia"],"game_id":440,"stv_port":27026,"stv_name":"Uncletopia | Los Angeles | 2 | All Maps | STV","players":[{"user_id":11,"name":"CrystalClear","steam_id":76561198210417120,"connected_time":1860000000000,"state":"active","ping":62},{"user_id":40,"name":"THE STINK","steam_id":76561199226110975,"connected_time":10000000000,"state":"active","ping":94},{"user_id":13,"name":"MegaMott","steam_id":76561199172245274,"connected_time":1141000000000,"state":"active","ping":57},{"user_id":29,"name":"Squids023","steam_id":76561199013031576,"connected_time":398000000000,"state":"active","ping":75},{"user_id":16,"name":"DeathSushi","steam_id":76561199156131540,"connected_time":1059000000000,"state":"active","ping":83},{"user_id":22,"name":"disabled","steam_id":76561198053327972,"connected_time":1023000000000,"state":"active","ping":75},{"user_id":21,"name":"David","steam_id":76561198108908193,"connected_time":1031000000000,"state":"active","ping":89},{"user_id":23,"name":"mcgram2","steam_id":76561199121850792,"connected_time":888000000000,"state":"active","ping":98},{"user_id":24,"name":"Plateinator","steam_id":76561198831547217,"connected_time":738000000000,"state":"active","ping":52},{"user_id":25,"name":"The Fool Tarot","steam_id":76561198323117631,"connected_time":592000000000,"state":"active","ping":57},{"user_id":26,"name":"Pinhead larry","steam_id":76561199247095754,"connected_time":571000000000,"state":"active","ping":106},{"user_id":27,"name":"Tele Co","steam_id":76561198041909269,"connected_time":545000000000,"state":"active","ping":50},{"user_id":28,"name":"PyroTechno","steam_id":76561198060929872,"connected_time":540000000000,"state":"active","ping":99},{"user_id":30,"name":"HooDoo","steam_id":76561198088994018,"connected_time":348000000000,"state":"active","ping":77},{"user_id":31,"name":"riSygneD","steam_id":76561198331618687,"connected_time":229000000000,"state":"active","ping":32},{"user_id":32,"name":"C3ratops","steam_id":76561198847054264,"connected_time":219000000000,"state":"connecting","ping":217},{"user_id":33,"name":"oil","steam_id":76561198099980149,"connected_time":219000000000,"state":"active","ping":45},{"user_id":34,"name":"Mr. Pockets","steam_id":76561198053657771,"connected_time":136000000000,"state":"active","ping":57},{"user_id":35,"name":"jump out the stargate","steam_id":76561199100342013,"connected_time":119000000000,"state":"active","ping":45},{"user_id":37,"name":"||BassMan||","steam_id":76561198279865229,"connected_time":92000000000,"state":"active","ping":85},{"user_id":38,"name":"for the king","steam_id":76561197973488858,"connected_time":85000000000,"state":"active","ping":90},{"user_id":39,"name":"magnanimity","steam_id":76561198242842394,"connected_time":82000000000,"state":"active","ping":75}]},{"server_id":324,"name":"Uncletopia | Los Angeles | 3 | All Maps","name_short":"lax-3","host":"lax-1.us.uncletopia.com","port":27035,"enabled":true,"region":"us-west","cc":"us","latitude":33.94279,"longitude":-118.41004,"reserved":0,"last_update":"0001-01-01T00:00:00Z","name_a2s":"Uncletopia | Los Angeles | 3 | All Maps","protocol":17,"map":"koth_highpass","folder":"tf","game":"Team Fortress","app_id":440,"player_count":0,"max_players":24,"Bots":0,"server_type":"Dedicated","server_os":"Linux","password":true,"vac":true,"version":"7932396","steam_id":85568392924510198,"keywords":["cp","nocrits","nodmgspread","uncletopia"],"game_id":440,"stv_port":27036,"stv_name":"Uncletopia | Los Angeles | 3 | All Maps | STV","players":null},{"server_id":25,"name":"Uncletopia | Los Angeles | 4 | Stopwatch Beta","name_short":"lax-4","host":"lax-1.us.uncletopia.com","port":27045,"enabled":true,"region":"us-west","cc":"us","latitude":33.94279,"longitude":-118.41004,"reserved":0,"last_update":"0001-01-01T00:00:00Z","name_a2s":"Uncletopia | Los Angeles | 4 | Stopwatch Beta","protocol":17,"map":"cp_sunshine","folder":"tf","game":"Team Fortress","app_id":440,"player_count":0,"max_players":24,"Bots":0,"server_type":"Dedicated","server_os":"Linux","password":true,"vac":true,"version":"7932396","steam_id":85568392924510199,"keywords":["cp","nocrits","nodmgspread","uncletopia"],"game_id":440,"stv_port":27046,"stv_name":"Uncletopia | Los Angeles | 4 | Stopwatch Beta | STV","players":null},{"server_id":11,"name":"Uncletopia | London | 1 | All Maps","name_short":"lon-1","host":"lon-1.uk.uncletopia.com","port":27015,"enabled":true,"region":"eu","cc":"gb","latitude":51.509865,"longitude":-0.118092,"reserved":0,"last_update":"0001-01-01T00:00:00Z","name_a2s":"Uncletopia | London | 1 | All Maps","protocol":17,"map":"pl_upward","folder":"tf","game":"Team Fortress","app_id":440,"player_count":24,"max_players":24,"Bots":0,"server_type":"Dedicated","server_os":"Linux","password":true,"vac":true,"version":"7932396","steam_id":85568392924367362,"keywords":["nocrits","nodmgspread","payload","uncletopia"],"game_id":440,"stv_port":27016,"stv_name":"Uncletopia | London | 1 | All Maps | STV","players":[{"user_id":882,"name":"Saucci","steam_id":76561198093495637,"connected_time":575000000000,"state":"active","ping":79},{"user_id":867,"name":"Snake-chan","steam_id":76561199044755854,"connected_time":1072000000000,"state":"active","ping":77},{"user_id":868,"name":"Heed","steam_id":76561198033605800,"connected_time":1049000000000,"state":"active","ping":90},{"user_id":870,"name":"Kahvi","steam_id":76561198723244199,"connected_time":1038000000000,"state":"active","ping":75},{"user_id":856,"name":"Shard","steam_id":76561198171899277,"connected_time":2483000000000,"state":"active","ping":50},{"user_id":884,"name":"nucleus","steam_id":76561199097223297,"connected_time":268000000000,"state":"active","ping":62},{"user_id":858,"name":"zMd","steam_id":76561198033001402,"connected_time":2230000000000,"state":"active","ping":45},{"user_id":847,"name":"Castellan","steam_id":76561197994861142,"connected_time":3132000000000,"state":"active","ping":70},{"user_id":841,"name":"gnarly business","steam_id":76561198832688767,"connected_time":3853000000000,"state":"active","ping":46},{"user_id":830,"name":"transgender e-girl","steam_id":76561198168589809,"connected_time":5458000000000,"state":"active","ping":46},{"user_id":885,"name":"zinzyk","steam_id":76561198128011822,"connected_time":257000000000,"state":"active","ping":64},{"user_id":837,"name":"Replica","steam_id":76561198243258784,"connected_time":4412000000000,"state":"active","ping":74},{"user_id":864,"name":"Puss in Boots","steam_id":76561198211599767,"connected_time":1950000000000,"state":"active","ping":52},{"user_id":877,"name":"Gustavo_Fring_6969","steam_id":76561199373610279,"connected_time":931000000000,"state":"active","ping":99},{"user_id":876,"name":"OPUR","steam_id":76561197993123284,"connected_time":966000000000,"state":"active","ping":79},{"user_id":883,"name":"Koli","steam_id":76561197992428783,"connected_time":289000000000,"state":"active","ping":64},{"user_id":879,"name":"legitch","steam_id":76561198301633214,"connected_time":905000000000,"state":"active","ping":133},{"user_id":861,"name":"Krefa12","steam_id":76561198268375393,"connected_time":2135000000000,"state":"active","ping":98},{"user_id":869,"name":"KnugenIV","steam_id":76561198127091993,"connected_time":1049000000000,"state":"active","ping":63},{"user_id":881,"name":"crimson","steam_id":76561198208349835,"connected_time":862000000000,"state":"active","ping":74},{"user_id":833,"name":"LegoBoy","steam_id":76561197983095579,"connected_time":4917000000000,"state":"active","ping":108},{"user_id":859,"name":"The Lady","steam_id":76561198029895809,"connected_time":2208000000000,"state":"active","ping":88},{"user_id":857,"name":"Zenkai","steam_id":76561198975556646,"connected_time":2379000000000,"state":"active","ping":62},{"user_id":863,"name":"Phil","steam_id":76561198056877069,"connected_time":2052000000000,"state":"active","ping":65}]},{"server_id":114,"name":"Uncletopia | London | 2 | All Maps","name_short":"lon-2","host":"lon-1.uk.uncletopia.com","port":27025,"enabled":true,"region":"eu","cc":"gb","latitude":51.509865,"longitude":-0.118092,"reserved":0,"last_update":"0001-01-01T00:00:00Z","name_a2s":"Uncletopia | London | 2 | All Maps","protocol":17,"map":"pl_upward","folder":"tf","game":"Team Fortress","app_id":440,"player_count":24,"max_players":24,"Bots":0,"server_type":"Dedicated","server_os":"Linux","password":true,"vac":true,"version":"7932396","steam_id":85568392924470941,"keywords":["nocrits","nodmgspread","payload","uncletopia"],"game_id":440,"stv_port":27026,"stv_name":"Uncletopia | London | 2 | All Maps | STV","players":[{"user_id":366,"name":"yes","steam_id":76561197977461320,"connected_time":681000000000,"state":"active","ping":94},{"user_id":347,"name":"Undefined Behaviour","steam_id":76561198069518492,"connected_time":2347000000000,"state":"active","ping":85},{"user_id":357,"name":"cuddles \u003c3","steam_id":76561198805181599,"connected_time":1204000000000,"state":"active","ping":53},{"user_id":374,"name":"TryTane","steam_id":76561198133293111,"connected_time":202000000000,"state":"active","ping":59},{"user_id":345,"name":"Traylie","steam_id":76561198050797796,"connected_time":2440000000000,"state":"active","ping":68},{"user_id":353,"name":"S ü…™·¥òE…¥O Ä","steam_id":76561197967931911,"connected_time":2021000000000,"state":"active","ping":98},{"user_id":336,"name":"Hidegk√∫ti N√°ndor Stadion","steam_id":76561198165730257,"connected_time":3261000000000,"state":"active","ping":80},{"user_id":368,"name":"Zidane","steam_id":76561198145421612,"connected_time":391000000000,"state":"active","ping":81},{"user_id":370,"name":"2fort's silliest soldier","steam_id":76561198128613675,"connected_time":325000000000,"state":"active","ping":68},{"user_id":359,"name":"Ruby","steam_id":76561198120994559,"connected_time":1129000000000,"state":"active","ping":66},{"user_id":371,"name":"szmen","steam_id":76561198072569764,"connected_time":262000000000,"state":"active","ping":95},{"user_id":360,"name":"Q U E E N A L E X","steam_id":76561198186341157,"connected_time":1113000000000,"state":"active","ping":47},{"user_id":373,"name":"stoicist","steam_id":76561197985213048,"connected_time":214000000000,"state":"active","ping":55},{"user_id":349,"name":"Krat","steam_id":76561198171765813,"connected_time":2180000000000,"state":"active","ping":79},{"user_id":348,"name":"U1F","steam_id":76561198053700703,"connected_time":2278000000000,"state":"active","ping":43},{"user_id":331,"name":"Aximus","steam_id":76561198024575710,"connected_time":3396000000000,"state":"active","ping":73},{"user_id":351,"name":"DJ L3G3ND","steam_id":76561198186112647,"connected_time":2095000000000,"state":"active","ping":55},{"user_id":372,"name":"engineer singing about the blog","steam_id":76561199097297812,"connected_time":261000000000,"state":"active","ping":56},{"user_id":342,"name":"Na'vi Misato (by popular demand","steam_id":76561198130860698,"connected_time":2963000000000,"state":"active","ping":57},{"user_id":367,"name":"Accident","steam_id":76561198115160396,"connected_time":490000000000,"state":"active","ping":79},{"user_id":354,"name":"meriones","steam_id":76561198034234373,"connected_time":2019000000000,"state":"active","ping":44},{"user_id":363,"name":"LVL100_PSYDUCK","steam_id":76561198081392950,"connected_time":1044000000000,"state":"active","ping":62},{"user_id":365,"name":"source radio","steam_id":76561197972287320,"connected_time":1007000000000,"state":"active","ping":71},{"user_id":356,"name":"C.H.E.R.E.P.","steam_id":76561198026938595,"connected_time":1792000000000,"state":"active","ping":80}]},{"server_id":320,"name":"Uncletopia | London | 3 | All Maps","name_short":"lon-3","host":"lon-1.uk.uncletopia.com","port":27035,"enabled":true,"region":"eu","cc":"gb","latitude":51.509865,"longitude":-0.118092,"reserved":0,"last_update":"0001-01-01T00:00:00Z","name_a2s":"Uncletopia | London | 3 | All Maps","protocol":17,"map":"pl_thundermountain","folder":"tf","game":"Team Fortress","app_id":440,"player_count":25,"max_players":24,"Bots":0,"server_type":"Dedicated","server_os":"Linux","password":true,"vac":true,"version":"7932396","steam_id":85568392924510192,"keywords":["nocrits","nodmgspread","payload","uncletopia"],"game_id":440,"stv_port":27036,"stv_name":"Uncletopia | London | 3 | All Maps | STV","players":[{"user_id":670,"name":"[√âire] Hype!","steam_id":76561198061449287,"connected_time":1679000000000,"state":"active","ping":58},{"user_id":646,"name":"$799 Sak of Cheese","steam_id":76561198066642220,"connected_time":3921000000000,"state":"active","ping":72},{"user_id":583,"name":"night.s","steam_id":76561198326287823,"connected_time":5069000000000,"state":"active","ping":78},{"user_id":711,"name":"B O R F","steam_id":76561197962461333,"connected_time":275000000000,"state":"active","ping":59},{"user_id":696,"name":"XNorec","steam_id":76561198015778815,"connected_time":742000000000,"state":"active","ping":82},{"user_id":672,"name":"cream gravy","steam_id":76561198973069177,"connected_time":1630000000000,"state":"active","ping":60},{"user_id":594,"name":"Tea","steam_id":76561198799243030,"connected_time":4837000000000,"state":"active","ping":91},{"user_id":687,"name":"Baron","steam_id":76561198021901783,"connected_time":943000000000,"state":"active","ping":56},{"user_id":669,"name":"true","steam_id":76561198031145243,"connected_time":1706000000000,"state":"active","ping":75},{"user_id":591,"name":"Well, off to hang myself","steam_id":76561198053374944,"connected_time":4906000000000,"state":"active","ping":67},{"user_id":688,"name":"Kernel Panic","steam_id":76561198215811047,"connected_time":937000000000,"state":"active","ping":41},{"user_id":720,"name":"thia","steam_id":76561198186366599,"connected_time":32000000000,"state":"spawning","ping":91},{"user_id":690,"name":"Teecho","steam_id":76561197995269610,"connected_time":916000000000,"state":"active","ping":101},{"user_id":702,"name":"flr","steam_id":76561198249327786,"connected_time":563000000000,"state":"active","ping":69},{"user_id":676,"name":"AAAAAAAAAAAAAAAAAAAAAAAAAAAAAAA","steam_id":76561198336492287,"connected_time":1484000000000,"state":"active","ping":64},{"user_id":717,"name":"Krabs","steam_id":76561198161679477,"connected_time":108000000000,"state":"active","ping":47},{"user_id":691,"name":"Wattoz","steam_id":76561198127779511,"connected_time":858000000000,"state":"active","ping":60},{"user_id":698,"name":"Mr.O #deletesniper","steam_id":76561198039567498,"connected_time":639000000000,"state":"active","ping":57},{"user_id":593,"name":"junkfilter178","steam_id":76561198099005384,"connected_time":4853000000000,"state":"active","ping":59},{"user_id":658,"name":"poopoocum","steam_id":76561198180641206,"connected_time":2423000000000,"state":"active","ping":61},{"user_id":540,"name":"Sir Cauterize","steam_id":76561198047079422,"connected_time":7003000000000,"state":"active","ping":55},{"user_id":695,"name":"the honey monster","steam_id":76561198012351808,"connected_time":788000000000,"state":"active","ping":55},{"user_id":679,"name":"penis gnome","steam_id":76561198097612561,"connected_time":1479000000000,"state":"active","ping":67},{"user_id":692,"name":"e36 1.8","steam_id":76561198134203031,"connected_time":854000000000,"state":"active","ping":75},{"user_id":715,"name":"L√∂ss√∂","steam_id":76561197994254413,"connected_time":138000000000,"state":"active","ping":72}]},{"server_id":321,"name":"Uncletopia | London | 4 | All Maps","name_short":"lon-4","host":"lon-1.uk.uncletopia.com","port":27045,"enabled":true,"region":"eu","cc":"gb","latitude":51.509865,"longitude":-0.118092,"reserved":0,"last_update":"0001-01-01T00:00:00Z","name_a2s":"Uncletopia | London | 4 | All Maps","protocol":17,"map":"pl_hoodoo_final","folder":"tf","game":"Team Fortress","app_id":440,"player_count":24,"max_players":24,"Bots":0,"server_type":"Dedicated","server_os":"Linux","password":true,"vac":true,"version":"7932396","steam_id":85568392924510193,"keywords":["nocrits","nodmgspread","payload","uncletopia"],"game_id":440,"stv_port":27046,"stv_name":"Uncletopia | London | 4 | All Maps | STV","players":[{"user_id":441,"name":"fence_","steam_id":76561198150386379,"connected_time":1544000000000,"state":"active","ping":46},{"user_id":426,"name":"ran is running","steam_id":76561199443185667,"connected_time":2312000000000,"state":"active","ping":144},{"user_id":422,"name":"beefsquatchthenub","steam_id":76561197990059948,"connected_time":2467000000000,"state":"active","ping":118},{"user_id":394,"name":"JustNo.","steam_id":76561199025402885,"connected_time":3723000000000,"state":"active","ping":45},{"user_id":449,"name":"Pucho","steam_id":76561198134617262,"connected_time":316000000000,"state":"active","ping":57},{"user_id":396,"name":"Let's Get Retarded","steam_id":76561198342570528,"connected_time":3702000000000,"state":"active","ping":69},{"user_id":439,"name":"heatburn","steam_id":76561198019001992,"connected_time":1814000000000,"state":"active","ping":47},{"user_id":430,"name":"K'aax Itzam","steam_id":76561198044024509,"connected_time":2159000000000,"state":"active","ping":74},{"user_id":416,"name":"ack","steam_id":76561198139796077,"connected_time":3267000000000,"state":"active","ping":54},{"user_id":427,"name":"hipster_doofus","steam_id":76561197970902697,"connected_time":2246000000000,"state":"active","ping":57},{"user_id":424,"name":"TheBeardedM1G","steam_id":76561198040208946,"connected_time":2447000000000,"state":"active","ping":41},{"user_id":443,"name":"Klunkerino","steam_id":76561197971081655,"connected_time":976000000000,"state":"active","ping":75},{"user_id":406,"name":"Fargoth","steam_id":76561198044618640,"connected_time":3503000000000,"state":"active","ping":65},{"user_id":436,"name":"John Noob","steam_id":76561197999170026,"connected_time":1954000000000,"state":"active","ping":83},{"user_id":400,"name":"Profesorius Kalƒódauskas","steam_id":76561198078263504,"connected_time":3661000000000,"state":"active","ping":74},{"user_id":446,"name":"NitPig","steam_id":76561198212991935,"connected_time":647000000000,"state":"active","ping":98},{"user_id":438,"name":"Chunck","steam_id":76561198952356892,"connected_time":1901000000000,"state":"active","ping":151},{"user_id":412,"name":"Oki (Bon)","steam_id":76561199047748534,"connected_time":3388000000000,"state":"active","ping":56},{"user_id":442,"name":"Crusader","steam_id":76561198239172686,"connected_time":1538000000000,"state":"active","ping":73},{"user_id":445,"name":"LemonLeCitron","steam_id":76561198215545267,"connected_time":745000000000,"state":"active","ping":69},{"user_id":448,"name":"Stop Yelling at me :(","steam_id":76561198362116755,"connected_time":575000000000,"state":"active","ping":157},{"user_id":382,"name":"DelaNo","steam_id":76561199125086655,"connected_time":4247000000000,"state":"active","ping":39},{"user_id":410,"name":"YARrICk.¬´+¬ª","steam_id":76561197990126485,"connected_time":3411000000000,"state":"active","ping":48},{"user_id":420,"name":"Mixandmatt","steam_id":76561198155123140,"connected_time":2979000000000,"state":"active","ping":55}]},{"server_id":21,"name":"Uncletopia | London | 5 | All Maps","name_short":"lon-5","host":"lon-1.uk.uncletopia.com","port":27055,"enabled":true,"region":"eu","cc":"gb","latitude":51.509865,"longitude":-0.118092,"reserved":0,"last_update":"0001-01-01T00:00:00Z","name_a2s":"Uncletopia | London | 5 | All Maps","protocol":17,"map":"cp_snakewater_final1","folder":"tf","game":"Team Fortress","app_id":440,"player_count":24,"max_players":24,"Bots":0,"server_type":"Dedicated","server_os":"Linux","password":true,"vac":true,"version":"7932396","steam_id":85568392924742829,"keywords":["cp","nocrits","nodmgspread","uncletopia"],"game_id":440,"stv_port":27056,"stv_name":"Uncletopia | London | 5 | All Maps | STV","players":[{"user_id":184,"name":"avalon","steam_id":76561198003212528,"connected_time":530000000000,"state":"active","ping":73},{"user_id":151,"name":"Bacon Whisperer","steam_id":76561198342781924,"connected_time":1918000000000,"state":"active","ping":96},{"user_id":152,"name":"Falxo","steam_id":76561198025717005,"connected_time":1912000000000,"state":"active","ping":56},{"user_id":192,"name":"Zylon","steam_id":76561198073269221,"connected_time":293000000000,"state":"active","ping":55},{"user_id":198,"name":"shitrock","steam_id":76561198886681988,"connected_time":182000000000,"state":"active","ping":61},{"user_id":200,"name":"MovingIsOverRated","steam_id":76561198385633292,"connected_time":119000000000,"state":"active","ping":95},{"user_id":185,"name":"PASTAMAN!!!","steam_id":76561198995641765,"connected_time":524000000000,"state":"active","ping":62},{"user_id":188,"name":"Vitulus","steam_id":76561198079678079,"connected_time":434000000000,"state":"active","ping":51},{"user_id":193,"name":"Wilderhammer","steam_id":76561198132133702,"connected_time":263000000000,"state":"active","ping":57},{"user_id":145,"name":"DoingYourDad","steam_id":76561198060638325,"connected_time":2557000000000,"state":"active","ping":54},{"user_id":189,"name":"‚ú™ m_br3","steam_id":76561198044981990,"connected_time":421000000000,"state":"active","ping":75},{"user_id":146,"name":"we ball","steam_id":76561198208740557,"connected_time":2548000000000,"state":"active","ping":60},{"user_id":190,"name":"Grumtsior","steam_id":76561198043563111,"connected_time":397000000000,"state":"active","ping":87},{"user_id":194,"name":"Can‚Äôt let you do that Star Fo","steam_id":76561198202930408,"connected_time":254000000000,"state":"active","ping":48},{"user_id":135,"name":"Petight","steam_id":76561197999438798,"connected_time":3535000000000,"state":"active","ping":31},{"user_id":201,"name":"TobMan","steam_id":76561199132167284,"connected_time":73000000000,"state":"active","ping":190},{"user_id":191,"name":"quickfast","steam_id":76561199438900919,"connected_time":392000000000,"state":"active","ping":39},{"user_id":195,"name":"schmitzi / Hering","steam_id":76561199044004054,"connected_time":247000000000,"state":"active","ping":60},{"user_id":196,"name":"saltdue","steam_id":76561198879405711,"connected_time":237000000000,"state":"active","ping":75},{"user_id":202,"name":"Dragon","steam_id":76561198163255365,"connected_time":40000000000,"state":"active","ping":105},{"user_id":103,"name":"DJPNK","steam_id":76561197989948420,"connected_time":5588000000000,"state":"active","ping":50},{"user_id":197,"name":"dintbo (aka bosco)","steam_id":76561197984274278,"connected_time":191000000000,"state":"active","ping":53},{"user_id":123,"name":"Osmo","steam_id":76561199286764992,"connected_time":3744000000000,"state":"active","ping":75},{"user_id":150,"name":"Mega","steam_id":76561197970389664,"connected_time":2198000000000,"state":"active","ping":49}]},{"server_id":22,"name":"Uncletopia | London | 6 | All Maps","name_short":"lon-6","host":"lon-1.uk.uncletopia.com","port":27065,"enabled":true,"region":"eu","cc":"gb","latitude":51.509865,"longitude":-0.118092,"reserved":0,"last_update":"0001-01-01T00:00:00Z","name_a2s":"Uncletopia | London | 6 | All Maps","protocol":17,"map":"pl_snowycoast","folder":"tf","game":"Team Fortress","app_id":440,"player_count":24,"max_players":24,"Bots":0,"server_type":"Dedicated","server_os":"Linux","password":true,"vac":true,"version":"7932396","steam_id":85568392924742830,"keywords":["nocrits","nodmgspread","payload","uncletopia"],"game_id":440,"stv_port":27066,"stv_name":"Uncletopia | London | 6 | All Maps | STV","players":[{"user_id":184,"name":"desnot","steam_id":76561198862581894,"connected_time":1210000000000,"state":"active","ping":74},{"user_id":130,"name":"Christopher Gonzales Maria John","steam_id":76561198809697283,"connected_time":2822000000000,"state":"active","ping":46},{"user_id":162,"name":"The Sex Defender","steam_id":76561198165732391,"connected_time":1982000000000,"state":"active","ping":87},{"user_id":208,"name":"Glenn Quagmire","steam_id":76561199348527880,"connected_time":8000000000,"state":"spawning","ping":172},{"user_id":207,"name":"[NPC]SCUBA","steam_id":76561198067383004,"connected_time":133000000000,"state":"active","ping":86},{"user_id":132,"name":"[NPC]Unknown","steam_id":76561198007835506,"connected_time":2695000000000,"state":"active","ping":101},{"user_id":202,"name":"Dewotter","steam_id":76561198007653168,"connected_time":411000000000,"state":"active","ping":63},{"user_id":203,"name":"Day 10","steam_id":76561198024438352,"connected_time":406000000000,"state":"active","ping":44},{"user_id":147,"name":"Adam","steam_id":76561199103777436,"connected_time":2179000000000,"state":"active","ping":79},{"user_id":206,"name":"No | S | uS","steam_id":76561199195727551,"connected_time":201000000000,"state":"active","ping":53},{"user_id":192,"name":"Two-Eyed Dancer","steam_id":76561198872013525,"connected_time":909000000000,"state":"active","ping":102},{"user_id":188,"name":"Umby","steam_id":76561198166584580,"connected_time":1052000000000,"state":"active","ping":44},{"user_id":189,"name":"CAR DOOR","steam_id":76561198055283295,"connected_time":1028000000000,"state":"active","ping":58},{"user_id":159,"name":"YC Lacus","steam_id":76561199107625942,"connected_time":2016000000000,"state":"active","ping":71},{"user_id":190,"name":"veto vuyisio","steam_id":76561199101145470,"connected_time":1007000000000,"state":"active","ping":77},{"user_id":63,"name":"Dabadyeet","steam_id":76561198047359132,"connected_time":3683000000000,"state":"active","ping":74},{"user_id":200,"name":"stomping weebs","steam_id":76561198054521701,"connected_time":538000000000,"state":"active","ping":69},{"user_id":64,"name":"alan","steam_id":76561198306947435,"connected_time":3664000000000,"state":"active","ping":67},{"user_id":196,"name":"E¬≤ FTH","steam_id":76561198066287815,"connected_time":791000000000,"state":"active","ping":107},{"user_id":46,"name":"Voks_","steam_id":76561198159687785,"connected_time":4458000000000,"state":"active","ping":76},{"user_id":47,"name":"NAHIDA","steam_id":76561198349648942,"connected_time":4435000000000,"state":"active","ping":90},{"user_id":48,"name":"zee","steam_id":76561197994492154,"connected_time":4417000000000,"state":"active","ping":72},{"user_id":119,"name":"Mrbluuub","steam_id":76561199273847084,"connected_time":3024000000000,"state":"active","ping":94},{"user_id":204,"name":"Talonair","steam_id":76561198043630003,"connected_time":406000000000,"state":"active","ping":56}]},{"server_id":40,"name":"Uncletopia | London | 7 | No Payload","name_short":"lon-7","host":"lon-1.uk.uncletopia.com","port":27075,"enabled":true,"region":"eu","cc":"gb","latitude":51.509865,"longitude":-0.118092,"reserved":0,"last_update":"0001-01-01T00:00:00Z","name_a2s":"Uncletopia | London | 7 | No Payload","protocol":17,"map":"ctf_sawmill","folder":"tf","game":"Team Fortress","app_id":440,"player_count":0,"max_players":24,"Bots":0,"server_type":"Dedicated","server_os":"Linux","password":true,"vac":true,"version":"7932396","steam_id":85568392924964314,"keywords":["ctf","nocrits","nodmgspread","uncletopia"],"game_id":440,"stv_port":27076,"stv_name":"Uncletopia | London | 7 | No Payload | STV","players":null},{"server_id":41,"name":"Uncletopia | London | 8 | Community","name_short":"lon-8","host":"lon-1.uk.uncletopia.com","port":27085,"enabled":true,"region":"eu","cc":"gb","latitude":51.509865,"longitude":-0.118092,"reserved":0,"last_update":"0001-01-01T00:00:00Z","name_a2s":"Uncletopia | London | 8 | Community","protocol":17,"map":"workshop/koth_product_final.ugc454272353","folder":"tf","game":"Team Fortress","app_id":440,"player_count":4,"max_players":24,"Bots":0,"server_type":"Dedicated","server_os":"Linux","password":true,"vac":true,"version":"7932396","steam_id":85568392924964315,"keywords":["cp","nocrits","nodmgspread","uncletopia"],"game_id":440,"stv_port":27086,"stv_name":"Uncletopia | London | 8 | Community | STV","players":[{"user_id":23,"name":"sexmaster67","steam_id":76561198209602131,"connected_time":3581000000000,"state":"active","ping":66},{"user_id":24,"name":"fucklord15","steam_id":76561198872866010,"connected_time":3553000000000,"state":"active","ping":60},{"user_id":41,"name":"TF2 Goblin","steam_id":76561198922879432,"connected_time":525000000000,"state":"active","ping":88},{"user_id":43,"name":"Violet","steam_id":76561198079388610,"connected_time":272000000000,"state":"active","ping":49}]},{"server_id":300,"name":"Uncletopia | Montr√©al | 1 | All Maps","name_short":"mtl-1","host":"mtl-1.ca.uncletopia.com","port":27015,"enabled":true,"region":"us-east","cc":"ca","latitude":45.50889,"longitude":-73.56167,"reserved":0,"last_update":"0001-01-01T00:00:00Z","name_a2s":"Uncletopia | Montr√©al | 1 | All Maps","protocol":17,"map":"cp_altitude","folder":"tf","game":"Team Fortress","app_id":440,"player_count":7,"max_players":24,"Bots":0,"server_type":"Dedicated","server_os":"Linux","password":true,"vac":true,"version":"7932396","steam_id":85568392924500087,"keywords":["cp","nocrits","nodmgspread","uncletopia"],"game_id":440,"stv_port":27016,"stv_name":"Uncletopia | Montr√©al | 1 | All Maps | STV","players":[{"user_id":5,"name":"theduckgoesmoo","steam_id":76561198232695752,"connected_time":123000000000,"state":"active","ping":71},{"user_id":6,"name":"Umbrex","steam_id":76561198804359810,"connected_time":116000000000,"state":"active","ping":87},{"user_id":7,"name":"Cherry Juice","steam_id":76561198366570108,"connected_time":107000000000,"state":"active","ping":59},{"user_id":8,"name":"Spy TF2","steam_id":76561198824209727,"connected_time":82000000000,"state":"active","ping":174},{"user_id":9,"name":"Armoured Bear","steam_id":76561198081552558,"connected_time":77000000000,"state":"active","ping":153},{"user_id":10,"name":"Fun Police","steam_id":76561198267520577,"connected_time":77000000000,"state":"active","ping":105},{"user_id":11,"name":"Bee_Pirate","steam_id":76561199000599111,"connected_time":32000000000,"state":"active","ping":56}]},{"server_id":301,"name":"Uncletopia | Montr√©al | 2 | All Maps","name_short":"mtl-2","host":"mtl-1.ca.uncletopia.com","port":27025,"enabled":true,"region":"us-east","cc":"ca","latitude":45.50889,"longitude":-73.56167,"reserved":0,"last_update":"0001-01-01T00:00:00Z","name_a2s":"Uncletopia | Montr√©al | 2 | All Maps","protocol":17,"map":"koth_lakeside_final","folder":"tf","game":"Team Fortress","app_id":440,"player_count":0,"max_players":24,"Bots":0,"server_type":"Dedicated","server_os":"Linux","password":true,"vac":true,"version":"7932396","steam_id":85568392924500088,"keywords":["cp","nocrits","nodmgspread","uncletopia"],"game_id":440,"stv_port":27026,"stv_name":"Uncletopia | Montr√©al | 2 | All Maps | STV","players":null},{"server_id":302,"name":"Uncletopia | Montr√©al | 3 | All Maps","name_short":"mtl-3","host":"mtl-1.ca.uncletopia.com","port":27035,"enabled":true,"region":"us-east","cc":"ca","latitude":45.50889,"longitude":-73.56167,"reserved":0,"last_update":"0001-01-01T00:00:00Z","name_a2s":"Uncletopia | Montr√©al | 3 | All Maps","protocol":17,"map":"cp_process_final","folder":"tf","game":"Team Fortress","app_id":440,"player_count":0,"max_players":24,"Bots":0,"server_type":"Dedicated","server_os":"Linux","password":true,"vac":true,"version":"7932396","steam_id":85568392924500089,"keywords":["cp","nocrits","nodmgspread","uncletopia"],"game_id":440,"stv_port":27036,"stv_name":"Uncletopia | Montr√©al | 3 | All Maps | STV","players":null},{"server_id":303,"name":"Uncletopia | Montr√©al | 4 | No Payload","name_short":"mtl-4","host":"mtl-1.ca.uncletopia.com","port":27045,"enabled":true,"region":"us-east","cc":"ca","latitude":45.50889,"longitude":-73.56167,"reserved":0,"last_update":"0001-01-01T00:00:00Z","name_a2s":"Uncletopia | Montr√©al | 4 | No Payload","protocol":17,"map":"cp_snakewater_final1","folder":"tf","game":"Team Fortress","app_id":440,"player_count":0,"max_players":24,"Bots":0,"server_type":"Dedicated","server_os":"Linux","password":true,"vac":true,"version":"7932396","steam_id":85568392924500090,"keywords":["cp","nocrits","nodmgspread","uncletopia"],"game_id":440,"stv_port":27046,"stv_name":"Uncletopia | Montr√©al | 4 | No Payload | STV","players":null},{"server_id":13,"name":"Uncletopia | New York City | 1 | All Maps","name_short":"nyc-1","host":"nyc-1.us.uncletopia.com","port":27015,"enabled":true,"region":"us-east","cc":"us","latitude":40.73061,"longitude":-73.93524,"reserved":0,"last_update":"0001-01-01T00:00:00Z","name_a2s":"Uncletopia | New York City | 1 | All Maps","protocol":17,"map":"pl_borneo","folder":"tf","game":"Team Fortress","app_id":440,"player_count":22,"max_players":24,"Bots":0,"server_type":"Dedicated","server_os":"Linux","password":true,"vac":true,"version":"7932396","steam_id":85568392924469993,"keywords":["nocrits","nodmgspread","payload","uncletopia"],"game_id":440,"stv_port":27016,"stv_name":"Uncletopia | New York City | 1 | All Maps | STV","players":[{"user_id":171,"name":"catgirl of the void","steam_id":76561198052542017,"connected_time":9000000000,"state":"spawning","ping":60},{"user_id":153,"name":"john01k","steam_id":76561198059731548,"connected_time":1600000000000,"state":"active","ping":88},{"user_id":169,"name":"Dead People Are Unable To Live","steam_id":76561198443172836,"connected_time":32000000000,"state":"active","ping":46},{"user_id":147,"name":"vioxynteris","steam_id":76561198161428666,"connected_time":1739000000000,"state":"active","ping":90},{"user_id":148,"name":"triple_range_merge","steam_id":76561198991225026,"connected_time":1694000000000,"state":"active","ping":61},{"user_id":161,"name":"Fredrick","steam_id":76561197981419964,"connected_time":1418000000000,"state":"active","ping":44},{"user_id":150,"name":"nelly modelo","steam_id":76561198044875206,"connected_time":1672000000000,"state":"active","ping":104},{"user_id":126,"name":"JoCaleb02","steam_id":76561198272389829,"connected_time":3831000000000,"state":"active","ping":47},{"user_id":170,"name":"Rhutebeer","steam_id":76561198018302761,"connected_time":26000000000,"state":"active","ping":100},{"user_id":118,"name":"lost in spaaaaace","steam_id":76561199085974120,"connected_time":4221000000000,"state":"active","ping":63},{"user_id":132,"name":"surrender to the void","steam_id":76561198055494039,"connected_time":3427000000000,"state":"active","ping":65},{"user_id":167,"name":"Kekarot","steam_id":76561198074368187,"connected_time":429000000000,"state":"active","ping":93},{"user_id":172,"name":"yes daddy","steam_id":76561198166100997,"connected_time":8000000000,"state":"active","ping":153},{"user_id":154,"name":"AreYouMyMummy?","steam_id":76561197995101745,"connected_time":1588000000000,"state":"active","ping":65},{"user_id":145,"name":"OneMisguidedSlyGuy","steam_id":76561198372243261,"connected_time":1890000000000,"state":"active","ping":104},{"user_id":173,"name":"craf","steam_id":76561198163535075,"connected_time":0,"state":"spawning","ping":0},{"user_id":139,"name":"BroBama","steam_id":76561198203732587,"connected_time":2885000000000,"state":"active","ping":90},{"user_id":122,"name":"Yoshimelon","steam_id":76561198253054325,"connected_time":4008000000000,"state":"active","ping":82},{"user_id":99,"name":"Broadsword","steam_id":76561198011160411,"connected_time":5353000000000,"state":"active","ping":79},{"user_id":100,"name":"Chezaus","steam_id":76561198317397837,"connected_time":5341000000000,"state":"active","ping":72},{"user_id":157,"name":"seems_fishy","steam_id":76561199028846656,"connected_time":1524000000000,"state":"active","ping":52},{"user_id":164,"name":"Drilly22","steam_id":76561198068838338,"connected_time":987000000000,"state":"active","ping":105}]},{"server_id":14,"name":"Uncletopia | New York City | 2 | All Maps","name_short":"nyc-2","host":"nyc-1.us.uncletopia.com","port":27025,"enabled":true,"region":"us-east","cc":"us","latitude":40.73061,"longitude":-73.93524,"reserved":0,"last_update":"0001-01-01T00:00:00Z","name_a2s":"Uncletopia | New York City | 2 | All Maps","protocol":17,"map":"pl_upward","folder":"tf","game":"Team Fortress","app_id":440,"player_count":24,"max_players":24,"Bots":0,"server_type":"Dedicated","server_os":"Linux","password":true,"vac":true,"version":"7932396","steam_id":85568392924469994,"keywords":["nocrits","nodmgspread","payload","uncletopia"],"game_id":440,"stv_port":27026,"stv_name":"Uncletopia | New York City | 2 | All Maps | STV","players":[{"user_id":68,"name":"Guess I'm just popo","steam_id":76561197966419253,"connected_time":934000000000,"state":"active","ping":71},{"user_id":69,"name":"gritty 2024","steam_id":76561198165567310,"connected_time":915000000000,"state":"active","ping":45},{"user_id":61,"name":"nhbiker","steam_id":76561198081277675,"connected_time":1885000000000,"state":"active","ping":45},{"user_id":54,"name":"acid","steam_id":76561198055855408,"connected_time":2155000000000,"state":"active","ping":57},{"user_id":67,"name":"Oystershell","steam_id":76561198070713884,"connected_time":1027000000000,"state":"active","ping":81},{"user_id":42,"name":"KooKooKachue","steam_id":76561198391195262,"connected_time":2900000000000,"state":"active","ping":97},{"user_id":62,"name":"Mr. Sun","steam_id":76561198081338822,"connected_time":1642000000000,"state":"active","ping":61},{"user_id":82,"name":"MANLY","steam_id":76561198069357646,"connected_time":267000000000,"state":"active","ping":87},{"user_id":79,"name":"Idk","steam_id":76561198971629959,"connected_time":298000000000,"state":"active","ping":132},{"user_id":63,"name":"Female Gamer","steam_id":76561199366482682,"connected_time":1537000000000,"state":"active","ping":136},{"user_id":46,"name":"Mediocre Gaming","steam_id":76561199230467980,"connected_time":2700000000000,"state":"active","ping":83},{"user_id":76,"name":"wise","steam_id":76561198030066204,"connected_time":708000000000,"state":"active","ping":33},{"user_id":52,"name":"playfasteatass","steam_id":76561198019284001,"connected_time":2248000000000,"state":"active","ping":53},{"user_id":83,"name":"peace dog","steam_id":76561198267988522,"connected_time":168000000000,"state":"active","ping":68},{"user_id":66,"name":"Brown_Dream","steam_id":76561198975766145,"connected_time":1107000000000,"state":"active","ping":70},{"user_id":80,"name":"Ursus Ludius","steam_id":76561198025470722,"connected_time":273000000000,"state":"active","ping":71},{"user_id":47,"name":"Infinity","steam_id":76561199134919099,"connected_time":2673000000000,"state":"active","ping":54},{"user_id":78,"name":"GreemBeans","steam_id":76561198069648014,"connected_time":315000000000,"state":"active","ping":66},{"user_id":81,"name":"BioRider","steam_id":76561198113650591,"connected_time":271000000000,"state":"active","ping":45},{"user_id":72,"name":"Fred Fuchs","steam_id":76561198099998578,"connected_time":893000000000,"state":"active","ping":93},{"user_id":50,"name":"glue sniffer","steam_id":76561198044689778,"connected_time":2423000000000,"state":"active","ping":52},{"user_id":73,"name":"PJL725","steam_id":76561198241220274,"connected_time":878000000000,"state":"active","ping":57},{"user_id":77,"name":"Virtual Zorua","steam_id":76561198196180302,"connected_time":707000000000,"state":"active","ping":65},{"user_id":65,"name":"saib","steam_id":76561198966980576,"connected_time":1160000000000,"state":"active","ping":50}]},{"server_id":15,"name":"Uncletopia | New York City | 3 | Stopwatch Beta","name_short":"nyc-3","host":"nyc-1.us.uncletopia.com","port":27035,"enabled":true,"region":"us-east","cc":"us","latitude":40.73061,"longitude":-73.93524,"reserved":0,"last_update":"0001-01-01T00:00:00Z","name_a2s":"Uncletopia | New York City | 3 | Stopwatch Beta","protocol":17,"map":"workshop/koth_clearcut_b15.ugc2107050255","folder":"tf","game":"Team Fortress","app_id":440,"player_count":0,"max_players":24,"Bots":0,"server_type":"Dedicated","server_os":"Linux","password":true,"vac":true,"version":"7932396","steam_id":85568392924742820,"keywords":["cp","nocrits","nodmgspread","uncletopia"],"game_id":440,"stv_port":27036,"stv_name":"Uncletopia | New York City | 3 | Stopwatch Beta | STV","players":null},{"server_id":16,"name":"Uncletopia | New York City | 4 | Community","name_short":"nyc-4","host":"nyc-1.us.uncletopia.com","port":27045,"enabled":true,"region":"us-east","cc":"us","latitude":40.73061,"longitude":-73.93524,"reserved":0,"last_update":"0001-01-01T00:00:00Z","name_a2s":"Uncletopia | New York City | 4 | Community","protocol":17,"map":"workshop/cp_glassworks_rc6a.ugc454118349","folder":"tf","game":"Team Fortress","app_id":440,"player_count":23,"max_players":24,"Bots":0,"server_type":"Dedicated","server_os":"Linux","password":true,"vac":true,"version":"7932396","steam_id":85568392924742821,"keywords":["cp","nocrits","nodmgspread","uncletopia"],"game_id":440,"stv_port":27046,"stv_name":"Uncletopia | New York City | 4 | Community | STV","players":[{"user_id":144,"name":"Dog Athletic Association","steam_id":76561198002964332,"connected_time":877000000000,"state":"active","ping":84},{"user_id":158,"name":"a narwhal","steam_id":76561198014527353,"connected_time":354000000000,"state":"active","ping":70},{"user_id":142,"name":"tntkiller","steam_id":76561198067401676,"connected_time":1017000000000,"state":"active","ping":59},{"user_id":162,"name":"loboto gaming","steam_id":76561199088321574,"connected_time":164000000000,"state":"active","ping":74},{"user_id":147,"name":"Blitzy","steam_id":76561198149472890,"connected_time":841000000000,"state":"active","ping":91},{"user_id":145,"name":"swertz","steam_id":76561198112942781,"connected_time":873000000000,"state":"active","ping":76},{"user_id":153,"name":"‚ú™ goofbears -iwnl-","steam_id":76561199100831175,"connected_time":730000000000,"state":"active","ping":60},{"user_id":146,"name":"üÖúüÖîüÖîüÖöüÖ¢üÖ£üÖî\ufffd\ufffd\ufffd","steam_id":76561197999748343,"connected_time":852000000000,"state":"active","ping":77},{"user_id":96,"name":"You like Mending?","steam_id":76561198135731629,"connected_time":4571000000000,"state":"active","ping":57},{"user_id":148,"name":"LemonZest","steam_id":76561199196369249,"connected_time":812000000000,"state":"active","ping":64},{"user_id":149,"name":"pinple","steam_id":76561198167075606,"connected_time":788000000000,"state":"active","ping":78},{"user_id":151,"name":"helen keller","steam_id":76561197979870540,"connected_time":769000000000,"state":"active","ping":62},{"user_id":138,"name":"jodio","steam_id":76561198081593895,"connected_time":1440000000000,"state":"active","ping":97},{"user_id":131,"name":"obstagoon gaming","steam_id":76561198424507300,"connected_time":1793000000000,"state":"active","ping":56},{"user_id":152,"name":"Pootis penser","steam_id":76561198944032480,"connected_time":761000000000,"state":"active","ping":166},{"user_id":160,"name":"Mr_Frosty","steam_id":76561199380389079,"connected_time":258000000000,"state":"active","ping":74},{"user_id":105,"name":"paddy","steam_id":76561198097588802,"connected_time":4126000000000,"state":"active","ping":74},{"user_id":106,"name":"Absurdly Obese Cat","steam_id":76561198073202543,"connected_time":4094000000000,"state":"active","ping":113},{"user_id":161,"name":"Just washed","steam_id":76561199030160932,"connected_time":227000000000,"state":"active","ping":84},{"user_id":155,"name":"cakeslayer","steam_id":76561198075647830,"connected_time":690000000000,"state":"active","ping":75},{"user_id":111,"name":"E4Estrogen","steam_id":76561198085813708,"connected_time":3899000000000,"state":"active","ping":74},{"user_id":139,"name":"JelloMotion","steam_id":76561198045892038,"connected_time":1424000000000,"state":"active","ping":62},{"user_id":156,"name":"M249 | Spectre","steam_id":76561198118334485,"connected_time":636000000000,"state":"active","ping":70}]},{"server_id":142,"name":"Uncletopia | S√£o Paulo | 1 | All Maps","name_short":"sao-1","host":"sao-1.br.uncletopia.com","port":27015,"enabled":true,"region":"sa","cc":"br","latitude":-23.533773,"longitude":-46.62529,"reserved":0,"last_update":"0001-01-01T00:00:00Z","name_a2s":"Uncletopia | S√£o Paulo | 1 | All Maps","protocol":17,"map":"koth_lakeside_final","folder":"tf","game":"Team Fortress","app_id":440,"player_count":1,"max_players":24,"Bots":0,"server_type":"Dedicated","server_os":"Linux","password":true,"vac":true,"version":"7932396","steam_id":85568392924469996,"keywords":["cp","nocrits","nodmgspread","uncletopia"],"game_id":440,"stv_port":27016,"stv_name":"Uncletopia | S√£o Paulo | 1 | All Maps | STV","players":[{"user_id":48,"name":"jacogaming9","steam_id":76561199013796066,"connected_time":514000000000,"state":"active","ping":166}]},{"server_id":143,"name":"Uncletopia | S√£o Paulo | 2 | All Maps","name_short":"sao-2","host":"sao-2.br.uncletopia.com","port":27015,"enabled":true,"region":"sa","cc":"br","latitude":-23.533773,"longitude":-46.62529,"reserved":0,"last_update":"0001-01-01T00:00:00Z","name_a2s":"Uncletopia | S√£o Paulo | 2 | All Maps","protocol":17,"map":"koth_cascade","folder":"tf","game":"Team Fortress","app_id":440,"player_count":0,"max_players":24,"Bots":0,"server_type":"Dedicated","server_os":"Linux","password":true,"vac":true,"version":"7932396","steam_id":85568392924485349,"keywords":["cp","nocrits","nodmgspread","uncletopia"],"game_id":440,"stv_port":27016,"stv_name":"Uncletopia | S√£o Paulo | 2 | All Maps | STV","players":null},{"server_id":7,"name":"Uncletopia | Seattle | 1 | All Maps","name_short":"sea-1","host":"sea-1.us.uncletopia.com","port":27015,"enabled":true,"region":"us-west","cc":"us","latitude":47.608013,"longitude":-122.33517,"reserved":0,"last_update":"0001-01-01T00:00:00Z","name_a2s":"Uncletopia | Seattle | 1 | All Maps","protocol":17,"map":"pl_upward","folder":"tf","game":"Team Fortress","app_id":440,"player_count":24,"max_players":24,"Bots":0,"server_type":"Dedicated","server_os":"Linux","password":true,"vac":true,"version":"7932396","steam_id":85568392924469997,"keywords":["nocrits","nodmgspread","payload","uncletopia"],"game_id":440,"stv_port":27016,"stv_name":"Uncletopia | Seattle | 1 | All Maps | STV","players":[{"user_id":71,"name":"Johnny Warcrimes","steam_id":76561198073353907,"connected_time":1027000000000,"state":"active","ping":48},{"user_id":43,"name":"Themasterman75","steam_id":76561199385573293,"connected_time":2952000000000,"state":"active","ping":71},{"user_id":47,"name":"Quagsire Acquired","steam_id":76561198417169465,"connected_time":2189000000000,"state":"active","ping":103},{"user_id":70,"name":"Petroleum Jelly","steam_id":76561198118778800,"connected_time":1274000000000,"state":"active","ping":75},{"user_id":46,"name":"Stupid Monkey =3","steam_id":76561198024580166,"connected_time":2360000000000,"state":"active","ping":51},{"user_id":48,"name":"Newprobad","steam_id":76561198272271625,"connected_time":2171000000000,"state":"active","ping":111},{"user_id":52,"name":"Moonlily","steam_id":76561198852670061,"connected_time":2087000000000,"state":"active","ping":52},{"user_id":55,"name":"That wasn't milk","steam_id":76561198155294045,"connected_time":1921000000000,"state":"active","ping":64},{"user_id":51,"name":"ElSuzz","steam_id":76561199122621795,"connected_time":2138000000000,"state":"active","ping":113},{"user_id":53,"name":"bemo","steam_id":76561198344331503,"connected_time":2082000000000,"state":"active","ping":45},{"user_id":73,"name":"Astronat","steam_id":76561198096321896,"connected_time":780000000000,"state":"active","ping":61},{"user_id":57,"name":"weed boner","steam_id":76561198034131572,"connected_time":1838000000000,"state":"active","ping":32},{"user_id":58,"name":"greenpeace","steam_id":76561197983221708,"connected_time":1762000000000,"state":"active","ping":65},{"user_id":59,"name":"unfathomable heights of bliss","steam_id":76561198048925904,"connected_time":1760000000000,"state":"active","ping":90},{"user_id":77,"name":"bottom pride burger","steam_id":76561198322247602,"connected_time":330000000000,"state":"active","ping":78},{"user_id":61,"name":"Cheeseburglar","steam_id":76561198880267007,"connected_time":1677000000000,"state":"active","ping":87},{"user_id":62,"name":"Infentdegree211","steam_id":76561198385234127,"connected_time":1646000000000,"state":"active","ping":88},{"user_id":63,"name":"crumbles","steam_id":76561198168707036,"connected_time":1633000000000,"state":"active","ping":69},{"user_id":64,"name":"26O3 Ê•µÂÖâÈù¢Á¥ó","steam_id":76561198964074985,"connected_time":1631000000000,"state":"active","ping":67},{"user_id":75,"name":"reiidaya","steam_id":76561198325306660,"connected_time":641000000000,"state":"active","ping":58},{"user_id":66,"name":"Reisen Udongein Inaba","steam_id":76561198051082314,"connected_time":1620000000000,"state":"active","ping":75},{"user_id":78,"name":"l4d2 marshall","steam_id":76561198042570322,"connected_time":159000000000,"state":"active","ping":103},{"user_id":72,"name":"ningelo","steam_id":76561198133057951,"connected_time":879000000000,"state":"active","ping":97},{"user_id":69,"name":"Vincent Van Bro","steam_id":76561197966919802,"connected_time":1575000000000,"state":"active","ping":60}]},{"server_id":119,"name":"Uncletopia | Seattle | 2 | All Maps","name_short":"sea-2","host":"sea-1.us.uncletopia.com","port":27025,"enabled":true,"region":"us-west","cc":"us","latitude":47.608013,"longitude":-122.33517,"reserved":0,"last_update":"0001-01-01T00:00:00Z","name_a2s":"Uncletopia | Seattle | 2 | All Maps","protocol":17,"map":"pl_barnblitz","folder":"tf","game":"Team Fortress","app_id":440,"player_count":24,"max_players":24,"Bots":0,"server_type":"Dedicated","server_os":"Linux","password":true,"vac":true,"version":"7932396","steam_id":85568392924469998,"keywords":["nocrits","nodmgspread","payload","uncletopia"],"game_id":440,"stv_port":27026,"stv_name":"Uncletopia | Seattle | 2 | All Maps | STV","players":[{"user_id":437,"name":"Emperor Mollusk","steam_id":76561197972382839,"connected_time":3574000000000,"state":"active","ping":69},{"user_id":470,"name":"Raian","steam_id":76561199138048671,"connected_time":536000000000,"state":"active","ping":61},{"user_id":434,"name":"brhm","steam_id":76561198199604767,"connected_time":3716000000000,"state":"active","ping":50},{"user_id":459,"name":"hatsune miku","steam_id":76561199445009981,"connected_time":1588000000000,"state":"active","ping":48},{"user_id":463,"name":"FedSmoker","steam_id":76561198255854081,"connected_time":1408000000000,"state":"active","ping":63},{"user_id":464,"name":"lil_blu_elephant","steam_id":76561198272955552,"connected_time":924000000000,"state":"active","ping":85},{"user_id":461,"name":"Arkell","steam_id":76561198135884882,"connected_time":1434000000000,"state":"active","ping":46},{"user_id":458,"name":"128gb sd card","steam_id":76561198043636749,"connected_time":1639000000000,"state":"active","ping":84},{"user_id":465,"name":"CPTforever","steam_id":76561198237767198,"connected_time":821000000000,"state":"active","ping":60},{"user_id":428,"name":"Rebel_Vix","steam_id":76561199065107504,"connected_time":4441000000000,"state":"active","ping":104},{"user_id":454,"name":"Coowil","steam_id":76561198070985437,"connected_time":1763000000000,"state":"active","ping":42},{"user_id":466,"name":"GudeGuy","steam_id":76561198011801747,"connected_time":811000000000,"state":"active","ping":58},{"user_id":441,"name":"Feasent","steam_id":76561198987316504,"connected_time":2547000000000,"state":"active","ping":60},{"user_id":447,"name":"SneekiCheekiQbone","steam_id":76561198045077980,"connected_time":2169000000000,"state":"active","ping":76},{"user_id":456,"name":"Dragon New Warm Mountain","steam_id":76561198055626638,"connected_time":1656000000000,"state":"active","ping":150},{"user_id":457,"name":"Deeply","steam_id":76561199000786530,"connected_time":1651000000000,"state":"active","ping":119},{"user_id":467,"name":"greens beans","steam_id":76561198153611491,"connected_time":790000000000,"state":"active","ping":39},{"user_id":432,"name":"onlyfans ceo","steam_id":76561199013461400,"connected_time":3846000000000,"state":"active","ping":144},{"user_id":443,"name":"MyMonkeyBaby","steam_id":76561198046896670,"connected_time":2539000000000,"state":"active","ping":59},{"user_id":444,"name":"Ockulus","steam_id":76561199069638460,"connected_time":2538000000000,"state":"active","ping":78},{"user_id":468,"name":"HankTheLazy","steam_id":76561199093836052,"connected_time":786000000000,"state":"active","ping":147},{"user_id":406,"name":"selvhat","steam_id":76561198114225509,"connected_time":6061000000000,"state":"active","ping":79},{"user_id":436,"name":"trackpad gaming | f2p","steam_id":76561198840414371,"connected_time":3631000000000,"state":"active","ping":45},{"user_id":469,"name":"Banzai","steam_id":76561198196503877,"connected_time":786000000000,"state":"active","ping":46}]},{"server_id":406,"name":"Uncletopia | Seattle | 3 | Stopwatch Beta","name_short":"sea-3","host":"sea-1.us.uncletopia.com","port":27035,"enabled":true,"region":"us-west","cc":"us","latitude":47.608013,"longitude":-122.33517,"reserved":0,"last_update":"0001-01-01T00:00:00Z","name_a2s":"Uncletopia | Seattle | 3 | Stopwatch Beta","protocol":17,"map":"workshop/koth_bagel_rc6.ugc2514036946","folder":"tf","game":"Team Fortress","app_id":440,"player_count":0,"max_players":24,"Bots":0,"server_type":"Dedicated","server_os":"Linux","password":true,"vac":true,"version":"7932396","steam_id":85568392924515217,"keywords":["cp","nocrits","nodmgspread","uncletopia"],"game_id":440,"stv_port":27036,"stv_name":"Uncletopia | Seattle | 3 | Stopwatch Beta | STV","players":null},{"server_id":17,"name":"Uncletopia | San Francisco | 1 | All Maps","name_short":"sfo-1","host":"sfo-1.us.uncletopia.com","port":27015,"enabled":true,"region":"us-west","cc":"us","latitude":37.77397,"longitude":-122.4313,"reserved":0,"last_update":"0001-01-01T00:00:00Z","name_a2s":"Uncletopia | San Francisco | 1 | All Maps","protocol":17,"map":"pl_badwater","folder":"tf","game":"Team Fortress","app_id":440,"player_count":0,"max_players":24,"Bots":0,"server_type":"Dedicated","server_os":"Linux","password":true,"vac":true,"version":"7932396","steam_id":85568392924469999,"keywords":["nocrits","nodmgspread","payload","uncletopia"],"game_id":440,"stv_port":27016,"stv_name":"Uncletopia | San Francisco | 1 | All Maps | STV","players":null},{"server_id":18,"name":"Uncletopia | San Francisco | 2 | All Maps","name_short":"sfo-2","host":"sfo-1.us.uncletopia.com","port":27025,"enabled":true,"region":"us-west","cc":"us","latitude":37.77397,"longitude":-122.4313,"reserved":0,"last_update":"0001-01-01T00:00:00Z","name_a2s":"Uncletopia | San Francisco | 2 | All Maps","protocol":17,"map":"cp_snakewater_final1","folder":"tf","game":"Team Fortress","app_id":440,"player_count":0,"max_players":24,"Bots":0,"server_type":"Dedicated","server_os":"Linux","password":true,"vac":true,"version":"7932396","steam_id":85568392924470000,"keywords":["cp","nocrits","nodmgspread","uncletopia"],"game_id":440,"stv_port":27026,"stv_name":"Uncletopia | San Francisco | 2 | All Maps | STV","players":null},{"server_id":19,"name":"Uncletopia | San Francisco | 3 | Stopwatch Beta","name_short":"sfo-3","host":"sfo-1.us.uncletopia.com","port":27035,"enabled":true,"region":"us-west","cc":"us","latitude":37.77397,"longitude":-122.4313,"reserved":0,"last_update":"0001-01-01T00:00:00Z","name_a2s":"Uncletopia | San Francisco | 3 | Stopwatch Beta","protocol":17,"map":"workshop/pl_vigil_rc9.ugc1266210012","folder":"tf","game":"Team Fortress","app_id":440,"player_count":0,"max_players":24,"Bots":0,"server_type":"Dedicated","server_os":"Linux","password":true,"vac":true,"version":"7932396","steam_id":85568392924742824,"keywords":["nocrits","nodmgspread","payload","uncletopia"],"game_id":440,"stv_port":27036,"stv_name":"Uncletopia | San Francisco | 3 | Stopwatch Beta | STV","players":null},{"server_id":20,"name":"Uncletopia | San Francisco | 4 | Community","name_short":"sfo-4","host":"sfo-1.us.uncletopia.com","port":27045,"enabled":true,"region":"us-west","cc":"us","latitude":37.77397,"longitude":-122.4313,"reserved":0,"last_update":"0001-01-01T00:00:00Z","name_a2s":"Uncletopia | San Francisco | 4 | Community","protocol":17,"map":"pl_borneo","folder":"tf","game":"Team Fortress","app_id":440,"player_count":0,"max_players":24,"Bots":0,"server_type":"Dedicated","server_os":"Linux","password":true,"vac":true,"version":"7932396","steam_id":85568392924742826,"keywords":["nocrits","nodmgspread","payload","uncletopia"],"game_id":440,"stv_port":27046,"stv_name":"Uncletopia | San Francisco | 4 | Community | STV","players":null},{"server_id":141,"name":"Uncletopia | Sydney | 1 | All Maps","name_short":"syd-1","host":"syd-1.au.uncletopia.com","port":27015,"enabled":true,"region":"au","cc":"au","latitude":-33.865143,"longitude":151.2099,"reserved":0,"last_update":"0001-01-01T00:00:00Z","name_a2s":"Uncletopia | Sydney | 1 | All Maps","protocol":17,"map":"pl_pier","folder":"tf","game":"Team Fortress","app_id":440,"player_count":0,"max_players":24,"Bots":0,"server_type":"Dedicated","server_os":"Linux","password":true,"vac":true,"version":"7932396","steam_id":85568392924470001,"keywords":["nocrits","nodmgspread","payload","uncletopia"],"game_id":440,"stv_port":27016,"stv_name":"Uncletopia | Sydney | 1 | All Maps | STV","players":null},{"server_id":123,"name":"Uncletopia | Sydney | 2 | All Maps","name_short":"syd-2","host":"syd-1.au.uncletopia.com","port":27025,"enabled":true,"region":"au","cc":"au","latitude":-33.865143,"longitude":151.2099,"reserved":0,"last_update":"0001-01-01T00:00:00Z","name_a2s":"Uncletopia | Sydney | 2 | All Maps","protocol":17,"map":"koth_lakeside_final","folder":"tf","game":"Team Fortress","app_id":440,"player_count":0,"max_players":24,"Bots":0,"server_type":"Dedicated","server_os":"Linux","password":true,"vac":true,"version":"7932396","steam_id":85568392924470002,"keywords":["cp","nocrits","nodmgspread","uncletopia"],"game_id":440,"stv_port":27026,"stv_name":"Uncletopia | Sydney | 2 | All Maps | STV","players":null},{"server_id":395,"name":"Uncletopia | Sydney | 3 | All Maps","name_short":"syd-3","host":"syd-1.au.uncletopia.com","port":27035,"enabled":true,"region":"au","cc":"au","latitude":-33.865143,"longitude":151.2099,"reserved":0,"last_update":"0001-01-01T00:00:00Z","name_a2s":"Uncletopia | Sydney | 3 | All Maps","protocol":17,"map":"pl_barnblitz","folder":"tf","game":"Team Fortress","app_id":440,"player_count":0,"max_players":24,"Bots":0,"server_type":"Dedicated","server_os":"Linux","password":true,"vac":true,"version":"7932396","steam_id":85568392925194467,"keywords":["nocrits","nodmgspread","payload","uncletopia"],"game_id":440,"stv_port":27036,"stv_name":"Uncletopia | Sydney | 3 | All Maps | STV","players":null},{"server_id":396,"name":"Uncletopia | Sydney | 4 | All Maps","name_short":"syd-4","host":"syd-1.au.uncletopia.com","port":27045,"enabled":true,"region":"au","cc":"au","latitude":-33.865143,"longitude":151.2099,"reserved":0,"last_update":"0001-01-01T00:00:00Z","name_a2s":"Uncletopia | Sydney | 4 | All Maps","protocol":17,"map":"pl_pier","folder":"tf","game":"Team Fortress","app_id":440,"player_count":0,"max_players":24,"Bots":0,"server_type":"Dedicated","server_os":"Linux","password":true,"vac":true,"version":"7932396","steam_id":85568392925397958,"keywords":["nocrits","nodmgspread","payload","uncletopia"],"game_id":440,"stv_port":27046,"stv_name":"Uncletopia | Sydney | 4 | All Maps | STV","players":null},{"server_id":58,"name":"Uncletopia | Sydney | 5 | Stopwatch Beta","name_short":"syd-5","host":"syd-1.au.uncletopia.com","port":27055,"enabled":true,"region":"au","cc":"au","latitude":-33.865143,"longitude":151.2099,"reserved":0,"last_update":"0001-01-01T00:00:00Z","name_a2s":"Uncletopia | Sydney | 5 | Stopwatch Beta","protocol":17,"map":"pl_borneo","folder":"tf","game":"Team Fortress","app_id":440,"player_count":0,"max_players":24,"Bots":0,"server_type":"Dedicated","server_os":"Linux","password":true,"vac":true,"version":"7932396","steam_id":85568392925397959,"keywords":["nocrits","nodmgspread","payload","uncletopia"],"game_id":440,"stv_port":27056,"stv_name":"Uncletopia | Sydney | 5 | Stopwatch Beta | STV","players":null},{"server_id":59,"name":"Uncletopia | Sydney | 6 | Community","name_short":"syd-6","host":"syd-1.au.uncletopia.com","port":27065,"enabled":true,"region":"au","cc":"au","latitude":-33.865143,"longitude":151.2099,"reserved":0,"last_update":"0001-01-01T00:00:00Z","name_a2s":"Uncletopia | Sydney | 6 | Community","protocol":17,"map":"pl_badwater","folder":"tf","game":"Team Fortress","app_id":440,"player_count":0,"max_players":24,"Bots":0,"server_type":"Dedicated","server_os":"Linux","password":true,"vac":true,"version":"7932396","steam_id":85568392925397960,"keywords":["nocrits","nodmgspread","payload","uncletopia"],"game_id":440,"stv_port":27066,"stv_name":"Uncletopia | Sydney | 6 | Community | STV","players":null},{"server_id":49,"name":"Uncletopia | Warsaw | 1 | All Maps","name_short":"waw-1","host":"waw-1.pl.uncletopia.com","port":27015,"enabled":true,"region":"eu","cc":"pl","latitude":52.2297,"longitude":21.017532,"reserved":0,"last_update":"0001-01-01T00:00:00Z","name_a2s":"","protocol":0,"map":"","folder":"","game":"","app_id":0,"player_count":0,"max_players":0,"Bots":0,"server_type":"","server_os":"","password":false,"vac":false,"version":"","steam_id":0,"keywords":null,"game_id":0,"stv_port":0,"stv_name":"","players":null},{"server_id":50,"name":"Uncletopia | Warsaw | 2 | All Maps","name_short":"waw-2","host":"waw-1.pl.uncletopia.com","port":27025,"enabled":true,"region":"eu","cc":"pl","latitude":52.2297,"longitude":21.017532,"reserved":0,"last_update":"0001-01-01T00:00:00Z","name_a2s":"Uncletopia | Warsaw | 2 | All Maps","protocol":17,"map":"pl_frontier_final","folder":"tf","game":"Team Fortress","app_id":440,"player_count":16,"max_players":24,"Bots":0,"server_type":"Dedicated","server_os":"Linux","password":true,"vac":true,"version":"7932396","steam_id":85568392925397851,"keywords":["nocrits","nodmgspread","payload","uncletopia"],"game_id":440,"stv_port":27026,"stv_name":"Uncletopia | Warsaw | 2 | All Maps | STV","players":[{"user_id":300,"name":"E√ò","steam_id":76561197993407916,"connected_time":405000000000,"state":"active","ping":118},{"user_id":302,"name":"Œ£O","steam_id":76561198120855213,"connected_time":339000000000,"state":"active","ping":72},{"user_id":301,"name":"E0","steam_id":76561198006634620,"connected_time":364000000000,"state":"active","ping":77},{"user_id":298,"name":"Flint","steam_id":76561197995920776,"connected_time":545000000000,"state":"active","ping":60},{"user_id":286,"name":"intj üî∞","steam_id":76561198344095215,"connected_time":1028000000000,"state":"active","ping":166},{"user_id":290,"name":"Cotton Enjoyer","steam_id":76561198406633988,"connected_time":903000000000,"state":"active","ping":62},{"user_id":291,"name":"Sarah Obama Michella","steam_id":76561198078996559,"connected_time":786000000000,"state":"active","ping":86},{"user_id":306,"name":"Remi","steam_id":76561198860304357,"connected_time":24000000000,"state":"spawning","ping":126},{"user_id":303,"name":"lunaire","steam_id":76561198163344452,"connected_time":333000000000,"state":"active","ping":71},{"user_id":297,"name":"AnalBypass1989","steam_id":76561198052356557,"connected_time":657000000000,"state":"active","ping":102},{"user_id":307,"name":"Robie","steam_id":76561198914744938,"connected_time":22000000000,"state":"active","ping":118},{"user_id":271,"name":"Syd","steam_id":76561198020515027,"connected_time":1756000000000,"state":"active","ping":51},{"user_id":296,"name":"V1","steam_id":76561198860424456,"connected_time":689000000000,"state":"active","ping":421},{"user_id":244,"name":"KiT","steam_id":76561198043770371,"connected_time":4642000000000,"state":"active","ping":78},{"user_id":274,"name":"Hercules","steam_id":76561198041164170,"connected_time":1620000000000,"state":"active","ping":31},{"user_id":273,"name":"n.mob","steam_id":76561198389356439,"connected_time":1673000000000,"state":"active","ping":101}]},{"server_id":51,"name":"Uncletopia | Warsaw | 3 | All Maps","name_short":"waw-3","host":"waw-1.pl.uncletopia.com","port":27035,"enabled":true,"region":"eu","cc":"pl","latitude":52.2297,"longitude":21.017532,"reserved":0,"last_update":"0001-01-01T00:00:00Z","name_a2s":"Uncletopia | Warsaw | 3 | All Maps","protocol":17,"map":"koth_lakeside_final","folder":"tf","game":"Team Fortress","app_id":440,"player_count":0,"max_players":24,"Bots":0,"server_type":"Dedicated","server_os":"Linux","password":true,"vac":true,"version":"7932396","steam_id":85568392925397852,"keywords":["cp","nocrits","nodmgspread","uncletopia"],"game_id":440,"stv_port":27036,"stv_name":"Uncletopia | Warsaw | 3 | All Maps | STV","players":null},{"server_id":52,"name":"Uncletopia | Warsaw | 4 | All Maps","name_short":"waw-4","host":"waw-1.pl.uncletopia.com","port":27045,"enabled":true,"region":"eu","cc":"pl","latitude":52.2297,"longitude":21.017532,"reserved":0,"last_update":"0001-01-01T00:00:00Z","name_a2s":"Uncletopia | Warsaw | 4 | All Maps","protocol":17,"map":"pl_frontier_final","folder":"tf","game":"Team Fortress","app_id":440,"player_count":0,"max_players":24,"Bots":0,"server_type":"Dedicated","server_os":"Linux","password":true,"vac":true,"version":"7932396","steam_id":85568392925397853,"keywords":["nocrits","nodmgspread","payload","uncletopia"],"game_id":440,"stv_port":27046,"stv_name":"Uncletopia | Warsaw | 4 | All Maps | STV","players":null},{"server_id":53,"name":"Uncletopia | Warsaw | 5 | Stopwatch Beta","name_short":"waw-5","host":"waw-1.pl.uncletopia.com","port":27055,"enabled":true,"region":"eu","cc":"pl","latitude":52.2297,"longitude":21.017532,"reserved":0,"last_update":"0001-01-01T00:00:00Z","name_a2s":"Uncletopia | Warsaw | 5 | Stopwatch Beta","protocol":17,"map":"pl_upward","folder":"tf","game":"Team Fortress","app_id":440,"player_count":0,"max_players":24,"Bots":0,"server_type":"Dedicated","server_os":"Linux","password":true,"vac":true,"version":"7932396","steam_id":85568392925397854,"keywords":["nocrits","nodmgspread","payload","uncletopia"],"game_id":440,"stv_port":27056,"stv_name":"Uncletopia | Warsaw | 5 | Stopwatch Beta | STV","players":null},{"server_id":54,"name":"Uncletopia | Warsaw | 6 | Community","name_short":"waw-6","host":"waw-1.pl.uncletopia.com","port":27065,"enabled":true,"region":"eu","cc":"pl","latitude":52.2297,"longitude":21.017532,"reserved":0,"last_update":"0001-01-01T00:00:00Z","name_a2s":"Uncletopia | Warsaw | 6 | Community","protocol":17,"map":"workshop/cp_bruhstbowl_b6.ugc2878604990","folder":"tf","game":"Team Fortress","app_id":440,"player_count":0,"max_players":24,"Bots":0,"server_type":"Dedicated","server_os":"Linux","password":true,"vac":true,"version":"7932396","steam_id":85568392925397856,"keywords":["cp","nocrits","nodmgspread","uncletopia"],"game_id":440,"stv_port":27066,"stv_name":"Uncletopia | Warsaw | 6 | Community | STV","players":null}]}