{"status":true,"message":"","result":[{"server_id":9,"name":"Uncletopia | Atlanta | 1 | All Maps","name_short":"atl-1","host":"atl-1.us.uncletopia.com","port":27015,"enabled":true,"region":"us-east","cc":"us","latitude":33.753746,"longitude":-84.38633,"reserved":0,"last_update":"0001-01-01T00:00:00Z","name_a2s":"Uncletopia | Atlanta | 1 | All Maps","protocol":17,"map":"koth_lakeside_final","folder":"tf","game":"Team Fortress","app_id":440,"player_count":0,"max_players":24,"Bots":0,"server_type":"Dedicated","server_os":"Linux","password":true,"vac":true,"version":"7961495","steam_id":85568392924469982,"keywords":["cp","nocrits","nodmgspread","uncletopia"],"game_id":440,"stv_port":27016,"stv_name":"Uncletopia | Atlanta | 1 | All Maps | STV","players":null},{"server_id":104,"name":"Uncletopia | Atlanta | 2 | All Maps","name_short":"atl-2","host":"atl-1.us.uncletopia.com","port":27025,"enabled":true,"region":"us-east","cc":"us","latitude":33.753746,"longitude":-84.38633,"reserved":0,"last_update":"0001-01-01T00:00:00Z","name_a2s":"Uncletopia | Atlanta | 2 | All Maps","protocol":17,"map":"koth_lakeside_final","folder":"tf","game":"Team Fortress","app_id":440,"player_count":0,"max_players":24,"Bots":0,"server_type":"Dedicated","server_os":"Linux","password":true,"vac":true,"version":"7961495","steam_id":85568392924469983,"keywords":["cp","nocrits","nodmgspread","uncletopia"],"game_id":440,"stv_port":27026,"stv_name":"Uncletopia | Atlanta | 2 | All Maps | STV","players":null},{"server_id":400,"name":"Uncletopia | Atlanta | 3 | Stopwatch","name_short":"atl-3","host":"atl-1.us.uncletopia.com","port":27035,"enabled":true,"region":"us-east","cc":"us","latitude":33.753746,"longitude":-84.38633,"reserved":0,"last_update":"0001-01-01T00:00:00Z","name_a2s":"Uncletopia | Atlanta | 3 | Stopwatch","protocol":17,"map":"pl_borneo","folder":"tf","game":"Team Fortress","app_id":440,"player_count":0,"max_players":24,"Bots":0,"server_type":"Dedicated","server_os":"Linux","password":true,"vac":true,"version":"7961495","steam_id":85568392924515187,"keywords":["nocrits","nodmgspread","payload","uncletopia"],"game_id":440,"stv_port":27036,"stv_name":"Uncletopia | Atlanta | 3 | Stopwatch | STV","players":null},{"server_id":401,"name":"Uncletopia | Atlanta | 4 | Community","name_short":"atl-4","host":"atl-1.us.uncletopia.com","port":27045,"enabled":true,"region":"us-east","cc":"us","latitude":33.753746,"longitude":-84.38633,"reserved":0,"last_update":"0001-01-01T00:00:00Z","name_a2s":"Uncletopia | Atlanta | 4 | Community","protocol":17,"map":"workshop/pl_badwater_pro_v12.ugc2142942074","folder":"tf","game":"Team Fortress","app_id":440,"player_count":0,"max_players":24,"Bots":0,"server_type":"Dedicated","server_os":"Linux","password":true,"vac":true,"version":"7961495","steam_id":85568392924515188,"keywords":["nocrits","nodmgspread","payload","uncletopia"],"game_id":440,"stv_port":27046,"stv_name":"Uncletopia | Atlanta | 4 | Community | STV","players":null},{"server_id":2,"name":"Uncletopia | Chicago | 1 | All Maps","name_short":"chi-1","host":"chi-1.us.uncletopia.com","port":27015,"enabled":true,"region":"us-central","cc":"us","latitude":41.881832,"longitude":-87.62318,"reserved":0,"last_update":"0001-01-01T00:00:00Z","name_a2s":"Uncletopia | Chicago | 1 | All Maps","protocol":17,"map":"pl_barnblitz","folder":"tf","game":"Team Fortress","app_id":440,"player_count":24,"max_players":24,"Bots":0,"server_type":"Dedicated","server_os":"Linux","password":true,"vac":true,"version":"7961495","steam_id":85568392924469984,"keywords":["nocrits","nodmgspread","payload","uncletopia"],"game_id":440,"stv_port":27016,"stv_name":"Uncletopia | Chicago | 1 | All Maps | STV","players":[{"user_id":89,"name":"King Of The Chill","steam_id":76561197971394640,"connected_time":738000000000,"state":"active","ping":85},{"user_id":90,"name":"Lucerne★Flower","steam_id":76561198264105406,"connected_time":736000000000,"state":"active","ping":151},{"user_id":91,"name":"asdasdasdasdasd","steam_id":76561198129682583,"connected_time":726000000000,"state":"active","ping":74},{"user_id":34,"name":"RandomRainbow","steam_id":76561199107573588,"connected_time":4535000000000,"state":"active","ping":46},{"user_id":95,"name":"The Eyeball Man","steam_id":76561198013534207,"connected_time":603000000000,"state":"active","ping":66},{"user_id":36,"name":"S'ensored","steam_id":76561198385923402,"connected_time":3985000000000,"state":"active","ping":62},{"user_id":63,"name":"Menace to Sobriety","steam_id":76561198245103000,"connected_time":2599000000000,"state":"active","ping":57},{"user_id":71,"name":"Willham","steam_id":76561198065755781,"connected_time":1898000000000,"state":"active","ping":65},{"user_id":41,"name":"SlaaneshBish","steam_id":76561198323219832,"connected_time":3854000000000,"state":"active","ping":47},{"user_id":42,"name":"Jotman","steam_id":76561198302202478,"connected_time":3833000000000,"state":"active","ping":155},{"user_id":43,"name":"yer_nerd","steam_id":76561199435454093,"connected_time":3828000000000,"state":"active","ping":68},{"user_id":64,"name":"Mirro","steam_id":76561198042182392,"connected_time":2585000000000,"state":"active","ping":59},{"user_id":45,"name":"Damien","steam_id":76561198387750828,"connected_time":3817000000000,"state":"active","ping":75},{"user_id":96,"name":"ginosaurusx","steam_id":76561198410640142,"connected_time":527000000000,"state":"active","ping":75},{"user_id":88,"name":"Monkey Friend","steam_id":76561198144403074,"connected_time":992000000000,"state":"active","ping":135},{"user_id":76,"name":"gunch","steam_id":76561198029318657,"connected_time":1724000000000,"state":"active","ping":67},{"user_id":97,"name":"TB7","steam_id":76561198064423214,"connected_time":446000000000,"state":"active","ping":56},{"user_id":94,"name":"randymarsh004","steam_id":76561199078097804,"connected_time":637000000000,"state":"active","ping":74},{"user_id":68,"name":"harv (LMAOBOX USER)","steam_id":76561199224251631,"connected_time":2170000000000,"state":"active","ping":49},{"user_id":87,"name":"trobin120","steam_id":76561199122420273,"connected_time":1221000000000,"state":"active","ping":62},{"user_id":84,"name":"frogg","steam_id":76561199088502372,"connected_time":1462000000000,"state":"active","ping":105},{"user_id":93,"name":"tricerraaldyn","steam_id":76561198274773199,"connected_time":698000000000,"state":"active","ping":56},{"user_id":86,"name":"sloop","steam_id":76561198866662806,"connected_time":1335000000000,"state":"active","ping":59},{"user_id":58,"name":"Tommy Pickles (Very ____)","steam_id":76561198391261463,"connected_time":3312000000000,"state":"active","ping":75}]},{"server_id":106,"name":"Uncletopia | Chicago | 2 | All Maps","name_short":"chi-2","host":"chi-1.us.uncletopia.com","port":27025,"enabled":true,"region":"us-central","cc":"us","latitude":41.881832,"longitude":-87.62318,"reserved":0,"last_update":"0001-01-01T00:00:00Z","name_a2s":"Uncletopia | Chicago | 2 | All Maps","protocol":17,"map":"pl_badwater","folder":"tf","game":"Team Fortress","app_id":440,"player_count":24,"max_players":24,"Bots":0,"server_type":"Dedicated","server_os":"Linux","password":true,"vac":true,"version":"7961495","steam_id":85568392924469985,"keywords":["nocrits","nodmgspread","payload","uncletopia"],"game_id":440,"stv_port":27026,"stv_name":"Uncletopia | Chicago | 2 | All Maps | STV","players":[{"user_id":157,"name":"Window Licker #pride","steam_id":76561198386717007,"connected_time":913000000000,"state":"active","ping":47},{"user_id":145,"name":"ChocoMcFudgeCake","steam_id":76561197994591295,"connected_time":1322000000000,"state":"active","ping":45},{"user_id":151,"name":"TheDeemguy64","steam_id":76561198852876387,"connected_time":1150000000000,"state":"active","ping":60},{"user_id":160,"name":"WorldsWorstGamer","steam_id":76561199126634917,"connected_time":664000000000,"state":"active","ping":49},{"user_id":91,"name":"Gene Takovic","steam_id":76561198881039861,"connected_time":5997000000000,"state":"active","ping":46},{"user_id":161,"name":"gary","steam_id":76561197991793693,"connected_time":628000000000,"state":"active","ping":77},{"user_id":119,"name":"pittypier","steam_id":76561199447222783,"connected_time":2959000000000,"state":"active","ping":151},{"user_id":133,"name":"SEEJ","steam_id":76561198185520762,"connected_time":2584000000000,"state":"active","ping":147},{"user_id":163,"name":"broomstick","steam_id":76561198302171600,"connected_time":335000000000,"state":"active","ping":79},{"user_id":120,"name":"Lennu","steam_id":76561198060730154,"connected_time":2938000000000,"state":"active","ping":75},{"user_id":75,"name":"Tobo","steam_id":76561198085846393,"connected_time":6927000000000,"state":"active","ping":75},{"user_id":159,"name":"Peketo","steam_id":76561199104376294,"connected_time":840000000000,"state":"active","ping":72},{"user_id":155,"name":"Moister Chief","steam_id":76561198021264298,"connected_time":1058000000000,"state":"active","ping":74},{"user_id":141,"name":"Larry Cañonga","steam_id":76561198081053203,"connected_time":1816000000000,"state":"active","ping":89},{"user_id":156,"name":"ol' dirty","steam_id":76561198074213978,"connected_time":987000000000,"state":"active","ping":75},{"user_id":126,"name":"crow","steam_id":76561198444371121,"connected_time":2744000000000,"state":"active","ping":78},{"user_id":164,"name":"Disabled_Label","steam_id":76561199132636354,"connected_time":334000000000,"state":"active","ping":99},{"user_id":158,"name":"yair_1302","steam_id":76561199193064727,"connected_time":895000000000,"state":"active","ping":49},{"user_id":148,"name":"HollowMan","steam_id":76561198967266827,"connected_time":1256000000000,"state":"active","ping":72},{"user_id":149,"name":"trash beast","steam_id":76561198015792736,"connected_time":1223000000000,"state":"active","ping":82},{"user_id":150,"name":"nana","steam_id":76561198214690269,"connected_time":1214000000000,"state":"active","ping":72},{"user_id":131,"name":"Waaagh!","steam_id":76561197995317887,"connected_time":2711000000000,"state":"active","ping":59},{"user_id":165,"name":"Gangster Stewie","steam_id":76561198060387572,"connected_time":326000000000,"state":"active","ping":53}]},{"server_id":402,"name":"Uncletopia | Chicago | 3 | All Maps","name_short":"chi-3","host":"chi-1.us.uncletopia.com","port":27035,"enabled":true,"region":"us-central","cc":"us","latitude":41.881832,"longitude":-87.62318,"reserved":0,"last_update":"0001-01-01T00:00:00Z","name_a2s":"Uncletopia | Chicago | 3 | All Maps","protocol":17,"map":"plr_pipeline","folder":"tf","game":"Team Fortress","app_id":440,"player_count":0,"max_players":24,"Bots":0,"server_type":"Dedicated","server_os":"Linux","password":true,"vac":true,"version":"7961495","steam_id":85568392924515191,"keywords":["nocrits","nodmgspread","payload","uncletopia"],"game_id":440,"stv_port":27036,"stv_name":"Uncletopia | Chicago | 3 | All Maps | STV","players":null},{"server_id":403,"name":"Uncletopia | Chicago | 4 | All Maps","name_short":"chi-4","host":"chi-1.us.uncletopia.com","port":27045,"enabled":true,"region":"us-central","cc":"us","latitude":41.881832,"longitude":-87.62318,"reserved":0,"last_update":"0001-01-01T00:00:00Z","name_a2s":"Uncletopia | Chicago | 4 | All Maps","protocol":17,"map":"pl_upward","folder":"tf","game":"Team Fortress","app_id":440,"player_count":11,"max_players":24,"Bots":0,"server_type":"Dedicated","server_os":"Linux","password":true,"vac":true,"version":"7961495","steam_id":85568392924515193,"keywords":["nocrits","nodmgspread","payload","uncletopia"],"game_id":440,"stv_port":27046,"stv_name":"Uncletopia | Chicago | 4 | All Maps | STV","players":[{"user_id":14,"name":"barry steakfries","steam_id":76561199472218520,"connected_time":1616000000000,"state":"active","ping":77},{"user_id":28,"name":"bonkpie57","steam_id":76561199481945697,"connected_time":477000000000,"state":"active","ping":259},{"user_id":23,"name":"Citrus","steam_id":76561199098647189,"connected_time":947000000000,"state":"active","ping":120},{"user_id":7,"name":"The Hose on Upward","steam_id":76561197965092192,"connected_time":2428000000000,"state":"active","ping":65},{"user_id":24,"name":"poe.ai","steam_id":76561198155720118,"connected_time":779000000000,"state":"active","ping":45},{"user_id":25,"name":"CaptainRex","steam_id":76561199468930886,"connected_time":750000000000,"state":"active","ping":60},{"user_id":27,"name":"Space⭐Dandy","steam_id":76561198286051437,"connected_time":733000000000,"state":"active","ping":57},{"user_id":19,"name":"VIMIK","steam_id":76561198069449278,"connected_time":1203000000000,"state":"active","ping":46},{"user_id":29,"name":"Cigtar","steam_id":76561198079842818,"connected_time":229000000000,"state":"active","ping":63},{"user_id":30,"name":"Aurora","steam_id":76561198104795375,"connected_time":195000000000,"state":"active","ping":54},{"user_id":31,"name":"19 INCH TGIRL SCHLONG","steam_id":76561198122059018,"connected_time":167000000000,"state":"active","ping":45}]},{"server_id":36,"name":"Uncletopia | Chicago | 5 | All Maps","name_short":"chi-5","host":"chi-2.us.uncletopia.com","port":27015,"enabled":true,"region":"us-central","cc":"us","latitude":41.881832,"longitude":-87.62318,"reserved":0,"last_update":"0001-01-01T00:00:00Z","name_a2s":"Uncletopia | Chicago | 5 | All Maps","protocol":17,"map":"pl_borneo","folder":"tf","game":"Team Fortress","app_id":440,"player_count":0,"max_players":24,"Bots":0,"server_type":"Dedicated","server_os":"Linux","password":true,"vac":true,"version":"7961495","steam_id":85568392924866362,"keywords":["nocrits","nodmgspread","payload","uncletopia"],"game_id":440,"stv_port":27016,"stv_name":"Uncletopia | Chicago | 5 | All Maps | STV","players":null},{"server_id":37,"name":"Uncletopia | Chicago | 6 | All Maps","name_short":"chi-6","host":"chi-2.us.uncletopia.com","port":27025,"enabled":true,"region":"us-central","cc":"us","latitude":41.881832,"longitude":-87.62318,"reserved":0,"last_update":"0001-01-01T00:00:00Z","name_a2s":"Uncletopia | Chicago | 6 | All Maps","protocol":17,"map":"pl_frontier_final","folder":"tf","game":"Team Fortress","app_id":440,"player_count":0,"max_players":24,"Bots":0,"server_type":"Dedicated","server_os":"Linux","password":true,"vac":true,"version":"7961495","steam_id":85568392924866363,"keywords":["nocrits","nodmgspread","payload","uncletopia"],"game_id":440,"stv_port":27026,"stv_name":"Uncletopia | Chicago | 6 | All Maps | STV","players":null},{"server_id":38,"name":"Uncletopia | Chicago | 7 | Stopwatch","name_short":"chi-7","host":"chi-2.us.uncletopia.com","port":27035,"enabled":true,"region":"us-central","cc":"us","latitude":41.881832,"longitude":-87.62318,"reserved":0,"last_update":"0001-01-01T00:00:00Z","name_a2s":"Uncletopia | Chicago | 7 | Stopwatch","protocol":17,"map":"cp_snakewater_final1","folder":"tf","game":"Team Fortress","app_id":440,"player_count":0,"max_players":24,"Bots":0,"server_type":"Dedicated","server_os":"Linux","password":true,"vac":true,"version":"7961495","steam_id":85568392924866364,"keywords":["cp","nocrits","nodmgspread","uncletopia"],"game_id":440,"stv_port":27036,"stv_name":"Uncletopia | Chicago | 7 | Stopwatch | STV","players":null},{"server_id":39,"name":"Uncletopia | Chicago | 8 | Community","name_short":"chi-8","host":"chi-2.us.uncletopia.com","port":27045,"enabled":true,"region":"us-central","cc":"us","latitude":41.881832,"longitude":-87.62318,"reserved":0,"last_update":"0001-01-01T00:00:00Z","name_a2s":"Uncletopia | Chicago | 8 | Community","protocol":17,"map":"workshop/koth_slaughter_rc1.ugc1712845210","folder":"tf","game":"Team Fortress","app_id":440,"player_count":0,"max_players":24,"Bots":0,"server_type":"Dedicated","server_os":"Linux","password":true,"vac":true,"version":"7961495","steam_id":85568392924866365,"keywords":["cp","nocrits","nodmgspread","uncletopia"],"game_id":440,"stv_port":27046,"stv_name":"Uncletopia | Chicago | 8 | Community | STV","players":null},{"server_id":8,"name":"Uncletopia | Dallas | 1 | All Maps","name_short":"dal-1","host":"dal-1.us.uncletopia.com","port":27015,"enabled":true,"region":"us-central","cc":"us","latitude":32.779167,"longitude":-96.80889,"reserved":0,"last_update":"0001-01-01T00:00:00Z","name_a2s":"Uncletopia | Dallas | 1 | All Maps","protocol":17,"map":"pl_badwater","folder":"tf","game":"Team Fortress","app_id":440,"player_count":21,"max_players":24,"Bots":0,"server_type":"Dedicated","server_os":"Linux","password":true,"vac":true,"version":"7961495","steam_id":85568392924469986,"keywords":["nocrits","nodmgspread","payload","uncletopia"],"game_id":440,"stv_port":27016,"stv_name":"Uncletopia | Dallas | 1 | All Maps | STV","players":[{"user_id":124,"name":"smoker66","steam_id":76561199333678263,"connected_time":215000000000,"state":"active","ping":175},{"user_id":125,"name":"Ventastega","steam_id":76561197999366317,"connected_time":193000000000,"state":"active","ping":86},{"user_id":103,"name":"runescape legend","steam_id":76561198077791373,"connected_time":2680000000000,"state":"active","ping":68},{"user_id":128,"name":"VanillaNoice","steam_id":76561198114085912,"connected_time":58000000000,"state":"active","ping":46},{"user_id":115,"name":"blablalbalba","steam_id":76561198034883199,"connected_time":1321000000000,"state":"active","ping":121},{"user_id":123,"name":"SpaceLeezerd","steam_id":76561198171026678,"connected_time":385000000000,"state":"active","ping":75},{"user_id":127,"name":"Young Buck","steam_id":76561198113640715,"connected_time":72000000000,"state":"active","ping":56},{"user_id":104,"name":"Jimmy","steam_id":76561198857959855,"connected_time":2653000000000,"state":"active","ping":108},{"user_id":84,"name":"boo boo keys","steam_id":76561197999318398,"connected_time":3841000000000,"state":"active","ping":117},{"user_id":110,"name":"Coke","steam_id":76561199083035892,"connected_time":1965000000000,"state":"active","ping":74},{"user_id":92,"name":"Raizen","steam_id":76561199092445367,"connected_time":3296000000000,"state":"active","ping":75},{"user_id":129,"name":"Mr. Noodle","steam_id":76561198037803087,"connected_time":45000000000,"state":"active","ping":60},{"user_id":116,"name":"Fortune","steam_id":76561198346118738,"connected_time":1144000000000,"state":"active","ping":48},{"user_id":111,"name":"lego star wars on the psp","steam_id":76561198148014773,"connected_time":1929000000000,"state":"active","ping":83},{"user_id":63,"name":"don","steam_id":76561198204410892,"connected_time":4352000000000,"state":"active","ping":59},{"user_id":113,"name":"no vc no c","steam_id":76561197989503095,"connected_time":1831000000000,"state":"active","ping":175},{"user_id":114,"name":"Big Cat","steam_id":76561198115695203,"connected_time":1455000000000,"state":"active","ping":60},{"user_id":121,"name":"prehistoric gamer","steam_id":76561198069523062,"connected_time":992000000000,"state":"active","ping":81},{"user_id":108,"name":"The Big Laugh","steam_id":76561199094873145,"connected_time":2066000000000,"state":"active","ping":115},{"user_id":109,"name":"hycoda","steam_id":76561198045197971,"connected_time":1982000000000,"state":"active","ping":72},{"user_id":117,"name":"Deltaco","steam_id":76561198094572694,"connected_time":1137000000000,"state":"active","ping":128}]},{"server_id":108,"name":"Uncletopia | Dallas | 2 | All Maps","name_short":"dal-2","host":"dal-1.us.uncletopia.com","port":27025,"enabled":true,"region":"us-central","cc":"us","latitude":32.779167,"longitude":-96.80889,"reserved":0,"last_update":"0001-01-01T00:00:00Z","name_a2s":"Uncletopia | Dallas | 2 | All Maps","protocol":17,"map":"cp_mountainlab","folder":"tf","game":"Team Fortress","app_id":440,"player_count":0,"max_players":24,"Bots":0,"server_type":"Dedicated","server_os":"Linux","password":true,"vac":true,"version":"7961495","steam_id":85568392924469988,"keywords":["cp","nocrits","nodmgspread","uncletopia"],"game_id":440,"stv_port":27026,"stv_name":"Uncletopia | Dallas | 2 | All Maps | STV","players":null},{"server_id":404,"name":"Uncletopia | Dallas | 3 | All Maps","name_short":"dal-3","host":"dal-1.us.uncletopia.com","port":27035,"enabled":true,"region":"us-central","cc":"us","latitude":32.779167,"longitude":-96.80889,"reserved":0,"last_update":"0001-01-01T00:00:00Z","name_a2s":"Uncletopia | Dallas | 3 | All Maps","protocol":17,"map":"cp_coldfront","folder":"tf","game":"Team Fortress","app_id":440,"player_count":0,"max_players":24,"Bots":0,"server_type":"Dedicated","server_os":"Linux","password":true,"vac":true,"version":"7961495","steam_id":85568392924515219,"keywords":["cp","nocrits","nodmgspread","uncletopia"],"game_id":440,"stv_port":27036,"stv_name":"Uncletopia | Dallas | 3 | All Maps | STV","players":null},{"server_id":405,"name":"Uncletopia | Dallas | 4 | Community","name_short":"dal-4","host":"dal-1.us.uncletopia.com","port":27045,"enabled":true,"region":"us-central","cc":"us","latitude":32.779167,"longitude":-96.80889,"reserved":0,"last_update":"0001-01-01T00:00:00Z","name_a2s":"Uncletopia | Dallas | 4 | Community","protocol":17,"map":"workshop/koth_synthetic_rc6a.ugc1549817316","folder":"tf","game":"Team Fortress","app_id":440,"player_count":0,"max_players":24,"Bots":0,"server_type":"Dedicated","server_os":"Linux","password":true,"vac":true,"version":"7961495","steam_id":85568392924515220,"keywords":["cp","nocrits","nodmgspread","uncletopia"],"game_id":440,"stv_port":27046,"stv_name":"Uncletopia | Dallas | 4 | Community | STV","players":null},{"server_id":5,"name":"Uncletopia | Frankfurt | 1 | All Maps","name_short":"frk-1","host":"frk-1.de.uncletopia.com","port":27015,"enabled":true,"region":"eu","cc":"de","latitude":50.110924,"longitude":8.682127,"reserved":0,"last_update":"0001-01-01T00:00:00Z","name_a2s":"Uncletopia | Frankfurt | 1 | All Maps","protocol":17,"map":"cp_fastlane","folder":"tf","game":"Team Fortress","app_id":440,"player_count":24,"max_players":24,"Bots":0,"server_type":"Dedicated","server_os":"Linux","password":true,"vac":true,"version":"7961495","steam_id":85568392924469989,"keywords":["cp","nocrits","nodmgspread","uncletopia"],"game_id":440,"stv_port":27016,"stv_name":"Uncletopia | Frankfurt | 1 | All Maps | STV","players":[{"user_id":234,"name":"Marukuso","steam_id":76561198154229845,"connected_time":4026000000000,"state":"active","ping":54},{"user_id":236,"name":"Sham!","steam_id":76561198050434275,"connected_time":3927000000000,"state":"active","ping":52},{"user_id":209,"name":"Purrplehaze","steam_id":76561198297604298,"connected_time":5273000000000,"state":"active","ping":60},{"user_id":277,"name":"totis","steam_id":76561198968410569,"connected_time":451000000000,"state":"active","ping":91},{"user_id":272,"name":"Xtis","steam_id":76561198043837480,"connected_time":575000000000,"state":"active","ping":68},{"user_id":280,"name":"Mega Man Legends 3","steam_id":76561198014110199,"connected_time":405000000000,"state":"active","ping":45},{"user_id":246,"name":"Hotdogs","steam_id":76561199112737347,"connected_time":3210000000000,"state":"active","ping":69},{"user_id":259,"name":"Fat Pigeon","steam_id":76561198817940142,"connected_time":2538000000000,"state":"active","ping":51},{"user_id":284,"name":"The One (and only)","steam_id":76561198827193499,"connected_time":190000000000,"state":"active","ping":57},{"user_id":268,"name":"Rarky","steam_id":76561198054398642,"connected_time":1430000000000,"state":"active","ping":47},{"user_id":271,"name":"Bajas","steam_id":76561198179339326,"connected_time":578000000000,"state":"active","ping":75},{"user_id":269,"name":"Nittugai","steam_id":76561198067366462,"connected_time":1343000000000,"state":"active","ping":60},{"user_id":158,"name":"y0stErCix","steam_id":76561198219698192,"connected_time":9351000000000,"state":"active","ping":64},{"user_id":172,"name":"dumo dumo","steam_id":76561198346638308,"connected_time":8281000000000,"state":"active","ping":60},{"user_id":251,"name":"Silverbolt","steam_id":76561198153165763,"connected_time":2988000000000,"state":"active","ping":46},{"user_id":278,"name":"rrrrrrrrrrrrrrrrrrrrrrrRrrrrrrr","steam_id":76561199012566222,"connected_time":440000000000,"state":"active","ping":51},{"user_id":279,"name":"laido riteris","steam_id":76561199098499873,"connected_time":420000000000,"state":"active","ping":60},{"user_id":281,"name":"DRYG                           ","steam_id":76561197994299134,"connected_time":402000000000,"state":"active","ping":61},{"user_id":266,"name":"Udinese Dion","steam_id":76561198067931573,"connected_time":1828000000000,"state":"active","ping":60},{"user_id":270,"name":"the joy of recycling","steam_id":76561198138509827,"connected_time":673000000000,"state":"active","ping":73},{"user_id":282,"name":"panama papers","steam_id":76561198181368101,"connected_time":383000000000,"state":"active","ping":50},{"user_id":257,"name":"Catsanddogs123","steam_id":76561198030868386,"connected_time":2716000000000,"state":"active","ping":109},{"user_id":283,"name":"mülleimer überhitzene","steam_id":76561198174135981,"connected_time":326000000000,"state":"active","ping":45},{"user_id":265,"name":"yumyum","steam_id":76561198049405872,"connected_time":2017000000000,"state":"active","ping":45}]},{"server_id":110,"name":"Uncletopia | Frankfurt | 2 | All Maps","name_short":"frk-2","host":"frk-1.de.uncletopia.com","port":27025,"enabled":true,"region":"eu","cc":"de","latitude":50.110924,"longitude":8.682127,"reserved":0,"last_update":"0001-01-01T00:00:00Z","name_a2s":"Uncletopia | Frankfurt | 2 | All Maps","protocol":17,"map":"cp_mountainlab","folder":"tf","game":"Team Fortress","app_id":440,"player_count":24,"max_players":24,"Bots":0,"server_type":"Dedicated","server_os":"Linux","password":true,"vac":true,"version":"7961495","steam_id":85568392924469990,"keywords":["cp","nocrits","nodmgspread","uncletopia"],"game_id":440,"stv_port":27026,"stv_name":"Uncletopia | Frankfurt | 2 | All Maps | STV","players":[{"user_id":311,"name":"Kestrel","steam_id":76561198144033005,"connected_time":918000000000,"state":"active","ping":58},{"user_id":277,"name":"GGlut","steam_id":76561198034281473,"connected_time":3322000000000,"state":"active","ping":31},{"user_id":319,"name":"Dark Wizart","steam_id":76561198377689439,"connected_time":402000000000,"state":"active","ping":67},{"user_id":312,"name":"Uganda Warrior","steam_id":76561198120502313,"connected_time":732000000000,"state":"active","ping":58},{"user_id":320,"name":"DUCKMANBILL","steam_id":76561199384945021,"connected_time":395000000000,"state":"active","ping":75},{"user_id":318,"name":"ramko_","steam_id":76561198379753516,"connected_time":434000000000,"state":"active","ping":82},{"user_id":296,"name":"NOne","steam_id":76561198002359947,"connected_time":1787000000000,"state":"active","ping":75},{"user_id":321,"name":"tafelpoot","steam_id":76561198080036024,"connected_time":391000000000,"state":"active","ping":83},{"user_id":322,"name":"Lunarian","steam_id":76561198055811259,"connected_time":364000000000,"state":"active","ping":65},{"user_id":323,"name":"G_raff","steam_id":76561199048512726,"connected_time":288000000000,"state":"active","ping":73},{"user_id":292,"name":"Billy Herrington","steam_id":76561198205193503,"connected_time":2522000000000,"state":"active","ping":76},{"user_id":302,"name":"zelkkunomia","steam_id":76561198144048672,"connected_time":1397000000000,"state":"active","ping":82},{"user_id":223,"name":"Maslina","steam_id":76561198835126486,"connected_time":5812000000000,"state":"active","ping":75},{"user_id":317,"name":"Gros","steam_id":76561199146274228,"connected_time":493000000000,"state":"active","ping":77},{"user_id":327,"name":"Lizzie","steam_id":76561199134200785,"connected_time":203000000000,"state":"active","ping":47},{"user_id":325,"name":"NESS","steam_id":76561197995225318,"connected_time":209000000000,"state":"active","ping":62},{"user_id":329,"name":"Hoff","steam_id":76561198138540938,"connected_time":82000000000,"state":"active","ping":67},{"user_id":276,"name":"OMG IS THAT SPY FROM TF2?","steam_id":76561199291684647,"connected_time":3393000000000,"state":"active","ping":60},{"user_id":328,"name":"kinimon","steam_id":76561198178453270,"connected_time":129000000000,"state":"active","ping":53},{"user_id":289,"name":"Enjoyer","steam_id":76561198147399855,"connected_time":2621000000000,"state":"active","ping":126},{"user_id":310,"name":"Impusle_","steam_id":76561199001634963,"connected_time":967000000000,"state":"active","ping":54},{"user_id":313,"name":"KAZAM | Tervez","steam_id":76561198045459068,"connected_time":684000000000,"state":"active","ping":77},{"user_id":314,"name":"Milfshake","steam_id":76561198208740557,"connected_time":654000000000,"state":"active","ping":47},{"user_id":250,"name":"legalize glue","steam_id":76561198191369066,"connected_time":4599000000000,"state":"active","ping":104}]},{"server_id":308,"name":"Uncletopia | Frankfurt | 3 | All Maps","name_short":"frk-3","host":"frk-1.de.uncletopia.com","port":27035,"enabled":true,"region":"eu","cc":"de","latitude":50.110924,"longitude":8.682127,"reserved":0,"last_update":"0001-01-01T00:00:00Z","name_a2s":"Uncletopia | Frankfurt | 3 | All Maps","protocol":17,"map":"pl_borneo","folder":"tf","game":"Team Fortress","app_id":440,"player_count":0,"max_players":24,"Bots":0,"server_type":"Dedicated","server_os":"Linux","password":true,"vac":true,"version":"7961495","steam_id":85568392924504274,"keywords":["nocrits","nodmgspread","payload","uncletopia"],"game_id":440,"stv_port":27036,"stv_name":"Uncletopia | Frankfurt | 3 | All Maps | STV","players":null},{"server_id":309,"name":"Uncletopia | Frankfurt | 4 | All Maps","name_short":"frk-4","host":"frk-1.de.uncletopia.com","port":27045,"enabled":true,"region":"eu","cc":"de","latitude":50.110924,"longitude":8.682127,"reserved":0,"last_update":"0001-01-01T00:00:00Z","name_a2s":"Uncletopia | Frankfurt | 4 | All Maps","protocol":17,"map":"pl_badwater","folder":"tf","game":"Team Fortress","app_id":440,"player_count":24,"max_players":24,"Bots":0,"server_type":"Dedicated","server_os":"Linux","password":true,"vac":true,"version":"7961495","steam_id":85568392924504275,"keywords":["nocrits","nodmgspread","payload","uncletopia"],"game_id":440,"stv_port":27046,"stv_name":"Uncletopia | Frankfurt | 4 | All Maps | STV","players":[{"user_id":131,"name":"bady_3","steam_id":76561199030975778,"connected_time":1395000000000,"state":"active","ping":131},{"user_id":106,"name":"XPullaHiiri","steam_id":76561198031652375,"connected_time":2370000000000,"state":"active","ping":89},{"user_id":138,"name":"radek","steam_id":76561197998883721,"connected_time":342000000000,"state":"active","ping":62},{"user_id":132,"name":"Tanner Jarring","steam_id":76561198172024365,"connected_time":640000000000,"state":"active","ping":140},{"user_id":87,"name":"Pestilence","steam_id":76561198140938904,"connected_time":3471000000000,"state":"active","ping":53},{"user_id":121,"name":"Oasis","steam_id":76561198207659821,"connected_time":1983000000000,"state":"active","ping":90},{"user_id":124,"name":"mt","steam_id":76561197961319303,"connected_time":1870000000000,"state":"active","ping":53},{"user_id":127,"name":"Sicronici","steam_id":76561199054534566,"connected_time":1735000000000,"state":"active","ping":68},{"user_id":135,"name":"iq drops","steam_id":76561198035795130,"connected_time":499000000000,"state":"active","ping":56},{"user_id":139,"name":"LivEssense","steam_id":76561198052476979,"connected_time":330000000000,"state":"active","ping":75},{"user_id":133,"name":"GG riser","steam_id":76561198279621400,"connected_time":636000000000,"state":"active","ping":86},{"user_id":82,"name":"The Costandinos sup","steam_id":76561198314905760,"connected_time":3554000000000,"state":"active","ping":48},{"user_id":73,"name":"Commie Mommy","steam_id":76561198076230407,"connected_time":3936000000000,"state":"active","ping":64},{"user_id":103,"name":"Stegoratops","steam_id":76561198140306409,"connected_time":2729000000000,"state":"active","ping":44},{"user_id":112,"name":"DiscoTraveler","steam_id":76561199240168088,"connected_time":2319000000000,"state":"active","ping":118},{"user_id":60,"name":"Vazanoir","steam_id":76561198026693990,"connected_time":5345000000000,"state":"active","ping":47},{"user_id":126,"name":"StarDoc2222","steam_id":76561199389114520,"connected_time":1807000000000,"state":"active","ping":141},{"user_id":137,"name":"Xanics","steam_id":76561198187813929,"connected_time":483000000000,"state":"active","ping":61},{"user_id":62,"name":"Outer","steam_id":76561199085041734,"connected_time":4911000000000,"state":"active","ping":84},{"user_id":117,"name":"öööö✪","steam_id":76561198181645822,"connected_time":2249000000000,"state":"active","ping":75},{"user_id":95,"name":"Charon","steam_id":76561198061714753,"connected_time":3043000000000,"state":"active","ping":79},{"user_id":129,"name":"cockroach","steam_id":76561198841841656,"connected_time":1724000000000,"state":"active","ping":61},{"user_id":119,"name":"poovy","steam_id":76561198334992772,"connected_time":2121000000000,"state":"active","ping":91},{"user_id":100,"name":"Eleká","steam_id":76561198065697495,"connected_time":2868000000000,"state":"active","ping":86}]},{"server_id":310,"name":"Uncletopia | Frankfurt | 5 | All Maps","name_short":"frk-5","host":"frk-1.de.uncletopia.com","port":27055,"enabled":true,"region":"eu","cc":"de","latitude":50.110924,"longitude":8.682127,"reserved":0,"last_update":"0001-01-01T00:00:00Z","name_a2s":"Uncletopia | Frankfurt | 5 | All Maps","protocol":17,"map":"pl_upward","folder":"tf","game":"Team Fortress","app_id":440,"player_count":24,"max_players":24,"Bots":0,"server_type":"Dedicated","server_os":"Linux","password":true,"vac":true,"version":"7961495","steam_id":85568392924504277,"keywords":["nocrits","nodmgspread","payload","uncletopia"],"game_id":440,"stv_port":27056,"stv_name":"Uncletopia | Frankfurt | 5 | All Maps | STV","players":[{"user_id":88,"name":"TurnaJ","steam_id":76561198189223495,"connected_time":1664000000000,"state":"active","ping":67},{"user_id":77,"name":"D.T. Katze","steam_id":76561198002280813,"connected_time":2444000000000,"state":"active","ping":135},{"user_id":99,"name":"leadsquid","steam_id":76561198071544109,"connected_time":825000000000,"state":"active","ping":120},{"user_id":69,"name":"YMIR","steam_id":76561198968979836,"connected_time":3136000000000,"state":"active","ping":76},{"user_id":90,"name":"TheKees301","steam_id":76561198827506371,"connected_time":1608000000000,"state":"active","ping":81},{"user_id":72,"name":"SpcG","steam_id":76561198445287430,"connected_time":2629000000000,"state":"active","ping":81},{"user_id":91,"name":"SendBob","steam_id":76561198151981614,"connected_time":1568000000000,"state":"active","ping":76},{"user_id":101,"name":"miiq130","steam_id":76561198188010666,"connected_time":696000000000,"state":"active","ping":75},{"user_id":92,"name":"Valkatų Karalius","steam_id":76561198006254783,"connected_time":1536000000000,"state":"active","ping":68},{"user_id":96,"name":"Huskai","steam_id":76561198141512362,"connected_time":1095000000000,"state":"active","ping":57},{"user_id":93,"name":"carbuzz","steam_id":76561198129361580,"connected_time":1528000000000,"state":"active","ping":71},{"user_id":73,"name":"Vischan but worse","steam_id":76561199371650805,"connected_time":2599000000000,"state":"active","ping":78},{"user_id":74,"name":"an idiot","steam_id":76561198172542535,"connected_time":2591000000000,"state":"active","ping":68},{"user_id":98,"name":"Marty™","steam_id":76561198060073673,"connected_time":875000000000,"state":"active","ping":62},{"user_id":83,"name":"NaVi''Un1Soft''","steam_id":76561199059076097,"connected_time":1781000000000,"state":"active","ping":63},{"user_id":71,"name":"Crazy_Coconut7 #SaveTF2","steam_id":76561198977841836,"connected_time":2886000000000,"state":"active","ping":55},{"user_id":59,"name":"Javier dorsaless","steam_id":76561198179324075,"connected_time":3724000000000,"state":"active","ping":73},{"user_id":102,"name":"BRAZİL NÜMERUS UNO11","steam_id":76561199214163032,"connected_time":677000000000,"state":"active","ping":88},{"user_id":89,"name":"Sigsby","steam_id":76561198155116429,"connected_time":1647000000000,"state":"active","ping":77},{"user_id":97,"name":"Sex Update Lead Dev","steam_id":76561198041727213,"connected_time":994000000000,"state":"active","ping":55},{"user_id":95,"name":"mugshot","steam_id":76561198363841749,"connected_time":1488000000000,"state":"active","ping":69},{"user_id":68,"name":"Das K.","steam_id":76561198035461092,"connected_time":3215000000000,"state":"active","ping":52},{"user_id":52,"name":"The pisser","steam_id":76561198244153804,"connected_time":4113000000000,"state":"active","ping":67},{"user_id":80,"name":"Slap pik og strit hår","steam_id":76561198154913480,"connected_time":1992000000000,"state":"active","ping":60}]},{"server_id":311,"name":"Uncletopia | Frankfurt | 6 | All Maps","name_short":"frk-6","host":"frk-1.de.uncletopia.com","port":27065,"enabled":true,"region":"eu","cc":"de","latitude":50.110924,"longitude":8.682127,"reserved":0,"last_update":"0001-01-01T00:00:00Z","name_a2s":"Uncletopia | Frankfurt | 6 | All Maps","protocol":17,"map":"pl_snowycoast","folder":"tf","game":"Team Fortress","app_id":440,"player_count":24,"max_players":24,"Bots":0,"server_type":"Dedicated","server_os":"Linux","password":true,"vac":true,"version":"7961495","steam_id":85568392924504278,"keywords":["nocrits","nodmgspread","payload","uncletopia"],"game_id":440,"stv_port":27066,"stv_name":"Uncletopia | Frankfurt | 6 | All Maps | STV","players":[{"user_id":145,"name":"Thrashpanda","steam_id":76561198135429938,"connected_time":1113000000000,"state":"active","ping":49},{"user_id":138,"name":"The Creator Of Sex","steam_id":76561198385989487,"connected_time":1430000000000,"state":"active","ping":55},{"user_id":139,"name":"stepbro","steam_id":76561198119607160,"connected_time":1407000000000,"state":"active","ping":62},{"user_id":99,"name":"BORGETENNISCLUB","steam_id":76561198049343723,"connected_time":3899000000000,"state":"active","ping":62},{"user_id":159,"name":"Largo","steam_id":76561198844368927,"connected_time":519000000000,"state":"active","ping":83},{"user_id":146,"name":"Carter","steam_id":76561198005243938,"connected_time":1097000000000,"state":"active","ping":74},{"user_id":151,"name":"TemmZz","steam_id":76561199204183212,"connected_time":898000000000,"state":"active","ping":50},{"user_id":141,"name":"独り、一人ない","steam_id":76561199077022985,"connected_time":1331000000000,"state":"active","ping":84},{"user_id":95,"name":"Larry Penus","steam_id":76561198207546233,"connected_time":4265000000000,"state":"active","ping":56},{"user_id":156,"name":"TotallyRealRunarTvålfager™","steam_id":76561198018228013,"connected_time":632000000000,"state":"active","ping":60},{"user_id":154,"name":"Hexagon","steam_id":76561198151205758,"connected_time":803000000000,"state":"active","ping":51},{"user_id":134,"name":"medick","steam_id":76561199380849468,"connected_time":1636000000000,"state":"active","ping":71},{"user_id":142,"name":"UJAGaming","steam_id":76561198147959101,"connected_time":1318000000000,"state":"active","ping":85},{"user_id":157,"name":"quickfast","steam_id":76561199438900919,"connected_time":568000000000,"state":"active","ping":59},{"user_id":155,"name":"AbuMshMsh","steam_id":76561198291184871,"connected_time":761000000000,"state":"active","ping":119},{"user_id":161,"name":"DevilNeverCry200","steam_id":76561198203040245,"connected_time":289000000000,"state":"active","ping":75},{"user_id":131,"name":"lemming","steam_id":76561197986207693,"connected_time":1876000000000,"state":"active","ping":64},{"user_id":136,"name":"lulu","steam_id":76561199147764133,"connected_time":1474000000000,"state":"active","ping":65},{"user_id":162,"name":"TheJubo","steam_id":76561198050223306,"connected_time":213000000000,"state":"active","ping":69},{"user_id":150,"name":"southwest florida","steam_id":76561198049639319,"connected_time":975000000000,"state":"active","ping":75},{"user_id":160,"name":"Viv","steam_id":76561198199110998,"connected_time":420000000000,"state":"active","ping":74},{"user_id":133,"name":"DrZerg","steam_id":76561198071810495,"connected_time":1681000000000,"state":"active","ping":62},{"user_id":158,"name":"tame impala","steam_id":76561199085624224,"connected_time":559000000000,"state":"active","ping":70},{"user_id":114,"name":"Z VFQYRHFANTH","steam_id":76561198069530746,"connected_time":3187000000000,"state":"active","ping":154}]},{"server_id":23,"name":"Uncletopia | Frankfurt | 7 | Stopwatch","name_short":"frk-7","host":"frk-1.de.uncletopia.com","port":27075,"enabled":true,"region":"eu","cc":"de","latitude":50.110924,"longitude":8.682127,"reserved":0,"last_update":"0001-01-01T00:00:00Z","name_a2s":"Uncletopia | Frankfurt | 7 | Stopwatch","protocol":17,"map":"cp_granary","folder":"tf","game":"Team Fortress","app_id":440,"player_count":4,"max_players":24,"Bots":0,"server_type":"Dedicated","server_os":"Linux","password":true,"vac":true,"version":"7961495","steam_id":85568392924742827,"keywords":["cp","nocrits","nodmgspread","uncletopia"],"game_id":440,"stv_port":27076,"stv_name":"Uncletopia | Frankfurt | 7 | Stopwatch | STV","players":[{"user_id":10,"name":"Graham","steam_id":76561198062668942,"connected_time":952000000000,"state":"active","ping":45},{"user_id":11,"name":"PANAANI","steam_id":76561198322322739,"connected_time":798000000000,"state":"active","ping":82},{"user_id":12,"name":"Cream","steam_id":76561198204266952,"connected_time":289000000000,"state":"active","ping":108},{"user_id":13,"name":"Parko","steam_id":76561198869353375,"connected_time":200000000000,"state":"active","ping":61}]},{"server_id":24,"name":"Uncletopia | Frankfurt | 8 | Community","name_short":"frk-8","host":"frk-1.de.uncletopia.com","port":27085,"enabled":true,"region":"eu","cc":"de","latitude":50.110924,"longitude":8.682127,"reserved":0,"last_update":"0001-01-01T00:00:00Z","name_a2s":"Uncletopia | Frankfurt | 8 | Community","protocol":17,"map":"workshop/pl_boundary_final1.ugc456799153","folder":"tf","game":"Team Fortress","app_id":440,"player_count":0,"max_players":24,"Bots":0,"server_type":"Dedicated","server_os":"Linux","password":true,"vac":true,"version":"7961495","steam_id":85568392924742828,"keywords":["nocrits","nodmgspread","payload","uncletopia"],"game_id":440,"stv_port":27086,"stv_name":"Uncletopia | Frankfurt | 8 | Community | STV","players":null},{"server_id":202,"name":"Uncletopia | Hong Kong | 1 | All Maps","name_short":"hgk-1","host":"hgk-1.hk.uncletopia.com","port":27015,"enabled":true,"region":"asia","cc":"hk","latitude":22.302711,"longitude":114.177216,"reserved":0,"last_update":"0001-01-01T00:00:00Z","name_a2s":"Uncletopia | Hong Kong | 1 | All Maps","protocol":17,"map":"pl_badwater","folder":"tf","game":"Team Fortress","app_id":440,"player_count":24,"max_players":24,"Bots":0,"server_type":"Dedicated","server_os":"Linux","password":true,"vac":true,"version":"7961495","steam_id":85568392924494504,"keywords":["nocrits","nodmgspread","payload","uncletopia"],"game_id":440,"stv_port":27016,"stv_name":"Uncletopia | Hong Kong | 1 | All Maps | STV","players":[{"user_id":283,"name":"ryder","steam_id":76561198797699056,"connected_time":2312000000000,"state":"active","ping":93},{"user_id":253,"name":"Corn_Archer","steam_id":76561199185044554,"connected_time":4986000000000,"state":"active","ping":70},{"user_id":272,"name":"Just a Silly Cat","steam_id":76561198996443333,"connected_time":3376000000000,"state":"active","ping":76},{"user_id":303,"name":"Dokutah, Husband of W","steam_id":76561199273390091,"connected_time":89000000000,"state":"active","ping":72},{"user_id":262,"name":"Charling Chapli","steam_id":76561199120891678,"connected_time":4476000000000,"state":"active","ping":65},{"user_id":286,"name":"쿠키","steam_id":76561197997220367,"connected_time":1830000000000,"state":"active","ping":33},{"user_id":246,"name":"Averblu","steam_id":76561199480939609,"connected_time":5684000000000,"state":"active","ping":78},{"user_id":293,"name":"Vesha","steam_id":76561199208233146,"connected_time":1338000000000,"state":"active","ping":76},{"user_id":291,"name":"Lunacia","steam_id":76561198429887240,"connected_time":1803000000000,"state":"active","ping":70},{"user_id":252,"name":"Puddin","steam_id":76561198140052918,"connected_time":4993000000000,"state":"active","ping":91},{"user_id":281,"name":"⬞","steam_id":76561199373637717,"connected_time":2434000000000,"state":"active","ping":57},{"user_id":301,"name":"Momoxhien","steam_id":76561198414997429,"connected_time":109000000000,"state":"active","ping":64},{"user_id":296,"name":"Sijikcick","steam_id":76561199097679930,"connected_time":461000000000,"state":"active","ping":98},{"user_id":150,"name":"TomCat","steam_id":76561198133744053,"connected_time":13538000000000,"state":"active","ping":109},{"user_id":300,"name":"coral","steam_id":76561198046580378,"connected_time":111000000000,"state":"active","ping":56},{"user_id":289,"name":"spinach (old mouse)","steam_id":76561198042539541,"connected_time":1826000000000,"state":"active","ping":78},{"user_id":276,"name":"Tommy Vercetti","steam_id":76561198332470619,"connected_time":2654000000000,"state":"active","ping":150},{"user_id":240,"name":"AZAvixtion ඞ","steam_id":76561198175691381,"connected_time":6367000000000,"state":"active","ping":51},{"user_id":302,"name":"Jack The Dripper","steam_id":76561198338185850,"connected_time":108000000000,"state":"active","ping":152},{"user_id":285,"name":"Groggie","steam_id":76561199085200364,"connected_time":2186000000000,"state":"active","ping":50},{"user_id":248,"name":"StewBツ","steam_id":76561198131423270,"connected_time":5550000000000,"state":"active","ping":76},{"user_id":304,"name":"PawmKin","steam_id":76561198344175018,"connected_time":76000000000,"state":"active","ping":106},{"user_id":292,"name":"Ivy","steam_id":76561198400698408,"connected_time":1802000000000,"state":"active","ping":92},{"user_id":136,"name":"Impetus","steam_id":76561198213031155,"connected_time":15452000000000,"state":"active","ping":97}]},{"server_id":1,"name":"Uncletopia | Los Angeles | 1 | All Maps","name_short":"lax-1","host":"lax-1.us.uncletopia.com","port":27015,"enabled":true,"region":"us-west","cc":"us","latitude":33.94279,"longitude":-118.41004,"reserved":0,"last_update":"0001-01-01T00:00:00Z","name_a2s":"Uncletopia | Los Angeles | 1 | All Maps","protocol":17,"map":"cp_gorge","folder":"tf","game":"Team Fortress","app_id":440,"player_count":0,"max_players":24,"Bots":0,"server_type":"Dedicated","server_os":"Linux","password":true,"vac":true,"version":"7961495","steam_id":85568392924469991,"keywords":["cp","nocrits","nodmgspread","uncletopia"],"game_id":440,"stv_port":27016,"stv_name":"Uncletopia | Los Angeles | 1 | All Maps | STV","players":null},{"server_id":112,"name":"Uncletopia | Los Angeles | 2 | All Maps","name_short":"lax-2","host":"lax-1.us.uncletopia.com","port":27025,"enabled":true,"region":"us-west","cc":"us","latitude":33.94279,"longitude":-118.41004,"reserved":0,"last_update":"0001-01-01T00:00:00Z","name_a2s":"Uncletopia | Los Angeles | 2 | All Maps","protocol":17,"map":"koth_cascade","folder":"tf","game":"Team Fortress","app_id":440,"player_count":0,"max_players":24,"Bots":0,"server_type":"Dedicated","server_os":"Linux","password":true,"vac":true,"version":"7961495","steam_id":85568392924469992,"keywords":["cp","nocrits","nodmgspread","uncletopia"],"game_id":440,"stv_port":27026,"stv_name":"Uncletopia | Los Angeles | 2 | All Maps | STV","players":null},{"server_id":324,"name":"Uncletopia | Los Angeles | 3 | All Maps","name_short":"lax-3","host":"lax-1.us.uncletopia.com","port":27035,"enabled":true,"region":"us-west","cc":"us","latitude":33.94279,"longitude":-118.41004,"reserved":0,"last_update":"0001-01-01T00:00:00Z","name_a2s":"Uncletopia | Los Angeles | 3 | All Maps","protocol":17,"map":"pl_hoodoo_final","folder":"tf","game":"Team Fortress","app_id":440,"player_count":0,"max_players":24,"Bots":0,"server_type":"Dedicated","server_os":"Linux","password":true,"vac":true,"version":"7961495","steam_id":85568392924510198,"keywords":["nocrits","nodmgspread","payload","uncletopia"],"game_id":440,"stv_port":27036,"stv_name":"Uncletopia | Los Angeles | 3 | All Maps | STV","players":null},{"server_id":25,"name":"Uncletopia | Los Angeles | 4 | Stopwatch","name_short":"lax-4","host":"lax-1.us.uncletopia.com","port":27045,"enabled":true,"region":"us-west","cc":"us","latitude":33.94279,"longitude":-118.41004,"reserved":0,"last_update":"0001-01-01T00:00:00Z","name_a2s":"Uncletopia | Los Angeles | 4 | Stopwatch","protocol":17,"map":"pl_upward","folder":"tf","game":"Team Fortress","app_id":440,"player_count":0,"max_players":24,"Bots":0,"server_type":"Dedicated","server_os":"Linux","password":true,"vac":true,"version":"7961495","steam_id":85568392924510199,"keywords":["nocrits","nodmgspread","payload","uncletopia"],"game_id":440,"stv_port":27046,"stv_name":"Uncletopia | Los Angeles | 4 | Stopwatch | STV","players":null},{"server_id":11,"name":"Uncletopia | London | 1 | All Maps","name_short":"lon-1","host":"lon-1.uk.uncletopia.com","port":27015,"enabled":true,"region":"eu","cc":"gb","latitude":51.509865,"longitude":-0.118092,"reserved":0,"last_update":"0001-01-01T00:00:00Z","name_a2s":"Uncletopia | London | 1 | All Maps","protocol":17,"map":"koth_king","folder":"tf","game":"Team Fortress","app_id":440,"player_count":23,"max_players":24,"Bots":0,"server_type":"Dedicated","server_os":"Linux","password":true,"vac":true,"version":"7961495","steam_id":85568392924367362,"keywords":["cp","nocrits","nodmgspread","uncletopia"],"game_id":440,"stv_port":27016,"stv_name":"Uncletopia | London | 1 | All Maps | STV","players":[{"user_id":31,"name":" MyonMyonMyonMyonMyonMyon! ","steam_id":76561198271850252,"connected_time":3849000000000,"state":"active","ping":24},{"user_id":32,"name":"Marie ☘","steam_id":76561198105207050,"connected_time":3836000000000,"state":"active","ping":53},{"user_id":61,"name":"waahh im baby gugu gaga im cry","steam_id":76561198190583242,"connected_time":1899000000000,"state":"active","ping":94},{"user_id":67,"name":"Ullr","steam_id":76561198140547483,"connected_time":1477000000000,"state":"active","ping":38},{"user_id":41,"name":"LEPTON","steam_id":76561198160251713,"connected_time":2699000000000,"state":"active","ping":76},{"user_id":72,"name":"[DD] | Serial Designation N","steam_id":76561198445739792,"connected_time":580000000000,"state":"active","ping":116},{"user_id":43,"name":"sniper's kangaroo wife","steam_id":76561198334042273,"connected_time":2418000000000,"state":"active","ping":41},{"user_id":69,"name":"Purple Soup :D","steam_id":76561198985100366,"connected_time":1253000000000,"state":"active","ping":77},{"user_id":44,"name":"Gorgeous George","steam_id":76561198144256544,"connected_time":2393000000000,"state":"active","ping":47},{"user_id":45,"name":"hoza","steam_id":76561199115236634,"connected_time":2390000000000,"state":"active","ping":169},{"user_id":84,"name":"ExotiiC ☯","steam_id":76561198046149866,"connected_time":28000000000,"state":"active","ping":73},{"user_id":71,"name":"♡ Birdy ♡","steam_id":76561198139632682,"connected_time":671000000000,"state":"active","ping":83},{"user_id":82,"name":"golyama maïmuna","steam_id":76561198111807532,"connected_time":92000000000,"state":"active","ping":48},{"user_id":49,"name":"Twik","steam_id":76561198023835056,"connected_time":2233000000000,"state":"active","ping":64},{"user_id":62,"name":"Mono","steam_id":76561198114569493,"connected_time":1886000000000,"state":"active","ping":44},{"user_id":53,"name":"Bunzing 1ste klas","steam_id":76561198051685232,"connected_time":2164000000000,"state":"active","ping":46},{"user_id":65,"name":"bathroom tile sawing torture","steam_id":76561198043601838,"connected_time":1672000000000,"state":"active","ping":60},{"user_id":73,"name":"Vayribu","steam_id":76561198104353730,"connected_time":521000000000,"state":"active","ping":137},{"user_id":81,"name":"Teenontren","steam_id":76561198108543844,"connected_time":348000000000,"state":"active","ping":131},{"user_id":57,"name":"MPG(i have nut set on medic)","steam_id":76561199131610533,"connected_time":2041000000000,"state":"active","ping":85},{"user_id":70,"name":"Laru","steam_id":76561197998838438,"connected_time":985000000000,"state":"active","ping":82},{"user_id":64,"name":"Tomboy Mold","steam_id":76561198106455841,"connected_time":1845000000000,"state":"active","ping":60},{"user_id":78,"name":"Lenupera**","steam_id":76561198172960435,"connected_time":447000000000,"state":"active","ping":102}]},{"server_id":114,"name":"Uncletopia | London | 2 | All Maps","name_short":"lon-2","host":"lon-1.uk.uncletopia.com","port":27025,"enabled":true,"region":"eu","cc":"gb","latitude":51.509865,"longitude":-0.118092,"reserved":0,"last_update":"0001-01-01T00:00:00Z","name_a2s":"Uncletopia | London | 2 | All Maps","protocol":17,"map":"pl_upward","folder":"tf","game":"Team Fortress","app_id":440,"player_count":24,"max_players":24,"Bots":0,"server_type":"Dedicated","server_os":"Linux","password":true,"vac":true,"version":"7961495","steam_id":85568392924470941,"keywords":["nocrits","nodmgspread","payload","uncletopia"],"game_id":440,"stv_port":27026,"stv_name":"Uncletopia | London | 2 | All Maps | STV","players":[{"user_id":65,"name":"Charlie Brown","steam_id":76561199378865926,"connected_time":7177000000000,"state":"active","ping":129},{"user_id":149,"name":"Snazgrux","steam_id":76561198803330799,"connected_time":1928000000000,"state":"active","ping":108},{"user_id":169,"name":"Ellipsis","steam_id":76561198236630276,"connected_time":92000000000,"state":"spawning","ping":43},{"user_id":142,"name":"Zed","steam_id":76561198188643754,"connected_time":2627000000000,"state":"active","ping":80},{"user_id":90,"name":"Suolainen","steam_id":76561198133341026,"connected_time":5039000000000,"state":"active","ping":90},{"user_id":66,"name":"Wayan Vistar","steam_id":76561198354695464,"connected_time":7166000000000,"state":"active","ping":127},{"user_id":128,"name":"Zamorocian","steam_id":76561198076604017,"connected_time":3720000000000,"state":"active","ping":41},{"user_id":146,"name":"Hero + Rico","steam_id":76561198023844754,"connected_time":2400000000000,"state":"active","ping":60},{"user_id":148,"name":"romaingallo","steam_id":76561198268112907,"connected_time":2156000000000,"state":"active","ping":43},{"user_id":151,"name":"GM","steam_id":76561198014733498,"connected_time":1870000000000,"state":"active","ping":140},{"user_id":165,"name":"ImABush","steam_id":76561198304471896,"connected_time":508000000000,"state":"active","ping":60},{"user_id":139,"name":"Fearly","steam_id":76561198798684016,"connected_time":2861000000000,"state":"active","ping":53},{"user_id":143,"name":"❤Luna Bee❤","steam_id":76561199230209215,"connected_time":2593000000000,"state":"active","ping":46},{"user_id":156,"name":"Coincé entre deux nichons","steam_id":76561198000866783,"connected_time":1288000000000,"state":"active","ping":39},{"user_id":155,"name":"Jeryx","steam_id":76561197995602803,"connected_time":1561000000000,"state":"active","ping":47},{"user_id":166,"name":"Haha?","steam_id":76561198056882245,"connected_time":472000000000,"state":"active","ping":44},{"user_id":168,"name":"BOLAXA","steam_id":76561198228406008,"connected_time":110000000000,"state":"active","ping":76},{"user_id":164,"name":"cister0","steam_id":76561198130195469,"connected_time":776000000000,"state":"active","ping":61},{"user_id":158,"name":"SoaCrow","steam_id":76561198069420717,"connected_time":986000000000,"state":"active","ping":61},{"user_id":167,"name":"EricToGo","steam_id":76561198068019642,"connected_time":159000000000,"state":"active","ping":56},{"user_id":161,"name":"Fasj.","steam_id":76561198049975379,"connected_time":939000000000,"state":"active","ping":76},{"user_id":159,"name":"ⓅⓁⓈ | Pink Panther","steam_id":76561198046434381,"connected_time":984000000000,"state":"active","ping":50},{"user_id":153,"name":"ROX","steam_id":76561198272289320,"connected_time":1834000000000,"state":"active","ping":50},{"user_id":162,"name":"Princess Fuzz","steam_id":76561198025783000,"connected_time":936000000000,"state":"active","ping":44}]},{"server_id":320,"name":"Uncletopia | London | 3 | All Maps","name_short":"lon-3","host":"lon-1.uk.uncletopia.com","port":27035,"enabled":true,"region":"eu","cc":"gb","latitude":51.509865,"longitude":-0.118092,"reserved":0,"last_update":"0001-01-01T00:00:00Z","name_a2s":"Uncletopia | London | 3 | All Maps","protocol":17,"map":"cp_dustbowl","folder":"tf","game":"Team Fortress","app_id":440,"player_count":7,"max_players":24,"Bots":0,"server_type":"Dedicated","server_os":"Linux","password":true,"vac":true,"version":"7961495","steam_id":85568392924510192,"keywords":["cp","nocrits","nodmgspread","uncletopia"],"game_id":440,"stv_port":27036,"stv_name":"Uncletopia | London | 3 | All Maps | STV","players":[{"user_id":9,"name":"Speed C. Rapper","steam_id":76561198052088053,"connected_time":852000000000,"state":"active","ping":45},{"user_id":10,"name":"Memphis","steam_id":76561198045039038,"connected_time":842000000000,"state":"active","ping":82},{"user_id":12,"name":"Chaos_Sherzan","steam_id":76561198086749551,"connected_time":525000000000,"state":"active","ping":73},{"user_id":15,"name":"Docteur Galaxya","steam_id":76561198401231429,"connected_time":227000000000,"state":"active","ping":88},{"user_id":16,"name":"bigeon","steam_id":76561198078601337,"connected_time":168000000000,"state":"active","ping":87},{"user_id":17,"name":"Durin sein Vater","steam_id":76561198021246713,"connected_time":108000000000,"state":"active","ping":53},{"user_id":19,"name":"Marty Pants","steam_id":76561198004449634,"connected_time":10000000000,"state":"spawning","ping":99}]},{"server_id":321,"name":"Uncletopia | London | 4 | All Maps","name_short":"lon-4","host":"lon-1.uk.uncletopia.com","port":27045,"enabled":true,"region":"eu","cc":"gb","latitude":51.509865,"longitude":-0.118092,"reserved":0,"last_update":"0001-01-01T00:00:00Z","name_a2s":"Uncletopia | London | 4 | All Maps","protocol":17,"map":"cp_gorge","folder":"tf","game":"Team Fortress","app_id":440,"player_count":0,"max_players":24,"Bots":0,"server_type":"Dedicated","server_os":"Linux","password":true,"vac":true,"version":"7961495","steam_id":85568392924510193,"keywords":["cp","nocrits","nodmgspread","uncletopia"],"game_id":440,"stv_port":27046,"stv_name":"Uncletopia | London | 4 | All Maps | STV","players":null},{"server_id":21,"name":"Uncletopia | London | 5 | All Maps","name_short":"lon-5","host":"lon-1.uk.uncletopia.com","port":27055,"enabled":true,"region":"eu","cc":"gb","latitude":51.509865,"longitude":-0.118092,"reserved":0,"last_update":"0001-01-01T00:00:00Z","name_a2s":"Uncletopia | London | 5 | All Maps","protocol":17,"map":"koth_viaduct","folder":"tf","game":"Team Fortress","app_id":440,"player_count":24,"max_players":24,"Bots":0,"server_type":"Dedicated","server_os":"Linux","password":true,"vac":true,"version":"7961495","steam_id":85568392924742829,"keywords":["cp","nocrits","nodmgspread","uncletopia"],"game_id":440,"stv_port":27056,"stv_name":"Uncletopia | London | 5 | All Maps | STV","players":[{"user_id":295,"name":"ggwp","steam_id":76561199141037141,"connected_time":4330000000000,"state":"active","ping":78},{"user_id":348,"name":"Cook","steam_id":76561198066399032,"connected_time":1517000000000,"state":"active","ping":31},{"user_id":365,"name":"XxBenShapiro420xX","steam_id":76561199229373972,"connected_time":138000000000,"state":"active","ping":64},{"user_id":358,"name":"godmodule","steam_id":76561198165995444,"connected_time":950000000000,"state":"active","ping":75},{"user_id":282,"name":"jaipwgjkmasentpedoapinwhipkaw","steam_id":76561198046873337,"connected_time":4789000000000,"state":"active","ping":52},{"user_id":360,"name":"Jupes","steam_id":76561197989459160,"connected_time":761000000000,"state":"active","ping":57},{"user_id":350,"name":"Lessoz","steam_id":76561199211572036,"connected_time":1490000000000,"state":"active","ping":83},{"user_id":330,"name":"psu","steam_id":76561198094652091,"connected_time":2110000000000,"state":"active","ping":84},{"user_id":349,"name":"shlongy bongy","steam_id":76561198015876799,"connected_time":1503000000000,"state":"active","ping":74},{"user_id":323,"name":"soney","steam_id":76561198121177512,"connected_time":2258000000000,"state":"active","ping":52},{"user_id":363,"name":"walkin' around","steam_id":76561198212823269,"connected_time":409000000000,"state":"active","ping":91},{"user_id":337,"name":"dfcv rftgvb ghtb","steam_id":76561198397764042,"connected_time":1924000000000,"state":"active","ping":81},{"user_id":320,"name":"alibi","steam_id":76561198079490000,"connected_time":2288000000000,"state":"active","ping":56},{"user_id":343,"name":"Flying skyhigh","steam_id":76561198372971096,"connected_time":1761000000000,"state":"active","ping":85},{"user_id":362,"name":"Johnson","steam_id":76561199382978934,"connected_time":606000000000,"state":"active","ping":96},{"user_id":293,"name":"ShadowTwin","steam_id":76561198046658200,"connected_time":4343000000000,"state":"active","ping":44},{"user_id":354,"name":"AleXandriX","steam_id":76561198035203950,"connected_time":1158000000000,"state":"active","ping":66},{"user_id":336,"name":"Several geollos screaming","steam_id":76561198291326102,"connected_time":1966000000000,"state":"active","ping":47},{"user_id":324,"name":"The Mage","steam_id":76561198019147244,"connected_time":2228000000000,"state":"active","ping":75},{"user_id":359,"name":"Pofl","steam_id":76561197995110333,"connected_time":947000000000,"state":"active","ping":60},{"user_id":357,"name":"Thewhiteraven","steam_id":76561198196852659,"connected_time":1094000000000,"state":"active","ping":53},{"user_id":309,"name":"Akuma's Balls","steam_id":76561198030612444,"connected_time":2960000000000,"state":"active","ping":53},{"user_id":364,"name":"mısır gevreği","steam_id":76561199126899110,"connected_time":150000000000,"state":"active","ping":78},{"user_id":289,"name":"Welder","steam_id":76561198355300561,"connected_time":4722000000000,"state":"active","ping":72}]},{"server_id":22,"name":"Uncletopia | London | 6 | All Maps","name_short":"lon-6","host":"lon-1.uk.uncletopia.com","port":27065,"enabled":true,"region":"eu","cc":"gb","latitude":51.509865,"longitude":-0.118092,"reserved":0,"last_update":"0001-01-01T00:00:00Z","name_a2s":"Uncletopia | London | 6 | All Maps","protocol":17,"map":"cp_snakewater_final1","folder":"tf","game":"Team Fortress","app_id":440,"player_count":0,"max_players":24,"Bots":0,"server_type":"Dedicated","server_os":"Linux","password":true,"vac":true,"version":"7961495","steam_id":85568392924742830,"keywords":["cp","nocrits","nodmgspread","uncletopia"],"game_id":440,"stv_port":27066,"stv_name":"Uncletopia | London | 6 | All Maps | STV","players":null},{"server_id":40,"name":"Uncletopia | London | 7 | Stopwatch","name_short":"lon-7","host":"lon-1.uk.uncletopia.com","port":27075,"enabled":true,"region":"eu","cc":"gb","latitude":51.509865,"longitude":-0.118092,"reserved":0,"last_update":"0001-01-01T00:00:00Z","name_a2s":"Uncletopia | London | 7 | Stopwatch","protocol":17,"map":"workshop/pl_badwater_pro_v12.ugc2142942074","folder":"tf","game":"Team Fortress","app_id":440,"player_count":0,"max_players":24,"Bots":0,"server_type":"Dedicated","server_os":"Linux","password":true,"vac":true,"version":"7961495","steam_id":85568392924964314,"keywords":["nocrits","nodmgspread","payload","uncletopia"],"game_id":440,"stv_port":27076,"stv_name":"Uncletopia | London | 7 | Stopwatch | STV","players":null},{"server_id":41,"name":"Uncletopia | London | 8 | Community","name_short":"lon-8","host":"lon-1.uk.uncletopia.com","port":27085,"enabled":true,"region":"eu","cc":"gb","latitude":51.509865,"longitude":-0.118092,"reserved":0,"last_update":"0001-01-01T00:00:00Z","name_a2s":"Uncletopia | London | 8 | Community","protocol":17,"map":"workshop/pl_boundary_final1.ugc456799153","folder":"tf","game":"Team Fortress","app_id":440,"player_count":0,"max_players":24,"Bots":0,"server_type":"Dedicated","server_os":"Linux","password":true,"vac":true,"version":"7961495","steam_id":85568392924964315,"keywords":["nocrits","nodmgspread","payload","uncletopia"],"game_id":440,"stv_port":27086,"stv_name":"Uncletopia | London | 8 | Community | STV","players":null},{"server_id":300,"name":"Uncletopia | Montréal | 1 | One Thousand Uncles","name_short":"mtl-1","host":"mtl-1.ca.uncletopia.com","port":27015,"enabled":true,"region":"us-east","cc":"ca","latitude":45.50889,"longitude":-73.56167,"reserved":0,"last_update":"0001-01-01T00:00:00Z","name_a2s":"Uncletopia | Montréal | 1 | One Thousand Uncles","protocol":17,"map":"cp_mercenarypark","folder":"tf","game":"Team Fortress","app_id":440,"player_count":0,"max_players":32,"Bots":0,"server_type":"Dedicated","server_os":"Linux","password":true,"vac":true,"version":"7961495","steam_id":85568392924500087,"keywords":["alltalk","cp","danepve","increased_maxplayers","norespawntime","uncletopia"],"game_id":440,"stv_port":0,"stv_name":"","players":null},{"server_id":301,"name":"Uncletopia | Montréal | 2 | One Thousand Uncles","name_short":"mtl-2","host":"mtl-1.ca.uncletopia.com","port":27025,"enabled":true,"region":"us-east","cc":"ca","latitude":45.50889,"longitude":-73.56167,"reserved":0,"last_update":"0001-01-01T00:00:00Z","name_a2s":"Uncletopia | Montréal | 2 | One Thousand Uncles","protocol":17,"map":"pl_chilly","folder":"tf","game":"Team Fortress","app_id":440,"player_count":0,"max_players":32,"Bots":0,"server_type":"Dedicated","server_os":"Linux","password":true,"vac":true,"version":"7961495","steam_id":85568392924500088,"keywords":["alltalk","danepve","increased_maxplayers","norespawntime","payload","uncletopia"],"game_id":440,"stv_port":0,"stv_name":"","players":null},{"server_id":302,"name":"Uncletopia | Montréal | 3 | One Thousand Uncles","name_short":"mtl-3","host":"mtl-1.ca.uncletopia.com","port":27035,"enabled":true,"region":"us-east","cc":"ca","latitude":45.50889,"longitude":-73.56167,"reserved":0,"last_update":"0001-01-01T00:00:00Z","name_a2s":"Uncletopia | Montréal | 3 | One Thousand Uncles","protocol":17,"map":"pl_upward","folder":"tf","game":"Team Fortress","app_id":440,"player_count":0,"max_players":32,"Bots":0,"server_type":"Dedicated","server_os":"Linux","password":true,"vac":true,"version":"7961495","steam_id":85568392924500089,"keywords":["alltalk","danepve","increased_maxplayers","norespawntime","payload","uncletopia"],"game_id":440,"stv_port":0,"stv_name":"","players":null},{"server_id":13,"name":"Uncletopia | New York City | 1 | All Maps","name_short":"nyc-1","host":"nyc-1.us.uncletopia.com","port":27015,"enabled":true,"region":"us-east","cc":"us","latitude":40.73061,"longitude":-73.93524,"reserved":0,"last_update":"0001-01-01T00:00:00Z","name_a2s":"Uncletopia | New York City | 1 | All Maps","protocol":17,"map":"koth_brazil","folder":"tf","game":"Team Fortress","app_id":440,"player_count":0,"max_players":24,"Bots":0,"server_type":"Dedicated","server_os":"Linux","password":true,"vac":true,"version":"7961495","steam_id":85568392924469993,"keywords":["cp","nocrits","nodmgspread","uncletopia"],"game_id":440,"stv_port":27016,"stv_name":"Uncletopia | New York City | 1 | All Maps | STV","players":null},{"server_id":14,"name":"Uncletopia | New York City | 2 | All Maps","name_short":"nyc-2","host":"nyc-1.us.uncletopia.com","port":27025,"enabled":true,"region":"us-east","cc":"us","latitude":40.73061,"longitude":-73.93524,"reserved":0,"last_update":"0001-01-01T00:00:00Z","name_a2s":"Uncletopia | New York City | 2 | All Maps","protocol":17,"map":"koth_cascade","folder":"tf","game":"Team Fortress","app_id":440,"player_count":0,"max_players":24,"Bots":0,"server_type":"Dedicated","server_os":"Linux","password":true,"vac":true,"version":"7961495","steam_id":85568392924469994,"keywords":["cp","nocrits","nodmgspread","uncletopia"],"game_id":440,"stv_port":27026,"stv_name":"Uncletopia | New York City | 2 | All Maps | STV","players":null},{"server_id":15,"name":"Uncletopia | New York City | 3 | Stopwatch","name_short":"nyc-3","host":"nyc-1.us.uncletopia.com","port":27035,"enabled":true,"region":"us-east","cc":"us","latitude":40.73061,"longitude":-73.93524,"reserved":0,"last_update":"0001-01-01T00:00:00Z","name_a2s":"Uncletopia | New York City | 3 | Stopwatch","protocol":17,"map":"workshop/cp_reckoner_rc6.ugc674719999","folder":"tf","game":"Team Fortress","app_id":440,"player_count":0,"max_players":24,"Bots":0,"server_type":"Dedicated","server_os":"Linux","password":true,"vac":true,"version":"7961495","steam_id":85568392924742820,"keywords":["cp","nocrits","nodmgspread","uncletopia"],"game_id":440,"stv_port":27036,"stv_name":"Uncletopia | New York City | 3 | Stopwatch | STV","players":null},{"server_id":16,"name":"Uncletopia | New York City | 4 | Community","name_short":"nyc-4","host":"nyc-1.us.uncletopia.com","port":27045,"enabled":true,"region":"us-east","cc":"us","latitude":40.73061,"longitude":-73.93524,"reserved":0,"last_update":"0001-01-01T00:00:00Z","name_a2s":"Uncletopia | New York City | 4 | Community","protocol":17,"map":"workshop/cp_indulge.ugc528106646","folder":"tf","game":"Team Fortress","app_id":440,"player_count":0,"max_players":24,"Bots":0,"server_type":"Dedicated","server_os":"Linux","password":true,"vac":true,"version":"7961495","steam_id":85568392924742821,"keywords":["cp","nocrits","nodmgspread","uncletopia"],"game_id":440,"stv_port":27046,"stv_name":"Uncletopia | New York City | 4 | Community | STV","players":null},{"server_id":142,"name":"Uncletopia | São Paulo | 1 | All Maps","name_short":"sao-1","host":"sao-1.br.uncletopia.com","port":27015,"enabled":true,"region":"sa","cc":"br","latitude":-23.533773,"longitude":-46.62529,"reserved":0,"last_update":"0001-01-01T00:00:00Z","name_a2s":"Uncletopia | São Paulo | 1 | All Maps","protocol":17,"map":"cp_granary","folder":"tf","game":"Team Fortress","app_id":440,"player_count":0,"max_players":24,"Bots":0,"server_type":"Dedicated","server_os":"Linux","password":true,"vac":true,"version":"7961495","steam_id":85568392924469996,"keywords":["cp","nocrits","nodmgspread","uncletopia"],"game_id":440,"stv_port":27016,"stv_name":"Uncletopia | São Paulo | 1 | All Maps | STV","players":null},{"server_id":143,"name":"Uncletopia | São Paulo | 2 | Community","name_short":"sao-2","host":"sao-2.br.uncletopia.com","port":27015,"enabled":true,"region":"sa","cc":"br","latitude":-23.533773,"longitude":-46.62529,"reserved":0,"last_update":"0001-01-01T00:00:00Z","name_a2s":"Uncletopia | São Paulo | 2 | Community","protocol":17,"map":"workshop/cp_croissant_final.ugc458840209","folder":"tf","game":"Team Fortress","app_id":440,"player_count":0,"max_players":24,"Bots":0,"server_type":"Dedicated","server_os":"Linux","password":true,"vac":true,"version":"7961495","steam_id":85568392924485349,"keywords":["cp","nocrits","nodmgspread","uncletopia"],"game_id":440,"stv_port":27016,"stv_name":"Uncletopia | São Paulo | 2 | Community | STV","players":null},{"server_id":7,"name":"Uncletopia | Seattle | 1 | All Maps","name_short":"sea-1","host":"sea-1.us.uncletopia.com","port":27015,"enabled":true,"region":"us-west","cc":"us","latitude":47.608013,"longitude":-122.33517,"reserved":0,"last_update":"0001-01-01T00:00:00Z","name_a2s":"Uncletopia | Seattle | 1 | All Maps","protocol":17,"map":"koth_suijin","folder":"tf","game":"Team Fortress","app_id":440,"player_count":0,"max_players":24,"Bots":0,"server_type":"Dedicated","server_os":"Linux","password":true,"vac":true,"version":"7961495","steam_id":85568392924469997,"keywords":["cp","nocrits","nodmgspread","uncletopia"],"game_id":440,"stv_port":27016,"stv_name":"Uncletopia | Seattle | 1 | All Maps | STV","players":null},{"server_id":119,"name":"Uncletopia | Seattle | 2 | All Maps","name_short":"sea-2","host":"sea-1.us.uncletopia.com","port":27025,"enabled":true,"region":"us-west","cc":"us","latitude":47.608013,"longitude":-122.33517,"reserved":0,"last_update":"0001-01-01T00:00:00Z","name_a2s":"Uncletopia | Seattle | 2 | All Maps","protocol":17,"map":"koth_lakeside_final","folder":"tf","game":"Team Fortress","app_id":440,"player_count":0,"max_players":24,"Bots":0,"server_type":"Dedicated","server_os":"Linux","password":true,"vac":true,"version":"7961495","steam_id":85568392924469998,"keywords":["cp","nocrits","nodmgspread","uncletopia"],"game_id":440,"stv_port":27026,"stv_name":"Uncletopia | Seattle | 2 | All Maps | STV","players":null},{"server_id":406,"name":"Uncletopia | Seattle | 3 | Stopwatch","name_short":"sea-3","host":"sea-1.us.uncletopia.com","port":27035,"enabled":true,"region":"us-west","cc":"us","latitude":47.608013,"longitude":-122.33517,"reserved":0,"last_update":"0001-01-01T00:00:00Z","name_a2s":"Uncletopia | Seattle | 3 | Stopwatch","protocol":17,"map":"cp_gullywash_final1","folder":"tf","game":"Team Fortress","app_id":440,"player_count":0,"max_players":24,"Bots":0,"server_type":"Dedicated","server_os":"Linux","password":true,"vac":true,"version":"7961495","steam_id":85568392924515217,"keywords":["cp","nocrits","nodmgspread","uncletopia"],"game_id":440,"stv_port":27036,"stv_name":"Uncletopia | Seattle | 3 | Stopwatch | STV","players":null},{"server_id":17,"name":"Uncletopia | San Francisco | 1 | All Maps","name_short":"sfo-1","host":"sfo-1.us.uncletopia.com","port":27015,"enabled":true,"region":"us-west","cc":"us","latitude":37.77397,"longitude":-122.4313,"reserved":0,"last_update":"0001-01-01T00:00:00Z","name_a2s":"Uncletopia | San Francisco | 1 | All Maps","protocol":17,"map":"pl_pier","folder":"tf","game":"Team Fortress","app_id":440,"player_count":2,"max_players":24,"Bots":0,"server_type":"Dedicated","server_os":"Linux","password":true,"vac":true,"version":"7961495","steam_id":85568392924469999,"keywords":["nocrits","nodmgspread","payload","uncletopia"],"game_id":440,"stv_port":27016,"stv_name":"Uncletopia | San Francisco | 1 | All Maps | STV","players":[{"user_id":30,"name":"Chicken Gaming","steam_id":76561198976697705,"connected_time":1717000000000,"state":"active","ping":106},{"user_id":34,"name":"weeee!","steam_id":76561198105374054,"connected_time":222000000000,"state":"active","ping":67}]},{"server_id":18,"name":"Uncletopia | San Francisco | 2 | All Maps","name_short":"sfo-2","host":"sfo-1.us.uncletopia.com","port":27025,"enabled":true,"region":"us-west","cc":"us","latitude":37.77397,"longitude":-122.4313,"reserved":0,"last_update":"0001-01-01T00:00:00Z","name_a2s":"Uncletopia | San Francisco | 2 | All Maps","protocol":17,"map":"cp_freight_final1","folder":"tf","game":"Team Fortress","app_id":440,"player_count":0,"max_players":24,"Bots":0,"server_type":"Dedicated","server_os":"Linux","password":true,"vac":true,"version":"7961495","steam_id":85568392924470000,"keywords":["cp","nocrits","nodmgspread","uncletopia"],"game_id":440,"stv_port":27026,"stv_name":"Uncletopia | San Francisco | 2 | All Maps | STV","players":null},{"server_id":19,"name":"Uncletopia | San Francisco | 3 | Stopwatch","name_short":"sfo-3","host":"sfo-1.us.uncletopia.com","port":27035,"enabled":true,"region":"us-west","cc":"us","latitude":37.77397,"longitude":-122.4313,"reserved":0,"last_update":"0001-01-01T00:00:00Z","name_a2s":"Uncletopia | San Francisco | 3 | Stopwatch","protocol":17,"map":"workshop/koth_product_final.ugc454272353","folder":"tf","game":"Team Fortress","app_id":440,"player_count":0,"max_players":24,"Bots":0,"server_type":"Dedicated","server_os":"Linux","password":true,"vac":true,"version":"7961495","steam_id":85568392924742824,"keywords":["cp","nocrits","nodmgspread","uncletopia"],"game_id":440,"stv_port":27036,"stv_name":"Uncletopia | San Francisco | 3 | Stopwatch | STV","players":null},{"server_id":20,"name":"Uncletopia | San Francisco | 4 | Community","name_short":"sfo-4","host":"sfo-1.us.uncletopia.com","port":27045,"enabled":true,"region":"us-west","cc":"us","latitude":37.77397,"longitude":-122.4313,"reserved":0,"last_update":"0001-01-01T00:00:00Z","name_a2s":"Uncletopia | San Francisco | 4 | Community","protocol":17,"map":"workshop/pl_cactuscanyon_redux_final2.ugc2579644293","folder":"tf","game":"Team Fortress","app_id":440,"player_count":2,"max_players":24,"Bots":0,"server_type":"Dedicated","server_os":"Linux","password":true,"vac":true,"version":"7961495","steam_id":85568392924742826,"keywords":["nocrits","nodmgspread","payload","uncletopia"],"game_id":440,"stv_port":27046,"stv_name":"Uncletopia | San Francisco | 4 | Community | STV","players":[{"user_id":4,"name":"Moondrop","steam_id":76561199421181719,"connected_time":533000000000,"state":"active","ping":199},{"user_id":5,"name":"Bobletoob","steam_id":76561199184464900,"connected_time":323000000000,"state":"active","ping":54}]},{"server_id":141,"name":"Uncletopia | Sydney | 1 | All Maps","name_short":"syd-1","host":"syd-1.au.uncletopia.com","port":27015,"enabled":true,"region":"au","cc":"au","latitude":-33.865143,"longitude":151.2099,"reserved":0,"last_update":"0001-01-01T00:00:00Z","name_a2s":"Uncletopia | Sydney | 1 | All Maps","protocol":17,"map":"koth_lakeside_final","folder":"tf","game":"Team Fortress","app_id":440,"player_count":0,"max_players":24,"Bots":0,"server_type":"Dedicated","server_os":"Linux","password":true,"vac":true,"version":"7961495","steam_id":85568392924470001,"keywords":["cp","nocrits","nodmgspread","uncletopia"],"game_id":440,"stv_port":27016,"stv_name":"Uncletopia | Sydney | 1 | All Maps | STV","players":null},{"server_id":123,"name":"Uncletopia | Sydney | 2 | All Maps","name_short":"syd-2","host":"syd-1.au.uncletopia.com","port":27025,"enabled":true,"region":"au","cc":"au","latitude":-33.865143,"longitude":151.2099,"reserved":0,"last_update":"0001-01-01T00:00:00Z","name_a2s":"Uncletopia | Sydney | 2 | All Maps","protocol":17,"map":"koth_cascade","folder":"tf","game":"Team Fortress","app_id":440,"player_count":17,"max_players":24,"Bots":0,"server_type":"Dedicated","server_os":"Linux","password":true,"vac":true,"version":"7961495","steam_id":85568392924470002,"keywords":["cp","nocrits","nodmgspread","uncletopia"],"game_id":440,"stv_port":27026,"stv_name":"Uncletopia | Sydney | 2 | All Maps | STV","players":[{"user_id":313,"name":"Malphas","steam_id":76561198011425371,"connected_time":439000000000,"state":"active","ping":53},{"user_id":305,"name":"doctor morbin' (official)","steam_id":76561199365241695,"connected_time":1092000000000,"state":"active","ping":129},{"user_id":314,"name":"Dragon","steam_id":76561199157719883,"connected_time":300000000000,"state":"active","ping":150},{"user_id":292,"name":"{Azura Sarah}","steam_id":76561197989210208,"connected_time":1918000000000,"state":"active","ping":45},{"user_id":293,"name":"LightningBlock","steam_id":76561198289997742,"connected_time":1892000000000,"state":"active","ping":31},{"user_id":294,"name":"Spellstutter","steam_id":76561198046620609,"connected_time":1862000000000,"state":"active","ping":31},{"user_id":260,"name":"\u003e\u003e==iPwn2plox==\u003e","steam_id":76561198082871536,"connected_time":3908000000000,"state":"active","ping":57},{"user_id":312,"name":"Kaz","steam_id":76561198055359903,"connected_time":698000000000,"state":"active","ping":60},{"user_id":308,"name":"azeroy","steam_id":76561198130748094,"connected_time":822000000000,"state":"active","ping":57},{"user_id":277,"name":"Sinister80s","steam_id":76561198343540472,"connected_time":2748000000000,"state":"active","ping":65},{"user_id":309,"name":"Cup","steam_id":76561199139390996,"connected_time":816000000000,"state":"active","ping":166},{"user_id":304,"name":"Nackle","steam_id":76561198176111621,"connected_time":1263000000000,"state":"active","ping":170},{"user_id":310,"name":"thedunerat","steam_id":76561198123919592,"connected_time":801000000000,"state":"active","ping":101},{"user_id":299,"name":"Mac","steam_id":76561198063407128,"connected_time":1791000000000,"state":"active","ping":45},{"user_id":270,"name":"Contrakt","steam_id":76561198023280809,"connected_time":3438000000000,"state":"active","ping":58},{"user_id":303,"name":"Distilledrain41","steam_id":76561198272717119,"connected_time":1336000000000,"state":"active","ping":46},{"user_id":300,"name":"Seal Sultan","steam_id":76561198154214426,"connected_time":1754000000000,"state":"active","ping":39}]},{"server_id":395,"name":"Uncletopia | Sydney | 3 | All Maps","name_short":"syd-3","host":"syd-1.au.uncletopia.com","port":27035,"enabled":true,"region":"au","cc":"au","latitude":-33.865143,"longitude":151.2099,"reserved":0,"last_update":"0001-01-01T00:00:00Z","name_a2s":"Uncletopia | Sydney | 3 | All Maps","protocol":17,"map":"pl_frontier_final","folder":"tf","game":"Team Fortress","app_id":440,"player_count":0,"max_players":24,"Bots":0,"server_type":"Dedicated","server_os":"Linux","password":true,"vac":true,"version":"7961495","steam_id":85568392925194467,"keywords":["nocrits","nodmgspread","payload","uncletopia"],"game_id":440,"stv_port":27036,"stv_name":"Uncletopia | Sydney | 3 | All Maps | STV","players":null},{"server_id":396,"name":"Uncletopia | Sydney | 4 | All Maps","name_short":"syd-4","host":"syd-1.au.uncletopia.com","port":27045,"enabled":true,"region":"au","cc":"au","latitude":-33.865143,"longitude":151.2099,"reserved":0,"last_update":"0001-01-01T00:00:00Z","name_a2s":"Uncletopia | Sydney | 4 | All Maps","protocol":17,"map":"koth_cascade","folder":"tf","game":"Team Fortress","app_id":440,"player_count":0,"max_players":24,"Bots":0,"server_type":"Dedicated","server_os":"Linux","password":true,"vac":true,"version":"7961495","steam_id":85568392925397958,"keywords":["cp","nocrits","nodmgspread","uncletopia"],"game_id":440,"stv_port":27046,"stv_name":"Uncletopia | Sydney | 4 | All Maps | STV","players":null},{"server_id":58,"name":"Uncletopia | Sydney | 5 | Stopwatch","name_short":"syd-5","host":"syd-1.au.uncletopia.com","port":27055,"enabled":true,"region":"au","cc":"au","latitude":-33.865143,"longitude":151.2099,"reserved":0,"last_update":"0001-01-01T00:00:00Z","name_a2s":"Uncletopia | Sydney | 5 | Stopwatch","protocol":17,"map":"workshop/cp_reckoner_rc6.ugc674719999","folder":"tf","game":"Team Fortress","app_id":440,"player_count":0,"max_players":24,"Bots":0,"server_type":"Dedicated","server_os":"Linux","password":true,"vac":true,"version":"7961495","steam_id":85568392925397959,"keywords":["cp","nocrits","nodmgspread","uncletopia"],"game_id":440,"stv_port":27056,"stv_name":"Uncletopia | Sydney | 5 | Stopwatch | STV","players":null},{"server_id":59,"name":"Uncletopia | Sydney | 6 | Community","name_short":"syd-6","host":"syd-1.au.uncletopia.com","port":27065,"enabled":true,"region":"au","cc":"au","latitude":-33.865143,"longitude":151.2099,"reserved":0,"last_update":"0001-01-01T00:00:00Z","name_a2s":"Uncletopia | Sydney | 6 | Community","protocol":17,"map":"workshop/pl_shoreleave_rc2.ugc1238849347","folder":"tf","game":"Team Fortress","app_id":440,"player_count":0,"max_players":24,"Bots":0,"server_type":"Dedicated","server_os":"Linux","password":true,"vac":true,"version":"7961495","steam_id":85568392925397960,"keywords":["nocrits","nodmgspread","payload","uncletopia"],"game_id":440,"stv_port":27066,"stv_name":"Uncletopia | Sydney | 6 | Community | STV","players":null},{"server_id":49,"name":"Uncletopia | Warsaw | 1 | One Thousand Uncles","name_short":"waw-1","host":"waw-1.pl.uncletopia.com","port":27015,"enabled":true,"region":"eu","cc":"pl","latitude":52.2297,"longitude":21.017532,"reserved":0,"last_update":"0001-01-01T00:00:00Z","name_a2s":"Uncletopia | Warsaw | 1 | One Thousand Uncles","protocol":17,"map":"cp_dustbowl","folder":"tf","game":"Team Fortress","app_id":440,"player_count":26,"max_players":32,"Bots":16,"server_type":"Dedicated","server_os":"Linux","password":true,"vac":true,"version":"7961495","steam_id":85568392925397850,"keywords":["alltalk","bots","cp","danepve","increased_maxplayers","norespawntime","uncletopia"],"game_id":440,"stv_port":0,"stv_name":"","players":[{"user_id":277,"name":"Senpaiツ","steam_id":76561198857611627,"connected_time":6617000000000,"state":"active","ping":89},{"user_id":361,"name":"ZharMeny","steam_id":76561199086841610,"connected_time":1015000000000,"state":"active","ping":107},{"user_id":371,"name":"YoshiFan8086","steam_id":76561199189321898,"connected_time":3000000000,"state":"spawning","ping":314},{"user_id":330,"name":"海超人","steam_id":76561199169553351,"connected_time":2543000000000,"state":"active","ping":330},{"user_id":325,"name":"DevFish","steam_id":76561199010456751,"connected_time":2800000000000,"state":"active","ping":69},{"user_id":338,"name":"RubyRifle57","steam_id":76561199429448022,"connected_time":2024000000000,"state":"active","ping":115},{"user_id":360,"name":"Nochimo","steam_id":76561199508647757,"connected_time":1402000000000,"state":"active","ping":90},{"user_id":328,"name":"lisivi","steam_id":76561198365503306,"connected_time":2639000000000,"state":"active","ping":68},{"user_id":303,"name":"señor bogdan","steam_id":76561199282819043,"connected_time":4133000000000,"state":"active","ping":117},{"user_id":308,"name":"barman4you","steam_id":76561198315922012,"connected_time":3737000000000,"state":"active","ping":44}]},{"server_id":50,"name":"Uncletopia | Warsaw | 2 | One Thousand Uncles","name_short":"waw-2","host":"waw-1.pl.uncletopia.com","port":27025,"enabled":true,"region":"eu","cc":"pl","latitude":52.2297,"longitude":21.017532,"reserved":0,"last_update":"0001-01-01T00:00:00Z","name_a2s":"Uncletopia | Warsaw | 2 | One Thousand Uncles","protocol":17,"map":"cp_egypt_final","folder":"tf","game":"Team Fortress","app_id":440,"player_count":17,"max_players":32,"Bots":16,"server_type":"Dedicated","server_os":"Linux","password":true,"vac":true,"version":"7961495","steam_id":85568392925397851,"keywords":["alltalk","bots","cp","danepve","increased_maxplayers","norespawntime","uncletopia"],"game_id":440,"stv_port":0,"stv_name":"","players":[{"user_id":39,"name":"kovajatkaolevinaan","steam_id":76561199471146687,"connected_time":508000000000,"state":"active","ping":79}]},{"server_id":51,"name":"Uncletopia | Warsaw | 3 | All Maps","name_short":"waw-3","host":"waw-1.pl.uncletopia.com","port":27035,"enabled":true,"region":"eu","cc":"pl","latitude":52.2297,"longitude":21.017532,"reserved":0,"last_update":"0001-01-01T00:00:00Z","name_a2s":"Uncletopia | Warsaw | 3 | All Maps","protocol":17,"map":"pl_snowycoast","folder":"tf","game":"Team Fortress","app_id":440,"player_count":0,"max_players":24,"Bots":0,"server_type":"Dedicated","server_os":"Linux","password":true,"vac":true,"version":"7961495","steam_id":85568392925397852,"keywords":["nocrits","nodmgspread","payload","uncletopia"],"game_id":440,"stv_port":27036,"stv_name":"Uncletopia | Warsaw | 3 | All Maps | STV","players":null},{"server_id":52,"name":"Uncletopia | Warsaw | 4 | All Maps","name_short":"waw-4","host":"waw-1.pl.uncletopia.com","port":27045,"enabled":true,"region":"eu","cc":"pl","latitude":52.2297,"longitude":21.017532,"reserved":0,"last_update":"0001-01-01T00:00:00Z","name_a2s":"Uncletopia | Warsaw | 4 | All Maps","protocol":17,"map":"cp_altitude","folder":"tf","game":"Team Fortress","app_id":440,"player_count":0,"max_players":24,"Bots":0,"server_type":"Dedicated","server_os":"Linux","password":true,"vac":true,"version":"7961495","steam_id":85568392925397853,"keywords":["cp","nocrits","nodmgspread","uncletopia"],"game_id":440,"stv_port":27046,"stv_name":"Uncletopia | Warsaw | 4 | All Maps | STV","players":null},{"server_id":53,"name":"Uncletopia | Warsaw | 5 | Stopwatch","name_short":"waw-5","host":"waw-1.pl.uncletopia.com","port":27055,"enabled":true,"region":"eu","cc":"pl","latitude":52.2297,"longitude":21.017532,"reserved":0,"last_update":"0001-01-01T00:00:00Z","name_a2s":"Uncletopia | Warsaw | 5 | Stopwatch","protocol":17,"map":"pl_upward","folder":"tf","game":"Team Fortress","app_id":440,"player_count":0,"max_players":24,"Bots":0,"server_type":"Dedicated","server_os":"Linux","password":true,"vac":true,"version":"7961495","steam_id":85568392925397854,"keywords":["nocrits","nodmgspread","payload","uncletopia"],"game_id":440,"stv_port":27056,"stv_name":"Uncletopia | Warsaw | 5 | Stopwatch | STV","players":null},{"server_id":54,"name":"Uncletopia | Warsaw | 6 | Community","name_short":"waw-6","host":"waw-1.pl.uncletopia.com","port":27065,"enabled":true,"region":"eu","cc":"pl","latitude":52.2297,"longitude":21.017532,"reserved":0,"last_update":"0001-01-01T00:00:00Z","name_a2s":"Uncletopia | Warsaw | 6 | Community","protocol":17,"map":"workshop/cp_fulgur_rc2a.ugc2068252300","folder":"tf","game":"Team Fortress","app_id":440,"player_count":0,"max_players":24,"Bots":0,"server_type":"Dedicated","server_os":"Linux","password":true,"vac":true,"version":"7961495","steam_id":85568392925397856,"keywords":["cp","nocrits","nodmgspread","uncletopia"],"game_id":440,"stv_port":27066,"stv_name":"Uncletopia | Warsaw | 6 | Community | STV","players":null}]}