{"status":true,"message":"","result":[{"server_id":9,"name":"Uncletopia | Atlanta | 1 | All Maps","name_short":"atl-1","host":"atl-1.us.uncletopia.com","port":27015,"enabled":true,"region":"us-east","cc":"us","latitude":33.753746,"longitude":-84.38633,"reserved":0,"last_update":"0001-01-01T00:00:00Z","name_a2s":"Uncletopia | Atlanta | 1 | All Maps","protocol":17,"map":"koth_lakeside_final","folder":"tf","game":"Team Fortress","app_id":440,"player_count":24,"max_players":24,"Bots":0,"server_type":"Dedicated","server_os":"Linux","password":true,"vac":true,"version":"7961495","steam_id":85568392924469982,"keywords":["cp","nocrits","nodmgspread","uncletopia"],"game_id":440,"stv_port":27016,"stv_name":"Uncletopia | Atlanta | 1 | All Maps | STV","players":[{"user_id":5,"name":"Typh","steam_id":76561198315344079,"connected_time":2396000000000,"state":"active","ping":56},{"user_id":6,"name":"bleach65","steam_id":76561198115270571,"connected_time":2113000000000,"state":"active","ping":83},{"user_id":15,"name":"SAntOrGrav","steam_id":76561199444957686,"connected_time":1248000000000,"state":"active","ping":143},{"user_id":12,"name":"Porgie","steam_id":76561198336480370,"connected_time":1366000000000,"state":"active","ping":87},{"user_id":44,"name":"Mr. Call You Back","steam_id":76561198025172811,"connected_time":119000000000,"state":"active","ping":62},{"user_id":13,"name":"squaggles!","steam_id":76561197994995011,"connected_time":1303000000000,"state":"active","ping":30},{"user_id":18,"name":"101_the_Robot","steam_id":76561198331039848,"connected_time":982000000000,"state":"active","ping":134},{"user_id":17,"name":"Bean King","steam_id":76561198393621940,"connected_time":1005000000000,"state":"active","ping":45},{"user_id":25,"name":"Zelumie","steam_id":76561198147335801,"connected_time":561000000000,"state":"active","ping":72},{"user_id":39,"name":"ewp","steam_id":76561199148289271,"connected_time":279000000000,"state":"active","ping":99},{"user_id":22,"name":"AidenSpot","steam_id":76561198324152195,"connected_time":728000000000,"state":"active","ping":86},{"user_id":23,"name":"teehee","steam_id":76561198951757118,"connected_time":706000000000,"state":"active","ping":77},{"user_id":26,"name":"hoOmIN","steam_id":76561198334947079,"connected_time":559000000000,"state":"active","ping":92},{"user_id":27,"name":"Listerine 234","steam_id":76561199211673194,"connected_time":542000000000,"state":"active","ping":126},{"user_id":28,"name":"lucky","steam_id":76561198323426623,"connected_time":540000000000,"state":"active","ping":84},{"user_id":42,"name":"artichoke","steam_id":76561198980994364,"connected_time":231000000000,"state":"active","ping":89},{"user_id":43,"name":"dingus deluxe","steam_id":76561198834355366,"connected_time":193000000000,"state":"active","ping":69},{"user_id":31,"name":"I haven't left my room in 4 day","steam_id":76561199243489976,"connected_time":523000000000,"state":"active","ping":139},{"user_id":32,"name":"andyiscolorless","steam_id":76561199239870921,"connected_time":510000000000,"state":"active","ping":141},{"user_id":33,"name":"the keebler","steam_id":76561199486326945,"connected_time":479000000000,"state":"active","ping":56},{"user_id":34,"name":"cajun thotsauce","steam_id":76561198101636066,"connected_time":472000000000,"state":"active","ping":98},{"user_id":38,"name":"bear","steam_id":76561198313696546,"connected_time":320000000000,"state":"active","ping":179},{"user_id":36,"name":"Watch where you swings at me","steam_id":76561198000001593,"connected_time":445000000000,"state":"active","ping":132},{"user_id":37,"name":"B?PN","steam_id":76561198330392105,"connected_time":419000000000,"state":"active","ping":97}]},{"server_id":104,"name":"Uncletopia | Atlanta | 2 | All Maps","name_short":"atl-2","host":"atl-1.us.uncletopia.com","port":27025,"enabled":true,"region":"us-east","cc":"us","latitude":33.753746,"longitude":-84.38633,"reserved":0,"last_update":"0001-01-01T00:00:00Z","name_a2s":"Uncletopia | Atlanta | 2 | All Maps","protocol":17,"map":"koth_cascade","folder":"tf","game":"Team Fortress","app_id":440,"player_count":0,"max_players":24,"Bots":0,"server_type":"Dedicated","server_os":"Linux","password":true,"vac":true,"version":"7961495","steam_id":85568392924469983,"keywords":["cp","nocrits","nodmgspread","uncletopia"],"game_id":440,"stv_port":27026,"stv_name":"Uncletopia | Atlanta | 2 | All Maps | STV","players":null},{"server_id":400,"name":"Uncletopia | Atlanta | 3 | Stopwatch","name_short":"atl-3","host":"atl-1.us.uncletopia.com","port":27035,"enabled":true,"region":"us-east","cc":"us","latitude":33.753746,"longitude":-84.38633,"reserved":0,"last_update":"0001-01-01T00:00:00Z","name_a2s":"Uncletopia | Atlanta | 3 | Stopwatch","protocol":17,"map":"pl_badwater","folder":"tf","game":"Team Fortress","app_id":440,"player_count":0,"max_players":24,"Bots":0,"server_type":"Dedicated","server_os":"Linux","password":true,"vac":true,"version":"7961495","steam_id":85568392924515187,"keywords":["nocrits","nodmgspread","payload","uncletopia"],"game_id":440,"stv_port":27036,"stv_name":"Uncletopia | Atlanta | 3 | Stopwatch | STV","players":null},{"server_id":401,"name":"Uncletopia | Atlanta | 4 | Community","name_short":"atl-4","host":"atl-1.us.uncletopia.com","port":27045,"enabled":true,"region":"us-east","cc":"us","latitude":33.753746,"longitude":-84.38633,"reserved":0,"last_update":"0001-01-01T00:00:00Z","name_a2s":"Uncletopia | Atlanta | 4 | Community","protocol":17,"map":"workshop/koth_bagel_rc6.ugc2514036946","folder":"tf","game":"Team Fortress","app_id":440,"player_count":1,"max_players":24,"Bots":0,"server_type":"Dedicated","server_os":"Linux","password":true,"vac":true,"version":"7961495","steam_id":85568392924515188,"keywords":["cp","nocrits","nodmgspread","uncletopia"],"game_id":440,"stv_port":27046,"stv_name":"Uncletopia | Atlanta | 4 | Community | STV","players":[{"user_id":5,"name":"soccercart00","steam_id":76561198289516405,"connected_time":29000000000,"state":"spawning","ping":83}]},{"server_id":2,"name":"Uncletopia | Chicago | 1 | All Maps","name_short":"chi-1","host":"chi-1.us.uncletopia.com","port":27015,"enabled":true,"region":"us-central","cc":"us","latitude":41.881832,"longitude":-87.62318,"reserved":0,"last_update":"0001-01-01T00:00:00Z","name_a2s":"Uncletopia | Chicago | 1 | All Maps","protocol":17,"map":"cp_process_final","folder":"tf","game":"Team Fortress","app_id":440,"player_count":24,"max_players":24,"Bots":0,"server_type":"Dedicated","server_os":"Linux","password":true,"vac":true,"version":"7961495","steam_id":85568392924469984,"keywords":["cp","nocrits","nodmgspread","uncletopia"],"game_id":440,"stv_port":27016,"stv_name":"Uncletopia | Chicago | 1 | All Maps | STV","players":[{"user_id":14,"name":"the swarm","steam_id":76561199118569153,"connected_time":5461000000000,"state":"active","ping":54},{"user_id":66,"name":"DuckKey","steam_id":76561198904477889,"connected_time":1132000000000,"state":"active","ping":60},{"user_id":56,"name":"robe","steam_id":76561198238166694,"connected_time":2282000000000,"state":"active","ping":49},{"user_id":17,"name":"HOLY SHIT ITS TITTY LAND!!!!!!","steam_id":76561199389283507,"connected_time":4820000000000,"state":"active","ping":70},{"user_id":69,"name":"Grify","steam_id":76561198012292317,"connected_time":336000000000,"state":"active","ping":86},{"user_id":22,"name":"JustADuck","steam_id":76561198311260943,"connected_time":4282000000000,"state":"active","ping":74},{"user_id":70,"name":"sneakyflamingo","steam_id":76561199093026056,"connected_time":308000000000,"state":"active","ping":69},{"user_id":59,"name":"Spectre","steam_id":76561198037535169,"connected_time":2187000000000,"state":"active","ping":76},{"user_id":71,"name":"Onion","steam_id":76561197993583701,"connected_time":305000000000,"state":"active","ping":69},{"user_id":26,"name":"Re-Loaded_Game","steam_id":76561199097136515,"connected_time":4184000000000,"state":"active","ping":126},{"user_id":72,"name":"TheTeethMeister","steam_id":76561199063772434,"connected_time":281000000000,"state":"active","ping":69},{"user_id":64,"name":"andrewthenelson","steam_id":76561199468895050,"connected_time":1230000000000,"state":"active","ping":76},{"user_id":61,"name":"BabyPunter","steam_id":76561199443211026,"connected_time":2078000000000,"state":"active","ping":68},{"user_id":73,"name":"gayest MF DOOM fan","steam_id":76561198065801979,"connected_time":266000000000,"state":"active","ping":76},{"user_id":31,"name":"Beans","steam_id":76561198960131934,"connected_time":4149000000000,"state":"active","ping":124},{"user_id":74,"name":"Dan!","steam_id":76561199126958455,"connected_time":264000000000,"state":"active","ping":95},{"user_id":48,"name":"HARRY B HOLE","steam_id":76561198842067238,"connected_time":3620000000000,"state":"active","ping":83},{"user_id":68,"name":"ThatGamingKiwi","steam_id":76561199170522237,"connected_time":611000000000,"state":"active","ping":78},{"user_id":76,"name":"spider_murphy","steam_id":76561198079057101,"connected_time":111000000000,"state":"active","ping":74},{"user_id":51,"name":"Shirt","steam_id":76561198082386564,"connected_time":3308000000000,"state":"active","ping":57},{"user_id":58,"name":"B.","steam_id":76561198040445907,"connected_time":2220000000000,"state":"active","ping":73},{"user_id":46,"name":"RusticCarp42989","steam_id":76561198361151865,"connected_time":3745000000000,"state":"active","ping":115},{"user_id":57,"name":"Big Phonius","steam_id":76561199092395311,"connected_time":2248000000000,"state":"active","ping":60},{"user_id":65,"name":"Maxwell Gaming","steam_id":76561199100160919,"connected_time":1159000000000,"state":"active","ping":89}]},{"server_id":106,"name":"Uncletopia | Chicago | 2 | All Maps","name_short":"chi-2","host":"chi-1.us.uncletopia.com","port":27025,"enabled":true,"region":"us-central","cc":"us","latitude":41.881832,"longitude":-87.62318,"reserved":0,"last_update":"0001-01-01T00:00:00Z","name_a2s":"Uncletopia | Chicago | 2 | All Maps","protocol":17,"map":"pl_snowycoast","folder":"tf","game":"Team Fortress","app_id":440,"player_count":24,"max_players":24,"Bots":0,"server_type":"Dedicated","server_os":"Linux","password":true,"vac":true,"version":"7961495","steam_id":85568392924469985,"keywords":["nocrits","nodmgspread","payload","uncletopia"],"game_id":440,"stv_port":27026,"stv_name":"Uncletopia | Chicago | 2 | All Maps | STV","players":[{"user_id":165,"name":"meth ape","steam_id":76561199110579692,"connected_time":1894000000000,"state":"active","ping":74},{"user_id":166,"name":"UzedPickle","steam_id":76561198005513760,"connected_time":1883000000000,"state":"active","ping":73},{"user_id":178,"name":"guy who loves eating cigarettes","steam_id":76561198094495920,"connected_time":1210000000000,"state":"active","ping":35},{"user_id":146,"name":"Redmesa","steam_id":76561199242529661,"connected_time":3920000000000,"state":"active","ping":64},{"user_id":55,"name":"\u003e:J","steam_id":76561198353456379,"connected_time":12257000000000,"state":"active","ping":63},{"user_id":184,"name":"Nut Commander","steam_id":76561198065989058,"connected_time":1004000000000,"state":"active","ping":57},{"user_id":51,"name":"c","steam_id":76561198881665250,"connected_time":13683000000000,"state":"active","ping":91},{"user_id":174,"name":"Darkk","steam_id":76561198020460220,"connected_time":1604000000000,"state":"active","ping":56},{"user_id":163,"name":"LerN","steam_id":76561198083463877,"connected_time":1928000000000,"state":"active","ping":52},{"user_id":74,"name":"Sonic Mania 2 [100 Real Leaked","steam_id":76561198062764039,"connected_time":10685000000000,"state":"active","ping":158},{"user_id":172,"name":"Rat Poison","steam_id":76561199089290128,"connected_time":1687000000000,"state":"active","ping":159},{"user_id":170,"name":"aureli","steam_id":76561199031411031,"connected_time":1774000000000,"state":"active","ping":71},{"user_id":179,"name":"MR SKELTAL","steam_id":76561198031089598,"connected_time":1184000000000,"state":"active","ping":72},{"user_id":154,"name":"Mr. Cheesey","steam_id":76561198153462183,"connected_time":3580000000000,"state":"active","ping":91},{"user_id":164,"name":"Letters","steam_id":76561198035508148,"connected_time":1912000000000,"state":"active","ping":61},{"user_id":156,"name":"fresco","steam_id":76561199101199477,"connected_time":3347000000000,"state":"active","ping":59},{"user_id":167,"name":"c64guy","steam_id":76561198023022744,"connected_time":1880000000000,"state":"active","ping":62},{"user_id":168,"name":"-W3E- grim10465","steam_id":76561198045698581,"connected_time":1874000000000,"state":"active","ping":48},{"user_id":183,"name":"Bussy Bandit","steam_id":76561198034028769,"connected_time":1030000000000,"state":"active","ping":65},{"user_id":185,"name":"JonWik2","steam_id":76561198373893302,"connected_time":515000000000,"state":"active","ping":83},{"user_id":84,"name":"meowfang","steam_id":76561198123056791,"connected_time":9999000000000,"state":"active","ping":68},{"user_id":182,"name":"Westwood","steam_id":76561199387699252,"connected_time":1140000000000,"state":"active","ping":88},{"user_id":180,"name":"godsdoctor","steam_id":76561198055010413,"connected_time":1174000000000,"state":"active","ping":128},{"user_id":186,"name":"ther","steam_id":76561199191376935,"connected_time":464000000000,"state":"active","ping":84}]},{"server_id":402,"name":"Uncletopia | Chicago | 3 | All Maps","name_short":"chi-3","host":"chi-1.us.uncletopia.com","port":27035,"enabled":true,"region":"us-central","cc":"us","latitude":41.881832,"longitude":-87.62318,"reserved":0,"last_update":"0001-01-01T00:00:00Z","name_a2s":"Uncletopia | Chicago | 3 | All Maps","protocol":17,"map":"cp_mountainlab","folder":"tf","game":"Team Fortress","app_id":440,"player_count":24,"max_players":24,"Bots":0,"server_type":"Dedicated","server_os":"Linux","password":true,"vac":true,"version":"7961495","steam_id":85568392924515191,"keywords":["cp","nocrits","nodmgspread","uncletopia"],"game_id":440,"stv_port":27036,"stv_name":"Uncletopia | Chicago | 3 | All Maps | STV","players":[{"user_id":154,"name":"SalteaVT","steam_id":76561198072050521,"connected_time":1435000000000,"state":"active","ping":75},{"user_id":126,"name":"MadGaming","steam_id":76561199047549619,"connected_time":3487000000000,"state":"active","ping":81},{"user_id":157,"name":"Mister36","steam_id":76561198019132100,"connected_time":717000000000,"state":"active","ping":48},{"user_id":138,"name":"fasterbum","steam_id":76561198142577444,"connected_time":2562000000000,"state":"active","ping":53},{"user_id":139,"name":"Elias","steam_id":76561198106431732,"connected_time":2511000000000,"state":"active","ping":44},{"user_id":166,"name":"evxjj899","steam_id":76561199231625308,"connected_time":227000000000,"state":"active","ping":82},{"user_id":167,"name":"John Jim","steam_id":76561198844820464,"connected_time":206000000000,"state":"active","ping":66},{"user_id":147,"name":"Joe the Hooligan","steam_id":76561198814429079,"connected_time":2142000000000,"state":"active","ping":48},{"user_id":159,"name":"Gravy Boy","steam_id":76561198050090297,"connected_time":487000000000,"state":"active","ping":60},{"user_id":137,"name":"MrKokonut","steam_id":76561198879575825,"connected_time":2627000000000,"state":"active","ping":59},{"user_id":160,"name":"https://popnmusic.fandom.com","steam_id":76561198061497429,"connected_time":481000000000,"state":"active","ping":66},{"user_id":152,"name":"Pop","steam_id":76561199012562851,"connected_time":1986000000000,"state":"active","ping":85},{"user_id":86,"name":"conner","steam_id":76561198052911241,"connected_time":6429000000000,"state":"active","ping":74},{"user_id":108,"name":"fugkin bnnuy","steam_id":76561199056190473,"connected_time":4702000000000,"state":"active","ping":67},{"user_id":161,"name":"Francis from L4D","steam_id":76561199070877046,"connected_time":463000000000,"state":"active","ping":99},{"user_id":134,"name":"Sharky","steam_id":76561198032663494,"connected_time":2881000000000,"state":"active","ping":67},{"user_id":149,"name":"HUESO","steam_id":76561198276383681,"connected_time":2097000000000,"state":"active","ping":89},{"user_id":162,"name":"PoopBob","steam_id":76561198066733892,"connected_time":388000000000,"state":"active","ping":61},{"user_id":142,"name":"StormyBoyo","steam_id":76561198273482774,"connected_time":2500000000000,"state":"active","ping":84},{"user_id":151,"name":"Wendy's Brand Trash","steam_id":76561198328346670,"connected_time":2055000000000,"state":"active","ping":42},{"user_id":116,"name":"Dumpling","steam_id":76561198062763756,"connected_time":4204000000000,"state":"active","ping":46},{"user_id":165,"name":"Egg3","steam_id":76561198080190068,"connected_time":306000000000,"state":"active","ping":68},{"user_id":131,"name":"IAmAProfesonal","steam_id":76561199171858953,"connected_time":3326000000000,"state":"active","ping":47},{"user_id":156,"name":"majima construction employee","steam_id":76561198441246401,"connected_time":1361000000000,"state":"active","ping":58}]},{"server_id":403,"name":"Uncletopia | Chicago | 4 | All Maps","name_short":"chi-4","host":"chi-1.us.uncletopia.com","port":27045,"enabled":true,"region":"us-central","cc":"us","latitude":41.881832,"longitude":-87.62318,"reserved":0,"last_update":"0001-01-01T00:00:00Z","name_a2s":"Uncletopia | Chicago | 4 | All Maps","protocol":17,"map":"koth_highpass","folder":"tf","game":"Team Fortress","app_id":440,"player_count":4,"max_players":24,"Bots":0,"server_type":"Dedicated","server_os":"Linux","password":true,"vac":true,"version":"7961495","steam_id":85568392924515193,"keywords":["cp","nocrits","nodmgspread","uncletopia"],"game_id":440,"stv_port":27046,"stv_name":"Uncletopia | Chicago | 4 | All Maps | STV","players":[{"user_id":17,"name":"Prometheus (Zim)","steam_id":76561198045552121,"connected_time":596000000000,"state":"active","ping":78},{"user_id":18,"name":"DelphicKnight","steam_id":76561198357846060,"connected_time":302000000000,"state":"active","ping":68},{"user_id":19,"name":"Tri-Dot","steam_id":76561199075186597,"connected_time":217000000000,"state":"active","ping":60},{"user_id":20,"name":"Mr. Sandman","steam_id":76561198065870487,"connected_time":130000000000,"state":"active","ping":44}]},{"server_id":36,"name":"Uncletopia | Chicago | 5 | All Maps","name_short":"chi-5","host":"chi-2.us.uncletopia.com","port":27015,"enabled":true,"region":"us-central","cc":"us","latitude":41.881832,"longitude":-87.62318,"reserved":0,"last_update":"0001-01-01T00:00:00Z","name_a2s":"Uncletopia | Chicago | 5 | All Maps","protocol":17,"map":"koth_viaduct","folder":"tf","game":"Team Fortress","app_id":440,"player_count":0,"max_players":24,"Bots":0,"server_type":"Dedicated","server_os":"Linux","password":true,"vac":true,"version":"7961495","steam_id":85568392924866362,"keywords":["cp","nocrits","nodmgspread","uncletopia"],"game_id":440,"stv_port":27016,"stv_name":"Uncletopia | Chicago | 5 | All Maps | STV","players":null},{"server_id":37,"name":"Uncletopia | Chicago | 6 | All Maps","name_short":"chi-6","host":"chi-2.us.uncletopia.com","port":27025,"enabled":true,"region":"us-central","cc":"us","latitude":41.881832,"longitude":-87.62318,"reserved":0,"last_update":"0001-01-01T00:00:00Z","name_a2s":"Uncletopia | Chicago | 6 | All Maps","protocol":17,"map":"pl_swiftwater_final1","folder":"tf","game":"Team Fortress","app_id":440,"player_count":24,"max_players":24,"Bots":0,"server_type":"Dedicated","server_os":"Linux","password":true,"vac":true,"version":"7961495","steam_id":85568392924866363,"keywords":["nocrits","nodmgspread","payload","uncletopia"],"game_id":440,"stv_port":27026,"stv_name":"Uncletopia | Chicago | 6 | All Maps | STV","players":[{"user_id":107,"name":"Fribeepig","steam_id":76561198005622102,"connected_time":427000000000,"state":"active","ping":148},{"user_id":106,"name":"Universe Man","steam_id":76561197997710655,"connected_time":647000000000,"state":"active","ping":87},{"user_id":109,"name":"Tuvok Shakur","steam_id":76561198018875334,"connected_time":356000000000,"state":"active","ping":99},{"user_id":86,"name":"TiredBonz","steam_id":76561199445629071,"connected_time":2314000000000,"state":"active","ping":63},{"user_id":110,"name":"inshallah","steam_id":76561198165212575,"connected_time":341000000000,"state":"active","ping":73},{"user_id":97,"name":"LincolnShio_","steam_id":76561198831123552,"connected_time":1473000000000,"state":"active","ping":68},{"user_id":108,"name":"Menachem","steam_id":76561198041226420,"connected_time":421000000000,"state":"active","ping":47},{"user_id":101,"name":"Deathknight719","steam_id":76561198867241911,"connected_time":913000000000,"state":"active","ping":72},{"user_id":14,"name":"Tabby!!!!","steam_id":76561198018288153,"connected_time":7328000000000,"state":"active","ping":44},{"user_id":94,"name":"Julio","steam_id":76561198272237516,"connected_time":1697000000000,"state":"active","ping":61},{"user_id":111,"name":"Finn the Dafter","steam_id":76561198004267413,"connected_time":283000000000,"state":"spawning","ping":60},{"user_id":63,"name":"Gargathor the Entity Catcher","steam_id":76561198189429665,"connected_time":3979000000000,"state":"active","ping":70},{"user_id":87,"name":"Lv3 Kobold Shadow Sorcerer","steam_id":76561198042068995,"connected_time":2241000000000,"state":"active","ping":96},{"user_id":79,"name":"MaxTgaX","steam_id":76561198046287539,"connected_time":3028000000000,"state":"active","ping":51},{"user_id":100,"name":"rice white","steam_id":76561198320732910,"connected_time":1049000000000,"state":"active","ping":76},{"user_id":89,"name":"The Great Eagle Scourge of 1822","steam_id":76561198325086209,"connected_time":2035000000000,"state":"active","ping":119},{"user_id":95,"name":"swan","steam_id":76561198012569200,"connected_time":1482000000000,"state":"active","ping":73},{"user_id":102,"name":"D.A.V.I.D","steam_id":76561199443570634,"connected_time":867000000000,"state":"active","ping":116},{"user_id":65,"name":"reis","steam_id":76561199232952016,"connected_time":3917000000000,"state":"active","ping":177},{"user_id":105,"name":"Technomancer","steam_id":76561198137758683,"connected_time":760000000000,"state":"active","ping":94},{"user_id":27,"name":"Okpar","steam_id":76561199221067945,"connected_time":6757000000000,"state":"active","ping":114},{"user_id":42,"name":"I shit myself","steam_id":76561199174310124,"connected_time":5634000000000,"state":"active","ping":71},{"user_id":91,"name":"phroliax","steam_id":76561198207075529,"connected_time":1837000000000,"state":"active","ping":90},{"user_id":96,"name":"austrian guy","steam_id":76561199147181622,"connected_time":1482000000000,"state":"active","ping":119}]},{"server_id":38,"name":"Uncletopia | Chicago | 7 | Stopwatch","name_short":"chi-7","host":"chi-2.us.uncletopia.com","port":27035,"enabled":true,"region":"us-central","cc":"us","latitude":41.881832,"longitude":-87.62318,"reserved":0,"last_update":"0001-01-01T00:00:00Z","name_a2s":"Uncletopia | Chicago | 7 | Stopwatch","protocol":17,"map":"workshop/koth_product_final.ugc454272353","folder":"tf","game":"Team Fortress","app_id":440,"player_count":0,"max_players":24,"Bots":0,"server_type":"Dedicated","server_os":"Linux","password":true,"vac":true,"version":"7961495","steam_id":85568392924866364,"keywords":["cp","nocrits","nodmgspread","uncletopia"],"game_id":440,"stv_port":27036,"stv_name":"Uncletopia | Chicago | 7 | Stopwatch | STV","players":null},{"server_id":39,"name":"Uncletopia | Chicago | 8 | Community","name_short":"chi-8","host":"chi-2.us.uncletopia.com","port":27045,"enabled":true,"region":"us-central","cc":"us","latitude":41.881832,"longitude":-87.62318,"reserved":0,"last_update":"0001-01-01T00:00:00Z","name_a2s":"Uncletopia | Chicago | 8 | Community","protocol":17,"map":"pl_pier","folder":"tf","game":"Team Fortress","app_id":440,"player_count":0,"max_players":24,"Bots":0,"server_type":"Dedicated","server_os":"Linux","password":true,"vac":true,"version":"7961495","steam_id":85568392924866365,"keywords":["nocrits","nodmgspread","payload","uncletopia"],"game_id":440,"stv_port":27046,"stv_name":"Uncletopia | Chicago | 8 | Community | STV","players":null},{"server_id":8,"name":"Uncletopia | Dallas | 1 | All Maps","name_short":"dal-1","host":"dal-1.us.uncletopia.com","port":27015,"enabled":true,"region":"us-central","cc":"us","latitude":32.779167,"longitude":-96.80889,"reserved":0,"last_update":"0001-01-01T00:00:00Z","name_a2s":"Uncletopia | Dallas | 1 | All Maps","protocol":17,"map":"pl_borneo","folder":"tf","game":"Team Fortress","app_id":440,"player_count":24,"max_players":24,"Bots":0,"server_type":"Dedicated","server_os":"Linux","password":true,"vac":true,"version":"7961495","steam_id":85568392924469986,"keywords":["nocrits","nodmgspread","payload","uncletopia"],"game_id":440,"stv_port":27016,"stv_name":"Uncletopia | Dallas | 1 | All Maps | STV","players":[{"user_id":51,"name":"DlTTO","steam_id":76561199427026752,"connected_time":1576000000000,"state":"active","ping":101},{"user_id":33,"name":"jerma but crying and lesbian","steam_id":76561198110661425,"connected_time":2242000000000,"state":"active","ping":75},{"user_id":40,"name":"J  Man","steam_id":76561198401224356,"connected_time":1725000000000,"state":"active","ping":55},{"user_id":54,"name":"♣","steam_id":76561198052822168,"connected_time":1139000000000,"state":"active","ping":178},{"user_id":31,"name":"Username","steam_id":76561198198918781,"connected_time":2437000000000,"state":"active","ping":101},{"user_id":61,"name":"Fredrick","steam_id":76561197981419964,"connected_time":487000000000,"state":"active","ping":90},{"user_id":52,"name":"SCATTER","steam_id":76561198405168492,"connected_time":1440000000000,"state":"active","ping":105},{"user_id":63,"name":"TheAilingSword","steam_id":76561198250350844,"connected_time":218000000000,"state":"active","ping":56},{"user_id":60,"name":"Motorolª","steam_id":76561198358119669,"connected_time":589000000000,"state":"active","ping":131},{"user_id":36,"name":"You Don't Nomi.","steam_id":76561197969137836,"connected_time":2003000000000,"state":"active","ping":84},{"user_id":48,"name":"el wiwi","steam_id":76561198857304367,"connected_time":1597000000000,"state":"active","ping":93},{"user_id":64,"name":"wadsworth dinglecock","steam_id":76561198073269122,"connected_time":211000000000,"state":"active","ping":90},{"user_id":18,"name":"Magnet Dood","steam_id":76561198364178746,"connected_time":2933000000000,"state":"active","ping":74},{"user_id":39,"name":"Darling","steam_id":76561198127525888,"connected_time":1858000000000,"state":"active","ping":45},{"user_id":43,"name":"rizzard of oz","steam_id":76561198040907214,"connected_time":1704000000000,"state":"active","ping":60},{"user_id":62,"name":"Rennsellaer","steam_id":76561198096207580,"connected_time":380000000000,"state":"active","ping":83},{"user_id":65,"name":"grape","steam_id":76561197993980328,"connected_time":175000000000,"state":"active","ping":126},{"user_id":23,"name":"miguel","steam_id":76561198158054484,"connected_time":2805000000000,"state":"active","ping":68},{"user_id":57,"name":"lynt","steam_id":76561198988333976,"connected_time":1027000000000,"state":"active","ping":61},{"user_id":66,"name":"disrupted_thoughts","steam_id":76561198067367009,"connected_time":156000000000,"state":"active","ping":100},{"user_id":50,"name":"inzang","steam_id":76561198088318074,"connected_time":1583000000000,"state":"active","ping":54},{"user_id":27,"name":"Sergeant Joker #savetf2","steam_id":76561198854616604,"connected_time":2711000000000,"state":"active","ping":99},{"user_id":46,"name":"so appalled","steam_id":76561198955248082,"connected_time":1674000000000,"state":"active","ping":74},{"user_id":59,"name":"I hate the anti-Christ","steam_id":76561198286792807,"connected_time":714000000000,"state":"active","ping":89}]},{"server_id":108,"name":"Uncletopia | Dallas | 2 | All Maps","name_short":"dal-2","host":"dal-1.us.uncletopia.com","port":27025,"enabled":true,"region":"us-central","cc":"us","latitude":32.779167,"longitude":-96.80889,"reserved":0,"last_update":"0001-01-01T00:00:00Z","name_a2s":"Uncletopia | Dallas | 2 | All Maps","protocol":17,"map":"pl_barnblitz","folder":"tf","game":"Team Fortress","app_id":440,"player_count":0,"max_players":24,"Bots":0,"server_type":"Dedicated","server_os":"Linux","password":true,"vac":true,"version":"7961495","steam_id":85568392924469988,"keywords":["nocrits","nodmgspread","payload","uncletopia"],"game_id":440,"stv_port":27026,"stv_name":"Uncletopia | Dallas | 2 | All Maps | STV","players":null},{"server_id":404,"name":"Uncletopia | Dallas | 3 | All Maps","name_short":"dal-3","host":"dal-1.us.uncletopia.com","port":27035,"enabled":true,"region":"us-central","cc":"us","latitude":32.779167,"longitude":-96.80889,"reserved":0,"last_update":"0001-01-01T00:00:00Z","name_a2s":"Uncletopia | Dallas | 3 | All Maps","protocol":17,"map":"ctf_2fort","folder":"tf","game":"Team Fortress","app_id":440,"player_count":0,"max_players":24,"Bots":0,"server_type":"Dedicated","server_os":"Linux","password":true,"vac":true,"version":"7961495","steam_id":85568392924515219,"keywords":["ctf","nocrits","nodmgspread","uncletopia"],"game_id":440,"stv_port":27036,"stv_name":"Uncletopia | Dallas | 3 | All Maps | STV","players":null},{"server_id":405,"name":"Uncletopia | Dallas | 4 | Community","name_short":"dal-4","host":"dal-1.us.uncletopia.com","port":27045,"enabled":true,"region":"us-central","cc":"us","latitude":32.779167,"longitude":-96.80889,"reserved":0,"last_update":"0001-01-01T00:00:00Z","name_a2s":"Uncletopia | Dallas | 4 | Community","protocol":17,"map":"pl_pier","folder":"tf","game":"Team Fortress","app_id":440,"player_count":0,"max_players":24,"Bots":0,"server_type":"Dedicated","server_os":"Linux","password":true,"vac":true,"version":"7961495","steam_id":85568392924515220,"keywords":["nocrits","nodmgspread","payload","uncletopia"],"game_id":440,"stv_port":27046,"stv_name":"Uncletopia | Dallas | 4 | Community | STV","players":null},{"server_id":5,"name":"Uncletopia | Frankfurt | 1 | All Maps","name_short":"frk-1","host":"frk-1.de.uncletopia.com","port":27015,"enabled":true,"region":"eu","cc":"de","latitude":50.110924,"longitude":8.682127,"reserved":0,"last_update":"0001-01-01T00:00:00Z","name_a2s":"Uncletopia | Frankfurt | 1 | All Maps","protocol":17,"map":"pl_frontier_final","folder":"tf","game":"Team Fortress","app_id":440,"player_count":24,"max_players":24,"Bots":0,"server_type":"Dedicated","server_os":"Linux","password":true,"vac":true,"version":"7961495","steam_id":85568392924469989,"keywords":["nocrits","nodmgspread","payload","uncletopia"],"game_id":440,"stv_port":27016,"stv_name":"Uncletopia | Frankfurt | 1 | All Maps | STV","players":[{"user_id":234,"name":"WIZARD","steam_id":76561198199570742,"connected_time":2362000000000,"state":"active","ping":97},{"user_id":232,"name":"Mau","steam_id":76561198410945277,"connected_time":2458000000000,"state":"active","ping":111},{"user_id":235,"name":"sokige","steam_id":76561198167112371,"connected_time":2361000000000,"state":"active","ping":91},{"user_id":251,"name":"Cowworth","steam_id":76561198081542434,"connected_time":915000000000,"state":"active","ping":54},{"user_id":252,"name":"Burbie","steam_id":76561198046069449,"connected_time":900000000000,"state":"active","ping":66},{"user_id":200,"name":"wasps","steam_id":76561198049485054,"connected_time":5605000000000,"state":"active","ping":78},{"user_id":253,"name":"MIGHTY PISS","steam_id":76561198226378616,"connected_time":883000000000,"state":"active","ping":86},{"user_id":233,"name":"agent_richi","steam_id":76561199218542987,"connected_time":2451000000000,"state":"active","ping":45},{"user_id":213,"name":"dekrzz","steam_id":76561198157285449,"connected_time":3848000000000,"state":"active","ping":81},{"user_id":254,"name":"install gentoo","steam_id":76561198185257982,"connected_time":876000000000,"state":"active","ping":85},{"user_id":255,"name":"Tornado","steam_id":76561198025684320,"connected_time":869000000000,"state":"active","ping":48},{"user_id":243,"name":"else1","steam_id":76561197996558319,"connected_time":1731000000000,"state":"active","ping":75},{"user_id":244,"name":"Plushy Freeman","steam_id":76561198004935560,"connected_time":1730000000000,"state":"active","ping":71},{"user_id":239,"name":"Driver's drunkest God","steam_id":76561198969373800,"connected_time":2181000000000,"state":"active","ping":70},{"user_id":257,"name":"BanMeta","steam_id":76561198967456827,"connected_time":672000000000,"state":"active","ping":72},{"user_id":221,"name":"The Big Bean","steam_id":76561198267696666,"connected_time":2912000000000,"state":"active","ping":45},{"user_id":256,"name":"Alyx","steam_id":76561198064654326,"connected_time":795000000000,"state":"active","ping":53},{"user_id":245,"name":"Silverbolt","steam_id":76561198153165763,"connected_time":1622000000000,"state":"active","ping":70},{"user_id":148,"name":"Bulyto","steam_id":76561198043205202,"connected_time":10391000000000,"state":"active","ping":65},{"user_id":258,"name":"etc","steam_id":76561197998394797,"connected_time":475000000000,"state":"active","ping":61},{"user_id":260,"name":"knees","steam_id":76561198005924647,"connected_time":226000000000,"state":"active","ping":75},{"user_id":184,"name":"Švarcas","steam_id":76561198841646694,"connected_time":7590000000000,"state":"active","ping":67},{"user_id":229,"name":"Finkaksu :3","steam_id":76561198201389163,"connected_time":2557000000000,"state":"active","ping":70},{"user_id":219,"name":"minimurx","steam_id":76561198858102095,"connected_time":3457000000000,"state":"active","ping":57}]},{"server_id":110,"name":"Uncletopia | Frankfurt | 2 | All Maps","name_short":"frk-2","host":"frk-1.de.uncletopia.com","port":27025,"enabled":true,"region":"eu","cc":"de","latitude":50.110924,"longitude":8.682127,"reserved":0,"last_update":"0001-01-01T00:00:00Z","name_a2s":"Uncletopia | Frankfurt | 2 | All Maps","protocol":17,"map":"pl_upward","folder":"tf","game":"Team Fortress","app_id":440,"player_count":24,"max_players":24,"Bots":0,"server_type":"Dedicated","server_os":"Linux","password":true,"vac":true,"version":"7961495","steam_id":85568392924469990,"keywords":["nocrits","nodmgspread","payload","uncletopia"],"game_id":440,"stv_port":27026,"stv_name":"Uncletopia | Frankfurt | 2 | All Maps | STV","players":[{"user_id":155,"name":"Solid","steam_id":76561198357049292,"connected_time":2377000000000,"state":"active","ping":81},{"user_id":180,"name":"Bonduelle#Savetf2","steam_id":76561199041992422,"connected_time":1483000000000,"state":"active","ping":157},{"user_id":202,"name":"Thors","steam_id":76561197968739075,"connected_time":29000000000,"state":"active","ping":38},{"user_id":189,"name":"Jack","steam_id":76561198079575891,"connected_time":798000000000,"state":"active","ping":60},{"user_id":143,"name":"asa004","steam_id":76561198160323444,"connected_time":3538000000000,"state":"active","ping":71},{"user_id":200,"name":"Joo ♦","steam_id":76561197987609203,"connected_time":84000000000,"state":"active","ping":74},{"user_id":181,"name":"the grongle","steam_id":76561198989398023,"connected_time":1466000000000,"state":"active","ping":101},{"user_id":194,"name":"dddance","steam_id":76561198118412910,"connected_time":187000000000,"state":"active","ping":58},{"user_id":178,"name":"Quote","steam_id":76561198170090267,"connected_time":1551000000000,"state":"active","ping":163},{"user_id":195,"name":"Strafe","steam_id":76561198194054443,"connected_time":172000000000,"state":"active","ping":53},{"user_id":188,"name":"Sne","steam_id":76561198203367142,"connected_time":870000000000,"state":"active","ping":98},{"user_id":196,"name":"Syd","steam_id":76561198020515027,"connected_time":162000000000,"state":"active","ping":90},{"user_id":187,"name":"Exgone","steam_id":76561198296655773,"connected_time":886000000000,"state":"active","ping":56},{"user_id":156,"name":"azzy","steam_id":76561198061293740,"connected_time":2332000000000,"state":"active","ping":80},{"user_id":190,"name":"CMD_God","steam_id":76561198333037007,"connected_time":775000000000,"state":"active","ping":60},{"user_id":197,"name":"LEGEND FUMO.","steam_id":76561198061033903,"connected_time":125000000000,"state":"active","ping":45},{"user_id":198,"name":"leo","steam_id":76561198090848620,"connected_time":121000000000,"state":"active","ping":90},{"user_id":158,"name":"ÃNVS DRÃNVS","steam_id":76561198138733015,"connected_time":2210000000000,"state":"active","ping":117},{"user_id":174,"name":"Richard_HUN","steam_id":76561198299050967,"connected_time":1784000000000,"state":"active","ping":86},{"user_id":163,"name":"Time-Green","steam_id":76561198133937444,"connected_time":1994000000000,"state":"active","ping":68},{"user_id":161,"name":"b9njmn","steam_id":76561198068481592,"connected_time":2086000000000,"state":"active","ping":94},{"user_id":199,"name":"Umme","steam_id":76561198053809566,"connected_time":111000000000,"state":"active","ping":76},{"user_id":138,"name":"LordTrap.exe","steam_id":76561198318089716,"connected_time":4179000000000,"state":"active","ping":73},{"user_id":201,"name":"the babadook","steam_id":76561198040168682,"connected_time":79000000000,"state":"active","ping":46}]},{"server_id":308,"name":"Uncletopia | Frankfurt | 3 | All Maps","name_short":"frk-3","host":"frk-1.de.uncletopia.com","port":27035,"enabled":true,"region":"eu","cc":"de","latitude":50.110924,"longitude":8.682127,"reserved":0,"last_update":"0001-01-01T00:00:00Z","name_a2s":"Uncletopia | Frankfurt | 3 | All Maps","protocol":17,"map":"pl_badwater","folder":"tf","game":"Team Fortress","app_id":440,"player_count":24,"max_players":24,"Bots":0,"server_type":"Dedicated","server_os":"Linux","password":true,"vac":true,"version":"7961495","steam_id":85568392924504274,"keywords":["nocrits","nodmgspread","payload","uncletopia"],"game_id":440,"stv_port":27036,"stv_name":"Uncletopia | Frankfurt | 3 | All Maps | STV","players":[{"user_id":184,"name":"Beemo","steam_id":76561198158818775,"connected_time":1593000000000,"state":"active","ping":50},{"user_id":121,"name":"AWP Bodyshot :) ❤","steam_id":76561198029928533,"connected_time":6630000000000,"state":"active","ping":43},{"user_id":191,"name":"Mike","steam_id":76561198228455736,"connected_time":1145000000000,"state":"active","ping":74},{"user_id":194,"name":"STORM↯","steam_id":76561198002220409,"connected_time":483000000000,"state":"active","ping":89},{"user_id":166,"name":"Hóňa","steam_id":76561198096006081,"connected_time":3101000000000,"state":"active","ping":60},{"user_id":105,"name":"kiniènse?","steam_id":76561198177533491,"connected_time":7908000000000,"state":"active","ping":48},{"user_id":188,"name":"Mister","steam_id":76561199049647854,"connected_time":1209000000000,"state":"active","ping":51},{"user_id":198,"name":"Kiri pour le ftour","steam_id":76561198203256418,"connected_time":221000000000,"state":"active","ping":88},{"user_id":176,"name":"sex toilet","steam_id":76561198412197820,"connected_time":2303000000000,"state":"active","ping":89},{"user_id":135,"name":"jcb.f.smith","steam_id":76561199491964000,"connected_time":4787000000000,"state":"active","ping":63},{"user_id":144,"name":"tyroksi :D","steam_id":76561198103875245,"connected_time":4122000000000,"state":"active","ping":119},{"user_id":189,"name":"wheelie bin","steam_id":76561198040040328,"connected_time":1192000000000,"state":"active","ping":55},{"user_id":186,"name":"Jewix","steam_id":76561198063457899,"connected_time":1302000000000,"state":"active","ping":61},{"user_id":165,"name":"That Phlog mfer","steam_id":76561198050416948,"connected_time":3177000000000,"state":"active","ping":57},{"user_id":175,"name":"Mika","steam_id":76561199183780280,"connected_time":2418000000000,"state":"active","ping":59},{"user_id":110,"name":"Falfe","steam_id":76561199007446494,"connected_time":7666000000000,"state":"active","ping":60},{"user_id":172,"name":"JohnTraveltime","steam_id":76561199244281754,"connected_time":2667000000000,"state":"active","ping":72},{"user_id":167,"name":"SugipuLaur","steam_id":76561199138556623,"connected_time":3012000000000,"state":"active","ping":75},{"user_id":162,"name":"Skyrider of Spaceways","steam_id":76561197991678236,"connected_time":3348000000000,"state":"active","ping":131},{"user_id":169,"name":"Mayor Wank from Wanker Town","steam_id":76561197998253588,"connected_time":2967000000000,"state":"active","ping":52},{"user_id":195,"name":"Yanniki","steam_id":76561197986058110,"connected_time":389000000000,"state":"active","ping":67},{"user_id":119,"name":"джегеми хэпкингс","steam_id":76561198131531394,"connected_time":6844000000000,"state":"active","ping":87},{"user_id":196,"name":"Serg","steam_id":76561198218959001,"connected_time":374000000000,"state":"active","ping":65},{"user_id":192,"name":"Kapro","steam_id":76561199161718959,"connected_time":841000000000,"state":"active","ping":60}]},{"server_id":309,"name":"Uncletopia | Frankfurt | 4 | All Maps","name_short":"frk-4","host":"frk-1.de.uncletopia.com","port":27045,"enabled":true,"region":"eu","cc":"de","latitude":50.110924,"longitude":8.682127,"reserved":0,"last_update":"0001-01-01T00:00:00Z","name_a2s":"Uncletopia | Frankfurt | 4 | All Maps","protocol":17,"map":"cp_dustbowl","folder":"tf","game":"Team Fortress","app_id":440,"player_count":23,"max_players":24,"Bots":0,"server_type":"Dedicated","server_os":"Linux","password":true,"vac":true,"version":"7961495","steam_id":85568392924504275,"keywords":["cp","nocrits","nodmgspread","uncletopia"],"game_id":440,"stv_port":27046,"stv_name":"Uncletopia | Frankfurt | 4 | All Maps | STV","players":[{"user_id":338,"name":"mercenarypit","steam_id":76561198161935108,"connected_time":966000000000,"state":"active","ping":47},{"user_id":343,"name":"[P-roc] BadJacKS","steam_id":76561197972666377,"connected_time":742000000000,"state":"active","ping":45},{"user_id":340,"name":"Marcus","steam_id":76561198205027963,"connected_time":938000000000,"state":"active","ping":70},{"user_id":335,"name":"void monad","steam_id":76561198117012334,"connected_time":1043000000000,"state":"active","ping":88},{"user_id":355,"name":"Chaos_Sherzan","steam_id":76561198086749551,"connected_time":380000000000,"state":"active","ping":80},{"user_id":341,"name":"Riko","steam_id":76561199057643011,"connected_time":916000000000,"state":"active","ping":63},{"user_id":332,"name":"capslocked","steam_id":76561198095960796,"connected_time":1073000000000,"state":"active","ping":50},{"user_id":339,"name":"Artock","steam_id":76561198808599713,"connected_time":956000000000,"state":"active","ping":86},{"user_id":342,"name":"DeterminedXD[HUN]","steam_id":76561199469006453,"connected_time":871000000000,"state":"active","ping":82},{"user_id":352,"name":"aykutbayrak","steam_id":76561198060206825,"connected_time":476000000000,"state":"active","ping":97},{"user_id":346,"name":"delta man","steam_id":76561198204491245,"connected_time":575000000000,"state":"active","ping":141},{"user_id":348,"name":"emir","steam_id":76561198113089831,"connected_time":565000000000,"state":"active","ping":89},{"user_id":356,"name":"AIDS MEDIC","steam_id":76561198042774930,"connected_time":369000000000,"state":"active","ping":72},{"user_id":350,"name":"Itai","steam_id":76561198804555329,"connected_time":554000000000,"state":"active","ping":109},{"user_id":357,"name":"c4ctus","steam_id":76561198925655488,"connected_time":338000000000,"state":"active","ping":99},{"user_id":358,"name":"laser","steam_id":76561198036030697,"connected_time":324000000000,"state":"active","ping":59},{"user_id":366,"name":"Lockdown","steam_id":76561198354811076,"connected_time":110000000000,"state":"active","ping":80},{"user_id":368,"name":"Pottery Knight","steam_id":76561198094455814,"connected_time":16000000000,"state":"spawning","ping":124},{"user_id":361,"name":"Prison Mike","steam_id":76561198014221596,"connected_time":259000000000,"state":"active","ping":61},{"user_id":362,"name":"Sisyphus","steam_id":76561198146194820,"connected_time":202000000000,"state":"active","ping":51},{"user_id":363,"name":"cat","steam_id":76561198832231975,"connected_time":168000000000,"state":"active","ping":84},{"user_id":364,"name":"I919I","steam_id":76561198141049923,"connected_time":139000000000,"state":"active","ping":74},{"user_id":369,"name":"System","steam_id":76561199442503973,"connected_time":12000000000,"state":"active","ping":513}]},{"server_id":310,"name":"Uncletopia | Frankfurt | 5 | All Maps","name_short":"frk-5","host":"frk-1.de.uncletopia.com","port":27055,"enabled":true,"region":"eu","cc":"de","latitude":50.110924,"longitude":8.682127,"reserved":0,"last_update":"0001-01-01T00:00:00Z","name_a2s":"Uncletopia | Frankfurt | 5 | All Maps","protocol":17,"map":"koth_harvest_final","folder":"tf","game":"Team Fortress","app_id":440,"player_count":24,"max_players":24,"Bots":0,"server_type":"Dedicated","server_os":"Linux","password":true,"vac":true,"version":"7961495","steam_id":85568392924504277,"keywords":["cp","nocrits","nodmgspread","uncletopia"],"game_id":440,"stv_port":27056,"stv_name":"Uncletopia | Frankfurt | 5 | All Maps | STV","players":[{"user_id":245,"name":"Driltin","steam_id":76561198007076807,"connected_time":923000000000,"state":"active","ping":86},{"user_id":211,"name":"Eric Catman","steam_id":76561198802117294,"connected_time":2886000000000,"state":"active","ping":76},{"user_id":263,"name":"Tri-","steam_id":76561198133524794,"connected_time":66000000000,"state":"active","ping":47},{"user_id":183,"name":"Thales gaming","steam_id":76561198154569703,"connected_time":4579000000000,"state":"active","ping":74},{"user_id":253,"name":"pentium gaming","steam_id":76561198806968871,"connected_time":333000000000,"state":"active","ping":89},{"user_id":254,"name":"Difficult_Bit2901","steam_id":76561199004250744,"connected_time":330000000000,"state":"active","ping":70},{"user_id":258,"name":"PerskuleBenener","steam_id":76561198156899375,"connected_time":214000000000,"state":"active","ping":75},{"user_id":226,"name":"MR.BOYKISSER","steam_id":76561198241894636,"connected_time":1587000000000,"state":"active","ping":46},{"user_id":222,"name":"Penis Contortionist","steam_id":76561198073663784,"connected_time":2078000000000,"state":"active","ping":48},{"user_id":244,"name":"please do not the cat","steam_id":76561198089003514,"connected_time":935000000000,"state":"active","ping":44},{"user_id":223,"name":"broken fish","steam_id":76561199397549660,"connected_time":2025000000000,"state":"active","ping":59},{"user_id":264,"name":"GAU-8","steam_id":76561199497719804,"connected_time":35000000000,"state":"active","ping":103},{"user_id":255,"name":"flat cheese","steam_id":76561198149923239,"connected_time":329000000000,"state":"active","ping":98},{"user_id":256,"name":"Rhen","steam_id":76561198280814136,"connected_time":322000000000,"state":"active","ping":89},{"user_id":265,"name":"Miles","steam_id":76561199246824619,"connected_time":24000000000,"state":"spawning","ping":134},{"user_id":239,"name":"thatdude958","steam_id":76561199086971180,"connected_time":1251000000000,"state":"active","ping":116},{"user_id":257,"name":"420thegamer1337","steam_id":76561198329924884,"connected_time":243000000000,"state":"active","ping":163},{"user_id":216,"name":"heddwch","steam_id":76561198076097983,"connected_time":2867000000000,"state":"active","ping":70},{"user_id":231,"name":"humble genius","steam_id":76561198243808680,"connected_time":1511000000000,"state":"active","ping":59},{"user_id":247,"name":"Nugget","steam_id":76561198338916407,"connected_time":630000000000,"state":"active","ping":79},{"user_id":249,"name":"Shaving cream","steam_id":76561199018053264,"connected_time":596000000000,"state":"active","ping":67},{"user_id":251,"name":"frbuz","steam_id":76561198327135462,"connected_time":355000000000,"state":"active","ping":160},{"user_id":259,"name":"Snow","steam_id":76561198246680606,"connected_time":191000000000,"state":"active","ping":59},{"user_id":262,"name":"DKepl","steam_id":76561198382646655,"connected_time":95000000000,"state":"active","ping":106}]},{"server_id":311,"name":"Uncletopia | Frankfurt | 6 | All Maps","name_short":"frk-6","host":"frk-1.de.uncletopia.com","port":27065,"enabled":true,"region":"eu","cc":"de","latitude":50.110924,"longitude":8.682127,"reserved":0,"last_update":"0001-01-01T00:00:00Z","name_a2s":"Uncletopia | Frankfurt | 6 | All Maps","protocol":17,"map":"pl_swiftwater_final1","folder":"tf","game":"Team Fortress","app_id":440,"player_count":24,"max_players":24,"Bots":0,"server_type":"Dedicated","server_os":"Linux","password":true,"vac":true,"version":"7961495","steam_id":85568392924504278,"keywords":["nocrits","nodmgspread","payload","uncletopia"],"game_id":440,"stv_port":27066,"stv_name":"Uncletopia | Frankfurt | 6 | All Maps | STV","players":[{"user_id":401,"name":"eva","steam_id":76561198054474684,"connected_time":4006000000000,"state":"active","ping":71},{"user_id":435,"name":"BrianIsFruity","steam_id":76561198103706881,"connected_time":1398000000000,"state":"active","ping":68},{"user_id":405,"name":"Forgetful","steam_id":76561198147445965,"connected_time":3183000000000,"state":"active","ping":64},{"user_id":362,"name":"Gorgeous George","steam_id":76561198144256544,"connected_time":6922000000000,"state":"active","ping":61},{"user_id":444,"name":"miiq130","steam_id":76561198188010666,"connected_time":926000000000,"state":"active","ping":79},{"user_id":454,"name":"FISHTANK.LIVE__________________","steam_id":76561199293036742,"connected_time":676000000000,"state":"active","ping":47},{"user_id":433,"name":"pinguwno","steam_id":76561199152690401,"connected_time":1480000000000,"state":"active","ping":81},{"user_id":460,"name":"Qdarks","steam_id":76561198013391340,"connected_time":72000000000,"state":"active","ping":138},{"user_id":441,"name":"DID YOU MOVE THE ROCK?","steam_id":76561198798803845,"connected_time":1150000000000,"state":"active","ping":83},{"user_id":461,"name":"Weeb exterminator","steam_id":76561198078964973,"connected_time":60000000000,"state":"active","ping":65},{"user_id":459,"name":"TheEventGuy","steam_id":76561197972797744,"connected_time":248000000000,"state":"active","ping":68},{"user_id":457,"name":"mmlock","steam_id":76561198069516191,"connected_time":545000000000,"state":"active","ping":45},{"user_id":456,"name":"amort life","steam_id":76561198036730191,"connected_time":581000000000,"state":"active","ping":46},{"user_id":415,"name":"Relix18144","steam_id":76561199202454318,"connected_time":2581000000000,"state":"active","ping":73},{"user_id":442,"name":"how about you get a job","steam_id":76561199061646193,"connected_time":1007000000000,"state":"active","ping":86},{"user_id":455,"name":"LOBZIK","steam_id":76561198114830120,"connected_time":651000000000,"state":"active","ping":75},{"user_id":458,"name":"Odin","steam_id":76561198087800030,"connected_time":352000000000,"state":"active","ping":45},{"user_id":402,"name":"Primoz J","steam_id":76561197962355741,"connected_time":3421000000000,"state":"active","ping":70},{"user_id":450,"name":"Gent","steam_id":76561198037167890,"connected_time":811000000000,"state":"active","ping":83},{"user_id":422,"name":"Worst Civilian Award 2023","steam_id":76561198200856195,"connected_time":2225000000000,"state":"active","ping":80},{"user_id":416,"name":"Cosmetic brain","steam_id":76561198055936410,"connected_time":2574000000000,"state":"active","ping":89},{"user_id":424,"name":"AlanWillson","steam_id":76561198043975413,"connected_time":2184000000000,"state":"active","ping":70},{"user_id":451,"name":"moocow916","steam_id":76561198040954339,"connected_time":755000000000,"state":"active","ping":46},{"user_id":452,"name":"incompetentmedic","steam_id":76561199466073856,"connected_time":752000000000,"state":"active","ping":165}]},{"server_id":23,"name":"Uncletopia | Frankfurt | 7 | Stopwatch","name_short":"frk-7","host":"frk-1.de.uncletopia.com","port":27075,"enabled":true,"region":"eu","cc":"de","latitude":50.110924,"longitude":8.682127,"reserved":0,"last_update":"0001-01-01T00:00:00Z","name_a2s":"Uncletopia | Frankfurt | 7 | Stopwatch","protocol":17,"map":"workshop/koth_bagel_rc6.ugc2514036946","folder":"tf","game":"Team Fortress","app_id":440,"player_count":0,"max_players":24,"Bots":0,"server_type":"Dedicated","server_os":"Linux","password":true,"vac":true,"version":"7961495","steam_id":85568392924742827,"keywords":["cp","nocrits","nodmgspread","uncletopia"],"game_id":440,"stv_port":27076,"stv_name":"Uncletopia | Frankfurt | 7 | Stopwatch | STV","players":null},{"server_id":24,"name":"Uncletopia | Frankfurt | 8 | Community","name_short":"frk-8","host":"frk-1.de.uncletopia.com","port":27085,"enabled":true,"region":"eu","cc":"de","latitude":50.110924,"longitude":8.682127,"reserved":0,"last_update":"0001-01-01T00:00:00Z","name_a2s":"Uncletopia | Frankfurt | 8 | Community","protocol":17,"map":"workshop/cp_mannbase_rc2a.ugc1900737467","folder":"tf","game":"Team Fortress","app_id":440,"player_count":0,"max_players":24,"Bots":0,"server_type":"Dedicated","server_os":"Linux","password":true,"vac":true,"version":"7961495","steam_id":85568392924742828,"keywords":["cp","nocrits","nodmgspread","uncletopia"],"game_id":440,"stv_port":27086,"stv_name":"Uncletopia | Frankfurt | 8 | Community | STV","players":null},{"server_id":202,"name":"Uncletopia | Hong Kong | 1 | All Maps","name_short":"hgk-1","host":"hgk-1.hk.uncletopia.com","port":27015,"enabled":true,"region":"asia","cc":"hk","latitude":22.302711,"longitude":114.177216,"reserved":0,"last_update":"0001-01-01T00:00:00Z","name_a2s":"Uncletopia | Hong Kong | 1 | All Maps","protocol":17,"map":"pl_snowycoast","folder":"tf","game":"Team Fortress","app_id":440,"player_count":24,"max_players":24,"Bots":0,"server_type":"Dedicated","server_os":"Linux","password":true,"vac":true,"version":"7961495","steam_id":85568392924494504,"keywords":["nocrits","nodmgspread","payload","uncletopia"],"game_id":440,"stv_port":27016,"stv_name":"Uncletopia | Hong Kong | 1 | All Maps | STV","players":[{"user_id":588,"name":"Spookie","steam_id":76561199158560796,"connected_time":320000000000,"state":"active","ping":65},{"user_id":593,"name":"Chris P. Bacon","steam_id":76561198177418225,"connected_time":45000000000,"state":"active","ping":41},{"user_id":574,"name":"pspsps miming","steam_id":76561198337154745,"connected_time":899000000000,"state":"active","ping":84},{"user_id":559,"name":"Puddin","steam_id":76561198140052918,"connected_time":3162000000000,"state":"active","ping":89},{"user_id":494,"name":"Milf (The fan O'Milk)","steam_id":76561198213031155,"connected_time":8481000000000,"state":"active","ping":95},{"user_id":594,"name":"Marika","steam_id":76561198212649929,"connected_time":9000000000,"state":"spawning","ping":93},{"user_id":578,"name":"U・♀・U kitty","steam_id":76561198149684436,"connected_time":884000000000,"state":"active","ping":40},{"user_id":478,"name":"v1.","steam_id":76561198037571054,"connected_time":9607000000000,"state":"active","ping":44},{"user_id":575,"name":"bugspray smoothie","steam_id":76561199146847474,"connected_time":894000000000,"state":"active","ping":46},{"user_id":582,"name":"Othopeus","steam_id":76561198283534382,"connected_time":673000000000,"state":"active","ping":70},{"user_id":590,"name":"Someone","steam_id":76561199243091145,"connected_time":307000000000,"state":"active","ping":98},{"user_id":585,"name":"是Cocoa嗎","steam_id":76561198972098557,"connected_time":329000000000,"state":"active","ping":56},{"user_id":551,"name":"Creaserg","steam_id":76561198827951097,"connected_time":3224000000000,"state":"active","ping":91},{"user_id":581,"name":"xPhid","steam_id":76561199080808930,"connected_time":865000000000,"state":"active","ping":94},{"user_id":591,"name":"へるぷ！","steam_id":76561198136131753,"connected_time":294000000000,"state":"active","ping":177},{"user_id":589,"name":"母の肉団子@hao123.com","steam_id":76561198069561896,"connected_time":319000000000,"state":"active","ping":44},{"user_id":561,"name":"mutwo","steam_id":76561198077043500,"connected_time":2654000000000,"state":"active","ping":78},{"user_id":532,"name":"Ivy","steam_id":76561198400698408,"connected_time":6006000000000,"state":"active","ping":95},{"user_id":587,"name":"Towls","steam_id":76561198064593462,"connected_time":327000000000,"state":"active","ping":86},{"user_id":562,"name":"김광만","steam_id":76561198295279503,"connected_time":2568000000000,"state":"active","ping":82},{"user_id":572,"name":"Samoyed","steam_id":76561198299150410,"connected_time":1122000000000,"state":"active","ping":84},{"user_id":548,"name":"Alka","steam_id":76561198268872312,"connected_time":3431000000000,"state":"active","ping":85},{"user_id":592,"name":"romiku","steam_id":76561198092437483,"connected_time":293000000000,"state":"active","ping":88},{"user_id":568,"name":"allah no.1, gambling no.2","steam_id":76561198113401862,"connected_time":1805000000000,"state":"active","ping":89}]},{"server_id":1,"name":"Uncletopia | Los Angeles | 1 | All Maps","name_short":"lax-1","host":"lax-1.us.uncletopia.com","port":27015,"enabled":true,"region":"us-west","cc":"us","latitude":33.94279,"longitude":-118.41004,"reserved":0,"last_update":"0001-01-01T00:00:00Z","name_a2s":"Uncletopia | Los Angeles | 1 | All Maps","protocol":17,"map":"pl_snowycoast","folder":"tf","game":"Team Fortress","app_id":440,"player_count":0,"max_players":24,"Bots":0,"server_type":"Dedicated","server_os":"Linux","password":true,"vac":true,"version":"7961495","steam_id":85568392924469991,"keywords":["nocrits","nodmgspread","payload","uncletopia"],"game_id":440,"stv_port":27016,"stv_name":"Uncletopia | Los Angeles | 1 | All Maps | STV","players":null},{"server_id":112,"name":"Uncletopia | Los Angeles | 2 | All Maps","name_short":"lax-2","host":"lax-1.us.uncletopia.com","port":27025,"enabled":true,"region":"us-west","cc":"us","latitude":33.94279,"longitude":-118.41004,"reserved":0,"last_update":"0001-01-01T00:00:00Z","name_a2s":"Uncletopia | Los Angeles | 2 | All Maps","protocol":17,"map":"cp_mountainlab","folder":"tf","game":"Team Fortress","app_id":440,"player_count":0,"max_players":24,"Bots":0,"server_type":"Dedicated","server_os":"Linux","password":true,"vac":true,"version":"7961495","steam_id":85568392924469992,"keywords":["cp","nocrits","nodmgspread","uncletopia"],"game_id":440,"stv_port":27026,"stv_name":"Uncletopia | Los Angeles | 2 | All Maps | STV","players":null},{"server_id":324,"name":"Uncletopia | Los Angeles | 3 | All Maps","name_short":"lax-3","host":"lax-1.us.uncletopia.com","port":27035,"enabled":true,"region":"us-west","cc":"us","latitude":33.94279,"longitude":-118.41004,"reserved":0,"last_update":"0001-01-01T00:00:00Z","name_a2s":"Uncletopia | Los Angeles | 3 | All Maps","protocol":17,"map":"pl_frontier_final","folder":"tf","game":"Team Fortress","app_id":440,"player_count":0,"max_players":24,"Bots":0,"server_type":"Dedicated","server_os":"Linux","password":true,"vac":true,"version":"7961495","steam_id":85568392924510198,"keywords":["nocrits","nodmgspread","payload","uncletopia"],"game_id":440,"stv_port":27036,"stv_name":"Uncletopia | Los Angeles | 3 | All Maps | STV","players":null},{"server_id":25,"name":"Uncletopia | Los Angeles | 4 | Stopwatch","name_short":"lax-4","host":"lax-1.us.uncletopia.com","port":27045,"enabled":true,"region":"us-west","cc":"us","latitude":33.94279,"longitude":-118.41004,"reserved":0,"last_update":"0001-01-01T00:00:00Z","name_a2s":"Uncletopia | Los Angeles | 4 | Stopwatch","protocol":17,"map":"pl_barnblitz","folder":"tf","game":"Team Fortress","app_id":440,"player_count":0,"max_players":24,"Bots":0,"server_type":"Dedicated","server_os":"Linux","password":true,"vac":true,"version":"7961495","steam_id":85568392924510199,"keywords":["nocrits","nodmgspread","payload","uncletopia"],"game_id":440,"stv_port":27046,"stv_name":"Uncletopia | Los Angeles | 4 | Stopwatch | STV","players":null},{"server_id":11,"name":"Uncletopia | London | 1 | All Maps","name_short":"lon-1","host":"lon-1.uk.uncletopia.com","port":27015,"enabled":true,"region":"eu","cc":"gb","latitude":51.509865,"longitude":-0.118092,"reserved":0,"last_update":"0001-01-01T00:00:00Z","name_a2s":"Uncletopia | London | 1 | All Maps","protocol":17,"map":"pl_borneo","folder":"tf","game":"Team Fortress","app_id":440,"player_count":24,"max_players":24,"Bots":0,"server_type":"Dedicated","server_os":"Linux","password":true,"vac":true,"version":"7961495","steam_id":85568392924367362,"keywords":["nocrits","nodmgspread","payload","uncletopia"],"game_id":440,"stv_port":27016,"stv_name":"Uncletopia | London | 1 | All Maps | STV","players":[{"user_id":474,"name":"kid bean","steam_id":76561198063328792,"connected_time":1849000000000,"state":"active","ping":98},{"user_id":422,"name":"DrExplosive","steam_id":76561198063678579,"connected_time":5924000000000,"state":"active","ping":44},{"user_id":466,"name":"c1v","steam_id":76561199085624224,"connected_time":1981000000000,"state":"active","ping":65},{"user_id":479,"name":"anson2623","steam_id":76561198147658525,"connected_time":1570000000000,"state":"active","ping":51},{"user_id":486,"name":"Rx07","steam_id":76561199013720618,"connected_time":278000000000,"state":"active","ping":90},{"user_id":452,"name":"Nessieling","steam_id":76561198083556891,"connected_time":3152000000000,"state":"active","ping":85},{"user_id":415,"name":"The Bread Bringer","steam_id":76561198264079743,"connected_time":6137000000000,"state":"active","ping":44},{"user_id":461,"name":"Dr. Funkenstein","steam_id":76561197977816210,"connected_time":2699000000000,"state":"active","ping":62},{"user_id":482,"name":"⸸aura⸸","steam_id":76561198066258544,"connected_time":681000000000,"state":"active","ping":61},{"user_id":481,"name":"whimsy.","steam_id":76561198878171763,"connected_time":818000000000,"state":"active","ping":53},{"user_id":436,"name":"SirToast","steam_id":76561199229729107,"connected_time":4207000000000,"state":"active","ping":75},{"user_id":469,"name":"Slifer","steam_id":76561198062255803,"connected_time":1928000000000,"state":"active","ping":68},{"user_id":480,"name":"BigFudge","steam_id":76561199403590127,"connected_time":829000000000,"state":"active","ping":64},{"user_id":483,"name":"Filip","steam_id":76561198852826447,"connected_time":634000000000,"state":"active","ping":75},{"user_id":443,"name":"Trans Femtress 2","steam_id":76561198014056212,"connected_time":3457000000000,"state":"active","ping":70},{"user_id":464,"name":"Mr.Meeseeks","steam_id":76561198335193881,"connected_time":2170000000000,"state":"active","ping":164},{"user_id":473,"name":"fish?","steam_id":76561198429658370,"connected_time":1867000000000,"state":"active","ping":108},{"user_id":448,"name":"DanFacka","steam_id":76561198980722668,"connected_time":3402000000000,"state":"active","ping":74},{"user_id":427,"name":"Wardruna96","steam_id":76561199057083828,"connected_time":5184000000000,"state":"active","ping":83},{"user_id":451,"name":"spl .davi","steam_id":76561198029015952,"connected_time":3311000000000,"state":"active","ping":66},{"user_id":484,"name":"sushii","steam_id":76561198297987372,"connected_time":567000000000,"state":"active","ping":55},{"user_id":489,"name":"Archer","steam_id":76561197994239444,"connected_time":96000000000,"state":"active","ping":127},{"user_id":429,"name":"Jormag","steam_id":76561198401018345,"connected_time":4883000000000,"state":"active","ping":88},{"user_id":490,"name":"cof","steam_id":76561199128417805,"connected_time":96000000000,"state":"active","ping":64}]},{"server_id":114,"name":"Uncletopia | London | 2 | All Maps","name_short":"lon-2","host":"lon-1.uk.uncletopia.com","port":27025,"enabled":true,"region":"eu","cc":"gb","latitude":51.509865,"longitude":-0.118092,"reserved":0,"last_update":"0001-01-01T00:00:00Z","name_a2s":"Uncletopia | London | 2 | All Maps","protocol":17,"map":"pl_hoodoo_final","folder":"tf","game":"Team Fortress","app_id":440,"player_count":24,"max_players":24,"Bots":0,"server_type":"Dedicated","server_os":"Linux","password":true,"vac":true,"version":"7961495","steam_id":85568392924470941,"keywords":["nocrits","nodmgspread","payload","uncletopia"],"game_id":440,"stv_port":27026,"stv_name":"Uncletopia | London | 2 | All Maps | STV","players":[{"user_id":243,"name":"- 84n4n3n8r07 -","steam_id":76561198047887705,"connected_time":6176000000000,"state":"active","ping":60},{"user_id":294,"name":"Tuosan","steam_id":76561198062611429,"connected_time":2297000000000,"state":"active","ping":88},{"user_id":244,"name":"my mom","steam_id":76561199225201569,"connected_time":6162000000000,"state":"active","ping":107},{"user_id":303,"name":"zezoca 75","steam_id":76561198880439803,"connected_time":1865000000000,"state":"active","ping":90},{"user_id":300,"name":"The Hat Fancier","steam_id":76561198004272825,"connected_time":1934000000000,"state":"active","ping":72},{"user_id":312,"name":"Hooks","steam_id":76561198255557997,"connected_time":1001000000000,"state":"active","ping":90},{"user_id":222,"name":"Flying Squirrel","steam_id":76561198005202791,"connected_time":7516000000000,"state":"active","ping":80},{"user_id":307,"name":"The","steam_id":76561199378865926,"connected_time":1092000000000,"state":"active","ping":143},{"user_id":317,"name":"Alex","steam_id":76561198131191123,"connected_time":138000000000,"state":"active","ping":47},{"user_id":288,"name":"Para Bellum","steam_id":76561198375413446,"connected_time":3191000000000,"state":"active","ping":60},{"user_id":316,"name":"Jughead","steam_id":76561198000355410,"connected_time":412000000000,"state":"active","ping":41},{"user_id":289,"name":"Razor","steam_id":76561197973965174,"connected_time":3016000000000,"state":"active","ping":54},{"user_id":313,"name":"Cabanos","steam_id":76561198285337328,"connected_time":997000000000,"state":"active","ping":75},{"user_id":305,"name":"Abyssion","steam_id":76561198040246963,"connected_time":1813000000000,"state":"active","ping":58},{"user_id":314,"name":"I I | #saveTF2","steam_id":76561199101935057,"connected_time":986000000000,"state":"active","ping":107},{"user_id":304,"name":"Ark-e","steam_id":76561198261870909,"connected_time":1858000000000,"state":"active","ping":40},{"user_id":301,"name":"finbar","steam_id":76561198056812396,"connected_time":1929000000000,"state":"active","ping":76},{"user_id":302,"name":"Fidacha","steam_id":76561198003060881,"connected_time":1870000000000,"state":"active","ping":75},{"user_id":285,"name":"Dr Zoidcrab","steam_id":76561198023709882,"connected_time":3394000000000,"state":"active","ping":42},{"user_id":284,"name":"Man","steam_id":76561197964776022,"connected_time":3458000000000,"state":"active","ping":59},{"user_id":286,"name":"Finem Belli","steam_id":76561198227177976,"connected_time":3381000000000,"state":"active","ping":46},{"user_id":319,"name":"Lebron Raymone James Sr.","steam_id":76561198986493336,"connected_time":18000000000,"state":"active","ping":31},{"user_id":315,"name":"Ricey","steam_id":76561198832961307,"connected_time":951000000000,"state":"active","ping":46},{"user_id":232,"name":"alibi","steam_id":76561198079490000,"connected_time":7300000000000,"state":"active","ping":61}]},{"server_id":320,"name":"Uncletopia | London | 3 | All Maps","name_short":"lon-3","host":"lon-1.uk.uncletopia.com","port":27035,"enabled":true,"region":"eu","cc":"gb","latitude":51.509865,"longitude":-0.118092,"reserved":0,"last_update":"0001-01-01T00:00:00Z","name_a2s":"Uncletopia | London | 3 | All Maps","protocol":17,"map":"cp_powerhouse","folder":"tf","game":"Team Fortress","app_id":440,"player_count":24,"max_players":24,"Bots":0,"server_type":"Dedicated","server_os":"Linux","password":true,"vac":true,"version":"7961495","steam_id":85568392924510192,"keywords":["cp","nocrits","nodmgspread","uncletopia"],"game_id":440,"stv_port":27036,"stv_name":"Uncletopia | London | 3 | All Maps | STV","players":[{"user_id":232,"name":"CrazyTrajce","steam_id":76561199052469254,"connected_time":1331000000000,"state":"active","ping":90},{"user_id":223,"name":"Chris","steam_id":76561198179791702,"connected_time":1893000000000,"state":"active","ping":174},{"user_id":247,"name":"Glowstick Muncher","steam_id":76561198066282859,"connected_time":429000000000,"state":"active","ping":47},{"user_id":249,"name":"..-. .- - / -. ..- -","steam_id":76561198138189069,"connected_time":8000000000,"state":"spawning","ping":47},{"user_id":234,"name":"Worms","steam_id":76561198040442214,"connected_time":1287000000000,"state":"active","ping":45},{"user_id":246,"name":"Lithe","steam_id":76561198097130024,"connected_time":579000000000,"state":"active","ping":56},{"user_id":222,"name":"zayd","steam_id":76561198895235231,"connected_time":2470000000000,"state":"active","ping":58},{"user_id":171,"name":"Pastoss","steam_id":76561198379098260,"connected_time":6784000000000,"state":"active","ping":63},{"user_id":225,"name":"Michael","steam_id":76561198003146906,"connected_time":1689000000000,"state":"active","ping":42},{"user_id":184,"name":"Dan","steam_id":76561198289353288,"connected_time":6101000000000,"state":"active","ping":51},{"user_id":237,"name":"Capn. Wing Ding","steam_id":76561198076068424,"connected_time":1012000000000,"state":"active","ping":136},{"user_id":242,"name":"whatever","steam_id":76561198095943461,"connected_time":617000000000,"state":"active","ping":77},{"user_id":212,"name":":3","steam_id":76561198169471853,"connected_time":3865000000000,"state":"active","ping":41},{"user_id":243,"name":"Wilson","steam_id":76561198992452882,"connected_time":596000000000,"state":"active","ping":78},{"user_id":206,"name":"Humm","steam_id":76561198077768823,"connected_time":4562000000000,"state":"active","ping":93},{"user_id":199,"name":"race car driver jerry","steam_id":76561198054047446,"connected_time":4870000000000,"state":"active","ping":67},{"user_id":218,"name":"goblinninja110","steam_id":76561198269159354,"connected_time":3283000000000,"state":"active","ping":72},{"user_id":231,"name":"Anri Okita's Massive Milkers","steam_id":76561199186352720,"connected_time":1430000000000,"state":"active","ping":63},{"user_id":208,"name":"Tattletails","steam_id":76561198055690341,"connected_time":4173000000000,"state":"active","ping":59},{"user_id":244,"name":"Testicular torsion","steam_id":76561198119547399,"connected_time":593000000000,"state":"active","ping":67},{"user_id":240,"name":"charnock1208","steam_id":76561199090127017,"connected_time":652000000000,"state":"active","ping":52},{"user_id":236,"name":"Princess Fuzz","steam_id":76561198025783000,"connected_time":1259000000000,"state":"active","ping":33},{"user_id":245,"name":"Ixsus\u003c3","steam_id":76561198094756869,"connected_time":586000000000,"state":"active","ping":60},{"user_id":202,"name":"DEMURE","steam_id":76561198263299590,"connected_time":4848000000000,"state":"active","ping":77}]},{"server_id":321,"name":"Uncletopia | London | 4 | All Maps","name_short":"lon-4","host":"lon-1.uk.uncletopia.com","port":27045,"enabled":true,"region":"eu","cc":"gb","latitude":51.509865,"longitude":-0.118092,"reserved":0,"last_update":"0001-01-01T00:00:00Z","name_a2s":"Uncletopia | London | 4 | All Maps","protocol":17,"map":"cp_sunshine","folder":"tf","game":"Team Fortress","app_id":440,"player_count":24,"max_players":24,"Bots":0,"server_type":"Dedicated","server_os":"Linux","password":true,"vac":true,"version":"7961495","steam_id":85568392924510193,"keywords":["cp","nocrits","nodmgspread","uncletopia"],"game_id":440,"stv_port":27046,"stv_name":"Uncletopia | London | 4 | All Maps | STV","players":[{"user_id":342,"name":"Moistie!!","steam_id":76561198989752113,"connected_time":1232000000000,"state":"active","ping":46},{"user_id":319,"name":"bart simpson weed","steam_id":76561198014858762,"connected_time":1871000000000,"state":"active","ping":52},{"user_id":359,"name":"Gentlemann Co.","steam_id":76561197997142921,"connected_time":167000000000,"state":"active","ping":56},{"user_id":326,"name":"Greenmaker","steam_id":76561198060466591,"connected_time":1717000000000,"state":"active","ping":92},{"user_id":360,"name":"jesse pinkman","steam_id":76561198153488940,"connected_time":63000000000,"state":"active","ping":84},{"user_id":300,"name":"Hrrr","steam_id":76561198106920678,"connected_time":2691000000000,"state":"active","ping":40},{"user_id":311,"name":"Dlaf'rferg (she/her)","steam_id":76561198284744735,"connected_time":2174000000000,"state":"active","ping":53},{"user_id":333,"name":"Retrograde_","steam_id":76561198155371354,"connected_time":1669000000000,"state":"active","ping":51},{"user_id":351,"name":"microwavedelights","steam_id":76561199260959455,"connected_time":877000000000,"state":"active","ping":116},{"user_id":289,"name":"Sonnakai","steam_id":76561198051688749,"connected_time":4461000000000,"state":"active","ping":39},{"user_id":354,"name":"im a girl","steam_id":76561198101995942,"connected_time":574000000000,"state":"active","ping":75},{"user_id":296,"name":"JC","steam_id":76561198029213352,"connected_time":3671000000000,"state":"active","ping":37},{"user_id":355,"name":"bingle","steam_id":76561198359413453,"connected_time":509000000000,"state":"active","ping":130},{"user_id":278,"name":"Liam","steam_id":76561198010346323,"connected_time":4681000000000,"state":"active","ping":47},{"user_id":345,"name":"Dr Bondus Bolongus Dongus","steam_id":76561198378657692,"connected_time":1067000000000,"state":"active","ping":47},{"user_id":347,"name":"Jemes","steam_id":76561198055620906,"connected_time":1049000000000,"state":"active","ping":78},{"user_id":348,"name":"Hexagon","steam_id":76561198151205758,"connected_time":1048000000000,"state":"active","ping":55},{"user_id":332,"name":"rob","steam_id":76561198122211848,"connected_time":1693000000000,"state":"active","ping":97},{"user_id":323,"name":"sailor girlboss","steam_id":76561197964754824,"connected_time":1782000000000,"state":"active","ping":74},{"user_id":329,"name":"Canpenbook64","steam_id":76561199195471984,"connected_time":1705000000000,"state":"active","ping":60},{"user_id":357,"name":"que movida","steam_id":76561197966125354,"connected_time":366000000000,"state":"active","ping":78},{"user_id":350,"name":"gpupdate","steam_id":76561198154677956,"connected_time":1040000000000,"state":"active","ping":83},{"user_id":352,"name":"Watermelon","steam_id":76561198078349914,"connected_time":598000000000,"state":"active","ping":54},{"user_id":356,"name":"\u003e,..,\u003c","steam_id":76561198873399744,"connected_time":495000000000,"state":"active","ping":76}]},{"server_id":21,"name":"Uncletopia | London | 5 | All Maps","name_short":"lon-5","host":"lon-1.uk.uncletopia.com","port":27055,"enabled":true,"region":"eu","cc":"gb","latitude":51.509865,"longitude":-0.118092,"reserved":0,"last_update":"0001-01-01T00:00:00Z","name_a2s":"Uncletopia | London | 5 | All Maps","protocol":17,"map":"koth_viaduct","folder":"tf","game":"Team Fortress","app_id":440,"player_count":24,"max_players":24,"Bots":0,"server_type":"Dedicated","server_os":"Linux","password":true,"vac":true,"version":"7961495","steam_id":85568392924742829,"keywords":["cp","nocrits","nodmgspread","uncletopia"],"game_id":440,"stv_port":27056,"stv_name":"Uncletopia | London | 5 | All Maps | STV","players":[{"user_id":111,"name":"LE$KA","steam_id":76561198211434744,"connected_time":157000000000,"state":"active","ping":75},{"user_id":91,"name":"Lessoz","steam_id":76561199211572036,"connected_time":1398000000000,"state":"active","ping":90},{"user_id":22,"name":"JayMaloney","steam_id":76561198050173547,"connected_time":5344000000000,"state":"active","ping":60},{"user_id":23,"name":"Grenouillator","steam_id":76561197991694500,"connected_time":5341000000000,"state":"active","ping":83},{"user_id":112,"name":"General_Solid","steam_id":76561198807269761,"connected_time":127000000000,"state":"active","ping":105},{"user_id":99,"name":"Prox","steam_id":76561198351490981,"connected_time":562000000000,"state":"active","ping":40},{"user_id":110,"name":"rets_","steam_id":76561198061551392,"connected_time":312000000000,"state":"active","ping":65},{"user_id":104,"name":"kul","steam_id":76561198065179630,"connected_time":515000000000,"state":"active","ping":63},{"user_id":55,"name":"pad6z23h8s","steam_id":76561198880756741,"connected_time":3514000000000,"state":"active","ping":72},{"user_id":66,"name":"s3rg_","steam_id":76561198024043213,"connected_time":3244000000000,"state":"active","ping":65},{"user_id":103,"name":"be gay do crime","steam_id":76561198254450468,"connected_time":539000000000,"state":"active","ping":87},{"user_id":107,"name":"vamikzero","steam_id":76561199099042468,"connected_time":395000000000,"state":"active","ping":43},{"user_id":49,"name":"jekk.97","steam_id":76561198146961838,"connected_time":3761000000000,"state":"active","ping":112},{"user_id":108,"name":"Jørn","steam_id":76561199073257952,"connected_time":361000000000,"state":"active","ping":65},{"user_id":63,"name":"Tupac Shakur","steam_id":76561198247651486,"connected_time":3307000000000,"state":"active","ping":115},{"user_id":73,"name":"Juno","steam_id":76561198073839911,"connected_time":3123000000000,"state":"active","ping":60},{"user_id":114,"name":"Draco6257","steam_id":76561199147322448,"connected_time":29000000000,"state":"active","ping":117},{"user_id":78,"name":"GOTTA BLAST","steam_id":76561198452727570,"connected_time":2848000000000,"state":"active","ping":67},{"user_id":90,"name":"XxBenShapiro420xX","steam_id":76561199229373972,"connected_time":1501000000000,"state":"active","ping":64},{"user_id":92,"name":"Tom Cruise","steam_id":76561198871991529,"connected_time":1373000000000,"state":"active","ping":65},{"user_id":61,"name":"WAY TO GO NERDTRON","steam_id":76561198206522056,"connected_time":3399000000000,"state":"active","ping":75},{"user_id":88,"name":"The Wanderers","steam_id":76561198419246129,"connected_time":1824000000000,"state":"active","ping":172},{"user_id":76,"name":"FRIENDSHIP OVER","steam_id":76561198977666346,"connected_time":3032000000000,"state":"active","ping":59},{"user_id":96,"name":"Patatata","steam_id":76561198152188319,"connected_time":698000000000,"state":"active","ping":75}]},{"server_id":22,"name":"Uncletopia | London | 6 | All Maps","name_short":"lon-6","host":"lon-1.uk.uncletopia.com","port":27065,"enabled":true,"region":"eu","cc":"gb","latitude":51.509865,"longitude":-0.118092,"reserved":0,"last_update":"0001-01-01T00:00:00Z","name_a2s":"Uncletopia | London | 6 | All Maps","protocol":17,"map":"koth_viaduct","folder":"tf","game":"Team Fortress","app_id":440,"player_count":0,"max_players":24,"Bots":0,"server_type":"Dedicated","server_os":"Linux","password":true,"vac":true,"version":"7961495","steam_id":85568392924742830,"keywords":["cp","nocrits","nodmgspread","uncletopia"],"game_id":440,"stv_port":27066,"stv_name":"Uncletopia | London | 6 | All Maps | STV","players":null},{"server_id":40,"name":"Uncletopia | London | 7 | Stopwatch","name_short":"lon-7","host":"lon-1.uk.uncletopia.com","port":27075,"enabled":true,"region":"eu","cc":"gb","latitude":51.509865,"longitude":-0.118092,"reserved":0,"last_update":"0001-01-01T00:00:00Z","name_a2s":"Uncletopia | London | 7 | Stopwatch","protocol":17,"map":"workshop/koth_bagel_rc6.ugc2514036946","folder":"tf","game":"Team Fortress","app_id":440,"player_count":0,"max_players":24,"Bots":0,"server_type":"Dedicated","server_os":"Linux","password":true,"vac":true,"version":"7961495","steam_id":85568392924964314,"keywords":["cp","nocrits","nodmgspread","uncletopia"],"game_id":440,"stv_port":27076,"stv_name":"Uncletopia | London | 7 | Stopwatch | STV","players":null},{"server_id":41,"name":"Uncletopia | London | 8 | Community","name_short":"lon-8","host":"lon-1.uk.uncletopia.com","port":27085,"enabled":true,"region":"eu","cc":"gb","latitude":51.509865,"longitude":-0.118092,"reserved":0,"last_update":"0001-01-01T00:00:00Z","name_a2s":"Uncletopia | London | 8 | Community","protocol":17,"map":"workshop/koth_ramjam_rc1.ugc459778887","folder":"tf","game":"Team Fortress","app_id":440,"player_count":0,"max_players":24,"Bots":0,"server_type":"Dedicated","server_os":"Linux","password":true,"vac":true,"version":"7961495","steam_id":85568392924964315,"keywords":["cp","nocrits","nodmgspread","uncletopia"],"game_id":440,"stv_port":27086,"stv_name":"Uncletopia | London | 8 | Community | STV","players":null},{"server_id":300,"name":"Uncletopia | Montréal | 1 | One Thousand Uncles","name_short":"mtl-1","host":"mtl-1.ca.uncletopia.com","port":27015,"enabled":true,"region":"us-east","cc":"ca","latitude":45.50889,"longitude":-73.56167,"reserved":0,"last_update":"0001-01-01T00:00:00Z","name_a2s":"","protocol":0,"map":"","folder":"","game":"","app_id":0,"player_count":9,"max_players":0,"Bots":0,"server_type":"","server_os":"","password":false,"vac":false,"version":"","steam_id":0,"keywords":null,"game_id":0,"stv_port":0,"stv_name":"","players":[{"user_id":94,"name":"JoeFalco","steam_id":76561198064005012,"connected_time":2489000000000,"state":"active","ping":82},{"user_id":95,"name":"bouncypear","steam_id":76561198199800094,"connected_time":1663000000000,"state":"active","ping":66},{"user_id":46,"name":"puffy","steam_id":76561198411347037,"connected_time":6811000000000,"state":"active","ping":58},{"user_id":118,"name":"Beauregard","steam_id":76561197975136040,"connected_time":749000000000,"state":"active","ping":120},{"user_id":119,"name":"Bullet magnet (FIN)","steam_id":76561197975715220,"connected_time":721000000000,"state":"active","ping":153},{"user_id":120,"name":"four30215","steam_id":76561199168118191,"connected_time":715000000000,"state":"active","ping":34},{"user_id":116,"name":"FreonAddict9x19","steam_id":76561198060010824,"connected_time":1344000000000,"state":"active","ping":54},{"user_id":49,"name":"Consolidated Fart","steam_id":76561198924101909,"connected_time":6442000000000,"state":"active","ping":272},{"user_id":50,"name":"Bobby Bigman","steam_id":76561198044679656,"connected_time":6351000000000,"state":"active","ping":267}]},{"server_id":301,"name":"Uncletopia | Montréal | 2 | One Thousand Uncles","name_short":"mtl-2","host":"mtl-1.ca.uncletopia.com","port":27025,"enabled":true,"region":"us-east","cc":"ca","latitude":45.50889,"longitude":-73.56167,"reserved":0,"last_update":"0001-01-01T00:00:00Z","name_a2s":"","protocol":0,"map":"","folder":"","game":"","app_id":0,"player_count":0,"max_players":0,"Bots":0,"server_type":"","server_os":"","password":false,"vac":false,"version":"","steam_id":0,"keywords":null,"game_id":0,"stv_port":0,"stv_name":"","players":null},{"server_id":302,"name":"Uncletopia | Montréal | 3 | One Thousand Uncles","name_short":"mtl-3","host":"mtl-1.ca.uncletopia.com","port":27035,"enabled":true,"region":"us-east","cc":"ca","latitude":45.50889,"longitude":-73.56167,"reserved":0,"last_update":"0001-01-01T00:00:00Z","name_a2s":"","protocol":0,"map":"","folder":"","game":"","app_id":0,"player_count":0,"max_players":0,"Bots":0,"server_type":"","server_os":"","password":false,"vac":false,"version":"","steam_id":0,"keywords":null,"game_id":0,"stv_port":0,"stv_name":"","players":null},{"server_id":13,"name":"Uncletopia | New York City | 1 | All Maps","name_short":"nyc-1","host":"nyc-1.us.uncletopia.com","port":27015,"enabled":true,"region":"us-east","cc":"us","latitude":40.73061,"longitude":-73.93524,"reserved":0,"last_update":"0001-01-01T00:00:00Z","name_a2s":"Uncletopia | New York City | 1 | All Maps","protocol":17,"map":"koth_lakeside_final","folder":"tf","game":"Team Fortress","app_id":440,"player_count":1,"max_players":24,"Bots":0,"server_type":"Dedicated","server_os":"Linux","password":true,"vac":true,"version":"7961495","steam_id":85568392924469993,"keywords":["cp","nocrits","nodmgspread","uncletopia"],"game_id":440,"stv_port":27016,"stv_name":"Uncletopia | New York City | 1 | All Maps | STV","players":[{"user_id":6,"name":"Fish","steam_id":76561199258053772,"connected_time":209000000000,"state":"active","ping":76}]},{"server_id":14,"name":"Uncletopia | New York City | 2 | All Maps","name_short":"nyc-2","host":"nyc-1.us.uncletopia.com","port":27025,"enabled":true,"region":"us-east","cc":"us","latitude":40.73061,"longitude":-73.93524,"reserved":0,"last_update":"0001-01-01T00:00:00Z","name_a2s":"Uncletopia | New York City | 2 | All Maps","protocol":17,"map":"pl_barnblitz","folder":"tf","game":"Team Fortress","app_id":440,"player_count":23,"max_players":24,"Bots":0,"server_type":"Dedicated","server_os":"Linux","password":true,"vac":true,"version":"7961495","steam_id":85568392924469994,"keywords":["nocrits","nodmgspread","payload","uncletopia"],"game_id":440,"stv_port":27026,"stv_name":"Uncletopia | New York City | 2 | All Maps | STV","players":[{"user_id":74,"name":"IM GOING TO DIE","steam_id":76561199299251255,"connected_time":751000000000,"state":"active","ping":81},{"user_id":73,"name":"STONEWALL JACKSON","steam_id":76561199500876333,"connected_time":872000000000,"state":"active","ping":72},{"user_id":75,"name":"King Sans","steam_id":76561198294198517,"connected_time":697000000000,"state":"active","ping":43},{"user_id":80,"name":"MajorPancake","steam_id":76561198068713831,"connected_time":279000000000,"state":"active","ping":52},{"user_id":10,"name":"vastrobotmax","steam_id":76561198417110724,"connected_time":5747000000000,"state":"active","ping":79},{"user_id":84,"name":"smokecloud","steam_id":76561198136296903,"connected_time":57000000000,"state":"active","ping":60},{"user_id":51,"name":"Conscious Entity","steam_id":76561198079985773,"connected_time":3067000000000,"state":"active","ping":54},{"user_id":42,"name":"Gravity15","steam_id":76561198349863412,"connected_time":4285000000000,"state":"active","ping":60},{"user_id":70,"name":"he suckin on my rick til i mort","steam_id":76561198310711692,"connected_time":1146000000000,"state":"active","ping":167},{"user_id":53,"name":"나무 먹는 사람","steam_id":76561198167893972,"connected_time":3015000000000,"state":"active","ping":81},{"user_id":39,"name":"Adrianchito","steam_id":76561198889613699,"connected_time":4877000000000,"state":"active","ping":169},{"user_id":57,"name":"PzVIIIMaus","steam_id":76561198346559365,"connected_time":2655000000000,"state":"active","ping":56},{"user_id":71,"name":"Cute Bulge","steam_id":76561198155494332,"connected_time":1123000000000,"state":"active","ping":120},{"user_id":65,"name":"Blue Sea","steam_id":76561198156077339,"connected_time":1499000000000,"state":"active","ping":113},{"user_id":63,"name":"AverageGloop","steam_id":76561198243395378,"connected_time":1732000000000,"state":"active","ping":45},{"user_id":77,"name":"Philo","steam_id":76561198061873341,"connected_time":664000000000,"state":"active","ping":90},{"user_id":55,"name":"govermnet goevernm senat senat","steam_id":76561198353215270,"connected_time":2817000000000,"state":"active","ping":57},{"user_id":52,"name":"Sir Rimmington","steam_id":76561198019476636,"connected_time":3046000000000,"state":"active","ping":69},{"user_id":59,"name":"c tommy","steam_id":76561198094037582,"connected_time":2319000000000,"state":"active","ping":55},{"user_id":37,"name":"Shapeshiftertrue","steam_id":76561198440835095,"connected_time":5003000000000,"state":"active","ping":79},{"user_id":34,"name":"NavysealDemoman","steam_id":76561199048625312,"connected_time":5024000000000,"state":"active","ping":56},{"user_id":82,"name":"Sputnuts","steam_id":76561198236857310,"connected_time":236000000000,"state":"active","ping":44},{"user_id":78,"name":"DamerDoozle","steam_id":76561199121686201,"connected_time":605000000000,"state":"active","ping":73}]},{"server_id":15,"name":"Uncletopia | New York City | 3 | Stopwatch","name_short":"nyc-3","host":"nyc-1.us.uncletopia.com","port":27035,"enabled":true,"region":"us-east","cc":"us","latitude":40.73061,"longitude":-73.93524,"reserved":0,"last_update":"0001-01-01T00:00:00Z","name_a2s":"Uncletopia | New York City | 3 | Stopwatch","protocol":17,"map":"koth_lakeside_final","folder":"tf","game":"Team Fortress","app_id":440,"player_count":0,"max_players":24,"Bots":0,"server_type":"Dedicated","server_os":"Linux","password":true,"vac":true,"version":"7961495","steam_id":85568392924742820,"keywords":["cp","nocrits","nodmgspread","uncletopia"],"game_id":440,"stv_port":27036,"stv_name":"Uncletopia | New York City | 3 | Stopwatch | STV","players":null},{"server_id":16,"name":"Uncletopia | New York City | 4 | Community","name_short":"nyc-4","host":"nyc-1.us.uncletopia.com","port":27045,"enabled":true,"region":"us-east","cc":"us","latitude":40.73061,"longitude":-73.93524,"reserved":0,"last_update":"0001-01-01T00:00:00Z","name_a2s":"Uncletopia | New York City | 4 | Community","protocol":17,"map":"workshop/koth_synthetic_rc6a.ugc1549817316","folder":"tf","game":"Team Fortress","app_id":440,"player_count":0,"max_players":24,"Bots":0,"server_type":"Dedicated","server_os":"Linux","password":true,"vac":true,"version":"7961495","steam_id":85568392924742821,"keywords":["cp","nocrits","nodmgspread","uncletopia"],"game_id":440,"stv_port":27046,"stv_name":"Uncletopia | New York City | 4 | Community | STV","players":null},{"server_id":142,"name":"Uncletopia | São Paulo | 1 | All Maps","name_short":"sao-1","host":"sao-1.br.uncletopia.com","port":27015,"enabled":true,"region":"sa","cc":"br","latitude":-23.533773,"longitude":-46.62529,"reserved":0,"last_update":"0001-01-01T00:00:00Z","name_a2s":"Uncletopia | São Paulo | 1 | All Maps","protocol":17,"map":"cp_mountainlab","folder":"tf","game":"Team Fortress","app_id":440,"player_count":0,"max_players":24,"Bots":0,"server_type":"Dedicated","server_os":"Linux","password":true,"vac":true,"version":"7961495","steam_id":85568392924469996,"keywords":["cp","nocrits","nodmgspread","uncletopia"],"game_id":440,"stv_port":27016,"stv_name":"Uncletopia | São Paulo | 1 | All Maps | STV","players":null},{"server_id":143,"name":"Uncletopia | São Paulo | 2 | Community","name_short":"sao-2","host":"sao-2.br.uncletopia.com","port":27015,"enabled":true,"region":"sa","cc":"br","latitude":-23.533773,"longitude":-46.62529,"reserved":0,"last_update":"0001-01-01T00:00:00Z","name_a2s":"Uncletopia | São Paulo | 2 | Community","protocol":17,"map":"workshop/cp_croissant_final.ugc458840209","folder":"tf","game":"Team Fortress","app_id":440,"player_count":1,"max_players":24,"Bots":0,"server_type":"Dedicated","server_os":"Linux","password":true,"vac":true,"version":"7961495","steam_id":85568392924485349,"keywords":["cp","nocrits","nodmgspread","uncletopia"],"game_id":440,"stv_port":27016,"stv_name":"Uncletopia | São Paulo | 2 | Community | STV","players":[{"user_id":4,"name":"Otaah","steam_id":76561199072374071,"connected_time":119000000000,"state":"spawning","ping":70}]},{"server_id":7,"name":"Uncletopia | Seattle | 1 | All Maps","name_short":"sea-1","host":"sea-1.us.uncletopia.com","port":27015,"enabled":true,"region":"us-west","cc":"us","latitude":47.608013,"longitude":-122.33517,"reserved":0,"last_update":"0001-01-01T00:00:00Z","name_a2s":"Uncletopia | Seattle | 1 | All Maps","protocol":17,"map":"cp_sunshine","folder":"tf","game":"Team Fortress","app_id":440,"player_count":0,"max_players":24,"Bots":0,"server_type":"Dedicated","server_os":"Linux","password":true,"vac":true,"version":"7961495","steam_id":85568392924469997,"keywords":["cp","nocrits","nodmgspread","uncletopia"],"game_id":440,"stv_port":27016,"stv_name":"Uncletopia | Seattle | 1 | All Maps | STV","players":null},{"server_id":119,"name":"Uncletopia | Seattle | 2 | All Maps","name_short":"sea-2","host":"sea-1.us.uncletopia.com","port":27025,"enabled":true,"region":"us-west","cc":"us","latitude":47.608013,"longitude":-122.33517,"reserved":0,"last_update":"0001-01-01T00:00:00Z","name_a2s":"Uncletopia | Seattle | 2 | All Maps","protocol":17,"map":"pl_pier","folder":"tf","game":"Team Fortress","app_id":440,"player_count":0,"max_players":24,"Bots":0,"server_type":"Dedicated","server_os":"Linux","password":true,"vac":true,"version":"7961495","steam_id":85568392924469998,"keywords":["nocrits","nodmgspread","payload","uncletopia"],"game_id":440,"stv_port":27026,"stv_name":"Uncletopia | Seattle | 2 | All Maps | STV","players":null},{"server_id":406,"name":"Uncletopia | Seattle | 3 | Stopwatch","name_short":"sea-3","host":"sea-1.us.uncletopia.com","port":27035,"enabled":true,"region":"us-west","cc":"us","latitude":47.608013,"longitude":-122.33517,"reserved":0,"last_update":"0001-01-01T00:00:00Z","name_a2s":"Uncletopia | Seattle | 3 | Stopwatch","protocol":17,"map":"pl_pier","folder":"tf","game":"Team Fortress","app_id":440,"player_count":0,"max_players":24,"Bots":0,"server_type":"Dedicated","server_os":"Linux","password":true,"vac":true,"version":"7961495","steam_id":85568392924515217,"keywords":["nocrits","nodmgspread","payload","uncletopia"],"game_id":440,"stv_port":27036,"stv_name":"Uncletopia | Seattle | 3 | Stopwatch | STV","players":null},{"server_id":17,"name":"Uncletopia | San Francisco | 1 | All Maps","name_short":"sfo-1","host":"sfo-1.us.uncletopia.com","port":27015,"enabled":true,"region":"us-west","cc":"us","latitude":37.77397,"longitude":-122.4313,"reserved":0,"last_update":"0001-01-01T00:00:00Z","name_a2s":"Uncletopia | San Francisco | 1 | All Maps","protocol":17,"map":"koth_cascade","folder":"tf","game":"Team Fortress","app_id":440,"player_count":0,"max_players":24,"Bots":0,"server_type":"Dedicated","server_os":"Linux","password":true,"vac":true,"version":"7961495","steam_id":85568392924469999,"keywords":["cp","nocrits","nodmgspread","uncletopia"],"game_id":440,"stv_port":27016,"stv_name":"Uncletopia | San Francisco | 1 | All Maps | STV","players":null},{"server_id":18,"name":"Uncletopia | San Francisco | 2 | All Maps","name_short":"sfo-2","host":"sfo-1.us.uncletopia.com","port":27025,"enabled":true,"region":"us-west","cc":"us","latitude":37.77397,"longitude":-122.4313,"reserved":0,"last_update":"0001-01-01T00:00:00Z","name_a2s":"Uncletopia | San Francisco | 2 | All Maps","protocol":17,"map":"cp_dustbowl","folder":"tf","game":"Team Fortress","app_id":440,"player_count":0,"max_players":24,"Bots":0,"server_type":"Dedicated","server_os":"Linux","password":true,"vac":true,"version":"7961495","steam_id":85568392924470000,"keywords":["cp","nocrits","nodmgspread","uncletopia"],"game_id":440,"stv_port":27026,"stv_name":"Uncletopia | San Francisco | 2 | All Maps | STV","players":null},{"server_id":19,"name":"Uncletopia | San Francisco | 3 | Stopwatch","name_short":"sfo-3","host":"sfo-1.us.uncletopia.com","port":27035,"enabled":true,"region":"us-west","cc":"us","latitude":37.77397,"longitude":-122.4313,"reserved":0,"last_update":"0001-01-01T00:00:00Z","name_a2s":"Uncletopia | San Francisco | 3 | Stopwatch","protocol":17,"map":"pl_pier","folder":"tf","game":"Team Fortress","app_id":440,"player_count":0,"max_players":24,"Bots":0,"server_type":"Dedicated","server_os":"Linux","password":true,"vac":true,"version":"7961495","steam_id":85568392924742824,"keywords":["nocrits","nodmgspread","payload","uncletopia"],"game_id":440,"stv_port":27036,"stv_name":"Uncletopia | San Francisco | 3 | Stopwatch | STV","players":null},{"server_id":20,"name":"Uncletopia | San Francisco | 4 | Community","name_short":"sfo-4","host":"sfo-1.us.uncletopia.com","port":27045,"enabled":true,"region":"us-west","cc":"us","latitude":37.77397,"longitude":-122.4313,"reserved":0,"last_update":"0001-01-01T00:00:00Z","name_a2s":"Uncletopia | San Francisco | 4 | Community","protocol":17,"map":"pl_pier","folder":"tf","game":"Team Fortress","app_id":440,"player_count":0,"max_players":24,"Bots":0,"server_type":"Dedicated","server_os":"Linux","password":true,"vac":true,"version":"7961495","steam_id":85568392924742826,"keywords":["nocrits","nodmgspread","payload","uncletopia"],"game_id":440,"stv_port":27046,"stv_name":"Uncletopia | San Francisco | 4 | Community | STV","players":null},{"server_id":141,"name":"Uncletopia | Sydney | 1 | All Maps","name_short":"syd-1","host":"syd-1.au.uncletopia.com","port":27015,"enabled":true,"region":"au","cc":"au","latitude":-33.865143,"longitude":151.2099,"reserved":0,"last_update":"0001-01-01T00:00:00Z","name_a2s":"Uncletopia | Sydney | 1 | All Maps","protocol":17,"map":"koth_viaduct","folder":"tf","game":"Team Fortress","app_id":440,"player_count":0,"max_players":24,"Bots":0,"server_type":"Dedicated","server_os":"Linux","password":true,"vac":true,"version":"7961495","steam_id":85568392924470001,"keywords":["cp","nocrits","nodmgspread","uncletopia"],"game_id":440,"stv_port":27016,"stv_name":"Uncletopia | Sydney | 1 | All Maps | STV","players":null},{"server_id":123,"name":"Uncletopia | Sydney | 2 | All Maps","name_short":"syd-2","host":"syd-1.au.uncletopia.com","port":27025,"enabled":true,"region":"au","cc":"au","latitude":-33.865143,"longitude":151.2099,"reserved":0,"last_update":"0001-01-01T00:00:00Z","name_a2s":"Uncletopia | Sydney | 2 | All Maps","protocol":17,"map":"cp_snakewater_final1","folder":"tf","game":"Team Fortress","app_id":440,"player_count":0,"max_players":24,"Bots":0,"server_type":"Dedicated","server_os":"Linux","password":true,"vac":true,"version":"7961495","steam_id":85568392924470002,"keywords":["cp","nocrits","nodmgspread","uncletopia"],"game_id":440,"stv_port":27026,"stv_name":"Uncletopia | Sydney | 2 | All Maps | STV","players":null},{"server_id":395,"name":"Uncletopia | Sydney | 3 | All Maps","name_short":"syd-3","host":"syd-1.au.uncletopia.com","port":27035,"enabled":true,"region":"au","cc":"au","latitude":-33.865143,"longitude":151.2099,"reserved":0,"last_update":"0001-01-01T00:00:00Z","name_a2s":"Uncletopia | Sydney | 3 | All Maps","protocol":17,"map":"koth_lakeside_final","folder":"tf","game":"Team Fortress","app_id":440,"player_count":0,"max_players":24,"Bots":0,"server_type":"Dedicated","server_os":"Linux","password":true,"vac":true,"version":"7961495","steam_id":85568392925194467,"keywords":["cp","nocrits","nodmgspread","uncletopia"],"game_id":440,"stv_port":27036,"stv_name":"Uncletopia | Sydney | 3 | All Maps | STV","players":null},{"server_id":396,"name":"Uncletopia | Sydney | 4 | All Maps","name_short":"syd-4","host":"syd-1.au.uncletopia.com","port":27045,"enabled":true,"region":"au","cc":"au","latitude":-33.865143,"longitude":151.2099,"reserved":0,"last_update":"0001-01-01T00:00:00Z","name_a2s":"Uncletopia | Sydney | 4 | All Maps","protocol":17,"map":"koth_highpass","folder":"tf","game":"Team Fortress","app_id":440,"player_count":0,"max_players":24,"Bots":0,"server_type":"Dedicated","server_os":"Linux","password":true,"vac":true,"version":"7961495","steam_id":85568392925397958,"keywords":["cp","nocrits","nodmgspread","uncletopia"],"game_id":440,"stv_port":27046,"stv_name":"Uncletopia | Sydney | 4 | All Maps | STV","players":null},{"server_id":58,"name":"Uncletopia | Sydney | 5 | Stopwatch","name_short":"syd-5","host":"syd-1.au.uncletopia.com","port":27055,"enabled":true,"region":"au","cc":"au","latitude":-33.865143,"longitude":151.2099,"reserved":0,"last_update":"0001-01-01T00:00:00Z","name_a2s":"Uncletopia | Sydney | 5 | Stopwatch","protocol":17,"map":"koth_highpass","folder":"tf","game":"Team Fortress","app_id":440,"player_count":0,"max_players":24,"Bots":0,"server_type":"Dedicated","server_os":"Linux","password":true,"vac":true,"version":"7961495","steam_id":85568392925397959,"keywords":["cp","nocrits","nodmgspread","uncletopia"],"game_id":440,"stv_port":27056,"stv_name":"Uncletopia | Sydney | 5 | Stopwatch | STV","players":null},{"server_id":59,"name":"Uncletopia | Sydney | 6 | Community","name_short":"syd-6","host":"syd-1.au.uncletopia.com","port":27065,"enabled":true,"region":"au","cc":"au","latitude":-33.865143,"longitude":151.2099,"reserved":0,"last_update":"0001-01-01T00:00:00Z","name_a2s":"Uncletopia | Sydney | 6 | Community","protocol":17,"map":"workshop/pl_fifthcurve_rc1.ugc648227046","folder":"tf","game":"Team Fortress","app_id":440,"player_count":0,"max_players":24,"Bots":0,"server_type":"Dedicated","server_os":"Linux","password":true,"vac":true,"version":"7961495","steam_id":85568392925397960,"keywords":["nocrits","nodmgspread","payload","uncletopia"],"game_id":440,"stv_port":27066,"stv_name":"Uncletopia | Sydney | 6 | Community | STV","players":null},{"server_id":49,"name":"Uncletopia | Warsaw | 1 | One Thousand Uncles","name_short":"waw-1","host":"waw-1.pl.uncletopia.com","port":27015,"enabled":true,"region":"eu","cc":"pl","latitude":52.2297,"longitude":21.017532,"reserved":0,"last_update":"0001-01-01T00:00:00Z","name_a2s":"Uncletopia | Warsaw | 1 | One Thousand Uncles","protocol":17,"map":"cp_mossrock","folder":"tf","game":"Team Fortress","app_id":440,"player_count":22,"max_players":32,"Bots":16,"server_type":"Dedicated","server_os":"Linux","password":true,"vac":true,"version":"7961495","steam_id":85568392925397850,"keywords":["alltalk","bots","cp","danepve","increased_maxplayers","nocrits","norespawntime","uncletopia"],"game_id":440,"stv_port":0,"stv_name":"","players":[{"user_id":474,"name":"svyat.hodorov","steam_id":76561199230663060,"connected_time":3478000000000,"state":"active","ping":58},{"user_id":481,"name":"𝒯𝓇𝓊𝓈𝓁𝒶𝓋228","steam_id":76561199229195988,"connected_time":3067000000000,"state":"active","ping":94},{"user_id":489,"name":"NoLongerSwiming","steam_id":76561199408731222,"connected_time":2183000000000,"state":"active","ping":100},{"user_id":523,"name":"?TheEnd","steam_id":76561198055280327,"connected_time":38000000000,"state":"active","ping":49},{"user_id":501,"name":"Charmedelf","steam_id":76561197993611881,"connected_time":935000000000,"state":"active","ping":70},{"user_id":499,"name":"Dosi","steam_id":76561199032025182,"connected_time":994000000000,"state":"active","ping":43}]},{"server_id":50,"name":"Uncletopia | Warsaw | 2 | One Thousand Uncles","name_short":"waw-2","host":"waw-1.pl.uncletopia.com","port":27025,"enabled":true,"region":"eu","cc":"pl","latitude":52.2297,"longitude":21.017532,"reserved":0,"last_update":"0001-01-01T00:00:00Z","name_a2s":"Uncletopia | Warsaw | 2 | One Thousand Uncles","protocol":17,"map":"pl_chilly","folder":"tf","game":"Team Fortress","app_id":440,"player_count":0,"max_players":32,"Bots":0,"server_type":"Dedicated","server_os":"Linux","password":true,"vac":true,"version":"7961495","steam_id":85568392925397851,"keywords":["alltalk","danepve","increased_maxplayers","nocrits","norespawntime","payload","uncletopia"],"game_id":440,"stv_port":0,"stv_name":"","players":null},{"server_id":51,"name":"Uncletopia | Warsaw | 3 | All Maps","name_short":"waw-3","host":"waw-1.pl.uncletopia.com","port":27035,"enabled":true,"region":"eu","cc":"pl","latitude":52.2297,"longitude":21.017532,"reserved":0,"last_update":"0001-01-01T00:00:00Z","name_a2s":"Uncletopia | Warsaw | 3 | All Maps","protocol":17,"map":"pl_barnblitz","folder":"tf","game":"Team Fortress","app_id":440,"player_count":5,"max_players":24,"Bots":0,"server_type":"Dedicated","server_os":"Linux","password":true,"vac":true,"version":"7961495","steam_id":85568392925397852,"keywords":["nocrits","nodmgspread","payload","uncletopia"],"game_id":440,"stv_port":27036,"stv_name":"Uncletopia | Warsaw | 3 | All Maps | STV","players":[{"user_id":25,"name":"Piquesque","steam_id":76561198286763046,"connected_time":30000000000,"state":"active","ping":114},{"user_id":16,"name":"Spyslenikov","steam_id":76561199500736278,"connected_time":2726000000000,"state":"active","ping":148},{"user_id":11,"name":"Mabert","steam_id":76561198436058407,"connected_time":3230000000000,"state":"active","ping":54},{"user_id":12,"name":"ashi","steam_id":76561198424646794,"connected_time":3220000000000,"state":"active","ping":75},{"user_id":23,"name":"MisterLegitimate","steam_id":76561199198559715,"connected_time":347000000000,"state":"active","ping":83}]},{"server_id":52,"name":"Uncletopia | Warsaw | 4 | All Maps","name_short":"waw-4","host":"waw-1.pl.uncletopia.com","port":27045,"enabled":true,"region":"eu","cc":"pl","latitude":52.2297,"longitude":21.017532,"reserved":0,"last_update":"0001-01-01T00:00:00Z","name_a2s":"Uncletopia | Warsaw | 4 | All Maps","protocol":17,"map":"koth_cascade","folder":"tf","game":"Team Fortress","app_id":440,"player_count":0,"max_players":24,"Bots":0,"server_type":"Dedicated","server_os":"Linux","password":true,"vac":true,"version":"7961495","steam_id":85568392925397853,"keywords":["cp","nocrits","nodmgspread","uncletopia"],"game_id":440,"stv_port":27046,"stv_name":"Uncletopia | Warsaw | 4 | All Maps | STV","players":null},{"server_id":53,"name":"Uncletopia | Warsaw | 5 | Stopwatch","name_short":"waw-5","host":"waw-1.pl.uncletopia.com","port":27055,"enabled":true,"region":"eu","cc":"pl","latitude":52.2297,"longitude":21.017532,"reserved":0,"last_update":"0001-01-01T00:00:00Z","name_a2s":"Uncletopia | Warsaw | 5 | Stopwatch","protocol":17,"map":"workshop/koth_ashville_final.ugc2130459942","folder":"tf","game":"Team Fortress","app_id":440,"player_count":0,"max_players":24,"Bots":0,"server_type":"Dedicated","server_os":"Linux","password":true,"vac":true,"version":"7961495","steam_id":85568392925397854,"keywords":["cp","nocrits","nodmgspread","uncletopia"],"game_id":440,"stv_port":27056,"stv_name":"Uncletopia | Warsaw | 5 | Stopwatch | STV","players":null},{"server_id":54,"name":"Uncletopia | Warsaw | 6 | Community","name_short":"waw-6","host":"waw-1.pl.uncletopia.com","port":27065,"enabled":true,"region":"eu","cc":"pl","latitude":52.2297,"longitude":21.017532,"reserved":0,"last_update":"0001-01-01T00:00:00Z","name_a2s":"Uncletopia | Warsaw | 6 | Community","protocol":17,"map":"workshop/cp_mannbase_rc2a.ugc1900737467","folder":"tf","game":"Team Fortress","app_id":440,"player_count":0,"max_players":24,"Bots":0,"server_type":"Dedicated","server_os":"Linux","password":true,"vac":true,"version":"7961495","steam_id":85568392925397856,"keywords":["cp","nocrits","nodmgspread","uncletopia"],"game_id":440,"stv_port":27066,"stv_name":"Uncletopia | Warsaw | 6 | Community | STV","players":null}]}