{"status":true,"message":"","result":[{"server_id":9,"name":"Uncletopia | Atlanta | 1 | All Maps","name_short":"atl-1","host":"atl-1.us.uncletopia.com","port":27015,"enabled":true,"region":"us-east","cc":"us","latitude":33.753746,"longitude":-84.38633,"reserved":0,"last_update":"0001-01-01T00:00:00Z","name_a2s":"Uncletopia | Atlanta | 1 | All Maps","protocol":17,"map":"pl_borneo","folder":"tf","game":"Team Fortress","app_id":440,"player_count":24,"max_players":24,"Bots":0,"server_type":"Dedicated","server_os":"Linux","password":true,"vac":true,"version":"7742253","steam_id":85568392924469982,"keywords":["nocrits","nodmgspread","payload","uncletopia"],"game_id":440,"stv_port":27016,"stv_name":"Uncletopia | Atlanta | 1 | All Maps | STV","players":[{"user_id":342,"name":"Snorty","steam_id":76561198114304454,"connected_time":4773000000000,"state":"active","ping":70},{"user_id":373,"name":"apcsmoore","steam_id":76561199124727793,"connected_time":2231000000000,"state":"active","ping":68},{"user_id":374,"name":"Ronin Grinch","steam_id":76561198041439581,"connected_time":2160000000000,"state":"active","ping":72},{"user_id":375,"name":"Summon Ketamine Ape","steam_id":76561198143132686,"connected_time":1895000000000,"state":"active","ping":91},{"user_id":384,"name":"stardusttt","steam_id":76561198413930183,"connected_time":911000000000,"state":"active","ping":65},{"user_id":385,"name":"knotsofunny","steam_id":76561198071336304,"connected_time":910000000000,"state":"active","ping":72},{"user_id":379,"name":"ninepappel","steam_id":76561198842091244,"connected_time":1371000000000,"state":"active","ping":105},{"user_id":378,"name":"DuckMann","steam_id":76561198197058638,"connected_time":1475000000000,"state":"active","ping":66},{"user_id":380,"name":"Love","steam_id":76561198121692871,"connected_time":1354000000000,"state":"active","ping":78},{"user_id":371,"name":"ash","steam_id":76561198127890645,"connected_time":2306000000000,"state":"active","ping":60},{"user_id":387,"name":"board certified monkey","steam_id":76561198310502474,"connected_time":840000000000,"state":"active","ping":68},{"user_id":347,"name":"fi_ji","steam_id":76561198126087725,"connected_time":4328000000000,"state":"active","ping":71},{"user_id":355,"name":"DO NOT call me BART SIMPSON!!","steam_id":76561198069113375,"connected_time":3857000000000,"state":"active","ping":87},{"user_id":383,"name":"floofy","steam_id":76561198389769098,"connected_time":1133000000000,"state":"active","ping":84},{"user_id":305,"name":"DrStarBucksCoffee","steam_id":76561198037372470,"connected_time":7653000000000,"state":"active","ping":77},{"user_id":343,"name":"PancreazOverdoz","steam_id":76561199234377456,"connected_time":4699000000000,"state":"active","ping":86},{"user_id":388,"name":"Walla","steam_id":76561198103379757,"connected_time":767000000000,"state":"active","ping":73},{"user_id":389,"name":"MaryJanee","steam_id":76561198072200952,"connected_time":765000000000,"state":"active","ping":124},{"user_id":368,"name":"i \u003c3 poptarts #saveTF2","steam_id":76561199057354397,"connected_time":2595000000000,"state":"active","ping":71},{"user_id":376,"name":"Karate","steam_id":76561198352187445,"connected_time":1756000000000,"state":"active","ping":54},{"user_id":366,"name":"god approaches","steam_id":76561198081617990,"connected_time":2651000000000,"state":"active","ping":112},{"user_id":386,"name":"vordhosbn","steam_id":76561198148132163,"connected_time":908000000000,"state":"active","ping":89},{"user_id":372,"name":"Alt","steam_id":76561197992591984,"connected_time":2304000000000,"state":"active","ping":88},{"user_id":390,"name":"Plan \"E=mc^2\"","steam_id":76561198170688507,"connected_time":741000000000,"state":"active","ping":85}]},{"server_id":400,"name":"Uncletopia | Atlanta | 3 | Stopwatch Beta","name_short":"atl-3","host":"atl-1.us.uncletopia.com","port":27035,"enabled":true,"region":"us-east","cc":"us","latitude":33.753746,"longitude":-84.38633,"reserved":0,"last_update":"0001-01-01T00:00:00Z","name_a2s":"Uncletopia | Atlanta | 3 | Stopwatch Beta","protocol":17,"map":"pl_pier","folder":"tf","game":"Team Fortress","app_id":440,"player_count":0,"max_players":24,"Bots":0,"server_type":"Dedicated","server_os":"Linux","password":true,"vac":true,"version":"7742253","steam_id":85568392924515187,"keywords":["nocrits","nodmgspread","payload","uncletopia"],"game_id":440,"stv_port":27036,"stv_name":"Uncletopia | Atlanta | 3 | Stopwatch Beta | STV","players":null},{"server_id":401,"name":"Uncletopia | Atlanta | 4 | No Payload","name_short":"atl-4","host":"atl-1.us.uncletopia.com","port":27045,"enabled":true,"region":"us-east","cc":"us","latitude":33.753746,"longitude":-84.38633,"reserved":0,"last_update":"0001-01-01T00:00:00Z","name_a2s":"Uncletopia | Atlanta | 4 | No Payload","protocol":17,"map":"pl_pier","folder":"tf","game":"Team Fortress","app_id":440,"player_count":0,"max_players":24,"Bots":0,"server_type":"Dedicated","server_os":"Linux","password":true,"vac":true,"version":"7723704","steam_id":85568392924515188,"keywords":["nocrits","nodmgspread","payload","uncletopia"],"game_id":440,"stv_port":27046,"stv_name":"Uncletopia | Atlanta | 4 | No Payload | STV","players":null},{"server_id":2,"name":"Uncletopia | Chicago | 1 | All Maps","name_short":"chi-1","host":"chi-1.us.uncletopia.com","port":27015,"enabled":true,"region":"us-central","cc":"us","latitude":41.881832,"longitude":-87.62318,"reserved":0,"last_update":"0001-01-01T00:00:00Z","name_a2s":"Uncletopia | Chicago | 1 | All Maps","protocol":17,"map":"pl_pier","folder":"tf","game":"Team Fortress","app_id":440,"player_count":24,"max_players":24,"Bots":0,"server_type":"Dedicated","server_os":"Linux","password":true,"vac":true,"version":"7742253","steam_id":85568392924469984,"keywords":["nocrits","nodmgspread","payload","uncletopia"],"game_id":440,"stv_port":27016,"stv_name":"Uncletopia | Chicago | 1 | All Maps | STV","players":[{"user_id":362,"name":"ch","steam_id":76561198012566405,"connected_time":3122000000000,"state":"active","ping":71},{"user_id":381,"name":"Totouri","steam_id":76561198004229789,"connected_time":1468000000000,"state":"active","ping":60},{"user_id":402,"name":"blob","steam_id":76561198122375328,"connected_time":388000000000,"state":"active","ping":60},{"user_id":357,"name":"‚ô• Femboy‚ô•Ventily ‚ô•","steam_id":76561198157260335,"connected_time":3452000000000,"state":"active","ping":57},{"user_id":360,"name":"T.w¬≤ | Sliced Bread","steam_id":76561198128489595,"connected_time":3139000000000,"state":"active","ping":74},{"user_id":371,"name":"Fudgely","steam_id":76561198039425862,"connected_time":2820000000000,"state":"active","ping":61},{"user_id":346,"name":"-œÄ- BakaD","steam_id":76561197960559169,"connected_time":4143000000000,"state":"active","ping":54},{"user_id":236,"name":"the deadliest pyroshark","steam_id":76561198374227766,"connected_time":12697000000000,"state":"active","ping":60},{"user_id":403,"name":"Candy Sparkles","steam_id":76561198126871264,"connected_time":343000000000,"state":"active","ping":80},{"user_id":392,"name":"*literally heresy*","steam_id":76561198129718241,"connected_time":871000000000,"state":"active","ping":69},{"user_id":394,"name":"ItsDonut","steam_id":76561198862163064,"connected_time":818000000000,"state":"active","ping":75},{"user_id":404,"name":"Crab12","steam_id":76561198398818373,"connected_time":320000000000,"state":"active","ping":94},{"user_id":395,"name":"GuyGoom","steam_id":76561198254522178,"connected_time":682000000000,"state":"active","ping":57},{"user_id":384,"name":"poogestisi","steam_id":76561198262572343,"connected_time":1447000000000,"state":"active","ping":59},{"user_id":396,"name":"demoknight tf2","steam_id":76561198070393998,"connected_time":681000000000,"state":"active","ping":65},{"user_id":388,"name":"|WS| Don't_Taze_Me_Bro","steam_id":76561198043289495,"connected_time":1292000000000,"state":"active","ping":74},{"user_id":340,"name":"Furry Saul Goodman","steam_id":76561198069580305,"connected_time":4691000000000,"state":"active","ping":48},{"user_id":405,"name":"PrinceGrotle","steam_id":76561198206131603,"connected_time":307000000000,"state":"active","ping":78},{"user_id":397,"name":"Terium","steam_id":76561198331234327,"connected_time":680000000000,"state":"active","ping":54},{"user_id":385,"name":"caberknight tf2","steam_id":76561199273882768,"connected_time":1444000000000,"state":"active","ping":64},{"user_id":406,"name":"big guy","steam_id":76561198357713517,"connected_time":270000000000,"state":"active","ping":81},{"user_id":407,"name":"The Power","steam_id":76561198060566884,"connected_time":260000000000,"state":"active","ping":169},{"user_id":401,"name":"Blue Collar","steam_id":76561198354781722,"connected_time":504000000000,"state":"active","ping":93},{"user_id":380,"name":"Doc Karma","steam_id":76561198323849002,"connected_time":1802000000000,"state":"active","ping":123}]},{"server_id":106,"name":"Uncletopia | Chicago | 2 | All Maps","name_short":"chi-2","host":"chi-1.us.uncletopia.com","port":27025,"enabled":true,"region":"us-central","cc":"us","latitude":41.881832,"longitude":-87.62318,"reserved":0,"last_update":"0001-01-01T00:00:00Z","name_a2s":"Uncletopia | Chicago | 2 | All Maps","protocol":17,"map":"pl_borneo","folder":"tf","game":"Team Fortress","app_id":440,"player_count":23,"max_players":24,"Bots":0,"server_type":"Dedicated","server_os":"Linux","password":true,"vac":true,"version":"7742253","steam_id":85568392924469985,"keywords":["nocrits","nodmgspread","payload","uncletopia"],"game_id":440,"stv_port":27026,"stv_name":"Uncletopia | Chicago | 2 | All Maps | STV","players":[{"user_id":195,"name":"tortoise","steam_id":76561198161809306,"connected_time":2381000000000,"state":"active","ping":66},{"user_id":101,"name":"JustSomeInternetGuy","steam_id":76561199066037843,"connected_time":9320000000000,"state":"active","ping":72},{"user_id":198,"name":"High Medic","steam_id":76561198082405984,"connected_time":2118000000000,"state":"active","ping":59},{"user_id":214,"name":"Cupidmeh","steam_id":76561198138669654,"connected_time":572000000000,"state":"active","ping":61},{"user_id":213,"name":"spooky","steam_id":76561198122964663,"connected_time":599000000000,"state":"active","ping":62},{"user_id":205,"name":"Enderneer","steam_id":76561198012136653,"connected_time":839000000000,"state":"active","ping":56},{"user_id":208,"name":"Big ol' Willy Gaming","steam_id":76561198048545731,"connected_time":760000000000,"state":"active","ping":77},{"user_id":215,"name":"LVL 4 Dispenser Gaming","steam_id":76561198044244547,"connected_time":540000000000,"state":"active","ping":74},{"user_id":206,"name":"Danny","steam_id":76561198089084860,"connected_time":836000000000,"state":"active","ping":115},{"user_id":209,"name":"Uncle","steam_id":76561197988647705,"connected_time":738000000000,"state":"active","ping":55},{"user_id":141,"name":"hoboholden","steam_id":76561198799370303,"connected_time":7542000000000,"state":"active","ping":97},{"user_id":142,"name":"BreadBug","steam_id":76561198797355574,"connected_time":7539000000000,"state":"active","ping":58},{"user_id":216,"name":"Mouth Tea","steam_id":76561198285054047,"connected_time":510000000000,"state":"active","ping":77},{"user_id":157,"name":"Do Moose go Moo?","steam_id":76561198073550620,"connected_time":5525000000000,"state":"active","ping":54},{"user_id":218,"name":"Crunchy Pancake","steam_id":76561198002555973,"connected_time":263000000000,"state":"active","ping":71},{"user_id":210,"name":"astron","steam_id":76561198058546328,"connected_time":706000000000,"state":"active","ping":73},{"user_id":143,"name":"Nolan","steam_id":76561198169648081,"connected_time":7191000000000,"state":"active","ping":78},{"user_id":183,"name":"the rhode island toe sniffer","steam_id":76561199134895220,"connected_time":3471000000000,"state":"active","ping":69},{"user_id":199,"name":"The Goose","steam_id":76561199006093549,"connected_time":1881000000000,"state":"active","ping":64},{"user_id":219,"name":"Purgatory","steam_id":76561198374795958,"connected_time":150000000000,"state":"active","ping":79},{"user_id":200,"name":"Mailman","steam_id":76561198090675970,"connected_time":1689000000000,"state":"active","ping":46},{"user_id":211,"name":"Qball","steam_id":76561198179016466,"connected_time":702000000000,"state":"active","ping":56},{"user_id":187,"name":"randomperson88","steam_id":76561199228822173,"connected_time":2991000000000,"state":"active","ping":57}]},{"server_id":402,"name":"Uncletopia | Chicago | 3 | All Maps","name_short":"chi-3","host":"chi-1.us.uncletopia.com","port":27035,"enabled":true,"region":"us-central","cc":"us","latitude":41.881832,"longitude":-87.62318,"reserved":0,"last_update":"0001-01-01T00:00:00Z","name_a2s":"Uncletopia | Chicago | 3 | All Maps","protocol":17,"map":"pl_snowycoast","folder":"tf","game":"Team Fortress","app_id":440,"player_count":24,"max_players":24,"Bots":0,"server_type":"Dedicated","server_os":"Linux","password":true,"vac":true,"version":"7742253","steam_id":85568392924515191,"keywords":["nocrits","nodmgspread","payload","uncletopia"],"game_id":440,"stv_port":27036,"stv_name":"Uncletopia | Chicago | 3 | All Maps | STV","players":[{"user_id":215,"name":"crumblejon","steam_id":76561198111273302,"connected_time":230000000000,"state":"active","ping":121},{"user_id":220,"name":"febfowl","steam_id":76561198023888890,"connected_time":150000000000,"state":"active","ping":92},{"user_id":219,"name":"NUt","steam_id":76561198031007966,"connected_time":183000000000,"state":"active","ping":55},{"user_id":165,"name":"Kelpy G","steam_id":76561198105330587,"connected_time":4064000000000,"state":"active","ping":72},{"user_id":225,"name":"riverfiend","steam_id":76561198031993771,"connected_time":113000000000,"state":"active","ping":54},{"user_id":197,"name":"no","steam_id":76561198248853140,"connected_time":1643000000000,"state":"active","ping":49},{"user_id":193,"name":"Caruso","steam_id":76561198053340414,"connected_time":1698000000000,"state":"active","ping":59},{"user_id":202,"name":"jelderjr","steam_id":76561198208862897,"connected_time":1343000000000,"state":"active","ping":101},{"user_id":222,"name":"Billy","steam_id":76561198072135909,"connected_time":140000000000,"state":"active","ping":96},{"user_id":216,"name":"Snazzi","steam_id":76561198085208276,"connected_time":230000000000,"state":"active","ping":85},{"user_id":184,"name":"faze pantalla","steam_id":76561198250215734,"connected_time":2127000000000,"state":"active","ping":63},{"user_id":223,"name":"Lawn Tractor on a Plane","steam_id":76561198082364845,"connected_time":124000000000,"state":"active","ping":64},{"user_id":209,"name":"4Real","steam_id":76561199051709367,"connected_time":1004000000000,"state":"active","ping":75},{"user_id":224,"name":"miles","steam_id":76561198006838401,"connected_time":123000000000,"state":"active","ping":76},{"user_id":211,"name":"THRILLHO","steam_id":76561198371663047,"connected_time":964000000000,"state":"active","ping":66},{"user_id":227,"name":"gamer girl looking for a bf","steam_id":76561198279901162,"connected_time":97000000000,"state":"active","ping":65},{"user_id":228,"name":"sork","steam_id":76561198082446459,"connected_time":91000000000,"state":"active","ping":68},{"user_id":145,"name":"Bonk","steam_id":76561198116945752,"connected_time":5876000000000,"state":"active","ping":66},{"user_id":217,"name":"joe","steam_id":76561199152742297,"connected_time":229000000000,"state":"active","ping":71},{"user_id":189,"name":"Fapsock","steam_id":76561198017658564,"connected_time":1844000000000,"state":"active","ping":135},{"user_id":229,"name":"Sox","steam_id":76561198436810880,"connected_time":86000000000,"state":"active","ping":73},{"user_id":214,"name":"dr jarmo","steam_id":76561198000883780,"connected_time":481000000000,"state":"active","ping":105},{"user_id":185,"name":"faze waadden","steam_id":76561198325569425,"connected_time":2071000000000,"state":"active","ping":61},{"user_id":186,"name":"Hashmere","steam_id":76561198002797253,"connected_time":1925000000000,"state":"active","ping":80}]},{"server_id":403,"name":"Uncletopia | Chicago | 4 | All Maps","name_short":"chi-4","host":"chi-1.us.uncletopia.com","port":27045,"enabled":true,"region":"us-central","cc":"us","latitude":41.881832,"longitude":-87.62318,"reserved":0,"last_update":"0001-01-01T00:00:00Z","name_a2s":"Uncletopia | Chicago | 4 | All Maps","protocol":17,"map":"koth_viaduct","folder":"tf","game":"Team Fortress","app_id":440,"player_count":1,"max_players":24,"Bots":0,"server_type":"Dedicated","server_os":"Linux","password":true,"vac":true,"version":"7742253","steam_id":85568392924515193,"keywords":["cp","nocrits","nodmgspread","uncletopia"],"game_id":440,"stv_port":27046,"stv_name":"Uncletopia | Chicago | 4 | All Maps | STV","players":[{"user_id":39,"name":"Luffy","steam_id":76561198120914343,"connected_time":34000000000,"state":"active","ping":57}]},{"server_id":36,"name":"Uncletopia | Chicago | 5 | All Maps","name_short":"chi-5","host":"chi-2.us.uncletopia.com","port":27015,"enabled":true,"region":"us-central","cc":"us","latitude":41.881832,"longitude":-87.62318,"reserved":0,"last_update":"0001-01-01T00:00:00Z","name_a2s":"Uncletopia | Chicago | 5 | All Maps","protocol":17,"map":"pl_badwater","folder":"tf","game":"Team Fortress","app_id":440,"player_count":22,"max_players":24,"Bots":0,"server_type":"Dedicated","server_os":"Linux","password":true,"vac":true,"version":"7742253","steam_id":85568392924866362,"keywords":["nocrits","nodmgspread","payload","uncletopia"],"game_id":440,"stv_port":27016,"stv_name":"Uncletopia | Chicago | 5 | All Maps | STV","players":[{"user_id":76,"name":"daemon","steam_id":76561198001541433,"connected_time":602000000000,"state":"active","ping":59},{"user_id":77,"name":"haxxorman","steam_id":76561199155156400,"connected_time":592000000000,"state":"active","ping":47},{"user_id":8,"name":"--_Cook_--","steam_id":76561198080855748,"connected_time":4499000000000,"state":"active","ping":78},{"user_id":58,"name":"YOU","steam_id":76561198068538473,"connected_time":2183000000000,"state":"active","ping":80},{"user_id":62,"name":"Fluffeline","steam_id":76561198352909489,"connected_time":2048000000000,"state":"active","ping":135},{"user_id":12,"name":"C papi","steam_id":76561198027779564,"connected_time":4398000000000,"state":"active","ping":59},{"user_id":78,"name":"yitz","steam_id":76561198375575841,"connected_time":325000000000,"state":"active","ping":57},{"user_id":73,"name":"Mystical Bowl of Cornflopes","steam_id":76561198018286718,"connected_time":1038000000000,"state":"active","ping":90},{"user_id":60,"name":"Kevin Y.","steam_id":76561198364331423,"connected_time":2165000000000,"state":"active","ping":79},{"user_id":72,"name":"Chrisscar","steam_id":76561198086298130,"connected_time":1057000000000,"state":"active","ping":103},{"user_id":38,"name":"FoW Scout (will mark you)","steam_id":76561198053046161,"connected_time":3312000000000,"state":"active","ping":73},{"user_id":63,"name":"three three","steam_id":76561198177354155,"connected_time":1715000000000,"state":"active","ping":57},{"user_id":27,"name":"I Rush ‚Åß‚ÅßRussians","steam_id":76561198119454013,"connected_time":3758000000000,"state":"active","ping":70},{"user_id":47,"name":"Abomination","steam_id":76561198167974713,"connected_time":3107000000000,"state":"active","ping":68},{"user_id":75,"name":"poiuytrewqwqwqwqwqwqwqwqwqwqwqw","steam_id":76561199105253001,"connected_time":1011000000000,"state":"active","ping":67},{"user_id":51,"name":"RyInc","steam_id":76561198874261643,"connected_time":2672000000000,"state":"active","ping":51},{"user_id":30,"name":"Mikoo","steam_id":76561198260292699,"connected_time":3701000000000,"state":"active","ping":72},{"user_id":65,"name":"Soda","steam_id":76561198219209367,"connected_time":1625000000000,"state":"active","ping":64},{"user_id":43,"name":"Banana Patrick","steam_id":76561198258067237,"connected_time":3188000000000,"state":"active","ping":68},{"user_id":74,"name":":)","steam_id":76561198093921290,"connected_time":1031000000000,"state":"active","ping":47},{"user_id":82,"name":"Mateo :-)","steam_id":76561199084303314,"connected_time":116000000000,"state":"active","ping":76},{"user_id":48,"name":"Pi Guy","steam_id":76561199071784224,"connected_time":3078000000000,"state":"active","ping":63}]},{"server_id":37,"name":"Uncletopia | Chicago | 6 | All Maps","name_short":"chi-6","host":"chi-2.us.uncletopia.com","port":27025,"enabled":true,"region":"us-central","cc":"us","latitude":41.881832,"longitude":-87.62318,"reserved":0,"last_update":"0001-01-01T00:00:00Z","name_a2s":"Uncletopia | Chicago | 6 | All Maps","protocol":17,"map":"pl_snowycoast","folder":"tf","game":"Team Fortress","app_id":440,"player_count":24,"max_players":24,"Bots":0,"server_type":"Dedicated","server_os":"Linux","password":true,"vac":true,"version":"7742253","steam_id":85568392924866363,"keywords":["nocrits","nodmgspread","payload","uncletopia"],"game_id":440,"stv_port":27026,"stv_name":"Uncletopia | Chicago | 6 | All Maps | STV","players":[{"user_id":113,"name":"Volkan, Pervert Extraordinaire","steam_id":76561198004569575,"connected_time":1029000000000,"state":"active","ping":65},{"user_id":130,"name":"Cosmic","steam_id":76561198103201211,"connected_time":245000000000,"state":"active","ping":80},{"user_id":110,"name":"Lunchboxx","steam_id":76561198079735916,"connected_time":1076000000000,"state":"active","ping":57},{"user_id":101,"name":"Al'","steam_id":76561198105420574,"connected_time":1840000000000,"state":"active","ping":68},{"user_id":133,"name":"Snooze","steam_id":76561199059607814,"connected_time":28000000000,"state":"spawning","ping":103},{"user_id":107,"name":"Jesus Kush","steam_id":76561199099329667,"connected_time":1368000000000,"state":"active","ping":78},{"user_id":108,"name":"generic","steam_id":76561199068306212,"connected_time":1347000000000,"state":"active","ping":87},{"user_id":115,"name":"Octobella Enthusiast","steam_id":76561198199266047,"connected_time":969000000000,"state":"active","ping":56},{"user_id":131,"name":"a crazy hobo","steam_id":76561198289650060,"connected_time":233000000000,"state":"active","ping":85},{"user_id":118,"name":"Fragment Guy","steam_id":76561198178413086,"connected_time":819000000000,"state":"active","ping":52},{"user_id":122,"name":"j4miecl4rk","steam_id":76561198404312721,"connected_time":584000000000,"state":"active","ping":52},{"user_id":129,"name":"tim-","steam_id":76561199119101315,"connected_time":318000000000,"state":"active","ping":75},{"user_id":121,"name":"Eturnaly","steam_id":76561199050417269,"connected_time":633000000000,"state":"active","ping":74},{"user_id":97,"name":"Are You Smarter than God?","steam_id":76561198120364727,"connected_time":2120000000000,"state":"active","ping":48},{"user_id":123,"name":"srv","steam_id":76561198026589960,"connected_time":576000000000,"state":"active","ping":59},{"user_id":105,"name":"MenLover2006","steam_id":76561198093439770,"connected_time":1573000000000,"state":"active","ping":58},{"user_id":125,"name":"impractical jokers gaming","steam_id":76561198068167915,"connected_time":557000000000,"state":"active","ping":75},{"user_id":99,"name":"Twan (no vibes plz)","steam_id":76561197991064908,"connected_time":2097000000000,"state":"active","ping":62},{"user_id":80,"name":"ankh","steam_id":76561199121935667,"connected_time":3017000000000,"state":"active","ping":69},{"user_id":95,"name":"Smite","steam_id":76561197999845696,"connected_time":2364000000000,"state":"active","ping":56},{"user_id":127,"name":"motov","steam_id":76561197990238902,"connected_time":555000000000,"state":"active","ping":88},{"user_id":84,"name":"Danny Darrow","steam_id":76561198883736130,"connected_time":3004000000000,"state":"active","ping":102},{"user_id":128,"name":"Salkaver","steam_id":76561198204049432,"connected_time":538000000000,"state":"active","ping":76},{"user_id":132,"name":"One week at Frederick's","steam_id":76561198264752535,"connected_time":209000000000,"state":"active","ping":65}]},{"server_id":38,"name":"Uncletopia | Chicago | 7 | Stopwatch Beta","name_short":"chi-7","host":"chi-2.us.uncletopia.com","port":27035,"enabled":true,"region":"us-central","cc":"us","latitude":41.881832,"longitude":-87.62318,"reserved":0,"last_update":"0001-01-01T00:00:00Z","name_a2s":"Uncletopia | Chicago | 7 | Stopwatch Beta","protocol":17,"map":"koth_lakeside_final","folder":"tf","game":"Team Fortress","app_id":440,"player_count":0,"max_players":24,"Bots":0,"server_type":"Dedicated","server_os":"Linux","password":true,"vac":true,"version":"7742253","steam_id":85568392924866364,"keywords":["cp","nocrits","nodmgspread","uncletopia"],"game_id":440,"stv_port":27036,"stv_name":"Uncletopia | Chicago | 7 | Stopwatch Beta | STV","players":null},{"server_id":39,"name":"Uncletopia | Chicago | 8 | Community","name_short":"chi-8","host":"chi-2.us.uncletopia.com","port":27045,"enabled":true,"region":"us-central","cc":"us","latitude":41.881832,"longitude":-87.62318,"reserved":0,"last_update":"0001-01-01T00:00:00Z","name_a2s":"Uncletopia | Chicago | 8 | Community","protocol":17,"map":"koth_lakeside_final","folder":"tf","game":"Team Fortress","app_id":440,"player_count":0,"max_players":24,"Bots":0,"server_type":"Dedicated","server_os":"Linux","password":true,"vac":true,"version":"7742253","steam_id":85568392924866365,"keywords":["cp","nocrits","nodmgspread","uncletopia"],"game_id":440,"stv_port":27046,"stv_name":"Uncletopia | Chicago | 8 | Community | STV","players":null},{"server_id":8,"name":"Uncletopia | Dallas | 1 | All Maps","name_short":"dal-1","host":"dal-1.us.uncletopia.com","port":27015,"enabled":true,"region":"us-central","cc":"us","latitude":32.779167,"longitude":-96.80889,"reserved":0,"last_update":"0001-01-01T00:00:00Z","name_a2s":"Uncletopia | Dallas | 1 | All Maps","protocol":17,"map":"cp_process_final","folder":"tf","game":"Team Fortress","app_id":440,"player_count":23,"max_players":24,"Bots":0,"server_type":"Dedicated","server_os":"Linux","password":true,"vac":true,"version":"7742253","steam_id":85568392924469986,"keywords":["cp","nocrits","nodmgspread","uncletopia"],"game_id":440,"stv_port":27016,"stv_name":"Uncletopia | Dallas | 1 | All Maps | STV","players":[{"user_id":140,"name":"Derblitz","steam_id":76561198040953176,"connected_time":4882000000000,"state":"active","ping":77},{"user_id":178,"name":"idiot normie","steam_id":76561198397662124,"connected_time":1017000000000,"state":"active","ping":57},{"user_id":159,"name":"Frost","steam_id":76561198272014381,"connected_time":3470000000000,"state":"active","ping":77},{"user_id":147,"name":"Kenku","steam_id":76561199086762926,"connected_time":4564000000000,"state":"active","ping":63},{"user_id":185,"name":"mbell1199","steam_id":76561198827517736,"connected_time":530000000000,"state":"active","ping":44},{"user_id":149,"name":"Muffim","steam_id":76561198056704533,"connected_time":4197000000000,"state":"active","ping":71},{"user_id":116,"name":"Moonflower ‚ú¶","steam_id":76561198191782483,"connected_time":8391000000000,"state":"active","ping":48},{"user_id":189,"name":"Takumi Fujiwara","steam_id":76561198146281101,"connected_time":243000000000,"state":"active","ping":89},{"user_id":191,"name":"Modern Day Wizard","steam_id":76561198354689252,"connected_time":96000000000,"state":"active","ping":58},{"user_id":85,"name":"Rat Smacker","steam_id":76561199090197628,"connected_time":9946000000000,"state":"active","ping":67},{"user_id":172,"name":"(‚óîÃØ‡∫à)","steam_id":76561198021224745,"connected_time":1894000000000,"state":"active","ping":74},{"user_id":180,"name":"Fishstall","steam_id":76561198038126034,"connected_time":994000000000,"state":"active","ping":59},{"user_id":111,"name":"Elena Manetta","steam_id":76561197998344054,"connected_time":8574000000000,"state":"active","ping":74},{"user_id":119,"name":"‚òÜNebula-Belt‚òÜ","steam_id":76561198151250806,"connected_time":7567000000000,"state":"active","ping":104},{"user_id":164,"name":"CSchnappi","steam_id":76561198131999968,"connected_time":3386000000000,"state":"active","ping":42},{"user_id":184,"name":"Stillkill","steam_id":76561198065069057,"connected_time":724000000000,"state":"active","ping":31},{"user_id":183,"name":"BrightOrangeMango","steam_id":76561198023144607,"connected_time":747000000000,"state":"active","ping":67},{"user_id":166,"name":"Echo","steam_id":76561198355713484,"connected_time":3375000000000,"state":"active","ping":102},{"user_id":171,"name":"DejectedKiwi","steam_id":76561198115055574,"connected_time":1966000000000,"state":"active","ping":39},{"user_id":179,"name":"Cereal","steam_id":76561198045889032,"connected_time":1016000000000,"state":"active","ping":132},{"user_id":113,"name":"catface","steam_id":76561198096347625,"connected_time":8540000000000,"state":"active","ping":76},{"user_id":182,"name":"(TWoN Adric)","steam_id":76561197999304024,"connected_time":955000000000,"state":"active","ping":42},{"user_id":188,"name":"Solo","steam_id":76561198079532605,"connected_time":374000000000,"state":"active","ping":80}]},{"server_id":108,"name":"Uncletopia | Dallas | 2 | All Maps","name_short":"dal-2","host":"dal-1.us.uncletopia.com","port":27025,"enabled":true,"region":"us-central","cc":"us","latitude":32.779167,"longitude":-96.80889,"reserved":0,"last_update":"0001-01-01T00:00:00Z","name_a2s":"Uncletopia | Dallas | 2 | All Maps","protocol":17,"map":"pl_barnblitz","folder":"tf","game":"Team Fortress","app_id":440,"player_count":0,"max_players":24,"Bots":0,"server_type":"Dedicated","server_os":"Linux","password":true,"vac":true,"version":"7742253","steam_id":85568392924469988,"keywords":["nocrits","nodmgspread","payload","uncletopia"],"game_id":440,"stv_port":27026,"stv_name":"Uncletopia | Dallas | 2 | All Maps | STV","players":null},{"server_id":5,"name":"Uncletopia | Frankfurt | 1 | All Maps","name_short":"frk-1","host":"frk-1.de.uncletopia.com","port":27015,"enabled":true,"region":"eu","cc":"de","latitude":50.110924,"longitude":8.682127,"reserved":0,"last_update":"0001-01-01T00:00:00Z","name_a2s":"Uncletopia | Frankfurt | 1 | All Maps","protocol":17,"map":"pl_borneo","folder":"tf","game":"Team Fortress","app_id":440,"player_count":24,"max_players":24,"Bots":0,"server_type":"Dedicated","server_os":"Linux","password":true,"vac":true,"version":"7742253","steam_id":85568392924469989,"keywords":["nocrits","nodmgspread","payload","uncletopia"],"game_id":440,"stv_port":27016,"stv_name":"Uncletopia | Frankfurt | 1 | All Maps | STV","players":[{"user_id":792,"name":"Backup","steam_id":76561197999557567,"connected_time":781000000000,"state":"active","ping":51},{"user_id":789,"name":"Zero (Orbital Gear Mastermind)","steam_id":76561198017416816,"connected_time":826000000000,"state":"active","ping":60},{"user_id":790,"name":"Femboypawnguy","steam_id":76561198274894771,"connected_time":803000000000,"state":"active","ping":47},{"user_id":744,"name":"NiKoRo","steam_id":76561197963686614,"connected_time":4064000000000,"state":"active","ping":87},{"user_id":678,"name":"|20BB)\u003eMach","steam_id":76561198952487564,"connected_time":10025000000000,"state":"active","ping":79},{"user_id":764,"name":"the indomitable human spirit","steam_id":76561198718760200,"connected_time":2314000000000,"state":"active","ping":61},{"user_id":763,"name":"next_","steam_id":76561198074862350,"connected_time":2346000000000,"state":"active","ping":56},{"user_id":778,"name":"Puboy","steam_id":76561197984617142,"connected_time":1162000000000,"state":"active","ping":52},{"user_id":766,"name":"Biscuitbox","steam_id":76561198448396620,"connected_time":2231000000000,"state":"active","ping":69},{"user_id":786,"name":"Trollface [·¥ô-Œº]","steam_id":76561198418538887,"connected_time":941000000000,"state":"active","ping":94},{"user_id":793,"name":"Sadao","steam_id":76561199020066945,"connected_time":619000000000,"state":"active","ping":68},{"user_id":781,"name":"Kosher Twink","steam_id":76561198397024973,"connected_time":1001000000000,"state":"active","ping":58},{"user_id":750,"name":"Kremete","steam_id":76561198047984096,"connected_time":3536000000000,"state":"active","ping":75},{"user_id":785,"name":"„Äå‚óÜRaku‚Ä¢ „Äç","steam_id":76561198059283183,"connected_time":948000000000,"state":"active","ping":76},{"user_id":603,"name":"Rudebwoyyy","steam_id":76561199387956486,"connected_time":14621000000000,"state":"active","ping":56},{"user_id":779,"name":"SANDmann","steam_id":76561199012566222,"connected_time":1088000000000,"state":"active","ping":54},{"user_id":787,"name":"Not Sussy Tanuki","steam_id":76561198137289375,"connected_time":936000000000,"state":"active","ping":91},{"user_id":794,"name":"drunk scout","steam_id":76561198397105421,"connected_time":480000000000,"state":"active","ping":63},{"user_id":784,"name":"Prison Mike","steam_id":76561198014221596,"connected_time":965000000000,"state":"active","ping":74},{"user_id":791,"name":"Cock thief","steam_id":76561199213400234,"connected_time":787000000000,"state":"active","ping":81},{"user_id":686,"name":"Whirlwind","steam_id":76561198942024930,"connected_time":9834000000000,"state":"active","ping":102},{"user_id":747,"name":"üòà COCKDESTROYER üòà","steam_id":76561198042846999,"connected_time":3784000000000,"state":"active","ping":71},{"user_id":769,"name":"√Ñ√§rik ‚ô£","steam_id":76561198131871737,"connected_time":1759000000000,"state":"active","ping":58},{"user_id":647,"name":"LarsInABox","steam_id":76561198028329262,"connected_time":12236000000000,"state":"active","ping":74}]},{"server_id":110,"name":"Uncletopia | Frankfurt | 2 | All Maps","name_short":"frk-2","host":"frk-1.de.uncletopia.com","port":27025,"enabled":true,"region":"eu","cc":"de","latitude":50.110924,"longitude":8.682127,"reserved":0,"last_update":"0001-01-01T00:00:00Z","name_a2s":"Uncletopia | Frankfurt | 2 | All Maps","protocol":17,"map":"pl_upward","folder":"tf","game":"Team Fortress","app_id":440,"player_count":23,"max_players":24,"Bots":0,"server_type":"Dedicated","server_os":"Linux","password":true,"vac":true,"version":"7742253","steam_id":85568392924469990,"keywords":["nocrits","nodmgspread","payload","uncletopia"],"game_id":440,"stv_port":27026,"stv_name":"Uncletopia | Frankfurt | 2 | All Maps | STV","players":[{"user_id":673,"name":"Seb, Comrade","steam_id":76561198040279587,"connected_time":3242000000000,"state":"active","ping":84},{"user_id":705,"name":"Mr.O #deletesniper","steam_id":76561198039567498,"connected_time":590000000000,"state":"active","ping":55},{"user_id":691,"name":"PaperPlay","steam_id":76561198046838964,"connected_time":1384000000000,"state":"active","ping":107},{"user_id":698,"name":"Secundus","steam_id":76561199094034744,"connected_time":1132000000000,"state":"active","ping":45},{"user_id":682,"name":"cockwater","steam_id":76561198209101861,"connected_time":2575000000000,"state":"active","ping":67},{"user_id":701,"name":"Der Sonntagsfahrer","steam_id":76561198116415362,"connected_time":870000000000,"state":"active","ping":91},{"user_id":702,"name":"dn4k","steam_id":76561199221755690,"connected_time":855000000000,"state":"active","ping":77},{"user_id":704,"name":"3xample","steam_id":76561198805049375,"connected_time":818000000000,"state":"active","ping":66},{"user_id":652,"name":"Burrito","steam_id":76561198023919089,"connected_time":4443000000000,"state":"active","ping":82},{"user_id":677,"name":"El Gato Volador","steam_id":76561198021296882,"connected_time":3203000000000,"state":"active","ping":75},{"user_id":678,"name":"WHUSSKEY","steam_id":76561198137827441,"connected_time":3162000000000,"state":"active","ping":57},{"user_id":681,"name":"‚ùÖ‚úÆnurse‚úÆ‚ùÖ lft 6s","steam_id":76561198204505424,"connected_time":2834000000000,"state":"active","ping":80},{"user_id":628,"name":"Talent","steam_id":76561198153880354,"connected_time":6188000000000,"state":"active","ping":56},{"user_id":694,"name":"-makina","steam_id":76561198273042780,"connected_time":1347000000000,"state":"active","ping":70},{"user_id":683,"name":"Exxon","steam_id":76561198997885594,"connected_time":2246000000000,"state":"active","ping":35},{"user_id":695,"name":"Marec0002","steam_id":76561198117359113,"connected_time":1278000000000,"state":"active","ping":49},{"user_id":662,"name":"yuh","steam_id":76561199005555839,"connected_time":3992000000000,"state":"active","ping":73},{"user_id":660,"name":"cl","steam_id":76561199436640904,"connected_time":4113000000000,"state":"active","ping":61},{"user_id":679,"name":"Crocodile DZ","steam_id":76561198145132844,"connected_time":3157000000000,"state":"active","ping":106},{"user_id":685,"name":"Bobby Brown","steam_id":76561199061537074,"connected_time":2199000000000,"state":"active","ping":58},{"user_id":700,"name":"UltimateAura","steam_id":76561198338361324,"connected_time":956000000000,"state":"active","ping":47},{"user_id":706,"name":"Arelelele","steam_id":76561198109583337,"connected_time":204000000000,"state":"active","ping":98},{"user_id":647,"name":"Lennox","steam_id":76561198069063554,"connected_time":4745000000000,"state":"active","ping":45}]},{"server_id":308,"name":"Uncletopia | Frankfurt | 3 | All Maps","name_short":"frk-3","host":"frk-1.de.uncletopia.com","port":27035,"enabled":true,"region":"eu","cc":"de","latitude":50.110924,"longitude":8.682127,"reserved":0,"last_update":"0001-01-01T00:00:00Z","name_a2s":"Uncletopia | Frankfurt | 3 | All Maps","protocol":17,"map":"ctf_landfall","folder":"tf","game":"Team Fortress","app_id":440,"player_count":24,"max_players":24,"Bots":0,"server_type":"Dedicated","server_os":"Linux","password":true,"vac":true,"version":"7742253","steam_id":85568392924504274,"keywords":["ctf","nocrits","nodmgspread","uncletopia"],"game_id":440,"stv_port":27036,"stv_name":"Uncletopia | Frankfurt | 3 | All Maps | STV","players":[{"user_id":620,"name":"Minimi","steam_id":76561198873850443,"connected_time":2159000000000,"state":"active","ping":51},{"user_id":527,"name":"gatt","steam_id":76561198130597877,"connected_time":7633000000000,"state":"active","ping":66},{"user_id":621,"name":"Savric","steam_id":76561197984478559,"connected_time":2155000000000,"state":"active","ping":51},{"user_id":639,"name":"EWAG","steam_id":76561199195225937,"connected_time":488000000000,"state":"active","ping":87},{"user_id":598,"name":"Myknakryu","steam_id":76561198041782084,"connected_time":3274000000000,"state":"active","ping":51},{"user_id":647,"name":"YEEET","steam_id":76561198914938199,"connected_time":201000000000,"state":"active","ping":86},{"user_id":646,"name":"Ruke 1","steam_id":76561198409908008,"connected_time":232000000000,"state":"active","ping":70},{"user_id":648,"name":"Jello","steam_id":76561198093180757,"connected_time":193000000000,"state":"active","ping":53},{"user_id":631,"name":"JohnTraveltime","steam_id":76561199244281754,"connected_time":1347000000000,"state":"active","ping":77},{"user_id":574,"name":"super idolÁöÑÁ¨ëÂÆπÈÉΩÊ≤°‰Ω†ÁöÑ","steam_id":76561198103181033,"connected_time":4913000000000,"state":"active","ping":58},{"user_id":636,"name":"Megasecret","steam_id":76561198055378025,"connected_time":906000000000,"state":"active","ping":90},{"user_id":630,"name":"Caz","steam_id":76561198033412140,"connected_time":1599000000000,"state":"active","ping":71},{"user_id":591,"name":"John Ross","steam_id":76561198034560808,"connected_time":3766000000000,"state":"active","ping":44},{"user_id":649,"name":"BONK","steam_id":76561199120275042,"connected_time":191000000000,"state":"active","ping":59},{"user_id":651,"name":"Zogg","steam_id":76561198352683491,"connected_time":24000000000,"state":"spawning","ping":60},{"user_id":638,"name":"._.","steam_id":76561198854897667,"connected_time":513000000000,"state":"active","ping":75},{"user_id":644,"name":"Average Bison user","steam_id":76561198065781496,"connected_time":304000000000,"state":"active","ping":60},{"user_id":559,"name":"UnkillableDemonKing","steam_id":76561198050369473,"connected_time":5654000000000,"state":"active","ping":63},{"user_id":605,"name":"Pinkchup","steam_id":76561198106802803,"connected_time":2971000000000,"state":"active","ping":63},{"user_id":645,"name":"Joe mama","steam_id":76561198806718750,"connected_time":274000000000,"state":"active","ping":65},{"user_id":607,"name":"Zonts","steam_id":76561198850176432,"connected_time":2961000000000,"state":"active","ping":75},{"user_id":581,"name":"soil.dirt.earth","steam_id":76561198014377623,"connected_time":4647000000000,"state":"active","ping":71},{"user_id":526,"name":"Dr.Nefario","steam_id":76561198874586020,"connected_time":7865000000000,"state":"active","ping":75},{"user_id":619,"name":"Mollehh","steam_id":76561198354731126,"connected_time":2166000000000,"state":"active","ping":58}]},{"server_id":309,"name":"Uncletopia | Frankfurt | 4 | All Maps","name_short":"frk-4","host":"frk-1.de.uncletopia.com","port":27045,"enabled":true,"region":"eu","cc":"de","latitude":50.110924,"longitude":8.682127,"reserved":0,"last_update":"0001-01-01T00:00:00Z","name_a2s":"Uncletopia | Frankfurt | 4 | All Maps","protocol":17,"map":"pl_badwater","folder":"tf","game":"Team Fortress","app_id":440,"player_count":22,"max_players":24,"Bots":0,"server_type":"Dedicated","server_os":"Linux","password":true,"vac":true,"version":"7742253","steam_id":85568392924504275,"keywords":["nocrits","nodmgspread","payload","uncletopia"],"game_id":440,"stv_port":27046,"stv_name":"Uncletopia | Frankfurt | 4 | All Maps | STV","players":[{"user_id":699,"name":"Loading","steam_id":76561198201981190,"connected_time":502000000000,"state":"active","ping":65},{"user_id":708,"name":"Evans","steam_id":76561199207564475,"connected_time":172000000000,"state":"active","ping":47},{"user_id":680,"name":"Marcus Aurelius Gaming","steam_id":76561198082646492,"connected_time":1215000000000,"state":"active","ping":63},{"user_id":687,"name":"Mega Saturn","steam_id":76561198024750500,"connected_time":1102000000000,"state":"active","ping":96},{"user_id":672,"name":"TTV/pablo_ricco","steam_id":76561198279839318,"connected_time":2113000000000,"state":"active","ping":80},{"user_id":652,"name":"Echo of Abyss","steam_id":76561198981841782,"connected_time":3277000000000,"state":"active","ping":78},{"user_id":682,"name":"Dr-je-kill","steam_id":76561198890817226,"connected_time":1197000000000,"state":"active","ping":65},{"user_id":671,"name":"Geab","steam_id":76561198198998973,"connected_time":2315000000000,"state":"active","ping":80},{"user_id":707,"name":"Lucy","steam_id":76561198844806517,"connected_time":175000000000,"state":"active","ping":68},{"user_id":685,"name":"GURA","steam_id":76561198261941940,"connected_time":1145000000000,"state":"active","ping":66},{"user_id":675,"name":"Uncle Owen","steam_id":76561198157999291,"connected_time":1827000000000,"state":"active","ping":85},{"user_id":686,"name":"Arizona Ranger","steam_id":76561198244060122,"connected_time":1127000000000,"state":"active","ping":144},{"user_id":701,"name":"faccboi","steam_id":76561198137816642,"connected_time":456000000000,"state":"active","ping":57},{"user_id":663,"name":"Tails8521","steam_id":76561198051747164,"connected_time":3116000000000,"state":"active","ping":51},{"user_id":693,"name":"tone","steam_id":76561197975301462,"connected_time":896000000000,"state":"active","ping":88},{"user_id":661,"name":"cream gravy","steam_id":76561198973069177,"connected_time":3146000000000,"state":"active","ping":50},{"user_id":702,"name":"jovi_","steam_id":76561198449280552,"connected_time":438000000000,"state":"active","ping":64},{"user_id":669,"name":"Mankor","steam_id":76561198020439322,"connected_time":2454000000000,"state":"active","ping":45},{"user_id":665,"name":"Ruben Zo","steam_id":76561198063855616,"connected_time":3109000000000,"state":"active","ping":70},{"user_id":666,"name":"78","steam_id":76561198208328357,"connected_time":3107000000000,"state":"active","ping":81},{"user_id":704,"name":"The Mask...","steam_id":76561198052402891,"connected_time":420000000000,"state":"active","ping":53},{"user_id":626,"name":"Windows Vista Cruiser","steam_id":76561198064102233,"connected_time":5228000000000,"state":"active","ping":61}]},{"server_id":310,"name":"Uncletopia | Frankfurt | 5 | All Maps","name_short":"frk-5","host":"frk-1.de.uncletopia.com","port":27055,"enabled":true,"region":"eu","cc":"de","latitude":50.110924,"longitude":8.682127,"reserved":0,"last_update":"0001-01-01T00:00:00Z","name_a2s":"Uncletopia | Frankfurt | 5 | All Maps","protocol":17,"map":"pl_swiftwater_final1","folder":"tf","game":"Team Fortress","app_id":440,"player_count":23,"max_players":24,"Bots":0,"server_type":"Dedicated","server_os":"Linux","password":true,"vac":true,"version":"7742253","steam_id":85568392924504277,"keywords":["nocrits","nodmgspread","payload","uncletopia"],"game_id":440,"stv_port":27056,"stv_name":"Uncletopia | Frankfurt | 5 | All Maps | STV","players":[{"user_id":608,"name":"Hollow","steam_id":76561198315485935,"connected_time":974000000000,"state":"active","ping":61},{"user_id":589,"name":"scarecrowshelper","steam_id":76561198072260553,"connected_time":1620000000000,"state":"active","ping":48},{"user_id":578,"name":"O=(‚Äò-‚ÄôQ)","steam_id":76561198069685870,"connected_time":2845000000000,"state":"active","ping":70},{"user_id":611,"name":"Arturias","steam_id":76561198188720263,"connected_time":750000000000,"state":"active","ping":58},{"user_id":612,"name":"imthegerman","steam_id":76561198053401077,"connected_time":740000000000,"state":"active","ping":101},{"user_id":596,"name":"JimBow","steam_id":76561197999788359,"connected_time":1394000000000,"state":"active","ping":58},{"user_id":615,"name":"Reform","steam_id":76561198410662428,"connected_time":687000000000,"state":"active","ping":72},{"user_id":621,"name":"Tonne","steam_id":76561197970856766,"connected_time":516000000000,"state":"active","ping":53},{"user_id":562,"name":"Makima","steam_id":76561198083867904,"connected_time":4022000000000,"state":"active","ping":60},{"user_id":585,"name":"Bobirulez","steam_id":76561198009125458,"connected_time":2351000000000,"state":"active","ping":83},{"user_id":587,"name":"Cirox","steam_id":76561198383142404,"connected_time":1648000000000,"state":"active","ping":84},{"user_id":583,"name":"MrMartin","steam_id":76561198399954507,"connected_time":2669000000000,"state":"active","ping":90},{"user_id":584,"name":"LxZurk","steam_id":76561198114054978,"connected_time":2486000000000,"state":"active","ping":58},{"user_id":586,"name":"TidB","steam_id":76561198055342304,"connected_time":1656000000000,"state":"active","ping":52},{"user_id":616,"name":"etc","steam_id":76561197998394797,"connected_time":684000000000,"state":"active","ping":58},{"user_id":617,"name":"akakez","steam_id":76561198095432821,"connected_time":674000000000,"state":"active","ping":123},{"user_id":591,"name":"sriracha..","steam_id":76561198005560221,"connected_time":1585000000000,"state":"active","ping":94},{"user_id":618,"name":"theslappro","steam_id":76561198349697007,"connected_time":650000000000,"state":"active","ping":100},{"user_id":592,"name":"AmadStatistician","steam_id":76561198163654770,"connected_time":1578000000000,"state":"active","ping":62},{"user_id":609,"name":"AneveX","steam_id":76561198111905804,"connected_time":911000000000,"state":"active","ping":64},{"user_id":619,"name":"S_ApplePie","steam_id":76561198106947669,"connected_time":630000000000,"state":"active","ping":102},{"user_id":622,"name":"Deckard","steam_id":76561198004704647,"connected_time":229000000000,"state":"active","ping":75},{"user_id":620,"name":"√°rv√≠zt≈±r≈ë t√ºk√∂rf√∫r√≥g√©p","steam_id":76561198296643061,"connected_time":628000000000,"state":"active","ping":63}]},{"server_id":311,"name":"Uncletopia | Frankfurt | 6 | All Maps","name_short":"frk-6","host":"frk-1.de.uncletopia.com","port":27065,"enabled":true,"region":"eu","cc":"de","latitude":50.110924,"longitude":8.682127,"reserved":0,"last_update":"0001-01-01T00:00:00Z","name_a2s":"Uncletopia | Frankfurt | 6 | All Maps","protocol":17,"map":"cp_sunshine","folder":"tf","game":"Team Fortress","app_id":440,"player_count":0,"max_players":24,"Bots":0,"server_type":"Dedicated","server_os":"Linux","password":true,"vac":true,"version":"7742253","steam_id":85568392924504278,"keywords":["cp","nocrits","nodmgspread","uncletopia"],"game_id":440,"stv_port":27066,"stv_name":"Uncletopia | Frankfurt | 6 | All Maps | STV","players":null},{"server_id":23,"name":"Uncletopia | Frankfurt | 7 | Stopwatch Beta","name_short":"frk-7","host":"frk-1.de.uncletopia.com","port":27075,"enabled":true,"region":"eu","cc":"de","latitude":50.110924,"longitude":8.682127,"reserved":0,"last_update":"0001-01-01T00:00:00Z","name_a2s":"Uncletopia | Frankfurt | 7 | Stopwatch Beta","protocol":17,"map":"workshop/pl_badwater_pro_v12.ugc2142942074","folder":"tf","game":"Team Fortress","app_id":440,"player_count":0,"max_players":24,"Bots":0,"server_type":"Dedicated","server_os":"Linux","password":true,"vac":true,"version":"7742253","steam_id":85568392924742827,"keywords":["nocrits","nodmgspread","payload","uncletopia"],"game_id":440,"stv_port":27076,"stv_name":"Uncletopia | Frankfurt | 7 | Stopwatch Beta | STV","players":null},{"server_id":24,"name":"Uncletopia | Frankfurt | 8 | Community","name_short":"frk-8","host":"frk-1.de.uncletopia.com","port":27085,"enabled":true,"region":"eu","cc":"de","latitude":50.110924,"longitude":8.682127,"reserved":0,"last_update":"0001-01-01T00:00:00Z","name_a2s":"Uncletopia | Frankfurt | 8 | Community","protocol":17,"map":"workshop/cp_villa_b19.ugc2113052569","folder":"tf","game":"Team Fortress","app_id":440,"player_count":0,"max_players":24,"Bots":0,"server_type":"Dedicated","server_os":"Linux","password":true,"vac":true,"version":"7742253","steam_id":85568392924742828,"keywords":["cp","nocrits","nodmgspread","uncletopia"],"game_id":440,"stv_port":27086,"stv_name":"Uncletopia | Frankfurt | 8 | Community | STV","players":null},{"server_id":202,"name":"Uncletopia | Hong Kong | 1 | All Maps","name_short":"hgk-1","host":"hgk-1.hk.uncletopia.com","port":27015,"enabled":true,"region":"asia","cc":"hk","latitude":22.302711,"longitude":114.177216,"reserved":0,"last_update":"0001-01-01T00:00:00Z","name_a2s":"Uncletopia | Hong Kong | 1 | All Maps","protocol":17,"map":"pl_badwater","folder":"tf","game":"Team Fortress","app_id":440,"player_count":0,"max_players":24,"Bots":0,"server_type":"Dedicated","server_os":"Linux","password":true,"vac":true,"version":"7742253","steam_id":85568392924494504,"keywords":["nocrits","nodmgspread","payload","uncletopia"],"game_id":440,"stv_port":27016,"stv_name":"Uncletopia | Hong Kong | 1 | All Maps | STV","players":null},{"server_id":1,"name":"Uncletopia | Los Angeles | 1 | All Maps","name_short":"lax-1","host":"lax-1.us.uncletopia.com","port":27015,"enabled":true,"region":"us-west","cc":"us","latitude":33.94279,"longitude":-118.41004,"reserved":0,"last_update":"0001-01-01T00:00:00Z","name_a2s":"Uncletopia | Los Angeles | 1 | All Maps","protocol":17,"map":"pl_borneo","folder":"tf","game":"Team Fortress","app_id":440,"player_count":18,"max_players":24,"Bots":0,"server_type":"Dedicated","server_os":"Linux","password":true,"vac":true,"version":"7742253","steam_id":85568392924469991,"keywords":["nocrits","nodmgspread","payload","uncletopia"],"game_id":440,"stv_port":27016,"stv_name":"Uncletopia | Los Angeles | 1 | All Maps | STV","players":[{"user_id":79,"name":"playdough eater","steam_id":76561199045901994,"connected_time":1973000000000,"state":"active","ping":54},{"user_id":59,"name":"The Squid Gamer‚Ñ¢","steam_id":76561198340621517,"connected_time":2679000000000,"state":"active","ping":72},{"user_id":36,"name":"Prime","steam_id":76561198218218705,"connected_time":4330000000000,"state":"active","ping":72},{"user_id":87,"name":"SpookieTheSkeleton","steam_id":76561198191112263,"connected_time":1086000000000,"state":"active","ping":92},{"user_id":107,"name":"·¥ç·¥Ä·¥Ö·¥Ö·¥èx777","steam_id":76561199197204782,"connected_time":24000000000,"state":"active","ping":118},{"user_id":91,"name":"Hernandez$","steam_id":76561198019324588,"connected_time":871000000000,"state":"active","ping":49},{"user_id":16,"name":"festivized autism girl","steam_id":76561198008908085,"connected_time":5371000000000,"state":"active","ping":32},{"user_id":89,"name":"North Central Positronics Rep","steam_id":76561198133718360,"connected_time":944000000000,"state":"active","ping":101},{"user_id":61,"name":"stepho","steam_id":76561199132035586,"connected_time":2632000000000,"state":"active","ping":117},{"user_id":96,"name":"Fungus","steam_id":76561198390297486,"connected_time":523000000000,"state":"active","ping":31},{"user_id":105,"name":"cookie","steam_id":76561197971557295,"connected_time":102000000000,"state":"active","ping":45},{"user_id":77,"name":"The Lonely Croc","steam_id":76561198123241396,"connected_time":2107000000000,"state":"active","ping":78},{"user_id":42,"name":"meow","steam_id":76561198298140571,"connected_time":4258000000000,"state":"active","ping":58},{"user_id":69,"name":"Taffy","steam_id":76561198276612538,"connected_time":2249000000000,"state":"active","ping":58},{"user_id":78,"name":"Dr_Ramimni","steam_id":76561198951815558,"connected_time":2073000000000,"state":"active","ping":72},{"user_id":90,"name":"3.dlc","steam_id":76561198234377776,"connected_time":935000000000,"state":"active","ping":49},{"user_id":97,"name":"MR.meeseeks","steam_id":76561198294943420,"connected_time":522000000000,"state":"active","ping":93},{"user_id":100,"name":"SneakyRocks","steam_id":76561198201694213,"connected_time":339000000000,"state":"active","ping":44}]},{"server_id":112,"name":"Uncletopia | Los Angeles | 2 | All Maps","name_short":"lax-2","host":"lax-1.us.uncletopia.com","port":27025,"enabled":true,"region":"us-west","cc":"us","latitude":33.94279,"longitude":-118.41004,"reserved":0,"last_update":"0001-01-01T00:00:00Z","name_a2s":"Uncletopia | Los Angeles | 2 | All Maps","protocol":17,"map":"cp_snakewater_final1","folder":"tf","game":"Team Fortress","app_id":440,"player_count":0,"max_players":24,"Bots":0,"server_type":"Dedicated","server_os":"Linux","password":true,"vac":true,"version":"7742253","steam_id":85568392924469992,"keywords":["cp","nocrits","nodmgspread","uncletopia"],"game_id":440,"stv_port":27026,"stv_name":"Uncletopia | Los Angeles | 2 | All Maps | STV","players":null},{"server_id":324,"name":"Uncletopia | Los Angeles | 3 | All Maps","name_short":"lax-3","host":"lax-1.us.uncletopia.com","port":27035,"enabled":true,"region":"us-west","cc":"us","latitude":33.94279,"longitude":-118.41004,"reserved":0,"last_update":"0001-01-01T00:00:00Z","name_a2s":"Uncletopia | Los Angeles | 3 | All Maps","protocol":17,"map":"cp_mountainlab","folder":"tf","game":"Team Fortress","app_id":440,"player_count":1,"max_players":24,"Bots":0,"server_type":"Dedicated","server_os":"Linux","password":true,"vac":true,"version":"7742253","steam_id":85568392924510198,"keywords":["cp","nocrits","nodmgspread","uncletopia"],"game_id":440,"stv_port":27036,"stv_name":"Uncletopia | Los Angeles | 3 | All Maps | STV","players":[{"user_id":5,"name":"Fremond Games","steam_id":76561198847910046,"connected_time":931000000000,"state":"active","ping":69}]},{"server_id":25,"name":"Uncletopia | Los Angeles | 4 | Stopwatch Beta","name_short":"lax-4","host":"lax-1.us.uncletopia.com","port":27045,"enabled":true,"region":"us-west","cc":"us","latitude":33.94279,"longitude":-118.41004,"reserved":0,"last_update":"0001-01-01T00:00:00Z","name_a2s":"Uncletopia | Los Angeles | 4 | Stopwatch Beta","protocol":17,"map":"workshop/koth_clearcut_b15.ugc2107050255","folder":"tf","game":"Team Fortress","app_id":440,"player_count":0,"max_players":24,"Bots":0,"server_type":"Dedicated","server_os":"Linux","password":true,"vac":true,"version":"7742253","steam_id":85568392924510199,"keywords":["cp","nocrits","nodmgspread","uncletopia"],"game_id":440,"stv_port":27046,"stv_name":"Uncletopia | Los Angeles | 4 | Stopwatch Beta | STV","players":null},{"server_id":11,"name":"Uncletopia | London | 1 | All Maps","name_short":"lon-1","host":"lon-1.uk.uncletopia.com","port":27015,"enabled":true,"region":"eu","cc":"gb","latitude":51.509865,"longitude":-0.118092,"reserved":0,"last_update":"0001-01-01T00:00:00Z","name_a2s":"Uncletopia | London | 1 | All Maps","protocol":17,"map":"pl_upward","folder":"tf","game":"Team Fortress","app_id":440,"player_count":24,"max_players":24,"Bots":0,"server_type":"Dedicated","server_os":"Linux","password":true,"vac":true,"version":"7742253","steam_id":85568392924367362,"keywords":["nocrits","nodmgspread","payload","uncletopia"],"game_id":440,"stv_port":27016,"stv_name":"Uncletopia | London | 1 | All Maps | STV","players":[{"user_id":799,"name":"csnipery","steam_id":76561199435280050,"connected_time":1741000000000,"state":"active","ping":66},{"user_id":790,"name":"Chief Quityourbitchin","steam_id":76561198860065033,"connected_time":2474000000000,"state":"active","ping":46},{"user_id":788,"name":"Hotgamerdad","steam_id":76561198085940613,"connected_time":2570000000000,"state":"active","ping":51},{"user_id":809,"name":"gnarly business","steam_id":76561198832688767,"connected_time":550000000000,"state":"active","ping":47},{"user_id":786,"name":"Dirty Joe","steam_id":76561198142418870,"connected_time":2768000000000,"state":"active","ping":45},{"user_id":779,"name":"Coac","steam_id":76561198085265740,"connected_time":3543000000000,"state":"active","ping":73},{"user_id":810,"name":"Son Goku","steam_id":76561199383437138,"connected_time":443000000000,"state":"active","ping":115},{"user_id":792,"name":"Kruthal","steam_id":76561198245726582,"connected_time":2437000000000,"state":"active","ping":75},{"user_id":785,"name":"Joxaren","steam_id":76561198049407893,"connected_time":2830000000000,"state":"active","ping":57},{"user_id":797,"name":"pigeon lung","steam_id":76561198337702472,"connected_time":1922000000000,"state":"active","ping":52},{"user_id":694,"name":"KPhii","steam_id":76561198970587061,"connected_time":9007000000000,"state":"active","ping":58},{"user_id":811,"name":"r/ratemypoo","steam_id":76561198329640236,"connected_time":426000000000,"state":"active","ping":45},{"user_id":808,"name":"„ÉÉ","steam_id":76561198068953887,"connected_time":688000000000,"state":"active","ping":55},{"user_id":796,"name":"(())","steam_id":76561198103299625,"connected_time":2150000000000,"state":"active","ping":43},{"user_id":791,"name":"pAftAq","steam_id":76561198359966356,"connected_time":2473000000000,"state":"active","ping":91},{"user_id":749,"name":"dec","steam_id":76561198009660168,"connected_time":5040000000000,"state":"active","ping":58},{"user_id":787,"name":"Zoran Snajper","steam_id":76561198312564061,"connected_time":2697000000000,"state":"active","ping":75},{"user_id":793,"name":"snowi","steam_id":76561198006502679,"connected_time":2436000000000,"state":"active","ping":58},{"user_id":733,"name":"sigma female","steam_id":76561198298576765,"connected_time":5897000000000,"state":"active","ping":66},{"user_id":789,"name":"Dale ‚ù§","steam_id":76561197995189004,"connected_time":2476000000000,"state":"active","ping":62},{"user_id":812,"name":"BlueBlueFox","steam_id":76561198053817230,"connected_time":408000000000,"state":"active","ping":73},{"user_id":783,"name":"Snort Vaulter","steam_id":76561198151757381,"connected_time":3055000000000,"state":"active","ping":52},{"user_id":806,"name":"Alexei","steam_id":76561197987169026,"connected_time":773000000000,"state":"active","ping":36},{"user_id":807,"name":"Dee","steam_id":76561198257836694,"connected_time":720000000000,"state":"active","ping":44}]},{"server_id":114,"name":"Uncletopia | London | 2 | All Maps","name_short":"lon-2","host":"lon-1.uk.uncletopia.com","port":27025,"enabled":true,"region":"eu","cc":"gb","latitude":51.509865,"longitude":-0.118092,"reserved":0,"last_update":"0001-01-01T00:00:00Z","name_a2s":"Uncletopia | London | 2 | All Maps","protocol":17,"map":"pl_badwater","folder":"tf","game":"Team Fortress","app_id":440,"player_count":24,"max_players":24,"Bots":0,"server_type":"Dedicated","server_os":"Linux","password":true,"vac":true,"version":"7742253","steam_id":85568392924470941,"keywords":["nocrits","nodmgspread","payload","uncletopia"],"game_id":440,"stv_port":27026,"stv_name":"Uncletopia | London | 2 | All Maps | STV","players":[{"user_id":762,"name":"Benzo Fury","steam_id":76561198025259336,"connected_time":3922000000000,"state":"active","ping":44},{"user_id":811,"name":"SirVitek","steam_id":76561198142961758,"connected_time":203000000000,"state":"active","ping":62},{"user_id":798,"name":"deez","steam_id":76561198831476915,"connected_time":2357000000000,"state":"active","ping":37},{"user_id":795,"name":"what can swim? a little stone","steam_id":76561198123131045,"connected_time":2445000000000,"state":"active","ping":75},{"user_id":690,"name":"Jaffa_King7","steam_id":76561199061854803,"connected_time":6515000000000,"state":"active","ping":72},{"user_id":776,"name":"dripstein","steam_id":76561198059598696,"connected_time":3543000000000,"state":"active","ping":64},{"user_id":802,"name":"Xoriss","steam_id":76561198045892147,"connected_time":1852000000000,"state":"active","ping":74},{"user_id":812,"name":"Dolphin2011","steam_id":76561197997323419,"connected_time":199000000000,"state":"active","ping":89},{"user_id":807,"name":".moral37-","steam_id":76561198102195119,"connected_time":1140000000000,"state":"active","ping":45},{"user_id":815,"name":"Keizer420","steam_id":76561198354567661,"connected_time":81000000000,"state":"active","ping":41},{"user_id":796,"name":"Antidepresantas","steam_id":76561198039489413,"connected_time":2405000000000,"state":"active","ping":81},{"user_id":809,"name":"Joy","steam_id":76561198155314925,"connected_time":746000000000,"state":"active","ping":58},{"user_id":755,"name":"zdX","steam_id":76561198163735277,"connected_time":4429000000000,"state":"active","ping":66},{"user_id":814,"name":"cpluus","steam_id":76561198128238482,"connected_time":150000000000,"state":"active","ping":59},{"user_id":804,"name":"sassy the sasquatch","steam_id":76561198844060342,"connected_time":1310000000000,"state":"active","ping":39},{"user_id":793,"name":"Burbie","steam_id":76561198046069449,"connected_time":2486000000000,"state":"active","ping":56},{"user_id":760,"name":"Gnarville","steam_id":76561198006373329,"connected_time":3973000000000,"state":"active","ping":45},{"user_id":806,"name":"ArekanPL","steam_id":76561198306811916,"connected_time":1250000000000,"state":"active","ping":70},{"user_id":797,"name":"‚òú(Ôæü„ÉÆÔæü‚òú) Lux","steam_id":76561198098008231,"connected_time":2401000000000,"state":"active","ping":66},{"user_id":784,"name":"Mac","steam_id":76561198001371660,"connected_time":3071000000000,"state":"active","ping":57},{"user_id":766,"name":"Thalash","steam_id":76561198064052251,"connected_time":3860000000000,"state":"active","ping":60},{"user_id":801,"name":"Permzilla","steam_id":76561198009407651,"connected_time":2006000000000,"state":"active","ping":59},{"user_id":768,"name":"Not John","steam_id":76561197984763237,"connected_time":3859000000000,"state":"active","ping":30},{"user_id":769,"name":"‚òú(Ôæü„ÉÆÔæü‚òú) fribs","steam_id":76561198000461999,"connected_time":3836000000000,"state":"active","ping":57}]},{"server_id":320,"name":"Uncletopia | London | 3 | All Maps","name_short":"lon-3","host":"lon-1.uk.uncletopia.com","port":27035,"enabled":true,"region":"eu","cc":"gb","latitude":51.509865,"longitude":-0.118092,"reserved":0,"last_update":"0001-01-01T00:00:00Z","name_a2s":"Uncletopia | London | 3 | All Maps","protocol":17,"map":"koth_lakeside_final","folder":"tf","game":"Team Fortress","app_id":440,"player_count":0,"max_players":24,"Bots":0,"server_type":"Dedicated","server_os":"Linux","password":true,"vac":true,"version":"7742253","steam_id":85568392924510192,"keywords":["cp","nocrits","nodmgspread","uncletopia"],"game_id":440,"stv_port":27036,"stv_name":"Uncletopia | London | 3 | All Maps | STV","players":null},{"server_id":321,"name":"Uncletopia | London | 4 | All Maps","name_short":"lon-4","host":"lon-1.uk.uncletopia.com","port":27045,"enabled":true,"region":"eu","cc":"gb","latitude":51.509865,"longitude":-0.118092,"reserved":0,"last_update":"0001-01-01T00:00:00Z","name_a2s":"Uncletopia | London | 4 | All Maps","protocol":17,"map":"pl_barnblitz","folder":"tf","game":"Team Fortress","app_id":440,"player_count":24,"max_players":24,"Bots":0,"server_type":"Dedicated","server_os":"Linux","password":true,"vac":true,"version":"7742253","steam_id":85568392924510193,"keywords":["nocrits","nodmgspread","payload","uncletopia"],"game_id":440,"stv_port":27046,"stv_name":"Uncletopia | London | 4 | All Maps | STV","players":[{"user_id":318,"name":"scharque","steam_id":76561198071227039,"connected_time":3411000000000,"state":"active","ping":61},{"user_id":341,"name":"who asked","steam_id":76561198834897089,"connected_time":1643000000000,"state":"active","ping":65},{"user_id":319,"name":"fat man jerry","steam_id":76561198881097722,"connected_time":3376000000000,"state":"active","ping":50},{"user_id":342,"name":"Scavenger","steam_id":76561199067000038,"connected_time":1600000000000,"state":"active","ping":57},{"user_id":333,"name":"cock the rock downson","steam_id":76561198061833682,"connected_time":2352000000000,"state":"active","ping":115},{"user_id":343,"name":"3 Netherite incident","steam_id":76561199082027723,"connected_time":1575000000000,"state":"active","ping":63},{"user_id":352,"name":"willo","steam_id":76561198034442999,"connected_time":784000000000,"state":"active","ping":53},{"user_id":246,"name":"[Q]","steam_id":76561198018729683,"connected_time":7629000000000,"state":"active","ping":45},{"user_id":317,"name":"joe","steam_id":76561198026484403,"connected_time":3483000000000,"state":"active","ping":56},{"user_id":353,"name":"XxBenShapiro420xX","steam_id":76561199229373972,"connected_time":545000000000,"state":"active","ping":57},{"user_id":330,"name":"mq","steam_id":76561198091888948,"connected_time":2666000000000,"state":"active","ping":62},{"user_id":354,"name":"hmullany","steam_id":76561198055608801,"connected_time":523000000000,"state":"active","ping":57},{"user_id":338,"name":"Salesman","steam_id":76561198045527771,"connected_time":1931000000000,"state":"active","ping":66},{"user_id":321,"name":"tete","steam_id":76561198045222850,"connected_time":3323000000000,"state":"active","ping":73},{"user_id":346,"name":"Cliff Barnes","steam_id":76561198032213783,"connected_time":1505000000000,"state":"active","ping":67},{"user_id":292,"name":"Trioud","steam_id":76561198093992054,"connected_time":4859000000000,"state":"active","ping":43},{"user_id":347,"name":"AWJ ÀÜ-ÀÜ","steam_id":76561198053628243,"connected_time":1488000000000,"state":"active","ping":45},{"user_id":304,"name":"Lux","steam_id":76561198060417740,"connected_time":4359000000000,"state":"active","ping":48},{"user_id":305,"name":"decriminalise goblins","steam_id":76561198048257605,"connected_time":4348000000000,"state":"active","ping":57},{"user_id":323,"name":"Harpenden, Harpenden, Harpenden","steam_id":76561198118138546,"connected_time":3301000000000,"state":"active","ping":43},{"user_id":348,"name":"Syd","steam_id":76561198020515027,"connected_time":1472000000000,"state":"active","ping":91},{"user_id":308,"name":"Bilaterial Newt","steam_id":76561198074655679,"connected_time":4314000000000,"state":"active","ping":99},{"user_id":349,"name":"nine inch whales","steam_id":76561198071176058,"connected_time":1419000000000,"state":"active","ping":52},{"user_id":332,"name":"Carl's Marx","steam_id":76561198059700045,"connected_time":2653000000000,"state":"active","ping":57}]},{"server_id":21,"name":"Uncletopia | London | 5 | All Maps","name_short":"lon-5","host":"lon-1.uk.uncletopia.com","port":27055,"enabled":true,"region":"eu","cc":"gb","latitude":51.509865,"longitude":-0.118092,"reserved":0,"last_update":"0001-01-01T00:00:00Z","name_a2s":"Uncletopia | London | 5 | All Maps","protocol":17,"map":"pl_swiftwater_final1","folder":"tf","game":"Team Fortress","app_id":440,"player_count":0,"max_players":24,"Bots":0,"server_type":"Dedicated","server_os":"Linux","password":true,"vac":true,"version":"7742253","steam_id":85568392924742829,"keywords":["nocrits","nodmgspread","payload","uncletopia"],"game_id":440,"stv_port":27056,"stv_name":"Uncletopia | London | 5 | All Maps | STV","players":null},{"server_id":22,"name":"Uncletopia | London | 6 | All Maps","name_short":"lon-6","host":"lon-1.uk.uncletopia.com","port":27065,"enabled":true,"region":"eu","cc":"gb","latitude":51.509865,"longitude":-0.118092,"reserved":0,"last_update":"0001-01-01T00:00:00Z","name_a2s":"Uncletopia | London | 6 | All Maps","protocol":17,"map":"koth_highpass","folder":"tf","game":"Team Fortress","app_id":440,"player_count":24,"max_players":24,"Bots":0,"server_type":"Dedicated","server_os":"Linux","password":true,"vac":true,"version":"7742253","steam_id":85568392924742830,"keywords":["cp","nocrits","nodmgspread","uncletopia"],"game_id":440,"stv_port":27066,"stv_name":"Uncletopia | London | 6 | All Maps | STV","players":[{"user_id":494,"name":"CosminSL","steam_id":76561198055827684,"connected_time":507000000000,"state":"active","ping":81},{"user_id":497,"name":"travis","steam_id":76561198138119811,"connected_time":437000000000,"state":"active","ping":44},{"user_id":496,"name":"St_dark","steam_id":76561199101198710,"connected_time":452000000000,"state":"active","ping":68},{"user_id":488,"name":"Myths You Forgot","steam_id":76561198104896547,"connected_time":807000000000,"state":"active","ping":75},{"user_id":481,"name":"Rolprev","steam_id":76561198047275939,"connected_time":1161000000000,"state":"active","ping":66},{"user_id":452,"name":"Swayer","steam_id":76561198056192460,"connected_time":2979000000000,"state":"active","ping":55},{"user_id":487,"name":"porridge","steam_id":76561198044585737,"connected_time":821000000000,"state":"active","ping":42},{"user_id":498,"name":"HogHogDog","steam_id":76561199446444119,"connected_time":413000000000,"state":"active","ping":64},{"user_id":499,"name":"BAZZA","steam_id":76561199126581397,"connected_time":393000000000,"state":"active","ping":37},{"user_id":466,"name":"peepee jar man","steam_id":76561198334042273,"connected_time":2066000000000,"state":"active","ping":46},{"user_id":439,"name":"Bingus","steam_id":76561198075427172,"connected_time":3253000000000,"state":"active","ping":37},{"user_id":467,"name":"Jinjo","steam_id":76561198835209457,"connected_time":2054000000000,"state":"active","ping":67},{"user_id":500,"name":"godmodule","steam_id":76561198165995444,"connected_time":391000000000,"state":"active","ping":75},{"user_id":501,"name":"Gryoss","steam_id":76561197999837111,"connected_time":373000000000,"state":"active","ping":106},{"user_id":504,"name":"Farmercy","steam_id":76561198000038039,"connected_time":49000000000,"state":"active","ping":61},{"user_id":502,"name":"Gempooh","steam_id":76561198098463950,"connected_time":262000000000,"state":"active","ping":75},{"user_id":492,"name":"Henriksson","steam_id":76561198851157897,"connected_time":582000000000,"state":"active","ping":62},{"user_id":503,"name":"Nameless_Mann","steam_id":76561198015543601,"connected_time":247000000000,"state":"active","ping":75},{"user_id":483,"name":"ralph62x","steam_id":76561198865294231,"connected_time":1052000000000,"state":"active","ping":51},{"user_id":480,"name":"Bits\u0026Peices","steam_id":76561199225453607,"connected_time":1223000000000,"state":"active","ping":106},{"user_id":482,"name":"Mr. Fox","steam_id":76561198803610709,"connected_time":1130000000000,"state":"active","ping":111},{"user_id":444,"name":"Oak","steam_id":76561198067315672,"connected_time":3193000000000,"state":"active","ping":47},{"user_id":484,"name":"sunny","steam_id":76561198194849578,"connected_time":1048000000000,"state":"active","ping":59},{"user_id":495,"name":"Akker","steam_id":76561199000630792,"connected_time":506000000000,"state":"active","ping":60}]},{"server_id":40,"name":"Uncletopia | London | 7 | No Payload","name_short":"lon-7","host":"lon-1.uk.uncletopia.com","port":27075,"enabled":true,"region":"eu","cc":"gb","latitude":51.509865,"longitude":-0.118092,"reserved":0,"last_update":"0001-01-01T00:00:00Z","name_a2s":"Uncletopia | London | 7 | No Payload","protocol":17,"map":"cp_gullywash_final1","folder":"tf","game":"Team Fortress","app_id":440,"player_count":16,"max_players":24,"Bots":0,"server_type":"Dedicated","server_os":"Linux","password":true,"vac":true,"version":"7742253","steam_id":85568392924964314,"keywords":["cp","nocrits","nodmgspread","uncletopia"],"game_id":440,"stv_port":27076,"stv_name":"Uncletopia | London | 7 | No Payload | STV","players":[{"user_id":181,"name":"Lag","steam_id":76561198159360376,"connected_time":1836000000000,"state":"active","ping":81},{"user_id":206,"name":"DaDogeDev","steam_id":76561199098626049,"connected_time":683000000000,"state":"active","ping":91},{"user_id":216,"name":"Adopted?","steam_id":76561198118667043,"connected_time":67000000000,"state":"active","ping":42},{"user_id":203,"name":"SPONGE","steam_id":76561198040933472,"connected_time":771000000000,"state":"active","ping":68},{"user_id":187,"name":"brokenphilip","steam_id":76561198080960604,"connected_time":1590000000000,"state":"active","ping":79},{"user_id":217,"name":"CMRDGI","steam_id":76561198141356233,"connected_time":51000000000,"state":"active","ping":60},{"user_id":218,"name":"A Succulent Chinese Meal","steam_id":76561198069472440,"connected_time":48000000000,"state":"active","ping":60},{"user_id":214,"name":"n1x","steam_id":76561198289200310,"connected_time":183000000000,"state":"active","ping":84},{"user_id":209,"name":"Ankle Pain","steam_id":76561199105755048,"connected_time":268000000000,"state":"active","ping":61},{"user_id":210,"name":"torn","steam_id":76561198223003236,"connected_time":266000000000,"state":"active","ping":53},{"user_id":212,"name":"waffle toaster","steam_id":76561198799089628,"connected_time":225000000000,"state":"active","ping":44},{"user_id":190,"name":"portokalli","steam_id":76561198289735082,"connected_time":1319000000000,"state":"active","ping":43},{"user_id":192,"name":"Jar","steam_id":76561198156384007,"connected_time":1143000000000,"state":"active","ping":48},{"user_id":193,"name":"Internetowy Pies","steam_id":76561198005719732,"connected_time":1075000000000,"state":"active","ping":59},{"user_id":213,"name":"nem≈õs","steam_id":76561198134203031,"connected_time":204000000000,"state":"active","ping":66},{"user_id":215,"name":"Buff Anteater","steam_id":76561198040182692,"connected_time":166000000000,"state":"active","ping":43}]},{"server_id":41,"name":"Uncletopia | London | 8 | Community","name_short":"lon-8","host":"lon-1.uk.uncletopia.com","port":27085,"enabled":true,"region":"eu","cc":"gb","latitude":51.509865,"longitude":-0.118092,"reserved":0,"last_update":"0001-01-01T00:00:00Z","name_a2s":"Uncletopia | London | 8 | Community","protocol":17,"map":"workshop/koth_ashville_final.ugc2130459942","folder":"tf","game":"Team Fortress","app_id":440,"player_count":0,"max_players":24,"Bots":0,"server_type":"Dedicated","server_os":"Linux","password":true,"vac":true,"version":"7742253","steam_id":85568392924964315,"keywords":["cp","nocrits","nodmgspread","uncletopia"],"game_id":440,"stv_port":27086,"stv_name":"Uncletopia | London | 8 | Community | STV","players":null},{"server_id":300,"name":"Uncletopia | Montr√©al | 1 | All Maps","name_short":"mtl-1","host":"mtl-1.ca.uncletopia.com","port":27015,"enabled":true,"region":"us-east","cc":"ca","latitude":45.50889,"longitude":-73.56167,"reserved":0,"last_update":"0001-01-01T00:00:00Z","name_a2s":"Uncletopia | Montr√©al | 1 | All Maps","protocol":17,"map":"pl_badwater","folder":"tf","game":"Team Fortress","app_id":440,"player_count":0,"max_players":24,"Bots":0,"server_type":"Dedicated","server_os":"Linux","password":true,"vac":true,"version":"7742253","steam_id":85568392924500087,"keywords":["nocrits","nodmgspread","payload","uncletopia"],"game_id":440,"stv_port":27016,"stv_name":"Uncletopia | Montr√©al | 1 | All Maps | STV","players":null},{"server_id":301,"name":"Uncletopia | Montr√©al | 2 | All Maps","name_short":"mtl-2","host":"mtl-1.ca.uncletopia.com","port":27025,"enabled":true,"region":"us-east","cc":"ca","latitude":45.50889,"longitude":-73.56167,"reserved":0,"last_update":"0001-01-01T00:00:00Z","name_a2s":"Uncletopia | Montr√©al | 2 | All Maps","protocol":17,"map":"koth_highpass","folder":"tf","game":"Team Fortress","app_id":440,"player_count":0,"max_players":24,"Bots":0,"server_type":"Dedicated","server_os":"Linux","password":true,"vac":true,"version":"7742253","steam_id":85568392924500088,"keywords":["cp","nocrits","nodmgspread","uncletopia"],"game_id":440,"stv_port":27026,"stv_name":"Uncletopia | Montr√©al | 2 | All Maps | STV","players":null},{"server_id":302,"name":"Uncletopia | Montr√©al | 3 | All Maps","name_short":"mtl-3","host":"mtl-1.ca.uncletopia.com","port":27035,"enabled":true,"region":"us-east","cc":"ca","latitude":45.50889,"longitude":-73.56167,"reserved":0,"last_update":"0001-01-01T00:00:00Z","name_a2s":"Uncletopia | Montr√©al | 3 | All Maps","protocol":17,"map":"cp_mountainlab","folder":"tf","game":"Team Fortress","app_id":440,"player_count":0,"max_players":24,"Bots":0,"server_type":"Dedicated","server_os":"Linux","password":true,"vac":true,"version":"7742253","steam_id":85568392924500089,"keywords":["cp","nocrits","nodmgspread","uncletopia"],"game_id":440,"stv_port":27036,"stv_name":"Uncletopia | Montr√©al | 3 | All Maps | STV","players":null},{"server_id":303,"name":"Uncletopia | Montr√©al | 4 | No Payload","name_short":"mtl-4","host":"mtl-1.ca.uncletopia.com","port":27045,"enabled":true,"region":"us-east","cc":"ca","latitude":45.50889,"longitude":-73.56167,"reserved":0,"last_update":"0001-01-01T00:00:00Z","name_a2s":"Uncletopia | Montr√©al | 4 | No Payload","protocol":17,"map":"plr_bananabay","folder":"tf","game":"Team Fortress","app_id":440,"player_count":0,"max_players":24,"Bots":0,"server_type":"Dedicated","server_os":"Linux","password":true,"vac":true,"version":"7742253","steam_id":85568392924500090,"keywords":["nocrits","nodmgspread","payload","uncletopia"],"game_id":440,"stv_port":27046,"stv_name":"Uncletopia | Montr√©al | 4 | No Payload | STV","players":null},{"server_id":13,"name":"Uncletopia | New York City | 1 | All Maps","name_short":"nyc-1","host":"nyc-1.us.uncletopia.com","port":27015,"enabled":true,"region":"us-east","cc":"us","latitude":40.73061,"longitude":-73.93524,"reserved":0,"last_update":"0001-01-01T00:00:00Z","name_a2s":"Uncletopia | New York City | 1 | All Maps","protocol":17,"map":"pl_snowycoast","folder":"tf","game":"Team Fortress","app_id":440,"player_count":16,"max_players":24,"Bots":0,"server_type":"Dedicated","server_os":"Linux","password":true,"vac":true,"version":"7742253","steam_id":85568392924469993,"keywords":["nocrits","nodmgspread","payload","uncletopia"],"game_id":440,"stv_port":27016,"stv_name":"Uncletopia | New York City | 1 | All Maps | STV","players":[{"user_id":468,"name":"Haevy Waepons Gyu","steam_id":76561199016285746,"connected_time":1235000000000,"state":"spawning","ping":93},{"user_id":477,"name":"4ling","steam_id":76561197994398381,"connected_time":34000000000,"state":"spawning","ping":59},{"user_id":469,"name":"Wagemage","steam_id":76561198013625580,"connected_time":1223000000000,"state":"spawning","ping":74},{"user_id":456,"name":"Kopl","steam_id":76561198345737885,"connected_time":2411000000000,"state":"spawning","ping":122},{"user_id":418,"name":"Hamee333","steam_id":76561199388127663,"connected_time":5116000000000,"state":"spawning","ping":35},{"user_id":444,"name":"–ì–¥–µ –º–æ—Ä–µ?","steam_id":76561197979625544,"connected_time":3341000000000,"state":"spawning","ping":151},{"user_id":473,"name":"Anshin","steam_id":76561198018803214,"connected_time":1030000000000,"state":"spawning","ping":70},{"user_id":448,"name":"Catcow","steam_id":76561198025329176,"connected_time":2884000000000,"state":"spawning","ping":62},{"user_id":471,"name":"champion  turkey","steam_id":76561198151338482,"connected_time":1192000000000,"state":"spawning","ping":47},{"user_id":452,"name":"‚ô•Phocae‚ô•","steam_id":76561199317584594,"connected_time":2700000000000,"state":"spawning","ping":50},{"user_id":472,"name":"pelicAn","steam_id":76561197963422599,"connected_time":1191000000000,"state":"spawning","ping":49},{"user_id":463,"name":"Mad Cow‚Äª","steam_id":76561198132498594,"connected_time":1772000000000,"state":"spawning","ping":81},{"user_id":476,"name":"Milkaplier","steam_id":76561198056914302,"connected_time":208000000000,"state":"spawning","ping":70},{"user_id":474,"name":"Holdie","steam_id":76561198070378200,"connected_time":651000000000,"state":"spawning","ping":68},{"user_id":464,"name":"Sasu","steam_id":76561198893447505,"connected_time":1759000000000,"state":"spawning","ping":103},{"user_id":417,"name":"Brown_Dream","steam_id":76561198975766145,"connected_time":5180000000000,"state":"spawning","ping":80}]},{"server_id":14,"name":"Uncletopia | New York City | 2 | All Maps","name_short":"nyc-2","host":"nyc-1.us.uncletopia.com","port":27025,"enabled":true,"region":"us-east","cc":"us","latitude":40.73061,"longitude":-73.93524,"reserved":0,"last_update":"0001-01-01T00:00:00Z","name_a2s":"Uncletopia | New York City | 2 | All Maps","protocol":17,"map":"koth_highpass","folder":"tf","game":"Team Fortress","app_id":440,"player_count":23,"max_players":24,"Bots":0,"server_type":"Dedicated","server_os":"Linux","password":true,"vac":true,"version":"7742253","steam_id":85568392924469994,"keywords":["cp","nocrits","nodmgspread","uncletopia"],"game_id":440,"stv_port":27026,"stv_name":"Uncletopia | New York City | 2 | All Maps | STV","players":[{"user_id":480,"name":"okar","steam_id":76561198916847884,"connected_time":838000000000,"state":"active","ping":48},{"user_id":470,"name":"witch","steam_id":76561198151071386,"connected_time":1399000000000,"state":"active","ping":58},{"user_id":487,"name":"PossumZx","steam_id":76561198157831232,"connected_time":179000000000,"state":"active","ping":61},{"user_id":416,"name":"santas.secret.sauce","steam_id":76561198042464635,"connected_time":4981000000000,"state":"active","ping":90},{"user_id":478,"name":"Bronze Age GRINDSET","steam_id":76561198859118263,"connected_time":924000000000,"state":"active","ping":72},{"user_id":459,"name":"YelloGoat","steam_id":76561198367174421,"connected_time":1687000000000,"state":"active","ping":37},{"user_id":460,"name":"TheJuiceCrew","steam_id":76561198109073254,"connected_time":1659000000000,"state":"active","ping":75},{"user_id":490,"name":"mush","steam_id":76561198310089797,"connected_time":90000000000,"state":"active","ping":69},{"user_id":462,"name":"Mump Stump","steam_id":76561198135942769,"connected_time":1584000000000,"state":"active","ping":96},{"user_id":491,"name":"TrIcKiNgX3","steam_id":76561198243231748,"connected_time":57000000000,"state":"spawning","ping":131},{"user_id":481,"name":"tallevi8555","steam_id":76561199467013380,"connected_time":768000000000,"state":"active","ping":178},{"user_id":468,"name":"Sergeant Joker #savetf2","steam_id":76561198854616604,"connected_time":1513000000000,"state":"active","ping":55},{"user_id":445,"name":"Two-Teste Tommy","steam_id":76561198064308936,"connected_time":2617000000000,"state":"active","ping":56},{"user_id":492,"name":"dingus","steam_id":76561198966767200,"connected_time":18000000000,"state":"spawning","ping":118},{"user_id":479,"name":"sxl","steam_id":76561198150627999,"connected_time":868000000000,"state":"active","ping":66},{"user_id":463,"name":"dan0m","steam_id":76561199057929697,"connected_time":1578000000000,"state":"active","ping":49},{"user_id":493,"name":"Funee","steam_id":76561198041048289,"connected_time":3000000000,"state":"spawning","ping":40},{"user_id":485,"name":"BuhByeFalecia","steam_id":76561198364710587,"connected_time":478000000000,"state":"active","ping":90},{"user_id":471,"name":"Idiot on his Keyboard","steam_id":76561198217662787,"connected_time":1397000000000,"state":"active","ping":72},{"user_id":476,"name":"DaRoni","steam_id":76561199196120410,"connected_time":1204000000000,"state":"active","ping":115},{"user_id":465,"name":"b0b4 8710","steam_id":76561198068752705,"connected_time":1557000000000,"state":"active","ping":48},{"user_id":484,"name":"KamikazekidGC","steam_id":76561198146489218,"connected_time":565000000000,"state":"active","ping":81},{"user_id":469,"name":"Vexed","steam_id":76561198157557477,"connected_time":1480000000000,"state":"active","ping":91}]},{"server_id":15,"name":"Uncletopia | New York City | 3 | Stopwatch Beta","name_short":"nyc-3","host":"nyc-1.us.uncletopia.com","port":27035,"enabled":true,"region":"us-east","cc":"us","latitude":40.73061,"longitude":-73.93524,"reserved":0,"last_update":"0001-01-01T00:00:00Z","name_a2s":"Uncletopia | New York City | 3 | Stopwatch Beta","protocol":17,"map":"workshop/pl_badwater_pro_v12.ugc2142942074","folder":"tf","game":"Team Fortress","app_id":440,"player_count":0,"max_players":24,"Bots":0,"server_type":"Dedicated","server_os":"Linux","password":true,"vac":true,"version":"7742253","steam_id":85568392924742820,"keywords":["nocrits","nodmgspread","payload","uncletopia"],"game_id":440,"stv_port":27036,"stv_name":"Uncletopia | New York City | 3 | Stopwatch Beta | STV","players":null},{"server_id":16,"name":"Uncletopia | New York City | 4 | Community","name_short":"nyc-4","host":"nyc-1.us.uncletopia.com","port":27045,"enabled":true,"region":"us-east","cc":"us","latitude":40.73061,"longitude":-73.93524,"reserved":0,"last_update":"0001-01-01T00:00:00Z","name_a2s":"Uncletopia | New York City | 4 | Community","protocol":17,"map":"workshop/koth_ramjam_rc1.ugc459778887","folder":"tf","game":"Team Fortress","app_id":440,"player_count":0,"max_players":24,"Bots":0,"server_type":"Dedicated","server_os":"Linux","password":true,"vac":true,"version":"7742253","steam_id":85568392924742821,"keywords":["cp","nocrits","nodmgspread","uncletopia"],"game_id":440,"stv_port":27046,"stv_name":"Uncletopia | New York City | 4 | Community | STV","players":null},{"server_id":142,"name":"Uncletopia | S√£o Paulo | 1 | All Maps","name_short":"sao-1","host":"sao-1.br.uncletopia.com","port":27015,"enabled":true,"region":"sa","cc":"br","latitude":-23.533773,"longitude":-46.62529,"reserved":0,"last_update":"0001-01-01T00:00:00Z","name_a2s":"Uncletopia | S√£o Paulo | 1 | All Maps","protocol":17,"map":"koth_viaduct","folder":"tf","game":"Team Fortress","app_id":440,"player_count":0,"max_players":24,"Bots":0,"server_type":"Dedicated","server_os":"Linux","password":true,"vac":true,"version":"7742253","steam_id":85568392924469996,"keywords":["cp","nocrits","nodmgspread","uncletopia"],"game_id":440,"stv_port":27016,"stv_name":"Uncletopia | S√£o Paulo | 1 | All Maps | STV","players":null},{"server_id":143,"name":"Uncletopia | S√£o Paulo | 2 | All Maps","name_short":"sao-2","host":"sao-2.br.uncletopia.com","port":27015,"enabled":true,"region":"sa","cc":"br","latitude":-23.533773,"longitude":-46.62529,"reserved":0,"last_update":"0001-01-01T00:00:00Z","name_a2s":"Uncletopia | S√£o Paulo | 2 | All Maps","protocol":17,"map":"pl_frontier_final","folder":"tf","game":"Team Fortress","app_id":440,"player_count":0,"max_players":24,"Bots":0,"server_type":"Dedicated","server_os":"Linux","password":true,"vac":true,"version":"7742253","steam_id":85568392924485349,"keywords":["nocrits","nodmgspread","payload","uncletopia"],"game_id":440,"stv_port":27016,"stv_name":"Uncletopia | S√£o Paulo | 2 | All Maps | STV","players":null},{"server_id":7,"name":"Uncletopia | Seattle | 1 | All Maps","name_short":"sea-1","host":"sea-1.us.uncletopia.com","port":27015,"enabled":true,"region":"us-west","cc":"us","latitude":47.608013,"longitude":-122.33517,"reserved":0,"last_update":"0001-01-01T00:00:00Z","name_a2s":"Uncletopia | Seattle | 1 | All Maps","protocol":17,"map":"cp_sunshine","folder":"tf","game":"Team Fortress","app_id":440,"player_count":23,"max_players":24,"Bots":0,"server_type":"Dedicated","server_os":"Linux","password":true,"vac":true,"version":"7742253","steam_id":85568392924469997,"keywords":["cp","nocrits","nodmgspread","uncletopia"],"game_id":440,"stv_port":27016,"stv_name":"Uncletopia | Seattle | 1 | All Maps | STV","players":[{"user_id":388,"name":"AmirKhaan","steam_id":76561198992403254,"connected_time":2143000000000,"state":"active","ping":110},{"user_id":400,"name":"sara","steam_id":76561198283462369,"connected_time":1767000000000,"state":"active","ping":76},{"user_id":416,"name":"estrogenfan","steam_id":76561198356871016,"connected_time":1109000000000,"state":"active","ping":98},{"user_id":381,"name":"mub","steam_id":76561197961943948,"connected_time":2868000000000,"state":"active","ping":45},{"user_id":355,"name":"strawberry","steam_id":76561198101926397,"connected_time":5590000000000,"state":"active","ping":93},{"user_id":385,"name":"trashboat","steam_id":76561199067882406,"connected_time":2377000000000,"state":"active","ping":92},{"user_id":356,"name":"JesterJasper","steam_id":76561198025338925,"connected_time":5589000000000,"state":"active","ping":45},{"user_id":419,"name":"misterjozo","steam_id":76561198012300755,"connected_time":1024000000000,"state":"active","ping":54},{"user_id":412,"name":"FakeBot","steam_id":76561197961193303,"connected_time":1273000000000,"state":"active","ping":83},{"user_id":395,"name":"SnoDot","steam_id":76561198062209970,"connected_time":1985000000000,"state":"active","ping":36},{"user_id":396,"name":"Mengle","steam_id":76561198001953684,"connected_time":1976000000000,"state":"active","ping":112},{"user_id":403,"name":"Pinhead","steam_id":76561198207979440,"connected_time":1633000000000,"state":"active","ping":86},{"user_id":433,"name":"TF2EASY.COM rfrei","steam_id":76561199136383063,"connected_time":66000000000,"state":"active","ping":140},{"user_id":415,"name":"sock","steam_id":76561199117597830,"connected_time":1143000000000,"state":"active","ping":106},{"user_id":429,"name":"J3SUS","steam_id":76561198368965383,"connected_time":763000000000,"state":"active","ping":90},{"user_id":431,"name":"Zenyaru","steam_id":76561199128779995,"connected_time":426000000000,"state":"active","ping":76},{"user_id":410,"name":"neeko","steam_id":76561198354256072,"connected_time":1342000000000,"state":"active","ping":111},{"user_id":413,"name":"HideOnTate","steam_id":76561198209880837,"connected_time":1236000000000,"state":"active","ping":52},{"user_id":430,"name":"Robyn Goodfellowe","steam_id":76561198074719241,"connected_time":499000000000,"state":"active","ping":125},{"user_id":417,"name":"Hatch_Attack19","steam_id":76561198104274870,"connected_time":1099000000000,"state":"active","ping":75},{"user_id":420,"name":"Beeveelution","steam_id":76561198331526301,"connected_time":983000000000,"state":"active","ping":67},{"user_id":421,"name":"boatz (huntsman gaming)","steam_id":76561198046851181,"connected_time":935000000000,"state":"active","ping":60},{"user_id":422,"name":"Master Of Whales","steam_id":76561198349104889,"connected_time":929000000000,"state":"active","ping":74}]},{"server_id":119,"name":"Uncletopia | Seattle | 2 | All Maps","name_short":"sea-2","host":"sea-1.us.uncletopia.com","port":27025,"enabled":true,"region":"us-west","cc":"us","latitude":47.608013,"longitude":-122.33517,"reserved":0,"last_update":"0001-01-01T00:00:00Z","name_a2s":"Uncletopia | Seattle | 2 | All Maps","protocol":17,"map":"cp_sunshine","folder":"tf","game":"Team Fortress","app_id":440,"player_count":22,"max_players":24,"Bots":0,"server_type":"Dedicated","server_os":"Linux","password":true,"vac":true,"version":"7742253","steam_id":85568392924469998,"keywords":["cp","nocrits","nodmgspread","uncletopia"],"game_id":440,"stv_port":27026,"stv_name":"Uncletopia | Seattle | 2 | All Maps | STV","players":[{"user_id":250,"name":"WINNNNNIE","steam_id":76561198286650322,"connected_time":451000000000,"state":"active","ping":52},{"user_id":243,"name":"Dimple","steam_id":76561198980324190,"connected_time":820000000000,"state":"active","ping":56},{"user_id":251,"name":"omg","steam_id":76561198108685037,"connected_time":407000000000,"state":"active","ping":77},{"user_id":209,"name":"2007jwhite","steam_id":76561198312583829,"connected_time":3040000000000,"state":"active","ping":47},{"user_id":242,"name":"AspenIsPoplar","steam_id":76561198346382060,"connected_time":1102000000000,"state":"active","ping":54},{"user_id":186,"name":"Fermenting Kiwi","steam_id":76561198253303497,"connected_time":5157000000000,"state":"active","ping":76},{"user_id":208,"name":"plat","steam_id":76561198974178569,"connected_time":3105000000000,"state":"active","ping":43},{"user_id":210,"name":"chester","steam_id":76561198952172376,"connected_time":3024000000000,"state":"active","ping":111},{"user_id":252,"name":"Back with the milk","steam_id":76561199020105501,"connected_time":400000000000,"state":"active","ping":125},{"user_id":255,"name":"Tiguex","steam_id":76561199201716427,"connected_time":151000000000,"state":"active","ping":225},{"user_id":229,"name":"Julien","steam_id":76561199389584938,"connected_time":2246000000000,"state":"active","ping":44},{"user_id":253,"name":"Deku Scrublord","steam_id":76561198036602402,"connected_time":337000000000,"state":"active","ping":104},{"user_id":217,"name":"aon135","steam_id":76561197966931637,"connected_time":2841000000000,"state":"active","ping":47},{"user_id":218,"name":"nappyzappy","steam_id":76561198095118953,"connected_time":2817000000000,"state":"active","ping":55},{"user_id":228,"name":"Hottplate","steam_id":76561198051694727,"connected_time":2455000000000,"state":"active","ping":56},{"user_id":248,"name":"5392vin","steam_id":76561198880493511,"connected_time":529000000000,"state":"active","ping":61},{"user_id":249,"name":"Spingebob2014@hotmail.com","steam_id":76561198127003633,"connected_time":490000000000,"state":"active","ping":132},{"user_id":257,"name":"KaiaDoggy","steam_id":76561197997096301,"connected_time":73000000000,"state":"active","ping":99},{"user_id":232,"name":"squid game","steam_id":76561199248960166,"connected_time":2080000000000,"state":"active","ping":38},{"user_id":235,"name":"WACKY JIM","steam_id":76561198961641122,"connected_time":2005000000000,"state":"active","ping":58},{"user_id":231,"name":"The Pepsi¬Æ Superbowl¬Æ!","steam_id":76561198080828981,"connected_time":2151000000000,"state":"active","ping":77},{"user_id":241,"name":"Jailbreak","steam_id":76561198802085218,"connected_time":1419000000000,"state":"active","ping":100}]},{"server_id":406,"name":"Uncletopia | Seattle | 3 | Stopwatch Beta","name_short":"sea-3","host":"sea-1.us.uncletopia.com","port":27035,"enabled":true,"region":"us-west","cc":"us","latitude":47.608013,"longitude":-122.33517,"reserved":0,"last_update":"0001-01-01T00:00:00Z","name_a2s":"Uncletopia | Seattle | 3 | Stopwatch Beta","protocol":17,"map":"cp_altitude","folder":"tf","game":"Team Fortress","app_id":440,"player_count":0,"max_players":24,"Bots":0,"server_type":"Dedicated","server_os":"Linux","password":true,"vac":true,"version":"7742253","steam_id":85568392924515217,"keywords":["cp","nocrits","nodmgspread","uncletopia"],"game_id":440,"stv_port":27036,"stv_name":"Uncletopia | Seattle | 3 | Stopwatch Beta | STV","players":null},{"server_id":17,"name":"Uncletopia | San Francisco | 1 | All Maps","name_short":"sfo-1","host":"sfo-1.us.uncletopia.com","port":27015,"enabled":true,"region":"us-west","cc":"us","latitude":37.77397,"longitude":-122.4313,"reserved":0,"last_update":"0001-01-01T00:00:00Z","name_a2s":"Uncletopia | San Francisco | 1 | All Maps","protocol":17,"map":"koth_highpass","folder":"tf","game":"Team Fortress","app_id":440,"player_count":0,"max_players":24,"Bots":0,"server_type":"Dedicated","server_os":"Linux","password":true,"vac":true,"version":"7742253","steam_id":85568392924469999,"keywords":["cp","nocrits","nodmgspread","uncletopia"],"game_id":440,"stv_port":27016,"stv_name":"Uncletopia | San Francisco | 1 | All Maps | STV","players":null},{"server_id":18,"name":"Uncletopia | San Francisco | 2 | All Maps","name_short":"sfo-2","host":"sfo-1.us.uncletopia.com","port":27025,"enabled":true,"region":"us-west","cc":"us","latitude":37.77397,"longitude":-122.4313,"reserved":0,"last_update":"0001-01-01T00:00:00Z","name_a2s":"Uncletopia | San Francisco | 2 | All Maps","protocol":17,"map":"pl_snowycoast","folder":"tf","game":"Team Fortress","app_id":440,"player_count":0,"max_players":24,"Bots":0,"server_type":"Dedicated","server_os":"Linux","password":true,"vac":true,"version":"7742253","steam_id":85568392924470000,"keywords":["nocrits","nodmgspread","payload","uncletopia"],"game_id":440,"stv_port":27026,"stv_name":"Uncletopia | San Francisco | 2 | All Maps | STV","players":null},{"server_id":19,"name":"Uncletopia | San Francisco | 3 | Stopwatch Beta","name_short":"sfo-3","host":"sfo-1.us.uncletopia.com","port":27035,"enabled":true,"region":"us-west","cc":"us","latitude":37.77397,"longitude":-122.4313,"reserved":0,"last_update":"0001-01-01T00:00:00Z","name_a2s":"Uncletopia | San Francisco | 3 | Stopwatch Beta","protocol":17,"map":"koth_lakeside_final","folder":"tf","game":"Team Fortress","app_id":440,"player_count":0,"max_players":24,"Bots":0,"server_type":"Dedicated","server_os":"Linux","password":true,"vac":true,"version":"7742253","steam_id":85568392924742824,"keywords":["cp","nocrits","nodmgspread","uncletopia"],"game_id":440,"stv_port":27036,"stv_name":"Uncletopia | San Francisco | 3 | Stopwatch Beta | STV","players":null},{"server_id":20,"name":"Uncletopia | San Francisco | 4 | Community","name_short":"sfo-4","host":"sfo-1.us.uncletopia.com","port":27045,"enabled":true,"region":"us-west","cc":"us","latitude":37.77397,"longitude":-122.4313,"reserved":0,"last_update":"0001-01-01T00:00:00Z","name_a2s":"Uncletopia | San Francisco | 4 | Community","protocol":17,"map":"workshop/rd_asteroid_redux_b1.ugc2154902912","folder":"tf","game":"Team Fortress","app_id":440,"player_count":0,"max_players":24,"Bots":0,"server_type":"Dedicated","server_os":"Linux","password":true,"vac":true,"version":"7742253","steam_id":85568392924742826,"keywords":["beta","nocrits","nodmgspread","rd","uncletopia"],"game_id":440,"stv_port":27046,"stv_name":"Uncletopia | San Francisco | 4 | Community | STV","players":null},{"server_id":141,"name":"Uncletopia | Sydney | 1 | All Maps","name_short":"syd-1","host":"syd-1.au.uncletopia.com","port":27015,"enabled":true,"region":"au","cc":"au","latitude":-33.865143,"longitude":151.2099,"reserved":0,"last_update":"0001-01-01T00:00:00Z","name_a2s":"Uncletopia | Sydney | 1 | All Maps","protocol":17,"map":"pl_borneo","folder":"tf","game":"Team Fortress","app_id":440,"player_count":5,"max_players":24,"Bots":0,"server_type":"Dedicated","server_os":"Linux","password":true,"vac":true,"version":"7742253","steam_id":85568392924470001,"keywords":["nocrits","nodmgspread","payload","uncletopia"],"game_id":440,"stv_port":27016,"stv_name":"Uncletopia | Sydney | 1 | All Maps | STV","players":[{"user_id":44,"name":"blaze","steam_id":76561198241303512,"connected_time":712000000000,"state":"active","ping":47},{"user_id":37,"name":"squrrel","steam_id":76561198083429611,"connected_time":1428000000000,"state":"active","ping":67},{"user_id":45,"name":"hydatid","steam_id":76561198796773396,"connected_time":480000000000,"state":"active","ping":51},{"user_id":48,"name":"fsn","steam_id":76561198177864033,"connected_time":100000000000,"state":"active","ping":41},{"user_id":39,"name":"Cal","steam_id":76561198069132107,"connected_time":1358000000000,"state":"active","ping":44}]},{"server_id":123,"name":"Uncletopia | Sydney | 2 | All Maps","name_short":"syd-2","host":"syd-1.au.uncletopia.com","port":27025,"enabled":true,"region":"au","cc":"au","latitude":-33.865143,"longitude":151.2099,"reserved":0,"last_update":"0001-01-01T00:00:00Z","name_a2s":"Uncletopia | Sydney | 2 | All Maps","protocol":17,"map":"cp_process_final","folder":"tf","game":"Team Fortress","app_id":440,"player_count":0,"max_players":24,"Bots":0,"server_type":"Dedicated","server_os":"Linux","password":true,"vac":true,"version":"7742253","steam_id":85568392924470002,"keywords":["cp","nocrits","nodmgspread","uncletopia"],"game_id":440,"stv_port":27026,"stv_name":"Uncletopia | Sydney | 2 | All Maps | STV","players":null},{"server_id":395,"name":"Uncletopia | Sydney | 3 | All Maps","name_short":"syd-3","host":"syd-1.au.uncletopia.com","port":27035,"enabled":true,"region":"au","cc":"au","latitude":-33.865143,"longitude":151.2099,"reserved":0,"last_update":"0001-01-01T00:00:00Z","name_a2s":"Uncletopia | Sydney | 3 | All Maps","protocol":17,"map":"koth_viaduct","folder":"tf","game":"Team Fortress","app_id":440,"player_count":0,"max_players":24,"Bots":0,"server_type":"Dedicated","server_os":"Linux","password":true,"vac":true,"version":"7742253","steam_id":85568392925194467,"keywords":["cp","nocrits","nodmgspread","uncletopia"],"game_id":440,"stv_port":27036,"stv_name":"Uncletopia | Sydney | 3 | All Maps | STV","players":null},{"server_id":396,"name":"Uncletopia | Sydney | 4 | All Maps","name_short":"syd-4","host":"syd-1.au.uncletopia.com","port":27045,"enabled":true,"region":"au","cc":"au","latitude":-33.865143,"longitude":151.2099,"reserved":0,"last_update":"0001-01-01T00:00:00Z","name_a2s":"Uncletopia | Sydney | 4 | All Maps","protocol":17,"map":"pl_frontier_final","folder":"tf","game":"Team Fortress","app_id":440,"player_count":0,"max_players":24,"Bots":0,"server_type":"Dedicated","server_os":"Linux","password":true,"vac":true,"version":"7742253","steam_id":85568392925397958,"keywords":["nocrits","nodmgspread","payload","uncletopia"],"game_id":440,"stv_port":27046,"stv_name":"Uncletopia | Sydney | 4 | All Maps | STV","players":null},{"server_id":58,"name":"Uncletopia | Sydney | 5 | Stopwatch Beta","name_short":"syd-5","host":"syd-1.au.uncletopia.com","port":27055,"enabled":true,"region":"au","cc":"au","latitude":-33.865143,"longitude":151.2099,"reserved":0,"last_update":"0001-01-01T00:00:00Z","name_a2s":"Uncletopia | Sydney | 5 | Stopwatch Beta","protocol":17,"map":"cp_sunshine","folder":"tf","game":"Team Fortress","app_id":440,"player_count":0,"max_players":24,"Bots":0,"server_type":"Dedicated","server_os":"Linux","password":true,"vac":true,"version":"7742253","steam_id":85568392925397959,"keywords":["cp","nocrits","nodmgspread","uncletopia"],"game_id":440,"stv_port":27056,"stv_name":"Uncletopia | Sydney | 5 | Stopwatch Beta | STV","players":null},{"server_id":59,"name":"Uncletopia | Sydney | 6 | Community","name_short":"syd-6","host":"syd-1.au.uncletopia.com","port":27065,"enabled":true,"region":"au","cc":"au","latitude":-33.865143,"longitude":151.2099,"reserved":0,"last_update":"0001-01-01T00:00:00Z","name_a2s":"Uncletopia | Sydney | 6 | Community","protocol":17,"map":"workshop/koth_synthetic_rc6a.ugc1549817316","folder":"tf","game":"Team Fortress","app_id":440,"player_count":2,"max_players":24,"Bots":0,"server_type":"Dedicated","server_os":"Linux","password":true,"vac":true,"version":"7742253","steam_id":85568392925397960,"keywords":["cp","nocrits","nodmgspread","uncletopia"],"game_id":440,"stv_port":27066,"stv_name":"Uncletopia | Sydney | 6 | Community | STV","players":[{"user_id":3,"name":"LegEaterHK","steam_id":76561199357838817,"connected_time":231000000000,"state":"active","ping":80},{"user_id":4,"name":"rylan.chen","steam_id":76561199152151734,"connected_time":230000000000,"state":"active","ping":83}]},{"server_id":49,"name":"Uncletopia | Warsaw | 1 | All Maps","name_short":"waw-1","host":"waw-1.pl.uncletopia.com","port":27015,"enabled":true,"region":"eu","cc":"pl","latitude":52.2297,"longitude":21.017532,"reserved":0,"last_update":"0001-01-01T00:00:00Z","name_a2s":"","protocol":0,"map":"","folder":"","game":"","app_id":0,"player_count":0,"max_players":0,"Bots":0,"server_type":"","server_os":"","password":false,"vac":false,"version":"","steam_id":0,"keywords":null,"game_id":0,"stv_port":0,"stv_name":"","players":null},{"server_id":50,"name":"Uncletopia | Warsaw | 2 | All Maps","name_short":"waw-2","host":"waw-1.pl.uncletopia.com","port":27025,"enabled":true,"region":"eu","cc":"pl","latitude":52.2297,"longitude":21.017532,"reserved":0,"last_update":"0001-01-01T00:00:00Z","name_a2s":"Uncletopia | Warsaw | 2 | All Maps","protocol":17,"map":"cp_process_final","folder":"tf","game":"Team Fortress","app_id":440,"player_count":15,"max_players":24,"Bots":0,"server_type":"Dedicated","server_os":"Linux","password":true,"vac":true,"version":"7742253","steam_id":85568392925397851,"keywords":["cp","nocrits","nodmgspread","uncletopia"],"game_id":440,"stv_port":27026,"stv_name":"Uncletopia | Warsaw | 2 | All Maps | STV","players":[{"user_id":340,"name":"void","steam_id":76561198035831433,"connected_time":2338000000000,"state":"active","ping":79},{"user_id":369,"name":"Spoony","steam_id":76561198144204860,"connected_time":245000000000,"state":"active","ping":65},{"user_id":370,"name":"Debiru","steam_id":76561198872646490,"connected_time":194000000000,"state":"active","ping":89},{"user_id":358,"name":"Meki","steam_id":76561198108279631,"connected_time":1385000000000,"state":"active","ping":81},{"user_id":371,"name":"whoever threw that paper","steam_id":76561198992148678,"connected_time":191000000000,"state":"active","ping":75},{"user_id":363,"name":"DaisyTheCat","steam_id":76561198241732704,"connected_time":1115000000000,"state":"active","ping":73},{"user_id":344,"name":"restloud","steam_id":76561198265722644,"connected_time":1947000000000,"state":"active","ping":105},{"user_id":372,"name":"pantysniffer","steam_id":76561199060233047,"connected_time":182000000000,"state":"active","ping":74},{"user_id":375,"name":"SigniFire_","steam_id":76561199226683960,"connected_time":102000000000,"state":"active","ping":173},{"user_id":368,"name":"abn","steam_id":76561198163474082,"connected_time":331000000000,"state":"active","ping":181},{"user_id":376,"name":"glyph","steam_id":76561197980736364,"connected_time":96000000000,"state":"active","ping":79},{"user_id":324,"name":"quak","steam_id":76561198053928976,"connected_time":3710000000000,"state":"active","ping":60},{"user_id":335,"name":"0","steam_id":76561198267909207,"connected_time":2727000000000,"state":"active","ping":65},{"user_id":350,"name":"JumJim","steam_id":76561198038099760,"connected_time":1807000000000,"state":"active","ping":100},{"user_id":361,"name":"lolmurphyy","steam_id":76561198143068715,"connected_time":1315000000000,"state":"active","ping":73}]},{"server_id":51,"name":"Uncletopia | Warsaw | 3 | All Maps","name_short":"waw-3","host":"waw-1.pl.uncletopia.com","port":27035,"enabled":true,"region":"eu","cc":"pl","latitude":52.2297,"longitude":21.017532,"reserved":0,"last_update":"0001-01-01T00:00:00Z","name_a2s":"Uncletopia | Warsaw | 3 | All Maps","protocol":17,"map":"ctf_2fort","folder":"tf","game":"Team Fortress","app_id":440,"player_count":0,"max_players":24,"Bots":0,"server_type":"Dedicated","server_os":"Linux","password":true,"vac":true,"version":"7742253","steam_id":85568392925397852,"keywords":["ctf","nocrits","nodmgspread","uncletopia"],"game_id":440,"stv_port":27036,"stv_name":"Uncletopia | Warsaw | 3 | All Maps | STV","players":null},{"server_id":52,"name":"Uncletopia | Warsaw | 4 | All Maps","name_short":"waw-4","host":"waw-1.pl.uncletopia.com","port":27045,"enabled":true,"region":"eu","cc":"pl","latitude":52.2297,"longitude":21.017532,"reserved":0,"last_update":"0001-01-01T00:00:00Z","name_a2s":"Uncletopia | Warsaw | 4 | All Maps","protocol":17,"map":"cp_altitude","folder":"tf","game":"Team Fortress","app_id":440,"player_count":0,"max_players":24,"Bots":0,"server_type":"Dedicated","server_os":"Linux","password":true,"vac":true,"version":"7742253","steam_id":85568392925397853,"keywords":["cp","nocrits","nodmgspread","uncletopia"],"game_id":440,"stv_port":27046,"stv_name":"Uncletopia | Warsaw | 4 | All Maps | STV","players":null},{"server_id":53,"name":"Uncletopia | Warsaw | 5 | Stopwatch Beta","name_short":"waw-5","host":"waw-1.pl.uncletopia.com","port":27055,"enabled":true,"region":"eu","cc":"pl","latitude":52.2297,"longitude":21.017532,"reserved":0,"last_update":"0001-01-01T00:00:00Z","name_a2s":"Uncletopia | Warsaw | 5 | Stopwatch Beta","protocol":17,"map":"workshop/koth_ramjam_rc1.ugc459778887","folder":"tf","game":"Team Fortress","app_id":440,"player_count":0,"max_players":24,"Bots":0,"server_type":"Dedicated","server_os":"Linux","password":true,"vac":true,"version":"7742253","steam_id":85568392925397854,"keywords":["cp","nocrits","nodmgspread","uncletopia"],"game_id":440,"stv_port":27056,"stv_name":"Uncletopia | Warsaw | 5 | Stopwatch Beta | STV","players":null},{"server_id":54,"name":"Uncletopia | Warsaw | 6 | Community","name_short":"waw-6","host":"waw-1.pl.uncletopia.com","port":27065,"enabled":true,"region":"eu","cc":"pl","latitude":52.2297,"longitude":21.017532,"reserved":0,"last_update":"0001-01-01T00:00:00Z","name_a2s":"Uncletopia | Warsaw | 6 | Community","protocol":17,"map":"koth_highpass","folder":"tf","game":"Team Fortress","app_id":440,"player_count":0,"max_players":24,"Bots":0,"server_type":"Dedicated","server_os":"Linux","password":true,"vac":true,"version":"7742253","steam_id":85568392925397856,"keywords":["cp","nocrits","nodmgspread","uncletopia"],"game_id":440,"stv_port":27066,"stv_name":"Uncletopia | Warsaw | 6 | Community | STV","players":null}]}