{"status":true,"message":"","result":[{"server_id":9,"name":"Uncletopia | Atlanta | 1 | All Maps","name_short":"atl-1","host":"atl-1.us.uncletopia.com","port":27015,"enabled":true,"region":"us-east","cc":"us","latitude":33.753746,"longitude":-84.38633,"reserved":0,"last_update":"0001-01-01T00:00:00Z","name_a2s":"Uncletopia | Atlanta | 1 | All Maps","protocol":17,"map":"cp_dustbowl","folder":"tf","game":"Team Fortress","app_id":440,"player_count":24,"max_players":24,"Bots":0,"server_type":"Dedicated","server_os":"Linux","password":true,"vac":true,"version":"7961495","steam_id":85568392924469982,"keywords":["cp","nocrits","nodmgspread","uncletopia"],"game_id":440,"stv_port":27016,"stv_name":"Uncletopia | Atlanta | 1 | All Maps | STV","players":null},{"server_id":104,"name":"Uncletopia | Atlanta | 2 | All Maps","name_short":"atl-2","host":"atl-1.us.uncletopia.com","port":27025,"enabled":true,"region":"us-east","cc":"us","latitude":33.753746,"longitude":-84.38633,"reserved":0,"last_update":"0001-01-01T00:00:00Z","name_a2s":"Uncletopia | Atlanta | 2 | All Maps","protocol":17,"map":"pl_swiftwater_final1","folder":"tf","game":"Team Fortress","app_id":440,"player_count":16,"max_players":24,"Bots":0,"server_type":"Dedicated","server_os":"Linux","password":true,"vac":true,"version":"7961495","steam_id":85568392924469983,"keywords":["nocrits","nodmgspread","payload","uncletopia"],"game_id":440,"stv_port":27026,"stv_name":"Uncletopia | Atlanta | 2 | All Maps | STV","players":null},{"server_id":400,"name":"Uncletopia | Atlanta | 3 | Stopwatch","name_short":"atl-3","host":"atl-1.us.uncletopia.com","port":27035,"enabled":true,"region":"us-east","cc":"us","latitude":33.753746,"longitude":-84.38633,"reserved":0,"last_update":"0001-01-01T00:00:00Z","name_a2s":"Uncletopia | Atlanta | 3 | Stopwatch","protocol":17,"map":"koth_highpass","folder":"tf","game":"Team Fortress","app_id":440,"player_count":0,"max_players":24,"Bots":0,"server_type":"Dedicated","server_os":"Linux","password":true,"vac":true,"version":"7961495","steam_id":85568392924515187,"keywords":["cp","nocrits","nodmgspread","uncletopia"],"game_id":440,"stv_port":27036,"stv_name":"Uncletopia | Atlanta | 3 | Stopwatch | STV","players":null},{"server_id":401,"name":"Uncletopia | Atlanta | 4 | Community","name_short":"atl-4","host":"atl-1.us.uncletopia.com","port":27045,"enabled":true,"region":"us-east","cc":"us","latitude":33.753746,"longitude":-84.38633,"reserved":0,"last_update":"0001-01-01T00:00:00Z","name_a2s":"Uncletopia | Atlanta | 4 | Community","protocol":17,"map":"koth_kemptown_rc1","folder":"tf","game":"Team Fortress","app_id":440,"player_count":0,"max_players":24,"Bots":0,"server_type":"Dedicated","server_os":"Linux","password":true,"vac":true,"version":"7961495","steam_id":85568392924515188,"keywords":["cp","nocrits","nodmgspread","uncletopia"],"game_id":440,"stv_port":27046,"stv_name":"Uncletopia | Atlanta | 4 | Community | STV","players":null},{"server_id":2,"name":"Uncletopia | Chicago | 1 | All Maps","name_short":"chi-1","host":"chi-1.us.uncletopia.com","port":27015,"enabled":true,"region":"us-central","cc":"us","latitude":41.881832,"longitude":-87.62318,"reserved":0,"last_update":"0001-01-01T00:00:00Z","name_a2s":"Uncletopia | Chicago | 1 | All Maps","protocol":17,"map":"pl_swiftwater_final1","folder":"tf","game":"Team Fortress","app_id":440,"player_count":8,"max_players":24,"Bots":0,"server_type":"Dedicated","server_os":"Linux","password":true,"vac":true,"version":"7961495","steam_id":85568392924469984,"keywords":["nocrits","nodmgspread","payload","uncletopia"],"game_id":440,"stv_port":27016,"stv_name":"Uncletopia | Chicago | 1 | All Maps | STV","players":[{"user_id":816,"name":"e doctor","steam_id":76561198081851446,"connected_time":2783000000000,"state":"active","ping":44},{"user_id":817,"name":"Muffin","steam_id":76561198111403028,"connected_time":2714000000000,"state":"active","ping":45},{"user_id":853,"name":"Alcohol Hominid","steam_id":76561198320313950,"connected_time":47000000000,"state":"active","ping":85},{"user_id":851,"name":"Buterbrod","steam_id":76561198829880730,"connected_time":455000000000,"state":"active","ping":187},{"user_id":852,"name":"robber","steam_id":76561197973122922,"connected_time":427000000000,"state":"active","ping":87},{"user_id":854,"name":"OG Coach Player","steam_id":76561198070465100,"connected_time":40000000000,"state":"active","ping":55},{"user_id":843,"name":"Alabit","steam_id":76561198065578560,"connected_time":1177000000000,"state":"active","ping":75},{"user_id":799,"name":"BradB.","steam_id":76561199163905036,"connected_time":4499000000000,"state":"active","ping":76}]},{"server_id":106,"name":"Uncletopia | Chicago | 2 | All Maps","name_short":"chi-2","host":"chi-1.us.uncletopia.com","port":27025,"enabled":true,"region":"us-central","cc":"us","latitude":41.881832,"longitude":-87.62318,"reserved":0,"last_update":"0001-01-01T00:00:00Z","name_a2s":"Uncletopia | Chicago | 2 | All Maps","protocol":17,"map":"pl_upward","folder":"tf","game":"Team Fortress","app_id":440,"player_count":24,"max_players":24,"Bots":0,"server_type":"Dedicated","server_os":"Linux","password":true,"vac":true,"version":"7961495","steam_id":85568392924469985,"keywords":["nocrits","nodmgspread","payload","uncletopia"],"game_id":440,"stv_port":27026,"stv_name":"Uncletopia | Chicago | 2 | All Maps | STV","players":[{"user_id":773,"name":"loco503","steam_id":76561198827495121,"connected_time":5079000000000,"state":"active","ping":108},{"user_id":757,"name":"njoku","steam_id":76561199061380038,"connected_time":6732000000000,"state":"active","ping":74},{"user_id":824,"name":"Fargo","steam_id":76561198044703931,"connected_time":668000000000,"state":"active","ping":62},{"user_id":792,"name":"Frank Horrigan","steam_id":76561198066504831,"connected_time":4331000000000,"state":"active","ping":113},{"user_id":822,"name":"Sych06","steam_id":76561198798979302,"connected_time":750000000000,"state":"active","ping":60},{"user_id":825,"name":"ʕ•ᴥ•ʔ","steam_id":76561198185980055,"connected_time":508000000000,"state":"active","ping":60},{"user_id":826,"name":"Cadance Loves","steam_id":76561198257874590,"connected_time":478000000000,"state":"active","ping":77},{"user_id":827,"name":"GruntRule","steam_id":76561198039987143,"connected_time":476000000000,"state":"active","ping":75},{"user_id":787,"name":"eat Pant","steam_id":76561197974965536,"connected_time":4384000000000,"state":"active","ping":58},{"user_id":779,"name":"El Gato Paranoico","steam_id":76561198116567116,"connected_time":4552000000000,"state":"active","ping":96},{"user_id":828,"name":"cotton","steam_id":76561198018652890,"connected_time":444000000000,"state":"active","ping":61},{"user_id":781,"name":"feudal","steam_id":76561198057374871,"connected_time":4516000000000,"state":"active","ping":60},{"user_id":756,"name":"Type-Lectu","steam_id":76561199062620920,"connected_time":6759000000000,"state":"active","ping":59},{"user_id":829,"name":"Crutchlover's Crutchnai","steam_id":76561198046526036,"connected_time":432000000000,"state":"active","ping":105},{"user_id":830,"name":"blue duck the 2nd","steam_id":76561198263142765,"connected_time":432000000000,"state":"active","ping":142},{"user_id":831,"name":"StormRage","steam_id":76561199435079308,"connected_time":414000000000,"state":"active","ping":164},{"user_id":832,"name":"k8o","steam_id":76561198042481882,"connected_time":401000000000,"state":"active","ping":53},{"user_id":811,"name":"The Spanish Inquisition","steam_id":76561198109322171,"connected_time":2254000000000,"state":"active","ping":54},{"user_id":833,"name":"Who loves orange soda?","steam_id":76561198059808982,"connected_time":381000000000,"state":"active","ping":60},{"user_id":834,"name":"C Sharp Minor","steam_id":76561199185191710,"connected_time":352000000000,"state":"active","ping":165},{"user_id":667,"name":"Ms Twig","steam_id":76561198144111736,"connected_time":14867000000000,"state":"active","ping":58},{"user_id":817,"name":"uufyfuu","steam_id":76561198142787212,"connected_time":1448000000000,"state":"active","ping":79},{"user_id":820,"name":"SirDigbyChickenCaesar","steam_id":76561197998612788,"connected_time":1015000000000,"state":"active","ping":51},{"user_id":791,"name":"Cargo","steam_id":76561198065535025,"connected_time":4352000000000,"state":"active","ping":109}]},{"server_id":402,"name":"Uncletopia | Chicago | 3 | All Maps","name_short":"chi-3","host":"chi-1.us.uncletopia.com","port":27035,"enabled":true,"region":"us-central","cc":"us","latitude":41.881832,"longitude":-87.62318,"reserved":0,"last_update":"0001-01-01T00:00:00Z","name_a2s":"Uncletopia | Chicago | 3 | All Maps","protocol":17,"map":"koth_cascade","folder":"tf","game":"Team Fortress","app_id":440,"player_count":24,"max_players":24,"Bots":0,"server_type":"Dedicated","server_os":"Linux","password":true,"vac":true,"version":"7961495","steam_id":85568392924515191,"keywords":["cp","nocrits","nodmgspread","uncletopia"],"game_id":440,"stv_port":27036,"stv_name":"Uncletopia | Chicago | 3 | All Maps | STV","players":[{"user_id":660,"name":"Tommy Pickles (Very Cool)","steam_id":76561198391261463,"connected_time":8314000000000,"state":"active","ping":68},{"user_id":766,"name":"Infinitytacos","steam_id":76561198884260211,"connected_time":396000000000,"state":"active","ping":45},{"user_id":760,"name":"Poyo","steam_id":76561198280424107,"connected_time":600000000000,"state":"active","ping":64},{"user_id":745,"name":"Mr. Soupman","steam_id":76561198021649598,"connected_time":1453000000000,"state":"active","ping":62},{"user_id":765,"name":"ask me about the bird masher.","steam_id":76561198186128723,"connected_time":412000000000,"state":"active","ping":67},{"user_id":710,"name":"Mario9501","steam_id":76561198121046345,"connected_time":3946000000000,"state":"active","ping":87},{"user_id":767,"name":"Minerguy82","steam_id":76561199016591592,"connected_time":376000000000,"state":"active","ping":56},{"user_id":746,"name":"Unlicensed Fed","steam_id":76561198166040449,"connected_time":1433000000000,"state":"active","ping":109},{"user_id":768,"name":"k3nny11","steam_id":76561198182533757,"connected_time":362000000000,"state":"active","ping":68},{"user_id":727,"name":"weed lesbian","steam_id":76561198042263805,"connected_time":2521000000000,"state":"active","ping":89},{"user_id":773,"name":"CherriKat","steam_id":76561198821297512,"connected_time":155000000000,"state":"active","ping":100},{"user_id":769,"name":"MrDarkc","steam_id":76561199233053848,"connected_time":289000000000,"state":"active","ping":98},{"user_id":770,"name":"QwipQwop","steam_id":76561198019028725,"connected_time":255000000000,"state":"active","ping":87},{"user_id":755,"name":"redredgreengreen","steam_id":76561198035660801,"connected_time":775000000000,"state":"active","ping":117},{"user_id":756,"name":"Starkiller","steam_id":76561198101643120,"connected_time":688000000000,"state":"active","ping":103},{"user_id":771,"name":"wile","steam_id":76561198125261443,"connected_time":223000000000,"state":"active","ping":107},{"user_id":761,"name":"clamfunny","steam_id":76561198834323868,"connected_time":592000000000,"state":"active","ping":84},{"user_id":762,"name":"Distraction","steam_id":76561199445895882,"connected_time":540000000000,"state":"active","ping":72},{"user_id":751,"name":"fro","steam_id":76561198098124142,"connected_time":1203000000000,"state":"active","ping":91},{"user_id":666,"name":"Animal Slices","steam_id":76561198137545511,"connected_time":7930000000000,"state":"active","ping":59},{"user_id":763,"name":"_Miniature_","steam_id":76561199075378102,"connected_time":499000000000,"state":"active","ping":91},{"user_id":663,"name":"exotic fishes","steam_id":76561199046490785,"connected_time":8272000000000,"state":"active","ping":66},{"user_id":772,"name":"Hero Smasher","steam_id":76561198150681669,"connected_time":200000000000,"state":"active","ping":103},{"user_id":738,"name":"Dew","steam_id":76561197977101474,"connected_time":2058000000000,"state":"active","ping":95}]},{"server_id":403,"name":"Uncletopia | Chicago | 4 | All Maps","name_short":"chi-4","host":"chi-1.us.uncletopia.com","port":27045,"enabled":true,"region":"us-central","cc":"us","latitude":41.881832,"longitude":-87.62318,"reserved":0,"last_update":"0001-01-01T00:00:00Z","name_a2s":"Uncletopia | Chicago | 4 | All Maps","protocol":17,"map":"koth_lakeside_final","folder":"tf","game":"Team Fortress","app_id":440,"player_count":0,"max_players":24,"Bots":0,"server_type":"Dedicated","server_os":"Linux","password":true,"vac":true,"version":"7961495","steam_id":85568392924515193,"keywords":["cp","nocrits","nodmgspread","uncletopia"],"game_id":440,"stv_port":27046,"stv_name":"Uncletopia | Chicago | 4 | All Maps | STV","players":null},{"server_id":36,"name":"Uncletopia | Chicago | 5 | All Maps","name_short":"chi-5","host":"chi-2.us.uncletopia.com","port":27015,"enabled":true,"region":"us-central","cc":"us","latitude":41.881832,"longitude":-87.62318,"reserved":0,"last_update":"0001-01-01T00:00:00Z","name_a2s":"Uncletopia | Chicago | 5 | All Maps","protocol":17,"map":"pl_swiftwater_final1","folder":"tf","game":"Team Fortress","app_id":440,"player_count":23,"max_players":24,"Bots":0,"server_type":"Dedicated","server_os":"Linux","password":true,"vac":true,"version":"7961495","steam_id":85568392924866362,"keywords":["nocrits","nodmgspread","payload","uncletopia"],"game_id":440,"stv_port":27016,"stv_name":"Uncletopia | Chicago | 5 | All Maps | STV","players":[{"user_id":537,"name":"Abyssmal Shock","steam_id":76561198141099093,"connected_time":771000000000,"state":"active","ping":114},{"user_id":427,"name":"flappyflap2","steam_id":76561198285048973,"connected_time":8077000000000,"state":"active","ping":61},{"user_id":546,"name":"Bronotos","steam_id":76561198035935672,"connected_time":140000000000,"state":"active","ping":45},{"user_id":516,"name":"tiefling lesbian","steam_id":76561198162998471,"connected_time":2943000000000,"state":"active","ping":74},{"user_id":500,"name":"gaza","steam_id":76561199056091914,"connected_time":3486000000000,"state":"active","ping":85},{"user_id":550,"name":"SonofaBishop","steam_id":76561198121118762,"connected_time":65000000000,"state":"active","ping":92},{"user_id":545,"name":"Periergos","steam_id":76561198062030412,"connected_time":436000000000,"state":"active","ping":81},{"user_id":540,"name":"⌞pizzaguy⌝","steam_id":76561197963710485,"connected_time":672000000000,"state":"active","ping":108},{"user_id":541,"name":"root beer bong hits","steam_id":76561199159928133,"connected_time":645000000000,"state":"active","ping":76},{"user_id":527,"name":"Cosmo","steam_id":76561198042147273,"connected_time":2047000000000,"state":"active","ping":59},{"user_id":402,"name":"Goober","steam_id":76561198988863807,"connected_time":9249000000000,"state":"active","ping":76},{"user_id":544,"name":"aaron","steam_id":76561198113364714,"connected_time":530000000000,"state":"active","ping":59},{"user_id":515,"name":"Lore","steam_id":76561198098407538,"connected_time":2962000000000,"state":"active","ping":59},{"user_id":551,"name":"Kamin","steam_id":76561198255299559,"connected_time":51000000000,"state":"active","ping":93},{"user_id":528,"name":"Imagine being trash at Medic","steam_id":76561197986530028,"connected_time":2026000000000,"state":"active","ping":105},{"user_id":548,"name":"Cairna ♥","steam_id":76561198035418464,"connected_time":135000000000,"state":"active","ping":74},{"user_id":532,"name":"Ghost Lord","steam_id":76561198088956723,"connected_time":1391000000000,"state":"active","ping":96},{"user_id":414,"name":"FlexTape","steam_id":76561198871834867,"connected_time":8755000000000,"state":"active","ping":125},{"user_id":519,"name":"Yeti","steam_id":76561199226373771,"connected_time":2913000000000,"state":"active","ping":72},{"user_id":535,"name":"cheetaz","steam_id":76561198224614084,"connected_time":1186000000000,"state":"active","ping":74},{"user_id":530,"name":"raya","steam_id":76561198051504581,"connected_time":1980000000000,"state":"active","ping":74},{"user_id":522,"name":"Crazy7SV","steam_id":76561198206507016,"connected_time":2255000000000,"state":"active","ping":60},{"user_id":499,"name":"[TF2Apples] Intense Green Apple","steam_id":76561198803561622,"connected_time":3928000000000,"state":"active","ping":91}]},{"server_id":37,"name":"Uncletopia | Chicago | 6 | All Maps","name_short":"chi-6","host":"chi-2.us.uncletopia.com","port":27025,"enabled":true,"region":"us-central","cc":"us","latitude":41.881832,"longitude":-87.62318,"reserved":0,"last_update":"0001-01-01T00:00:00Z","name_a2s":"Uncletopia | Chicago | 6 | All Maps","protocol":17,"map":"pl_barnblitz","folder":"tf","game":"Team Fortress","app_id":440,"player_count":24,"max_players":24,"Bots":0,"server_type":"Dedicated","server_os":"Linux","password":true,"vac":true,"version":"7961495","steam_id":85568392924866363,"keywords":["nocrits","nodmgspread","payload","uncletopia"],"game_id":440,"stv_port":27026,"stv_name":"Uncletopia | Chicago | 6 | All Maps | STV","players":[{"user_id":449,"name":"I LOVE DONALD TRUMP #MAGA #2024","steam_id":76561197969386201,"connected_time":996000000000,"state":"active","ping":45},{"user_id":436,"name":"LVL","steam_id":76561198334403617,"connected_time":1733000000000,"state":"active","ping":55},{"user_id":452,"name":"Swerv3","steam_id":76561198068487365,"connected_time":593000000000,"state":"active","ping":77},{"user_id":457,"name":"radicalPolio","steam_id":76561197961561855,"connected_time":509000000000,"state":"active","ping":69},{"user_id":429,"name":"Sergeant Joker #savetf2","steam_id":76561198854616604,"connected_time":2003000000000,"state":"active","ping":70},{"user_id":444,"name":"cwaggs76","steam_id":76561199013048778,"connected_time":1478000000000,"state":"active","ping":63},{"user_id":445,"name":"Mal0","steam_id":76561198129584634,"connected_time":1477000000000,"state":"active","ping":78},{"user_id":411,"name":"FiddyFoMike","steam_id":76561198057072581,"connected_time":3034000000000,"state":"active","ping":99},{"user_id":453,"name":"void","steam_id":76561198107501413,"connected_time":565000000000,"state":"active","ping":42},{"user_id":454,"name":"BrownMemeSter","steam_id":76561198113745020,"connected_time":553000000000,"state":"active","ping":58},{"user_id":448,"name":"skrill issue","steam_id":76561198104086771,"connected_time":1256000000000,"state":"active","ping":106},{"user_id":438,"name":"chill","steam_id":76561198982840251,"connected_time":1689000000000,"state":"active","ping":71},{"user_id":439,"name":"Trans Brionne","steam_id":76561199004726774,"connected_time":1673000000000,"state":"active","ping":94},{"user_id":440,"name":"Ghoulenoir","steam_id":76561198074314573,"connected_time":1656000000000,"state":"active","ping":46},{"user_id":441,"name":"Cordie","steam_id":76561198349596257,"connected_time":1613000000000,"state":"active","ping":58},{"user_id":455,"name":"Deadangla Merkel","steam_id":76561198038258405,"connected_time":535000000000,"state":"active","ping":61},{"user_id":456,"name":"Joker","steam_id":76561198077583446,"connected_time":532000000000,"state":"active","ping":58},{"user_id":388,"name":"CabezaGrande","steam_id":76561197972555502,"connected_time":3910000000000,"state":"active","ping":73},{"user_id":459,"name":"Coomer","steam_id":76561198409907417,"connected_time":189000000000,"state":"active","ping":115},{"user_id":390,"name":"Chicken","steam_id":76561198855273194,"connected_time":3907000000000,"state":"active","ping":57},{"user_id":446,"name":"richard","steam_id":76561198956666951,"connected_time":1477000000000,"state":"active","ping":66},{"user_id":403,"name":"moonboy","steam_id":76561198172113657,"connected_time":3505000000000,"state":"active","ping":102},{"user_id":418,"name":"goblin?","steam_id":76561198007192438,"connected_time":2599000000000,"state":"active","ping":72},{"user_id":420,"name":"Mechanical Sanity","steam_id":76561198817025452,"connected_time":2480000000000,"state":"active","ping":59}]},{"server_id":38,"name":"Uncletopia | Chicago | 7 | Stopwatch","name_short":"chi-7","host":"chi-2.us.uncletopia.com","port":27035,"enabled":true,"region":"us-central","cc":"us","latitude":41.881832,"longitude":-87.62318,"reserved":0,"last_update":"0001-01-01T00:00:00Z","name_a2s":"Uncletopia | Chicago | 7 | Stopwatch","protocol":17,"map":"workshop/koth_product_final.ugc454272353","folder":"tf","game":"Team Fortress","app_id":440,"player_count":2,"max_players":24,"Bots":0,"server_type":"Dedicated","server_os":"Linux","password":true,"vac":true,"version":"7961495","steam_id":85568392924866364,"keywords":["cp","nocrits","nodmgspread","uncletopia"],"game_id":440,"stv_port":27036,"stv_name":"Uncletopia | Chicago | 7 | Stopwatch | STV","players":[{"user_id":61,"name":"Joker's Skull","steam_id":76561199185320627,"connected_time":427000000000,"state":"active","ping":156},{"user_id":62,"name":"Zirch","steam_id":76561198268913937,"connected_time":364000000000,"state":"active","ping":61}]},{"server_id":39,"name":"Uncletopia | Chicago | 8 | Community","name_short":"chi-8","host":"chi-2.us.uncletopia.com","port":27045,"enabled":true,"region":"us-central","cc":"us","latitude":41.881832,"longitude":-87.62318,"reserved":0,"last_update":"0001-01-01T00:00:00Z","name_a2s":"Uncletopia | Chicago | 8 | Community","protocol":17,"map":"workshop/koth_kemptown_rc1.ugc767410655","folder":"tf","game":"Team Fortress","app_id":440,"player_count":0,"max_players":24,"Bots":0,"server_type":"Dedicated","server_os":"Linux","password":true,"vac":true,"version":"7961495","steam_id":85568392924866365,"keywords":["cp","nocrits","nodmgspread","uncletopia"],"game_id":440,"stv_port":27046,"stv_name":"Uncletopia | Chicago | 8 | Community | STV","players":null},{"server_id":8,"name":"Uncletopia | Dallas | 1 | All Maps","name_short":"dal-1","host":"dal-1.us.uncletopia.com","port":27015,"enabled":true,"region":"us-central","cc":"us","latitude":32.779167,"longitude":-96.80889,"reserved":0,"last_update":"0001-01-01T00:00:00Z","name_a2s":"Uncletopia | Dallas | 1 | All Maps","protocol":17,"map":"cp_egypt_final","folder":"tf","game":"Team Fortress","app_id":440,"player_count":0,"max_players":24,"Bots":0,"server_type":"Dedicated","server_os":"Linux","password":true,"vac":true,"version":"7961495","steam_id":85568392924469986,"keywords":["cp","nocrits","nodmgspread","uncletopia"],"game_id":440,"stv_port":27016,"stv_name":"Uncletopia | Dallas | 1 | All Maps | STV","players":null},{"server_id":108,"name":"Uncletopia | Dallas | 2 | All Maps","name_short":"dal-2","host":"dal-1.us.uncletopia.com","port":27025,"enabled":true,"region":"us-central","cc":"us","latitude":32.779167,"longitude":-96.80889,"reserved":0,"last_update":"0001-01-01T00:00:00Z","name_a2s":"Uncletopia | Dallas | 2 | All Maps","protocol":17,"map":"pl_pier","folder":"tf","game":"Team Fortress","app_id":440,"player_count":24,"max_players":24,"Bots":0,"server_type":"Dedicated","server_os":"Linux","password":true,"vac":true,"version":"7961495","steam_id":85568392924469988,"keywords":["nocrits","nodmgspread","payload","uncletopia"],"game_id":440,"stv_port":27026,"stv_name":"Uncletopia | Dallas | 2 | All Maps | STV","players":[{"user_id":655,"name":"Kondha","steam_id":76561198084588336,"connected_time":1569000000000,"state":"active","ping":47},{"user_id":628,"name":"HOG RIDER","steam_id":76561198298589502,"connected_time":3031000000000,"state":"active","ping":76},{"user_id":674,"name":"Pvt. Parts","steam_id":76561198149369302,"connected_time":486000000000,"state":"active","ping":116},{"user_id":619,"name":"VolatileVixen","steam_id":76561198158750199,"connected_time":3386000000000,"state":"active","ping":60},{"user_id":586,"name":"god's silliest mistake","steam_id":76561199328635967,"connected_time":5486000000000,"state":"active","ping":46},{"user_id":658,"name":"KennytheHedgehog","steam_id":76561198094607721,"connected_time":1503000000000,"state":"active","ping":58},{"user_id":659,"name":"two-bit Thief","steam_id":76561199202681534,"connected_time":1492000000000,"state":"active","ping":94},{"user_id":654,"name":"yeeye","steam_id":76561198094306054,"connected_time":1582000000000,"state":"active","ping":60},{"user_id":666,"name":"gooch_masta","steam_id":76561198151578423,"connected_time":1045000000000,"state":"active","ping":84},{"user_id":525,"name":"E4Estrogen","steam_id":76561198085813708,"connected_time":10057000000000,"state":"active","ping":73},{"user_id":632,"name":"gretchling","steam_id":76561198046111695,"connected_time":2553000000000,"state":"active","ping":48},{"user_id":652,"name":"Flumpus","steam_id":76561198999450248,"connected_time":1718000000000,"state":"active","ping":103},{"user_id":604,"name":"drink enjoyer","steam_id":76561199078359629,"connected_time":4584000000000,"state":"active","ping":78},{"user_id":675,"name":"joe mama","steam_id":76561198083561382,"connected_time":443000000000,"state":"active","ping":85},{"user_id":635,"name":"DogePan","steam_id":76561198327559786,"connected_time":2489000000000,"state":"active","ping":101},{"user_id":667,"name":"SaaxoM","steam_id":76561198208256603,"connected_time":1017000000000,"state":"active","ping":85},{"user_id":673,"name":"grunch","steam_id":76561198354292689,"connected_time":501000000000,"state":"active","ping":54},{"user_id":594,"name":"a little guy","steam_id":76561198085888959,"connected_time":4868000000000,"state":"active","ping":61},{"user_id":599,"name":"SleepyScotoplanesTTV","steam_id":76561198968140914,"connected_time":4770000000000,"state":"active","ping":69},{"user_id":671,"name":"John16Mark","steam_id":76561198119445407,"connected_time":830000000000,"state":"active","ping":63},{"user_id":678,"name":"Wan Shi Tong","steam_id":76561198076441225,"connected_time":43000000000,"state":"active","ping":83},{"user_id":676,"name":"soft and wet","steam_id":76561198081974528,"connected_time":338000000000,"state":"active","ping":73},{"user_id":672,"name":"Biscipline","steam_id":76561198019206178,"connected_time":822000000000,"state":"active","ping":81},{"user_id":603,"name":"cylinder","steam_id":76561197995609787,"connected_time":4589000000000,"state":"active","ping":84}]},{"server_id":404,"name":"Uncletopia | Dallas | 3 | All Maps","name_short":"dal-3","host":"dal-1.us.uncletopia.com","port":27035,"enabled":true,"region":"us-central","cc":"us","latitude":32.779167,"longitude":-96.80889,"reserved":0,"last_update":"0001-01-01T00:00:00Z","name_a2s":"Uncletopia | Dallas | 3 | All Maps","protocol":17,"map":"koth_suijin","folder":"tf","game":"Team Fortress","app_id":440,"player_count":0,"max_players":24,"Bots":0,"server_type":"Dedicated","server_os":"Linux","password":true,"vac":true,"version":"7961495","steam_id":85568392924515219,"keywords":["cp","nocrits","nodmgspread","uncletopia"],"game_id":440,"stv_port":27036,"stv_name":"Uncletopia | Dallas | 3 | All Maps | STV","players":null},{"server_id":405,"name":"Uncletopia | Dallas | 4 | Community","name_short":"dal-4","host":"dal-1.us.uncletopia.com","port":27045,"enabled":true,"region":"us-central","cc":"us","latitude":32.779167,"longitude":-96.80889,"reserved":0,"last_update":"0001-01-01T00:00:00Z","name_a2s":"Uncletopia | Dallas | 4 | Community","protocol":17,"map":"workshop/cp_villa_b19.ugc2113052569","folder":"tf","game":"Team Fortress","app_id":440,"player_count":0,"max_players":24,"Bots":0,"server_type":"Dedicated","server_os":"Linux","password":true,"vac":true,"version":"7961495","steam_id":85568392924515220,"keywords":["cp","nocrits","nodmgspread","uncletopia"],"game_id":440,"stv_port":27046,"stv_name":"Uncletopia | Dallas | 4 | Community | STV","players":null},{"server_id":5,"name":"Uncletopia | Frankfurt | 1 | All Maps","name_short":"frk-1","host":"frk-1.de.uncletopia.com","port":27015,"enabled":true,"region":"eu","cc":"de","latitude":50.110924,"longitude":8.682127,"reserved":0,"last_update":"0001-01-01T00:00:00Z","name_a2s":"Uncletopia | Frankfurt | 1 | All Maps","protocol":17,"map":"pl_borneo","folder":"tf","game":"Team Fortress","app_id":440,"player_count":5,"max_players":24,"Bots":0,"server_type":"Dedicated","server_os":"Linux","password":true,"vac":true,"version":"7961495","steam_id":85568392924469989,"keywords":["nocrits","nodmgspread","payload","uncletopia"],"game_id":440,"stv_port":27016,"stv_name":"Uncletopia | Frankfurt | 1 | All Maps | STV","players":[{"user_id":5,"name":"PP_master69420","steam_id":76561199019913910,"connected_time":799000000000,"state":"active","ping":74},{"user_id":6,"name":"Zulik92","steam_id":76561198152442373,"connected_time":600000000000,"state":"active","ping":58},{"user_id":7,"name":"Basinox","steam_id":76561198019628384,"connected_time":413000000000,"state":"active","ping":62},{"user_id":8,"name":"gus","steam_id":76561198876303958,"connected_time":179000000000,"state":"active","ping":106},{"user_id":9,"name":"Guppy","steam_id":76561198135398757,"connected_time":20000000000,"state":"active","ping":68}]},{"server_id":110,"name":"Uncletopia | Frankfurt | 2 | All Maps","name_short":"frk-2","host":"frk-1.de.uncletopia.com","port":27025,"enabled":true,"region":"eu","cc":"de","latitude":50.110924,"longitude":8.682127,"reserved":0,"last_update":"0001-01-01T00:00:00Z","name_a2s":"Uncletopia | Frankfurt | 2 | All Maps","protocol":17,"map":"cp_dustbowl","folder":"tf","game":"Team Fortress","app_id":440,"player_count":0,"max_players":24,"Bots":0,"server_type":"Dedicated","server_os":"Linux","password":true,"vac":true,"version":"7961495","steam_id":85568392924469990,"keywords":["cp","nocrits","nodmgspread","uncletopia"],"game_id":440,"stv_port":27026,"stv_name":"Uncletopia | Frankfurt | 2 | All Maps | STV","players":null},{"server_id":308,"name":"Uncletopia | Frankfurt | 3 | All Maps","name_short":"frk-3","host":"frk-1.de.uncletopia.com","port":27035,"enabled":true,"region":"eu","cc":"de","latitude":50.110924,"longitude":8.682127,"reserved":0,"last_update":"0001-01-01T00:00:00Z","name_a2s":"Uncletopia | Frankfurt | 3 | All Maps","protocol":17,"map":"pl_barnblitz","folder":"tf","game":"Team Fortress","app_id":440,"player_count":0,"max_players":24,"Bots":0,"server_type":"Dedicated","server_os":"Linux","password":true,"vac":true,"version":"7961495","steam_id":85568392924504274,"keywords":["nocrits","nodmgspread","payload","uncletopia"],"game_id":440,"stv_port":27036,"stv_name":"Uncletopia | Frankfurt | 3 | All Maps | STV","players":null},{"server_id":309,"name":"Uncletopia | Frankfurt | 4 | All Maps","name_short":"frk-4","host":"frk-1.de.uncletopia.com","port":27045,"enabled":true,"region":"eu","cc":"de","latitude":50.110924,"longitude":8.682127,"reserved":0,"last_update":"0001-01-01T00:00:00Z","name_a2s":"Uncletopia | Frankfurt | 4 | All Maps","protocol":17,"map":"koth_highpass","folder":"tf","game":"Team Fortress","app_id":440,"player_count":0,"max_players":24,"Bots":0,"server_type":"Dedicated","server_os":"Linux","password":true,"vac":true,"version":"7961495","steam_id":85568392924504275,"keywords":["cp","nocrits","nodmgspread","uncletopia"],"game_id":440,"stv_port":27046,"stv_name":"Uncletopia | Frankfurt | 4 | All Maps | STV","players":null},{"server_id":310,"name":"Uncletopia | Frankfurt | 5 | All Maps","name_short":"frk-5","host":"frk-1.de.uncletopia.com","port":27055,"enabled":true,"region":"eu","cc":"de","latitude":50.110924,"longitude":8.682127,"reserved":0,"last_update":"0001-01-01T00:00:00Z","name_a2s":"Uncletopia | Frankfurt | 5 | All Maps","protocol":17,"map":"pl_badwater","folder":"tf","game":"Team Fortress","app_id":440,"player_count":0,"max_players":24,"Bots":0,"server_type":"Dedicated","server_os":"Linux","password":true,"vac":true,"version":"7961495","steam_id":85568392924504277,"keywords":["nocrits","nodmgspread","payload","uncletopia"],"game_id":440,"stv_port":27056,"stv_name":"Uncletopia | Frankfurt | 5 | All Maps | STV","players":null},{"server_id":311,"name":"Uncletopia | Frankfurt | 6 | All Maps","name_short":"frk-6","host":"frk-1.de.uncletopia.com","port":27065,"enabled":true,"region":"eu","cc":"de","latitude":50.110924,"longitude":8.682127,"reserved":0,"last_update":"0001-01-01T00:00:00Z","name_a2s":"Uncletopia | Frankfurt | 6 | All Maps","protocol":17,"map":"cp_altitude","folder":"tf","game":"Team Fortress","app_id":440,"player_count":0,"max_players":24,"Bots":0,"server_type":"Dedicated","server_os":"Linux","password":true,"vac":true,"version":"7961495","steam_id":85568392924504278,"keywords":["cp","nocrits","nodmgspread","uncletopia"],"game_id":440,"stv_port":27066,"stv_name":"Uncletopia | Frankfurt | 6 | All Maps | STV","players":null},{"server_id":23,"name":"Uncletopia | Frankfurt | 7 | Stopwatch","name_short":"frk-7","host":"frk-1.de.uncletopia.com","port":27075,"enabled":true,"region":"eu","cc":"de","latitude":50.110924,"longitude":8.682127,"reserved":0,"last_update":"0001-01-01T00:00:00Z","name_a2s":"Uncletopia | Frankfurt | 7 | Stopwatch","protocol":17,"map":"pl_frontier_final","folder":"tf","game":"Team Fortress","app_id":440,"player_count":0,"max_players":24,"Bots":0,"server_type":"Dedicated","server_os":"Linux","password":true,"vac":true,"version":"7961495","steam_id":85568392924742827,"keywords":["nocrits","nodmgspread","payload","uncletopia"],"game_id":440,"stv_port":27076,"stv_name":"Uncletopia | Frankfurt | 7 | Stopwatch | STV","players":null},{"server_id":24,"name":"Uncletopia | Frankfurt | 8 | Community","name_short":"frk-8","host":"frk-1.de.uncletopia.com","port":27085,"enabled":true,"region":"eu","cc":"de","latitude":50.110924,"longitude":8.682127,"reserved":0,"last_update":"0001-01-01T00:00:00Z","name_a2s":"Uncletopia | Frankfurt | 8 | Community","protocol":17,"map":"cp_mountainlab","folder":"tf","game":"Team Fortress","app_id":440,"player_count":0,"max_players":24,"Bots":0,"server_type":"Dedicated","server_os":"Linux","password":true,"vac":true,"version":"7961495","steam_id":85568392924742828,"keywords":["cp","nocrits","nodmgspread","uncletopia"],"game_id":440,"stv_port":27086,"stv_name":"Uncletopia | Frankfurt | 8 | Community | STV","players":null},{"server_id":202,"name":"Uncletopia | Hong Kong | 1 | All Maps","name_short":"hgk-1","host":"hgk-1.hk.uncletopia.com","port":27015,"enabled":true,"region":"asia","cc":"hk","latitude":22.302711,"longitude":114.177216,"reserved":0,"last_update":"0001-01-01T00:00:00Z","name_a2s":"Uncletopia | Hong Kong | 1 | All Maps","protocol":17,"map":"pl_upward","folder":"tf","game":"Team Fortress","app_id":440,"player_count":24,"max_players":24,"Bots":0,"server_type":"Dedicated","server_os":"Linux","password":true,"vac":true,"version":"7961495","steam_id":85568392924494504,"keywords":["nocrits","nodmgspread","payload","uncletopia"],"game_id":440,"stv_port":27016,"stv_name":"Uncletopia | Hong Kong | 1 | All Maps | STV","players":[{"user_id":190,"name":"JDSFE","steam_id":76561198975490851,"connected_time":68000000000,"state":"active","ping":86},{"user_id":145,"name":"black betty","steam_id":76561198439382132,"connected_time":2808000000000,"state":"active","ping":119},{"user_id":184,"name":"Banana Milk","steam_id":76561198005156257,"connected_time":377000000000,"state":"active","ping":145},{"user_id":187,"name":"a musian","steam_id":76561198152588681,"connected_time":250000000000,"state":"active","ping":83},{"user_id":169,"name":"Ma, mango is to blowup","steam_id":76561199352285088,"connected_time":1361000000000,"state":"active","ping":116},{"user_id":155,"name":"Dr. Piss Rat","steam_id":76561199074809838,"connected_time":2172000000000,"state":"active","ping":79},{"user_id":132,"name":"Windmill","steam_id":76561199230997986,"connected_time":4014000000000,"state":"active","ping":73},{"user_id":160,"name":"Drutzhfer","steam_id":76561198299948446,"connected_time":1906000000000,"state":"active","ping":111},{"user_id":170,"name":"spy's flat ass","steam_id":76561198163164053,"connected_time":1344000000000,"state":"active","ping":121},{"user_id":179,"name":"The one who shit on piss","steam_id":76561199254649689,"connected_time":758000000000,"state":"active","ping":124},{"user_id":182,"name":"wishin i was fishin","steam_id":76561199474092971,"connected_time":409000000000,"state":"active","ping":103},{"user_id":186,"name":"kingpo54","steam_id":76561198160792198,"connected_time":324000000000,"state":"active","ping":58},{"user_id":183,"name":"Wakiiiz","steam_id":76561198850134590,"connected_time":408000000000,"state":"active","ping":67},{"user_id":188,"name":"RAHHHHH!!!!!!!","steam_id":76561198324008555,"connected_time":149000000000,"state":"active","ping":57},{"user_id":153,"name":"hakos balls","steam_id":76561198074339034,"connected_time":2387000000000,"state":"active","ping":81},{"user_id":82,"name":"MS PowerPoint","steam_id":76561198369523192,"connected_time":8375000000000,"state":"active","ping":66},{"user_id":178,"name":"V :3","steam_id":76561199034546642,"connected_time":821000000000,"state":"active","ping":107},{"user_id":176,"name":"justaguyinariver","steam_id":76561199150967531,"connected_time":1000000000000,"state":"active","ping":81},{"user_id":165,"name":"김광만","steam_id":76561198295279503,"connected_time":1514000000000,"state":"active","ping":129},{"user_id":158,"name":"Hexaq","steam_id":76561199367765042,"connected_time":1972000000000,"state":"active","ping":69},{"user_id":166,"name":"yw","steam_id":76561199382726488,"connected_time":1431000000000,"state":"active","ping":51},{"user_id":175,"name":"TSM Subroza","steam_id":76561198294958967,"connected_time":1042000000000,"state":"active","ping":70},{"user_id":181,"name":"https://bad-dragon.com","steam_id":76561198086760958,"connected_time":584000000000,"state":"active","ping":178},{"user_id":71,"name":"silverhouse7 | A |","steam_id":76561198349634906,"connected_time":9474000000000,"state":"active","ping":130}]},{"server_id":1,"name":"Uncletopia | Los Angeles | 1 | All Maps","name_short":"lax-1","host":"lax-1.us.uncletopia.com","port":27015,"enabled":true,"region":"us-west","cc":"us","latitude":33.94279,"longitude":-118.41004,"reserved":0,"last_update":"0001-01-01T00:00:00Z","name_a2s":"Uncletopia | Los Angeles | 1 | All Maps","protocol":17,"map":"pl_pier","folder":"tf","game":"Team Fortress","app_id":440,"player_count":24,"max_players":24,"Bots":0,"server_type":"Dedicated","server_os":"Linux","password":true,"vac":true,"version":"7961495","steam_id":85568392924469991,"keywords":["nocrits","nodmgspread","payload","uncletopia"],"game_id":440,"stv_port":27016,"stv_name":"Uncletopia | Los Angeles | 1 | All Maps | STV","players":[{"user_id":672,"name":"sierra","steam_id":76561197969873415,"connected_time":830000000000,"state":"active","ping":145},{"user_id":628,"name":"MancalaMadMan","steam_id":76561198347324053,"connected_time":2624000000000,"state":"active","ping":100},{"user_id":661,"name":"Gengarfield","steam_id":76561198052506289,"connected_time":1661000000000,"state":"active","ping":63},{"user_id":664,"name":"californjoe","steam_id":76561197965047795,"connected_time":1635000000000,"state":"active","ping":53},{"user_id":656,"name":"TüCold","steam_id":76561198111278197,"connected_time":1698000000000,"state":"active","ping":60},{"user_id":624,"name":"Xanathar","steam_id":76561197985749277,"connected_time":2814000000000,"state":"active","ping":58},{"user_id":658,"name":"An00bis","steam_id":76561198044084508,"connected_time":1675000000000,"state":"active","ping":46},{"user_id":582,"name":"Drive-By-Fish-Guy","steam_id":76561198105513652,"connected_time":5925000000000,"state":"active","ping":66},{"user_id":611,"name":"Nez","steam_id":76561197963109059,"connected_time":4301000000000,"state":"active","ping":78},{"user_id":662,"name":"flo rida","steam_id":76561198226169704,"connected_time":1656000000000,"state":"active","ping":53},{"user_id":621,"name":"nescoceo","steam_id":76561198040801160,"connected_time":2921000000000,"state":"active","ping":52},{"user_id":655,"name":"Link_Starr","steam_id":76561198133884015,"connected_time":1705000000000,"state":"active","ping":57},{"user_id":671,"name":"Jimmy","steam_id":76561198857959855,"connected_time":1390000000000,"state":"active","ping":50},{"user_id":585,"name":"Owl_eyes","steam_id":76561198066199203,"connected_time":5677000000000,"state":"active","ping":55},{"user_id":456,"name":"basedball","steam_id":76561198385887698,"connected_time":16080000000000,"state":"active","ping":67},{"user_id":673,"name":"hbk ch0w","steam_id":76561198054427889,"connected_time":817000000000,"state":"active","ping":46},{"user_id":674,"name":"TriggerPullPone","steam_id":76561198071789810,"connected_time":191000000000,"state":"active","ping":32},{"user_id":660,"name":"Maniac9","steam_id":76561197960530967,"connected_time":1672000000000,"state":"active","ping":48},{"user_id":601,"name":"Uprightmoss7528","steam_id":76561199200138486,"connected_time":4854000000000,"state":"active","ping":58},{"user_id":669,"name":"for eel? on cod? no carp?","steam_id":76561198095121758,"connected_time":1548000000000,"state":"active","ping":55},{"user_id":629,"name":"lytewerk","steam_id":76561198002819791,"connected_time":2211000000000,"state":"active","ping":90},{"user_id":626,"name":"Big Blue","steam_id":76561198084930108,"connected_time":2731000000000,"state":"active","ping":64},{"user_id":627,"name":"A Shiny Meat Bicycle","steam_id":76561198358757709,"connected_time":2718000000000,"state":"active","ping":116},{"user_id":633,"name":"Frost","steam_id":76561198272014381,"connected_time":1949000000000,"state":"active","ping":71}]},{"server_id":112,"name":"Uncletopia | Los Angeles | 2 | All Maps","name_short":"lax-2","host":"lax-1.us.uncletopia.com","port":27025,"enabled":true,"region":"us-west","cc":"us","latitude":33.94279,"longitude":-118.41004,"reserved":0,"last_update":"0001-01-01T00:00:00Z","name_a2s":"Uncletopia | Los Angeles | 2 | All Maps","protocol":17,"map":"koth_highpass","folder":"tf","game":"Team Fortress","app_id":440,"player_count":0,"max_players":24,"Bots":0,"server_type":"Dedicated","server_os":"Linux","password":true,"vac":true,"version":"7961495","steam_id":85568392924469992,"keywords":["cp","nocrits","nodmgspread","uncletopia"],"game_id":440,"stv_port":27026,"stv_name":"Uncletopia | Los Angeles | 2 | All Maps | STV","players":null},{"server_id":324,"name":"Uncletopia | Los Angeles | 3 | All Maps","name_short":"lax-3","host":"lax-1.us.uncletopia.com","port":27035,"enabled":true,"region":"us-west","cc":"us","latitude":33.94279,"longitude":-118.41004,"reserved":0,"last_update":"0001-01-01T00:00:00Z","name_a2s":"Uncletopia | Los Angeles | 3 | All Maps","protocol":17,"map":"pl_borneo","folder":"tf","game":"Team Fortress","app_id":440,"player_count":0,"max_players":24,"Bots":0,"server_type":"Dedicated","server_os":"Linux","password":true,"vac":true,"version":"7961495","steam_id":85568392924510198,"keywords":["nocrits","nodmgspread","payload","uncletopia"],"game_id":440,"stv_port":27036,"stv_name":"Uncletopia | Los Angeles | 3 | All Maps | STV","players":null},{"server_id":25,"name":"Uncletopia | Los Angeles | 4 | Stopwatch","name_short":"lax-4","host":"lax-1.us.uncletopia.com","port":27045,"enabled":true,"region":"us-west","cc":"us","latitude":33.94279,"longitude":-118.41004,"reserved":0,"last_update":"0001-01-01T00:00:00Z","name_a2s":"Uncletopia | Los Angeles | 4 | Stopwatch","protocol":17,"map":"workshop/koth_ashville_final.ugc2130459942","folder":"tf","game":"Team Fortress","app_id":440,"player_count":0,"max_players":24,"Bots":0,"server_type":"Dedicated","server_os":"Linux","password":true,"vac":true,"version":"7961495","steam_id":85568392924510199,"keywords":["cp","nocrits","nodmgspread","uncletopia"],"game_id":440,"stv_port":27046,"stv_name":"Uncletopia | Los Angeles | 4 | Stopwatch | STV","players":null},{"server_id":11,"name":"Uncletopia | London | 1 | All Maps","name_short":"lon-1","host":"lon-1.uk.uncletopia.com","port":27015,"enabled":true,"region":"eu","cc":"gb","latitude":51.509865,"longitude":-0.118092,"reserved":0,"last_update":"0001-01-01T00:00:00Z","name_a2s":"Uncletopia | London | 1 | All Maps","protocol":17,"map":"koth_highpass","folder":"tf","game":"Team Fortress","app_id":440,"player_count":0,"max_players":24,"Bots":0,"server_type":"Dedicated","server_os":"Linux","password":true,"vac":true,"version":"7961495","steam_id":85568392924367362,"keywords":["cp","nocrits","nodmgspread","uncletopia"],"game_id":440,"stv_port":27016,"stv_name":"Uncletopia | London | 1 | All Maps | STV","players":null},{"server_id":114,"name":"Uncletopia | London | 2 | All Maps","name_short":"lon-2","host":"lon-1.uk.uncletopia.com","port":27025,"enabled":true,"region":"eu","cc":"gb","latitude":51.509865,"longitude":-0.118092,"reserved":0,"last_update":"0001-01-01T00:00:00Z","name_a2s":"Uncletopia | London | 2 | All Maps","protocol":17,"map":"koth_lakeside_final","folder":"tf","game":"Team Fortress","app_id":440,"player_count":0,"max_players":24,"Bots":0,"server_type":"Dedicated","server_os":"Linux","password":true,"vac":true,"version":"7961495","steam_id":85568392924470941,"keywords":["cp","nocrits","nodmgspread","uncletopia"],"game_id":440,"stv_port":27026,"stv_name":"Uncletopia | London | 2 | All Maps | STV","players":null},{"server_id":320,"name":"Uncletopia | London | 3 | All Maps","name_short":"lon-3","host":"lon-1.uk.uncletopia.com","port":27035,"enabled":true,"region":"eu","cc":"gb","latitude":51.509865,"longitude":-0.118092,"reserved":0,"last_update":"0001-01-01T00:00:00Z","name_a2s":"Uncletopia | London | 3 | All Maps","protocol":17,"map":"cp_process_final","folder":"tf","game":"Team Fortress","app_id":440,"player_count":0,"max_players":24,"Bots":0,"server_type":"Dedicated","server_os":"Linux","password":true,"vac":true,"version":"7961495","steam_id":85568392924510192,"keywords":["cp","nocrits","nodmgspread","uncletopia"],"game_id":440,"stv_port":27036,"stv_name":"Uncletopia | London | 3 | All Maps | STV","players":null},{"server_id":321,"name":"Uncletopia | London | 4 | All Maps","name_short":"lon-4","host":"lon-1.uk.uncletopia.com","port":27045,"enabled":true,"region":"eu","cc":"gb","latitude":51.509865,"longitude":-0.118092,"reserved":0,"last_update":"0001-01-01T00:00:00Z","name_a2s":"Uncletopia | London | 4 | All Maps","protocol":17,"map":"koth_cascade","folder":"tf","game":"Team Fortress","app_id":440,"player_count":0,"max_players":24,"Bots":0,"server_type":"Dedicated","server_os":"Linux","password":true,"vac":true,"version":"7961495","steam_id":85568392924510193,"keywords":["cp","nocrits","nodmgspread","uncletopia"],"game_id":440,"stv_port":27046,"stv_name":"Uncletopia | London | 4 | All Maps | STV","players":null},{"server_id":21,"name":"Uncletopia | London | 5 | All Maps","name_short":"lon-5","host":"lon-1.uk.uncletopia.com","port":27055,"enabled":true,"region":"eu","cc":"gb","latitude":51.509865,"longitude":-0.118092,"reserved":0,"last_update":"0001-01-01T00:00:00Z","name_a2s":"Uncletopia | London | 5 | All Maps","protocol":17,"map":"koth_lakeside_final","folder":"tf","game":"Team Fortress","app_id":440,"player_count":0,"max_players":24,"Bots":0,"server_type":"Dedicated","server_os":"Linux","password":true,"vac":true,"version":"7961495","steam_id":85568392924742829,"keywords":["cp","nocrits","nodmgspread","uncletopia"],"game_id":440,"stv_port":27056,"stv_name":"Uncletopia | London | 5 | All Maps | STV","players":null},{"server_id":22,"name":"Uncletopia | London | 6 | All Maps","name_short":"lon-6","host":"lon-1.uk.uncletopia.com","port":27065,"enabled":true,"region":"eu","cc":"gb","latitude":51.509865,"longitude":-0.118092,"reserved":0,"last_update":"0001-01-01T00:00:00Z","name_a2s":"Uncletopia | London | 6 | All Maps","protocol":17,"map":"cp_dustbowl","folder":"tf","game":"Team Fortress","app_id":440,"player_count":0,"max_players":24,"Bots":0,"server_type":"Dedicated","server_os":"Linux","password":true,"vac":true,"version":"7961495","steam_id":85568392924742830,"keywords":["cp","nocrits","nodmgspread","uncletopia"],"game_id":440,"stv_port":27066,"stv_name":"Uncletopia | London | 6 | All Maps | STV","players":null},{"server_id":40,"name":"Uncletopia | London | 7 | Stopwatch","name_short":"lon-7","host":"lon-1.uk.uncletopia.com","port":27075,"enabled":true,"region":"eu","cc":"gb","latitude":51.509865,"longitude":-0.118092,"reserved":0,"last_update":"0001-01-01T00:00:00Z","name_a2s":"Uncletopia | London | 7 | Stopwatch","protocol":17,"map":"koth_lakeside_final","folder":"tf","game":"Team Fortress","app_id":440,"player_count":0,"max_players":24,"Bots":0,"server_type":"Dedicated","server_os":"Linux","password":true,"vac":true,"version":"7961495","steam_id":85568392924964314,"keywords":["cp","nocrits","nodmgspread","uncletopia"],"game_id":440,"stv_port":27076,"stv_name":"Uncletopia | London | 7 | Stopwatch | STV","players":null},{"server_id":41,"name":"Uncletopia | London | 8 | Community","name_short":"lon-8","host":"lon-1.uk.uncletopia.com","port":27085,"enabled":true,"region":"eu","cc":"gb","latitude":51.509865,"longitude":-0.118092,"reserved":0,"last_update":"0001-01-01T00:00:00Z","name_a2s":"Uncletopia | London | 8 | Community","protocol":17,"map":"cp_snakewater_final1","folder":"tf","game":"Team Fortress","app_id":440,"player_count":0,"max_players":24,"Bots":0,"server_type":"Dedicated","server_os":"Linux","password":true,"vac":true,"version":"7961495","steam_id":85568392924964315,"keywords":["cp","nocrits","nodmgspread","uncletopia"],"game_id":440,"stv_port":27086,"stv_name":"Uncletopia | London | 8 | Community | STV","players":null},{"server_id":300,"name":"Uncletopia | Montréal | 1 | One Thousand Uncles","name_short":"mtl-1","host":"mtl-1.ca.uncletopia.com","port":27015,"enabled":true,"region":"us-east","cc":"ca","latitude":45.50889,"longitude":-73.56167,"reserved":0,"last_update":"0001-01-01T00:00:00Z","name_a2s":"","protocol":0,"map":"","folder":"","game":"","app_id":0,"player_count":9,"max_players":0,"Bots":0,"server_type":"","server_os":"","password":false,"vac":false,"version":"","steam_id":0,"keywords":null,"game_id":0,"stv_port":0,"stv_name":"","players":[{"user_id":634,"name":"eotsu666","steam_id":76561199180399756,"connected_time":4760000000000,"state":"active","ping":61},{"user_id":680,"name":"snyper","steam_id":76561199429008660,"connected_time":2034000000000,"state":"active","ping":58},{"user_id":656,"name":"Torkhum","steam_id":76561198162880748,"connected_time":3313000000000,"state":"active","ping":129},{"user_id":685,"name":"viedoamges","steam_id":76561198025295263,"connected_time":804000000000,"state":"active","ping":88},{"user_id":367,"name":"Yep","steam_id":76561198041437251,"connected_time":20757000000000,"state":"active","ping":63},{"user_id":659,"name":"Kent C Straight","steam_id":76561198056190259,"connected_time":3192000000000,"state":"active","ping":73},{"user_id":681,"name":"Yankee_Pirate","steam_id":76561198260667117,"connected_time":1709000000000,"state":"active","ping":49},{"user_id":678,"name":"Draco","steam_id":76561198031226933,"connected_time":2726000000000,"state":"active","ping":136},{"user_id":612,"name":"Vix The Vulpix","steam_id":76561198292181452,"connected_time":6897000000000,"state":"active","ping":93}]},{"server_id":301,"name":"Uncletopia | Montréal | 2 | One Thousand Uncles","name_short":"mtl-2","host":"mtl-1.ca.uncletopia.com","port":27025,"enabled":true,"region":"us-east","cc":"ca","latitude":45.50889,"longitude":-73.56167,"reserved":0,"last_update":"0001-01-01T00:00:00Z","name_a2s":"","protocol":0,"map":"","folder":"","game":"","app_id":0,"player_count":3,"max_players":0,"Bots":0,"server_type":"","server_os":"","password":false,"vac":false,"version":"","steam_id":0,"keywords":null,"game_id":0,"stv_port":0,"stv_name":"","players":[{"user_id":369,"name":"wbfroe,m","steam_id":76561198152690088,"connected_time":1072000000000,"state":"active","ping":50},{"user_id":386,"name":"Amber","steam_id":76561198031298701,"connected_time":956000000000,"state":"active","ping":54},{"user_id":387,"name":"ChozoChorizo","steam_id":76561198272609196,"connected_time":823000000000,"state":"active","ping":62}]},{"server_id":302,"name":"Uncletopia | Montréal | 3 | One Thousand Uncles","name_short":"mtl-3","host":"mtl-1.ca.uncletopia.com","port":27035,"enabled":true,"region":"us-east","cc":"ca","latitude":45.50889,"longitude":-73.56167,"reserved":0,"last_update":"0001-01-01T00:00:00Z","name_a2s":"","protocol":0,"map":"","folder":"","game":"","app_id":0,"player_count":11,"max_players":0,"Bots":0,"server_type":"","server_os":"","password":false,"vac":false,"version":"","steam_id":0,"keywords":null,"game_id":0,"stv_port":0,"stv_name":"","players":[{"user_id":239,"name":"Ayayayayayahuasca","steam_id":76561199002906056,"connected_time":4067000000000,"state":"active","ping":117},{"user_id":264,"name":"Kaiga","steam_id":76561198044052046,"connected_time":2201000000000,"state":"active","ping":165},{"user_id":230,"name":"lasky","steam_id":76561198017030029,"connected_time":5251000000000,"state":"active","ping":117},{"user_id":301,"name":"TechN1I","steam_id":76561199227825092,"connected_time":308000000000,"state":"active","ping":132},{"user_id":178,"name":"rat gets the cheese","steam_id":76561198031234032,"connected_time":9523000000000,"state":"active","ping":68},{"user_id":175,"name":"Cheezbeargur","steam_id":76561198164702899,"connected_time":9606000000000,"state":"active","ping":113},{"user_id":283,"name":"Qwerty","steam_id":76561198023525894,"connected_time":818000000000,"state":"active","ping":165},{"user_id":185,"name":"Colin102004","steam_id":76561198202384334,"connected_time":7631000000000,"state":"active","ping":46},{"user_id":207,"name":"Sweets(?)","steam_id":76561198998446307,"connected_time":5929000000000,"state":"active","ping":125},{"user_id":231,"name":"Paul Badman","steam_id":76561198965289206,"connected_time":5239000000000,"state":"active","ping":80},{"user_id":246,"name":"Gram Tokers Count Doinkula","steam_id":76561198112811565,"connected_time":3522000000000,"state":"active","ping":66}]},{"server_id":13,"name":"Uncletopia | New York City | 1 | All Maps","name_short":"nyc-1","host":"nyc-1.us.uncletopia.com","port":27015,"enabled":true,"region":"us-east","cc":"us","latitude":40.73061,"longitude":-73.93524,"reserved":0,"last_update":"0001-01-01T00:00:00Z","name_a2s":"Uncletopia | New York City | 1 | All Maps","protocol":17,"map":"pl_pier","folder":"tf","game":"Team Fortress","app_id":440,"player_count":24,"max_players":24,"Bots":0,"server_type":"Dedicated","server_os":"Linux","password":true,"vac":true,"version":"7961495","steam_id":85568392924469993,"keywords":["nocrits","nodmgspread","payload","uncletopia"],"game_id":440,"stv_port":27016,"stv_name":"Uncletopia | New York City | 1 | All Maps | STV","players":[{"user_id":697,"name":"mercutio","steam_id":76561198203005793,"connected_time":683000000000,"state":"active","ping":71},{"user_id":675,"name":"GOLDIE","steam_id":76561199375258674,"connected_time":1891000000000,"state":"active","ping":112},{"user_id":676,"name":"chloelex.","steam_id":76561199496587246,"connected_time":1857000000000,"state":"active","ping":129},{"user_id":658,"name":"Whyamidoingthisaaaa","steam_id":76561199168837342,"connected_time":2771000000000,"state":"active","ping":57},{"user_id":702,"name":"ColdTooth","steam_id":76561197994963901,"connected_time":607000000000,"state":"active","ping":86},{"user_id":691,"name":"Wordly Eggplant","steam_id":76561198166704083,"connected_time":1320000000000,"state":"active","ping":103},{"user_id":688,"name":"Coca162","steam_id":76561198230656540,"connected_time":1415000000000,"state":"active","ping":106},{"user_id":648,"name":"Abysa.","steam_id":76561198424398862,"connected_time":3658000000000,"state":"active","ping":107},{"user_id":664,"name":"Great","steam_id":76561198895516433,"connected_time":2394000000000,"state":"active","ping":61},{"user_id":617,"name":"Urbanzpinapple","steam_id":76561198115426938,"connected_time":6099000000000,"state":"active","ping":56},{"user_id":678,"name":"John Fortnite","steam_id":76561198076608253,"connected_time":1812000000000,"state":"active","ping":55},{"user_id":705,"name":"bobbymcbobington","steam_id":76561199089411172,"connected_time":322000000000,"state":"active","ping":122},{"user_id":657,"name":"Hideo Kojima","steam_id":76561198082582335,"connected_time":3022000000000,"state":"active","ping":52},{"user_id":706,"name":"eMcP","steam_id":76561198382509396,"connected_time":246000000000,"state":"active","ping":130},{"user_id":699,"name":"Uncle Majic the Hip Hop Magicia","steam_id":76561198107924303,"connected_time":654000000000,"state":"active","ping":32},{"user_id":666,"name":"Alejandro","steam_id":76561197970051493,"connected_time":2360000000000,"state":"active","ping":114},{"user_id":670,"name":"Huntor","steam_id":76561197999180831,"connected_time":2138000000000,"state":"active","ping":95},{"user_id":704,"name":"Huevo Frito","steam_id":76561198896811394,"connected_time":582000000000,"state":"active","ping":34},{"user_id":692,"name":"JohnsBriefcase","steam_id":76561198117657002,"connected_time":1307000000000,"state":"active","ping":53},{"user_id":689,"name":"CRAZY engineer","steam_id":76561198887937902,"connected_time":1397000000000,"state":"active","ping":46},{"user_id":683,"name":"KrylonHeretic","steam_id":76561198139811459,"connected_time":1778000000000,"state":"active","ping":141},{"user_id":684,"name":"McGruble","steam_id":76561198136317340,"connected_time":1765000000000,"state":"active","ping":73},{"user_id":637,"name":"The Deer Consumer","steam_id":76561198812026312,"connected_time":4378000000000,"state":"active","ping":63},{"user_id":686,"name":"DragoDuck","steam_id":76561198385685683,"connected_time":1665000000000,"state":"active","ping":112}]},{"server_id":14,"name":"Uncletopia | New York City | 2 | All Maps","name_short":"nyc-2","host":"nyc-1.us.uncletopia.com","port":27025,"enabled":true,"region":"us-east","cc":"us","latitude":40.73061,"longitude":-73.93524,"reserved":0,"last_update":"0001-01-01T00:00:00Z","name_a2s":"Uncletopia | New York City | 2 | All Maps","protocol":17,"map":"pl_badwater","folder":"tf","game":"Team Fortress","app_id":440,"player_count":21,"max_players":24,"Bots":0,"server_type":"Dedicated","server_os":"Linux","password":true,"vac":true,"version":"7961495","steam_id":85568392924469994,"keywords":["nocrits","nodmgspread","payload","uncletopia"],"game_id":440,"stv_port":27026,"stv_name":"Uncletopia | New York City | 2 | All Maps | STV","players":[{"user_id":279,"name":"[CHIMP]-CEO of Monkey Business","steam_id":76561198114260233,"connected_time":6819000000000,"state":"connecting","ping":78},{"user_id":323,"name":"Laogh Marbh","steam_id":76561198115240256,"connected_time":1487000000000,"state":"connecting","ping":58},{"user_id":337,"name":"@realJohnLenn0nGaming","steam_id":76561198048779989,"connected_time":662000000000,"state":"connecting","ping":76},{"user_id":321,"name":"muddy","steam_id":76561198035015260,"connected_time":1517000000000,"state":"connecting","ping":121},{"user_id":281,"name":"goblin drill mastermind","steam_id":76561198232617936,"connected_time":6652000000000,"state":"connecting","ping":81},{"user_id":282,"name":"sofa king wee todd ed","steam_id":76561198040741271,"connected_time":6648000000000,"state":"connecting","ping":54},{"user_id":324,"name":"Terror-Billy #SaveTF2","steam_id":76561198328141870,"connected_time":1480000000000,"state":"connecting","ping":70},{"user_id":301,"name":"The Shredder","steam_id":76561198042134766,"connected_time":3538000000000,"state":"connecting","ping":97},{"user_id":325,"name":"Dwaggy","steam_id":76561198027369555,"connected_time":1457000000000,"state":"connecting","ping":96},{"user_id":326,"name":"ReDiculous22","steam_id":76561198038391383,"connected_time":1426000000000,"state":"connecting","ping":114},{"user_id":327,"name":"Rudy","steam_id":76561198013456828,"connected_time":1383000000000,"state":"connecting","ping":70},{"user_id":287,"name":"wepry","steam_id":76561198114091417,"connected_time":5977000000000,"state":"connecting","ping":64},{"user_id":309,"name":"Gentoo Linux Gaming","steam_id":76561197999657118,"connected_time":2792000000000,"state":"connecting","ping":70},{"user_id":319,"name":"(1)Argo","steam_id":76561198130165115,"connected_time":1874000000000,"state":"connecting","ping":80},{"user_id":313,"name":"oppenheimer style","steam_id":76561198026664629,"connected_time":2641000000000,"state":"connecting","ping":55},{"user_id":338,"name":"Deep Curly","steam_id":76561197981290558,"connected_time":435000000000,"state":"connecting","ping":59},{"user_id":339,"name":"zinqi","steam_id":76561198376838848,"connected_time":306000000000,"state":"connecting","ping":112},{"user_id":297,"name":"Justine Thyme","steam_id":76561198153296292,"connected_time":4216000000000,"state":"connecting","ping":76},{"user_id":300,"name":"Argo","steam_id":76561198353725622,"connected_time":3608000000000,"state":"connecting","ping":86},{"user_id":336,"name":"tewr","steam_id":76561199101000236,"connected_time":1118000000000,"state":"connecting","ping":88},{"user_id":340,"name":"Ripping Heads","steam_id":76561198006146062,"connected_time":114000000000,"state":"connecting","ping":70}]},{"server_id":15,"name":"Uncletopia | New York City | 3 | Stopwatch","name_short":"nyc-3","host":"nyc-1.us.uncletopia.com","port":27035,"enabled":true,"region":"us-east","cc":"us","latitude":40.73061,"longitude":-73.93524,"reserved":0,"last_update":"0001-01-01T00:00:00Z","name_a2s":"Uncletopia | New York City | 3 | Stopwatch","protocol":17,"map":"workshop/koth_ramjam_rc1.ugc459778887","folder":"tf","game":"Team Fortress","app_id":440,"player_count":0,"max_players":24,"Bots":0,"server_type":"Dedicated","server_os":"Linux","password":true,"vac":true,"version":"7961495","steam_id":85568392924742820,"keywords":["cp","nocrits","nodmgspread","uncletopia"],"game_id":440,"stv_port":27036,"stv_name":"Uncletopia | New York City | 3 | Stopwatch | STV","players":null},{"server_id":16,"name":"Uncletopia | New York City | 4 | Community","name_short":"nyc-4","host":"nyc-1.us.uncletopia.com","port":27045,"enabled":true,"region":"us-east","cc":"us","latitude":40.73061,"longitude":-73.93524,"reserved":0,"last_update":"0001-01-01T00:00:00Z","name_a2s":"Uncletopia | New York City | 4 | Community","protocol":17,"map":"workshop/koth_trenchfoot_b1a.ugc731436616","folder":"tf","game":"Team Fortress","app_id":440,"player_count":0,"max_players":24,"Bots":0,"server_type":"Dedicated","server_os":"Linux","password":true,"vac":true,"version":"7961495","steam_id":85568392924742821,"keywords":["cp","nocrits","nodmgspread","uncletopia"],"game_id":440,"stv_port":27046,"stv_name":"Uncletopia | New York City | 4 | Community | STV","players":null},{"server_id":142,"name":"Uncletopia | São Paulo | 1 | All Maps","name_short":"sao-1","host":"sao-1.br.uncletopia.com","port":27015,"enabled":true,"region":"sa","cc":"br","latitude":-23.533773,"longitude":-46.62529,"reserved":0,"last_update":"0001-01-01T00:00:00Z","name_a2s":"Uncletopia | São Paulo | 1 | All Maps","protocol":17,"map":"koth_lakeside_final","folder":"tf","game":"Team Fortress","app_id":440,"player_count":0,"max_players":24,"Bots":0,"server_type":"Dedicated","server_os":"Linux","password":true,"vac":true,"version":"7961495","steam_id":85568392924469996,"keywords":["cp","nocrits","nodmgspread","uncletopia"],"game_id":440,"stv_port":27016,"stv_name":"Uncletopia | São Paulo | 1 | All Maps | STV","players":null},{"server_id":143,"name":"Uncletopia | São Paulo | 2 | Community","name_short":"sao-2","host":"sao-2.br.uncletopia.com","port":27015,"enabled":true,"region":"sa","cc":"br","latitude":-23.533773,"longitude":-46.62529,"reserved":0,"last_update":"0001-01-01T00:00:00Z","name_a2s":"Uncletopia | São Paulo | 2 | Community","protocol":17,"map":"workshop/cp_logjam_rc12.ugc454812035","folder":"tf","game":"Team Fortress","app_id":440,"player_count":0,"max_players":24,"Bots":0,"server_type":"Dedicated","server_os":"Linux","password":true,"vac":true,"version":"7961495","steam_id":85568392924485349,"keywords":["cp","nocrits","nodmgspread","uncletopia"],"game_id":440,"stv_port":27016,"stv_name":"Uncletopia | São Paulo | 2 | Community | STV","players":null},{"server_id":7,"name":"Uncletopia | Seattle | 1 | All Maps","name_short":"sea-1","host":"sea-1.us.uncletopia.com","port":27015,"enabled":true,"region":"us-west","cc":"us","latitude":47.608013,"longitude":-122.33517,"reserved":0,"last_update":"0001-01-01T00:00:00Z","name_a2s":"Uncletopia | Seattle | 1 | All Maps","protocol":17,"map":"pl_badwater","folder":"tf","game":"Team Fortress","app_id":440,"player_count":24,"max_players":24,"Bots":0,"server_type":"Dedicated","server_os":"Linux","password":true,"vac":true,"version":"7961495","steam_id":85568392924469997,"keywords":["nocrits","nodmgspread","payload","uncletopia"],"game_id":440,"stv_port":27016,"stv_name":"Uncletopia | Seattle | 1 | All Maps | STV","players":[{"user_id":626,"name":"Drapph","steam_id":76561199384213314,"connected_time":391000000000,"state":"active","ping":111},{"user_id":610,"name":"louie, soldier / awp main","steam_id":76561198168084763,"connected_time":2155000000000,"state":"active","ping":44},{"user_id":614,"name":"SadFapping","steam_id":76561198076651049,"connected_time":1992000000000,"state":"active","ping":45},{"user_id":565,"name":"Inflight","steam_id":76561198920049475,"connected_time":5654000000000,"state":"active","ping":93},{"user_id":623,"name":"here2he1p","steam_id":76561199216977630,"connected_time":1432000000000,"state":"active","ping":45},{"user_id":585,"name":"Keamy","steam_id":76561199471434875,"connected_time":4381000000000,"state":"active","ping":38},{"user_id":553,"name":"Tom Crúaich","steam_id":76561197999439911,"connected_time":6680000000000,"state":"active","ping":60},{"user_id":572,"name":"io_est","steam_id":76561198079538952,"connected_time":5089000000000,"state":"active","ping":41},{"user_id":586,"name":"Choom","steam_id":76561197972654816,"connected_time":4356000000000,"state":"active","ping":45},{"user_id":562,"name":"An Old Lady","steam_id":76561198047480318,"connected_time":5796000000000,"state":"active","ping":59},{"user_id":583,"name":"Nightshade","steam_id":76561199011017814,"connected_time":4713000000000,"state":"active","ping":60},{"user_id":560,"name":"onionman0106","steam_id":76561199067766868,"connected_time":5810000000000,"state":"active","ping":47},{"user_id":625,"name":"FlamingManiac","steam_id":76561198361996837,"connected_time":650000000000,"state":"active","ping":121},{"user_id":609,"name":"slushy :))","steam_id":76561198135281802,"connected_time":2167000000000,"state":"active","ping":38},{"user_id":606,"name":"2 Point Tom","steam_id":76561198087617008,"connected_time":2701000000000,"state":"active","ping":50},{"user_id":620,"name":"mike","steam_id":76561198225411004,"connected_time":1551000000000,"state":"active","ping":61},{"user_id":591,"name":"Attrition","steam_id":76561197969881916,"connected_time":3751000000000,"state":"active","ping":58},{"user_id":617,"name":"ilun","steam_id":76561198042913843,"connected_time":1752000000000,"state":"active","ping":59},{"user_id":604,"name":"The King of Piss World","steam_id":76561198082806956,"connected_time":2906000000000,"state":"active","ping":145},{"user_id":627,"name":"(K.A.T) Mr. Pirate","steam_id":76561199247095754,"connected_time":216000000000,"state":"active","ping":91},{"user_id":619,"name":"Jigg","steam_id":76561198051140705,"connected_time":1595000000000,"state":"active","ping":54},{"user_id":543,"name":"☰vil Ↄood  ⸸💀⸸","steam_id":76561197963666090,"connected_time":7364000000000,"state":"active","ping":77},{"user_id":508,"name":"lili winters","steam_id":76561199488457138,"connected_time":9548000000000,"state":"active","ping":59},{"user_id":622,"name":"daddog","steam_id":76561198286968297,"connected_time":1464000000000,"state":"active","ping":47}]},{"server_id":119,"name":"Uncletopia | Seattle | 2 | All Maps","name_short":"sea-2","host":"sea-1.us.uncletopia.com","port":27025,"enabled":true,"region":"us-west","cc":"us","latitude":47.608013,"longitude":-122.33517,"reserved":0,"last_update":"0001-01-01T00:00:00Z","name_a2s":"Uncletopia | Seattle | 2 | All Maps","protocol":17,"map":"pl_upward","folder":"tf","game":"Team Fortress","app_id":440,"player_count":24,"max_players":24,"Bots":0,"server_type":"Dedicated","server_os":"Linux","password":true,"vac":true,"version":"7961495","steam_id":85568392924469998,"keywords":["nocrits","nodmgspread","payload","uncletopia"],"game_id":440,"stv_port":27026,"stv_name":"Uncletopia | Seattle | 2 | All Maps | STV","players":[{"user_id":265,"name":"IzzyHoP","steam_id":76561197995927883,"connected_time":4994000000000,"state":"active","ping":46},{"user_id":331,"name":"kenZino","steam_id":76561197967971192,"connected_time":662000000000,"state":"active","ping":45},{"user_id":219,"name":"Skaði","steam_id":76561198063949642,"connected_time":9822000000000,"state":"active","ping":44},{"user_id":329,"name":"aBigPoo","steam_id":76561198425027856,"connected_time":1039000000000,"state":"active","ping":63},{"user_id":284,"name":"TwoScore","steam_id":76561198024412148,"connected_time":3559000000000,"state":"active","ping":62},{"user_id":320,"name":"SnoDot","steam_id":76561198062209970,"connected_time":1271000000000,"state":"active","ping":43},{"user_id":296,"name":"Varrock Guard #7","steam_id":76561198097178599,"connected_time":2603000000000,"state":"active","ping":53},{"user_id":245,"name":"Wormy of bad luck","steam_id":76561198054539200,"connected_time":7063000000000,"state":"active","ping":56},{"user_id":328,"name":"Big Juicy","steam_id":76561198018062350,"connected_time":1094000000000,"state":"active","ping":48},{"user_id":286,"name":"ZincWolfWarrior","steam_id":76561199249729907,"connected_time":3533000000000,"state":"active","ping":71},{"user_id":293,"name":"Satori Komeiji","steam_id":76561198158211423,"connected_time":3143000000000,"state":"active","ping":64},{"user_id":319,"name":"b","steam_id":76561198156336213,"connected_time":1369000000000,"state":"active","ping":30},{"user_id":315,"name":"FireQuiz","steam_id":76561198107357249,"connected_time":1700000000000,"state":"active","ping":55},{"user_id":314,"name":"Metalogic","steam_id":76561198049469629,"connected_time":1735000000000,"state":"active","ping":46},{"user_id":334,"name":"MrStinkyCat","steam_id":76561198141354002,"connected_time":469000000000,"state":"active","ping":80},{"user_id":326,"name":"Greskrendtregk","steam_id":76561197969553142,"connected_time":1142000000000,"state":"active","ping":54},{"user_id":323,"name":"Niiko","steam_id":76561199482672725,"connected_time":1225000000000,"state":"active","ping":64},{"user_id":318,"name":"Drilly22","steam_id":76561198068838338,"connected_time":1428000000000,"state":"active","ping":102},{"user_id":325,"name":"death snail","steam_id":76561198093053238,"connected_time":1149000000000,"state":"active","ping":36},{"user_id":333,"name":"shay.wilson","steam_id":76561198005776463,"connected_time":566000000000,"state":"active","ping":92},{"user_id":335,"name":"old woman yuri","steam_id":76561198111844236,"connected_time":7000000000,"state":"spawning","ping":130},{"user_id":327,"name":"tehp","steam_id":76561198056411914,"connected_time":1127000000000,"state":"active","ping":56},{"user_id":308,"name":"Timebomb2134","steam_id":76561199065629825,"connected_time":1952000000000,"state":"active","ping":74},{"user_id":309,"name":"Kaluka","steam_id":76561198036861445,"connected_time":1949000000000,"state":"active","ping":128}]},{"server_id":406,"name":"Uncletopia | Seattle | 3 | Stopwatch","name_short":"sea-3","host":"sea-1.us.uncletopia.com","port":27035,"enabled":true,"region":"us-west","cc":"us","latitude":47.608013,"longitude":-122.33517,"reserved":0,"last_update":"0001-01-01T00:00:00Z","name_a2s":"Uncletopia | Seattle | 3 | Stopwatch","protocol":17,"map":"pl_upward","folder":"tf","game":"Team Fortress","app_id":440,"player_count":0,"max_players":24,"Bots":0,"server_type":"Dedicated","server_os":"Linux","password":true,"vac":true,"version":"7961495","steam_id":85568392924515217,"keywords":["nocrits","nodmgspread","payload","uncletopia"],"game_id":440,"stv_port":27036,"stv_name":"Uncletopia | Seattle | 3 | Stopwatch | STV","players":null},{"server_id":17,"name":"Uncletopia | San Francisco | 1 | All Maps","name_short":"sfo-1","host":"sfo-1.us.uncletopia.com","port":27015,"enabled":true,"region":"us-west","cc":"us","latitude":37.77397,"longitude":-122.4313,"reserved":0,"last_update":"0001-01-01T00:00:00Z","name_a2s":"Uncletopia | San Francisco | 1 | All Maps","protocol":17,"map":"cp_dustbowl","folder":"tf","game":"Team Fortress","app_id":440,"player_count":10,"max_players":24,"Bots":0,"server_type":"Dedicated","server_os":"Linux","password":true,"vac":true,"version":"7961495","steam_id":85568392924469999,"keywords":["cp","nocrits","nodmgspread","uncletopia"],"game_id":440,"stv_port":27016,"stv_name":"Uncletopia | San Francisco | 1 | All Maps | STV","players":[{"user_id":320,"name":"Me when tryhards kill me","steam_id":76561199209207003,"connected_time":917000000000,"state":"active","ping":254},{"user_id":305,"name":"ohnocringe","steam_id":76561199381232082,"connected_time":5991000000000,"state":"active","ping":97},{"user_id":323,"name":"Wick","steam_id":76561198062996360,"connected_time":111000000000,"state":"active","ping":56},{"user_id":309,"name":"spiderland","steam_id":76561198335992132,"connected_time":3386000000000,"state":"active","ping":56},{"user_id":315,"name":"S O U N D W A V E","steam_id":76561198093417449,"connected_time":1587000000000,"state":"active","ping":50},{"user_id":324,"name":"BMoney","steam_id":76561198799389030,"connected_time":38000000000,"state":"active","ping":58},{"user_id":319,"name":"johnman gooberguy","steam_id":76561199014859764,"connected_time":1120000000000,"state":"active","ping":61},{"user_id":322,"name":"iFunny user","steam_id":76561198988499660,"connected_time":298000000000,"state":"active","ping":70},{"user_id":325,"name":"[BALLS] r30848","steam_id":76561199123984543,"connected_time":22000000000,"state":"active","ping":81},{"user_id":301,"name":"cofi","steam_id":76561198077504898,"connected_time":6789000000000,"state":"active","ping":110}]},{"server_id":18,"name":"Uncletopia | San Francisco | 2 | All Maps","name_short":"sfo-2","host":"sfo-1.us.uncletopia.com","port":27025,"enabled":true,"region":"us-west","cc":"us","latitude":37.77397,"longitude":-122.4313,"reserved":0,"last_update":"0001-01-01T00:00:00Z","name_a2s":"Uncletopia | San Francisco | 2 | All Maps","protocol":17,"map":"cp_snakewater_final1","folder":"tf","game":"Team Fortress","app_id":440,"player_count":24,"max_players":24,"Bots":0,"server_type":"Dedicated","server_os":"Linux","password":true,"vac":true,"version":"7961495","steam_id":85568392924470000,"keywords":["cp","nocrits","nodmgspread","uncletopia"],"game_id":440,"stv_port":27026,"stv_name":"Uncletopia | San Francisco | 2 | All Maps | STV","players":[{"user_id":320,"name":"LuckyTF2","steam_id":76561199108883530,"connected_time":1328000000000,"state":"active","ping":60},{"user_id":208,"name":"Spaceman Spiff","steam_id":76561198390326501,"connected_time":8715000000000,"state":"active","ping":96},{"user_id":319,"name":"Lambchop","steam_id":76561198043900363,"connected_time":1360000000000,"state":"active","ping":60},{"user_id":297,"name":"DW codeN1nj4","steam_id":76561198025558856,"connected_time":3364000000000,"state":"active","ping":86},{"user_id":331,"name":"H.","steam_id":76561198074951179,"connected_time":693000000000,"state":"active","ping":140},{"user_id":307,"name":"SanitysEdge","steam_id":76561198130732813,"connected_time":2515000000000,"state":"active","ping":53},{"user_id":207,"name":"[247]Cpl.A GlutenFreeStudmuffin","steam_id":76561198063189855,"connected_time":8725000000000,"state":"active","ping":104},{"user_id":322,"name":"blast a hoe","steam_id":76561198294281809,"connected_time":1232000000000,"state":"active","ping":66},{"user_id":323,"name":"GoldtoothFour","steam_id":76561198055529332,"connected_time":1194000000000,"state":"active","ping":98},{"user_id":308,"name":"Agent Q","steam_id":76561198830829003,"connected_time":2476000000000,"state":"active","ping":77},{"user_id":296,"name":"DWSkilltonTTV","steam_id":76561197967027880,"connected_time":3388000000000,"state":"active","ping":72},{"user_id":326,"name":"Fgtfv567","steam_id":76561198071022525,"connected_time":1104000000000,"state":"active","ping":56},{"user_id":334,"name":"triph","steam_id":76561198067196509,"connected_time":223000000000,"state":"active","ping":45},{"user_id":294,"name":"Havi","steam_id":76561198197832829,"connected_time":3416000000000,"state":"active","ping":69},{"user_id":317,"name":"Steve","steam_id":76561198352805460,"connected_time":1467000000000,"state":"active","ping":87},{"user_id":335,"name":"no vc no c","steam_id":76561197989503095,"connected_time":48000000000,"state":"active","ping":151},{"user_id":310,"name":"Poladroid","steam_id":76561198032005291,"connected_time":2451000000000,"state":"active","ping":66},{"user_id":333,"name":"DOPEam1ne","steam_id":76561198112204774,"connected_time":342000000000,"state":"active","ping":48},{"user_id":314,"name":"the cock","steam_id":76561198065153674,"connected_time":2282000000000,"state":"active","ping":71},{"user_id":328,"name":"squart guy","steam_id":76561199411560141,"connected_time":1009000000000,"state":"active","ping":72},{"user_id":332,"name":"Loogus","steam_id":76561198811561721,"connected_time":563000000000,"state":"active","ping":74},{"user_id":315,"name":"jovial","steam_id":76561198297130941,"connected_time":1711000000000,"state":"active","ping":60},{"user_id":313,"name":"dab","steam_id":76561197997990613,"connected_time":2350000000000,"state":"active","ping":55},{"user_id":318,"name":"menta fresca","steam_id":76561198086666486,"connected_time":1462000000000,"state":"active","ping":69}]},{"server_id":19,"name":"Uncletopia | San Francisco | 3 | Stopwatch","name_short":"sfo-3","host":"sfo-1.us.uncletopia.com","port":27035,"enabled":true,"region":"us-west","cc":"us","latitude":37.77397,"longitude":-122.4313,"reserved":0,"last_update":"0001-01-01T00:00:00Z","name_a2s":"Uncletopia | San Francisco | 3 | Stopwatch","protocol":17,"map":"workshop/koth_bagel_rc6.ugc2514036946","folder":"tf","game":"Team Fortress","app_id":440,"player_count":0,"max_players":24,"Bots":0,"server_type":"Dedicated","server_os":"Linux","password":true,"vac":true,"version":"7961495","steam_id":85568392924742824,"keywords":["cp","nocrits","nodmgspread","uncletopia"],"game_id":440,"stv_port":27036,"stv_name":"Uncletopia | San Francisco | 3 | Stopwatch | STV","players":null},{"server_id":20,"name":"Uncletopia | San Francisco | 4 | Community","name_short":"sfo-4","host":"sfo-1.us.uncletopia.com","port":27045,"enabled":true,"region":"us-west","cc":"us","latitude":37.77397,"longitude":-122.4313,"reserved":0,"last_update":"0001-01-01T00:00:00Z","name_a2s":"Uncletopia | San Francisco | 4 | Community","protocol":17,"map":"workshop/pl_cashworks_final1.ugc2904065412","folder":"tf","game":"Team Fortress","app_id":440,"player_count":24,"max_players":24,"Bots":0,"server_type":"Dedicated","server_os":"Linux","password":true,"vac":true,"version":"7961495","steam_id":85568392924742826,"keywords":["nocrits","nodmgspread","payload","uncletopia"],"game_id":440,"stv_port":27046,"stv_name":"Uncletopia | San Francisco | 4 | Community | STV","players":[{"user_id":167,"name":"Roken","steam_id":76561198037836282,"connected_time":1287000000000,"state":"active","ping":111},{"user_id":163,"name":"Trips","steam_id":76561198054581597,"connected_time":1626000000000,"state":"active","ping":48},{"user_id":171,"name":"090-nsalih","steam_id":76561199467467873,"connected_time":935000000000,"state":"active","ping":87},{"user_id":172,"name":"swap_cake #savetf2","steam_id":76561199382027733,"connected_time":883000000000,"state":"active","ping":102},{"user_id":179,"name":"Bestmaster202","steam_id":76561198235282680,"connected_time":522000000000,"state":"active","ping":55},{"user_id":169,"name":"florence","steam_id":76561198854390990,"connected_time":1104000000000,"state":"active","ping":67},{"user_id":170,"name":"noellehound (she/her)","steam_id":76561198108844158,"connected_time":1063000000000,"state":"active","ping":71},{"user_id":128,"name":"Ice cream sandwich","steam_id":76561198172748357,"connected_time":3527000000000,"state":"active","ping":58},{"user_id":175,"name":"Kendomo","steam_id":76561198025748304,"connected_time":765000000000,"state":"active","ping":77},{"user_id":176,"name":"puggy21323","steam_id":76561198845842037,"connected_time":761000000000,"state":"active","ping":72},{"user_id":182,"name":"00","steam_id":76561198041700636,"connected_time":195000000000,"state":"active","ping":41},{"user_id":183,"name":"bluntmasterflex","steam_id":76561199332203587,"connected_time":193000000000,"state":"active","ping":56},{"user_id":89,"name":"Mom","steam_id":76561198207936000,"connected_time":8902000000000,"state":"active","ping":40},{"user_id":177,"name":"CannedWaffles","steam_id":76561198062401388,"connected_time":743000000000,"state":"active","ping":135},{"user_id":131,"name":"Gerbias","steam_id":76561198001002427,"connected_time":3320000000000,"state":"active","ping":62},{"user_id":180,"name":"sleepy","steam_id":76561198255015060,"connected_time":507000000000,"state":"active","ping":53},{"user_id":157,"name":"Buddyram5","steam_id":76561198409858620,"connected_time":2140000000000,"state":"active","ping":94},{"user_id":165,"name":"FL4K","steam_id":76561198926616872,"connected_time":1445000000000,"state":"active","ping":114},{"user_id":178,"name":"SpamTheAlien","steam_id":76561199122290968,"connected_time":665000000000,"state":"active","ping":90},{"user_id":181,"name":"Fruity","steam_id":76561198999674564,"connected_time":498000000000,"state":"active","ping":92},{"user_id":186,"name":"maximusxj","steam_id":76561198086293332,"connected_time":28000000000,"state":"active","ping":76},{"user_id":145,"name":"big fish","steam_id":76561198186479818,"connected_time":2703000000000,"state":"active","ping":71},{"user_id":149,"name":"Funkmaster yee","steam_id":76561198037738918,"connected_time":2636000000000,"state":"active","ping":64}]},{"server_id":141,"name":"Uncletopia | Sydney | 1 | All Maps","name_short":"syd-1","host":"syd-1.au.uncletopia.com","port":27015,"enabled":true,"region":"au","cc":"au","latitude":-33.865143,"longitude":151.2099,"reserved":0,"last_update":"0001-01-01T00:00:00Z","name_a2s":"Uncletopia | Sydney | 1 | All Maps","protocol":17,"map":"pl_barnblitz","folder":"tf","game":"Team Fortress","app_id":440,"player_count":24,"max_players":24,"Bots":0,"server_type":"Dedicated","server_os":"Linux","password":true,"vac":true,"version":"7961495","steam_id":85568392924470001,"keywords":["nocrits","nodmgspread","payload","uncletopia"],"game_id":440,"stv_port":27016,"stv_name":"Uncletopia | Sydney | 1 | All Maps | STV","players":[{"user_id":34,"name":"N0thing_but_pure_lag_and_luck","steam_id":76561199002102933,"connected_time":5043000000000,"state":"active","ping":107},{"user_id":81,"name":"Marzell","steam_id":76561198151276153,"connected_time":1254000000000,"state":"active","ping":90},{"user_id":53,"name":"Phobia²","steam_id":76561198038833524,"connected_time":2609000000000,"state":"active","ping":59},{"user_id":83,"name":"ManofWonder1","steam_id":76561198904788550,"connected_time":1202000000000,"state":"active","ping":64},{"user_id":75,"name":"no teles 4 u","steam_id":76561198018478297,"connected_time":1713000000000,"state":"active","ping":72},{"user_id":72,"name":"Comanderfoxer","steam_id":76561199117943240,"connected_time":1934000000000,"state":"active","ping":73},{"user_id":89,"name":"reClyde beans","steam_id":76561198301282416,"connected_time":184000000000,"state":"active","ping":60},{"user_id":44,"name":"voxii","steam_id":76561198099698281,"connected_time":2845000000000,"state":"active","ping":69},{"user_id":50,"name":"Turbo_dip","steam_id":76561198446508846,"connected_time":2660000000000,"state":"active","ping":69},{"user_id":85,"name":"Abraham Lincoln","steam_id":76561198095292515,"connected_time":1130000000000,"state":"active","ping":64},{"user_id":47,"name":"Sliced Toast","steam_id":76561199220276252,"connected_time":2789000000000,"state":"active","ping":83},{"user_id":51,"name":"Crimson Aurora","steam_id":76561198157492747,"connected_time":2618000000000,"state":"active","ping":100},{"user_id":55,"name":"Cheese","steam_id":76561198862913374,"connected_time":2577000000000,"state":"active","ping":57},{"user_id":66,"name":"your average trans girl","steam_id":76561198088390019,"connected_time":2176000000000,"state":"active","ping":75},{"user_id":88,"name":"Noble Chernobyl","steam_id":76561198011803825,"connected_time":297000000000,"state":"active","ping":45},{"user_id":86,"name":"Saint Patrick #WhoTheHellAreYOU","steam_id":76561198336999112,"connected_time":977000000000,"state":"active","ping":47},{"user_id":87,"name":"Tetch","steam_id":76561198259803540,"connected_time":811000000000,"state":"active","ping":61},{"user_id":60,"name":"Paper","steam_id":76561198041517737,"connected_time":2447000000000,"state":"active","ping":41},{"user_id":61,"name":"Jman","steam_id":76561198353687857,"connected_time":2416000000000,"state":"active","ping":77},{"user_id":91,"name":"horrid webbon ᘛ⁐̤ᕐᐷ","steam_id":76561198061998379,"connected_time":111000000000,"state":"active","ping":51},{"user_id":63,"name":"CheeseFlag126","steam_id":76561199262769917,"connected_time":2383000000000,"state":"active","ping":92},{"user_id":76,"name":"timboe","steam_id":76561198003442007,"connected_time":1602000000000,"state":"active","ping":56},{"user_id":74,"name":"Ifuckinglovec0ck@gmail.com","steam_id":76561199091043089,"connected_time":1915000000000,"state":"active","ping":128},{"user_id":80,"name":"foshizzle","steam_id":76561198044488273,"connected_time":1373000000000,"state":"active","ping":59}]},{"server_id":123,"name":"Uncletopia | Sydney | 2 | All Maps","name_short":"syd-2","host":"syd-1.au.uncletopia.com","port":27025,"enabled":true,"region":"au","cc":"au","latitude":-33.865143,"longitude":151.2099,"reserved":0,"last_update":"0001-01-01T00:00:00Z","name_a2s":"Uncletopia | Sydney | 2 | All Maps","protocol":17,"map":"koth_highpass","folder":"tf","game":"Team Fortress","app_id":440,"player_count":0,"max_players":24,"Bots":0,"server_type":"Dedicated","server_os":"Linux","password":true,"vac":true,"version":"7961495","steam_id":85568392924470002,"keywords":["cp","nocrits","nodmgspread","uncletopia"],"game_id":440,"stv_port":27026,"stv_name":"Uncletopia | Sydney | 2 | All Maps | STV","players":null},{"server_id":395,"name":"Uncletopia | Sydney | 3 | All Maps","name_short":"syd-3","host":"syd-1.au.uncletopia.com","port":27035,"enabled":true,"region":"au","cc":"au","latitude":-33.865143,"longitude":151.2099,"reserved":0,"last_update":"0001-01-01T00:00:00Z","name_a2s":"Uncletopia | Sydney | 3 | All Maps","protocol":17,"map":"cp_snakewater_final1","folder":"tf","game":"Team Fortress","app_id":440,"player_count":0,"max_players":24,"Bots":0,"server_type":"Dedicated","server_os":"Linux","password":true,"vac":true,"version":"7961495","steam_id":85568392925194467,"keywords":["cp","nocrits","nodmgspread","uncletopia"],"game_id":440,"stv_port":27036,"stv_name":"Uncletopia | Sydney | 3 | All Maps | STV","players":null},{"server_id":396,"name":"Uncletopia | Sydney | 4 | All Maps","name_short":"syd-4","host":"syd-1.au.uncletopia.com","port":27045,"enabled":true,"region":"au","cc":"au","latitude":-33.865143,"longitude":151.2099,"reserved":0,"last_update":"0001-01-01T00:00:00Z","name_a2s":"Uncletopia | Sydney | 4 | All Maps","protocol":17,"map":"cp_snakewater_final1","folder":"tf","game":"Team Fortress","app_id":440,"player_count":0,"max_players":24,"Bots":0,"server_type":"Dedicated","server_os":"Linux","password":true,"vac":true,"version":"7961495","steam_id":85568392925397958,"keywords":["cp","nocrits","nodmgspread","uncletopia"],"game_id":440,"stv_port":27046,"stv_name":"Uncletopia | Sydney | 4 | All Maps | STV","players":null},{"server_id":58,"name":"Uncletopia | Sydney | 5 | Stopwatch","name_short":"syd-5","host":"syd-1.au.uncletopia.com","port":27055,"enabled":true,"region":"au","cc":"au","latitude":-33.865143,"longitude":151.2099,"reserved":0,"last_update":"0001-01-01T00:00:00Z","name_a2s":"Uncletopia | Sydney | 5 | Stopwatch","protocol":17,"map":"workshop/cp_reckoner_rc6.ugc674719999","folder":"tf","game":"Team Fortress","app_id":440,"player_count":0,"max_players":24,"Bots":0,"server_type":"Dedicated","server_os":"Linux","password":true,"vac":true,"version":"7961495","steam_id":85568392925397959,"keywords":["cp","nocrits","nodmgspread","uncletopia"],"game_id":440,"stv_port":27056,"stv_name":"Uncletopia | Sydney | 5 | Stopwatch | STV","players":null},{"server_id":59,"name":"Uncletopia | Sydney | 6 | Community","name_short":"syd-6","host":"syd-1.au.uncletopia.com","port":27065,"enabled":true,"region":"au","cc":"au","latitude":-33.865143,"longitude":151.2099,"reserved":0,"last_update":"0001-01-01T00:00:00Z","name_a2s":"Uncletopia | Sydney | 6 | Community","protocol":17,"map":"workshop/cp_fulgur_rc2a.ugc2068252300","folder":"tf","game":"Team Fortress","app_id":440,"player_count":0,"max_players":24,"Bots":0,"server_type":"Dedicated","server_os":"Linux","password":true,"vac":true,"version":"7961495","steam_id":85568392925397960,"keywords":["cp","nocrits","nodmgspread","uncletopia"],"game_id":440,"stv_port":27066,"stv_name":"Uncletopia | Sydney | 6 | Community | STV","players":null},{"server_id":49,"name":"Uncletopia | Warsaw | 1 | One Thousand Uncles","name_short":"waw-1","host":"waw-1.pl.uncletopia.com","port":27015,"enabled":true,"region":"eu","cc":"pl","latitude":52.2297,"longitude":21.017532,"reserved":0,"last_update":"0001-01-01T00:00:00Z","name_a2s":"Uncletopia | Warsaw | 1 | One Thousand Uncles","protocol":17,"map":"koth_highpass","folder":"tf","game":"Team Fortress","app_id":440,"player_count":0,"max_players":32,"Bots":0,"server_type":"Dedicated","server_os":"Linux","password":true,"vac":true,"version":"7961495","steam_id":85568392925397850,"keywords":["alltalk","cp","danepve","increased_maxplayers","nocrits","norespawntime","uncletopia"],"game_id":440,"stv_port":0,"stv_name":"","players":null},{"server_id":50,"name":"Uncletopia | Warsaw | 2 | One Thousand Uncles","name_short":"waw-2","host":"waw-1.pl.uncletopia.com","port":27025,"enabled":true,"region":"eu","cc":"pl","latitude":52.2297,"longitude":21.017532,"reserved":0,"last_update":"0001-01-01T00:00:00Z","name_a2s":"Uncletopia | Warsaw | 2 | One Thousand Uncles","protocol":17,"map":"pl_goldrush","folder":"tf","game":"Team Fortress","app_id":440,"player_count":0,"max_players":32,"Bots":0,"server_type":"Dedicated","server_os":"Linux","password":true,"vac":true,"version":"7961495","steam_id":85568392925397851,"keywords":["alltalk","danepve","increased_maxplayers","nocrits","norespawntime","payload","uncletopia"],"game_id":440,"stv_port":0,"stv_name":"","players":null},{"server_id":51,"name":"Uncletopia | Warsaw | 3 | All Maps","name_short":"waw-3","host":"waw-1.pl.uncletopia.com","port":27035,"enabled":true,"region":"eu","cc":"pl","latitude":52.2297,"longitude":21.017532,"reserved":0,"last_update":"0001-01-01T00:00:00Z","name_a2s":"Uncletopia | Warsaw | 3 | All Maps","protocol":17,"map":"plr_pipeline","folder":"tf","game":"Team Fortress","app_id":440,"player_count":0,"max_players":24,"Bots":0,"server_type":"Dedicated","server_os":"Linux","password":true,"vac":true,"version":"7961495","steam_id":85568392925397852,"keywords":["nocrits","nodmgspread","payload","uncletopia"],"game_id":440,"stv_port":27036,"stv_name":"Uncletopia | Warsaw | 3 | All Maps | STV","players":null},{"server_id":52,"name":"Uncletopia | Warsaw | 4 | All Maps","name_short":"waw-4","host":"waw-1.pl.uncletopia.com","port":27045,"enabled":true,"region":"eu","cc":"pl","latitude":52.2297,"longitude":21.017532,"reserved":0,"last_update":"0001-01-01T00:00:00Z","name_a2s":"Uncletopia | Warsaw | 4 | All Maps","protocol":17,"map":"cp_coldfront","folder":"tf","game":"Team Fortress","app_id":440,"player_count":0,"max_players":24,"Bots":0,"server_type":"Dedicated","server_os":"Linux","password":true,"vac":true,"version":"7961495","steam_id":85568392925397853,"keywords":["cp","nocrits","nodmgspread","uncletopia"],"game_id":440,"stv_port":27046,"stv_name":"Uncletopia | Warsaw | 4 | All Maps | STV","players":null},{"server_id":53,"name":"Uncletopia | Warsaw | 5 | Stopwatch","name_short":"waw-5","host":"waw-1.pl.uncletopia.com","port":27055,"enabled":true,"region":"eu","cc":"pl","latitude":52.2297,"longitude":21.017532,"reserved":0,"last_update":"0001-01-01T00:00:00Z","name_a2s":"Uncletopia | Warsaw | 5 | Stopwatch","protocol":17,"map":"workshop/koth_bagel_rc6.ugc2514036946","folder":"tf","game":"Team Fortress","app_id":440,"player_count":0,"max_players":24,"Bots":0,"server_type":"Dedicated","server_os":"Linux","password":true,"vac":true,"version":"7961495","steam_id":85568392925397854,"keywords":["cp","nocrits","nodmgspread","uncletopia"],"game_id":440,"stv_port":27056,"stv_name":"Uncletopia | Warsaw | 5 | Stopwatch | STV","players":null},{"server_id":54,"name":"Uncletopia | Warsaw | 6 | Community","name_short":"waw-6","host":"waw-1.pl.uncletopia.com","port":27065,"enabled":true,"region":"eu","cc":"pl","latitude":52.2297,"longitude":21.017532,"reserved":0,"last_update":"0001-01-01T00:00:00Z","name_a2s":"Uncletopia | Warsaw | 6 | Community","protocol":17,"map":"workshop/pl_badwater_pro_v12.ugc2142942074","folder":"tf","game":"Team Fortress","app_id":440,"player_count":0,"max_players":24,"Bots":0,"server_type":"Dedicated","server_os":"Linux","password":true,"vac":true,"version":"7961495","steam_id":85568392925397856,"keywords":["nocrits","nodmgspread","payload","uncletopia"],"game_id":440,"stv_port":27066,"stv_name":"Uncletopia | Warsaw | 6 | Community | STV","players":null}]}