{"status":true,"message":"","result":[{"server_id":9,"name":"Uncletopia | Atlanta | 1 | All Maps","name_short":"atl-1","host":"atl-1.us.uncletopia.com","port":27015,"enabled":true,"region":"us-east","cc":"us","latitude":33.753746,"longitude":-84.38633,"reserved":0,"last_update":"0001-01-01T00:00:00Z","name_a2s":"Uncletopia | Atlanta | 1 | All Maps","protocol":17,"map":"pl_swiftwater_final1","folder":"tf","game":"Team Fortress","app_id":440,"player_count":23,"max_players":24,"Bots":0,"server_type":"Dedicated","server_os":"Linux","password":true,"vac":true,"version":"7961495","steam_id":85568392924469982,"keywords":["nocrits","nodmgspread","payload","uncletopia"],"game_id":440,"stv_port":27016,"stv_name":"Uncletopia | Atlanta | 1 | All Maps | STV","players":[{"user_id":288,"name":"Scremz (Jeffery Bomber)","steam_id":76561198090314229,"connected_time":463000000000,"state":"active","ping":56},{"user_id":267,"name":"z #based","steam_id":76561198377478982,"connected_time":1985000000000,"state":"active","ping":67},{"user_id":263,"name":"robin","steam_id":76561198095405352,"connected_time":2762000000000,"state":"active","ping":63},{"user_id":289,"name":"Fredrick","steam_id":76561197981419964,"connected_time":432000000000,"state":"active","ping":59},{"user_id":285,"name":"Sleepy","steam_id":76561198978688451,"connected_time":1040000000000,"state":"active","ping":59},{"user_id":271,"name":"Heathcliff","steam_id":76561198044288534,"connected_time":1857000000000,"state":"active","ping":60},{"user_id":249,"name":"Ok-Par","steam_id":76561199221067945,"connected_time":4095000000000,"state":"active","ping":66},{"user_id":272,"name":"NeptuneÀñ‚Å∫ÔΩ°Àö‚ãÜÀô‚ô•","steam_id":76561199054203198,"connected_time":1851000000000,"state":"active","ping":56},{"user_id":255,"name":"Pango","steam_id":76561198069811545,"connected_time":3741000000000,"state":"active","ping":44},{"user_id":292,"name":"indi","steam_id":76561198045917538,"connected_time":279000000000,"state":"active","ping":70},{"user_id":294,"name":"jack","steam_id":76561198397804555,"connected_time":70000000000,"state":"active","ping":113},{"user_id":251,"name":"[igam] ajay173","steam_id":76561198259234584,"connected_time":3840000000000,"state":"active","ping":75},{"user_id":293,"name":"Decolour","steam_id":76561199045608372,"connected_time":201000000000,"state":"active","ping":60},{"user_id":264,"name":"rat","steam_id":76561198146602622,"connected_time":2653000000000,"state":"active","ping":44},{"user_id":278,"name":"drood","steam_id":76561198000300475,"connected_time":1677000000000,"state":"active","ping":99},{"user_id":291,"name":"kevipoop","steam_id":76561198036688156,"connected_time":360000000000,"state":"active","ping":55},{"user_id":275,"name":"brg","steam_id":76561197998415548,"connected_time":1817000000000,"state":"active","ping":77},{"user_id":262,"name":"feverish fragger","steam_id":76561198968337022,"connected_time":2802000000000,"state":"active","ping":54},{"user_id":279,"name":"PayPal me 30,000 USD","steam_id":76561199066185761,"connected_time":1626000000000,"state":"active","ping":114},{"user_id":245,"name":"com lag","steam_id":76561198019019392,"connected_time":4503000000000,"state":"active","ping":65},{"user_id":243,"name":"xX_BimboSwallower_Xx","steam_id":76561198016029965,"connected_time":4926000000000,"state":"active","ping":46},{"user_id":284,"name":"Hell Inspector","steam_id":76561198831251568,"connected_time":1113000000000,"state":"active","ping":67},{"user_id":269,"name":"Kc","steam_id":76561198210734407,"connected_time":1868000000000,"state":"active","ping":58}]},{"server_id":104,"name":"Uncletopia | Atlanta | 2 | All Maps","name_short":"atl-2","host":"atl-1.us.uncletopia.com","port":27025,"enabled":true,"region":"us-east","cc":"us","latitude":33.753746,"longitude":-84.38633,"reserved":0,"last_update":"0001-01-01T00:00:00Z","name_a2s":"Uncletopia | Atlanta | 2 | All Maps","protocol":17,"map":"pl_badwater","folder":"tf","game":"Team Fortress","app_id":440,"player_count":22,"max_players":24,"Bots":0,"server_type":"Dedicated","server_os":"Linux","password":true,"vac":true,"version":"7961495","steam_id":85568392924469983,"keywords":["nocrits","nodmgspread","payload","uncletopia"],"game_id":440,"stv_port":27026,"stv_name":"Uncletopia | Atlanta | 2 | All Maps | STV","players":[{"user_id":242,"name":"Clyde","steam_id":76561198158206236,"connected_time":177000000000,"state":"active","ping":95},{"user_id":155,"name":"works cited","steam_id":76561198853297459,"connected_time":4579000000000,"state":"active","ping":125},{"user_id":231,"name":"Smartchicken","steam_id":76561198037744517,"connected_time":583000000000,"state":"active","ping":70},{"user_id":239,"name":"short bus enthusiast","steam_id":76561198069380992,"connected_time":373000000000,"state":"active","ping":72},{"user_id":223,"name":"giraffe ringme","steam_id":76561198030812596,"connected_time":1000000000000,"state":"active","ping":59},{"user_id":238,"name":"Dullahan","steam_id":76561198119668908,"connected_time":376000000000,"state":"active","ping":105},{"user_id":208,"name":"Oxygen User","steam_id":76561199111975528,"connected_time":1704000000000,"state":"active","ping":56},{"user_id":245,"name":"JellyParrot","steam_id":76561199190990163,"connected_time":120000000000,"state":"active","ping":41},{"user_id":243,"name":"io","steam_id":76561198211308328,"connected_time":147000000000,"state":"active","ping":59},{"user_id":141,"name":"Kitty","steam_id":76561198123758854,"connected_time":5239000000000,"state":"active","ping":60},{"user_id":226,"name":"t(._. t)","steam_id":76561198241034752,"connected_time":971000000000,"state":"active","ping":117},{"user_id":224,"name":"DisDoodEatFood","steam_id":76561198360724348,"connected_time":995000000000,"state":"active","ping":107},{"user_id":131,"name":"Marsk","steam_id":76561198417568196,"connected_time":6067000000000,"state":"active","ping":90},{"user_id":241,"name":"[V101]Geezus","steam_id":76561197961369685,"connected_time":256000000000,"state":"active","ping":60},{"user_id":246,"name":"Peengus","steam_id":76561199091953940,"connected_time":109000000000,"state":"active","ping":57},{"user_id":233,"name":"Mr. Onion","steam_id":76561198153165950,"connected_time":431000000000,"state":"active","ping":60},{"user_id":228,"name":"Novu","steam_id":76561198886997024,"connected_time":820000000000,"state":"active","ping":82},{"user_id":167,"name":"kernstjean97","steam_id":76561199216661045,"connected_time":3946000000000,"state":"active","ping":70},{"user_id":244,"name":"yoshido","steam_id":76561198846313229,"connected_time":130000000000,"state":"active","ping":65},{"user_id":212,"name":"videogaming3000","steam_id":76561198301607184,"connected_time":1407000000000,"state":"active","ping":74},{"user_id":230,"name":"Pizza Party","steam_id":76561198165730754,"connected_time":634000000000,"state":"active","ping":63},{"user_id":240,"name":"GreenApples","steam_id":76561198120559543,"connected_time":365000000000,"state":"active","ping":112}]},{"server_id":400,"name":"Uncletopia | Atlanta | 3 | Stopwatch","name_short":"atl-3","host":"atl-1.us.uncletopia.com","port":27035,"enabled":true,"region":"us-east","cc":"us","latitude":33.753746,"longitude":-84.38633,"reserved":0,"last_update":"0001-01-01T00:00:00Z","name_a2s":"Uncletopia | Atlanta | 3 | Stopwatch","protocol":17,"map":"koth_highpass","folder":"tf","game":"Team Fortress","app_id":440,"player_count":0,"max_players":24,"Bots":0,"server_type":"Dedicated","server_os":"Linux","password":true,"vac":true,"version":"7961495","steam_id":85568392924515187,"keywords":["cp","nocrits","nodmgspread","uncletopia"],"game_id":440,"stv_port":27036,"stv_name":"Uncletopia | Atlanta | 3 | Stopwatch | STV","players":null},{"server_id":401,"name":"Uncletopia | Atlanta | 4 | Community","name_short":"atl-4","host":"atl-1.us.uncletopia.com","port":27045,"enabled":true,"region":"us-east","cc":"us","latitude":33.753746,"longitude":-84.38633,"reserved":0,"last_update":"0001-01-01T00:00:00Z","name_a2s":"Uncletopia | Atlanta | 4 | Community","protocol":17,"map":"workshop/cp_glassworks_rc7a.ugc454118349","folder":"tf","game":"Team Fortress","app_id":440,"player_count":0,"max_players":24,"Bots":0,"server_type":"Dedicated","server_os":"Linux","password":true,"vac":true,"version":"7961495","steam_id":85568392924515188,"keywords":["cp","nocrits","nodmgspread","uncletopia"],"game_id":440,"stv_port":27046,"stv_name":"Uncletopia | Atlanta | 4 | Community | STV","players":null},{"server_id":2,"name":"Uncletopia | Chicago | 1 | All Maps","name_short":"chi-1","host":"chi-1.us.uncletopia.com","port":27015,"enabled":true,"region":"us-central","cc":"us","latitude":41.881832,"longitude":-87.62318,"reserved":0,"last_update":"0001-01-01T00:00:00Z","name_a2s":"Uncletopia | Chicago | 1 | All Maps","protocol":17,"map":"pl_borneo","folder":"tf","game":"Team Fortress","app_id":440,"player_count":24,"max_players":24,"Bots":0,"server_type":"Dedicated","server_os":"Linux","password":true,"vac":true,"version":"7961495","steam_id":85568392924469984,"keywords":["nocrits","nodmgspread","payload","uncletopia"],"game_id":440,"stv_port":27016,"stv_name":"Uncletopia | Chicago | 1 | All Maps | STV","players":[{"user_id":596,"name":"Stacks63bs","steam_id":76561198067797130,"connected_time":2945000000000,"state":"active","ping":71},{"user_id":636,"name":"Jin Sakai","steam_id":76561198056809130,"connected_time":719000000000,"state":"active","ping":52},{"user_id":551,"name":"dak","steam_id":76561198076596506,"connected_time":5714000000000,"state":"active","ping":63},{"user_id":632,"name":"rat eater","steam_id":76561199216874750,"connected_time":1140000000000,"state":"active","ping":45},{"user_id":623,"name":"Jolly","steam_id":76561198010324937,"connected_time":1686000000000,"state":"active","ping":67},{"user_id":640,"name":"Gene Takovic","steam_id":76561198881039861,"connected_time":396000000000,"state":"active","ping":45},{"user_id":641,"name":"foghornleghorn","steam_id":76561198202436474,"connected_time":180000000000,"state":"active","ping":70},{"user_id":614,"name":"otwtomarsoffdabars(spacecore)","steam_id":76561199085974120,"connected_time":1944000000000,"state":"active","ping":63},{"user_id":598,"name":"shut the fuck up and listen","steam_id":76561198018093835,"connected_time":2829000000000,"state":"active","ping":69},{"user_id":621,"name":"6 million bees","steam_id":76561198400438007,"connected_time":1741000000000,"state":"active","ping":48},{"user_id":625,"name":"Hudbus","steam_id":76561198193921543,"connected_time":1625000000000,"state":"active","ping":75},{"user_id":601,"name":"Leonidas","steam_id":76561198398004258,"connected_time":2527000000000,"state":"active","ping":62},{"user_id":639,"name":"anonion","steam_id":76561198056477584,"connected_time":454000000000,"state":"active","ping":89},{"user_id":615,"name":"HappyHonker","steam_id":76561199056581941,"connected_time":1934000000000,"state":"active","ping":61},{"user_id":628,"name":"Firedrakecheerful","steam_id":76561198141166902,"connected_time":1347000000000,"state":"active","ping":56},{"user_id":613,"name":"Velvetmoo","steam_id":76561198003926250,"connected_time":1955000000000,"state":"active","ping":58},{"user_id":635,"name":"Fercho Mo","steam_id":76561198168935077,"connected_time":899000000000,"state":"active","ping":81},{"user_id":627,"name":"Hank","steam_id":76561198034391501,"connected_time":1406000000000,"state":"active","ping":53},{"user_id":602,"name":"WorldsWorstGamer","steam_id":76561199126634917,"connected_time":2455000000000,"state":"active","ping":46},{"user_id":618,"name":"damn dude","steam_id":76561198065528284,"connected_time":1867000000000,"state":"active","ping":57},{"user_id":638,"name":"Xx_gam3rberg_xX","steam_id":76561199035781025,"connected_time":595000000000,"state":"active","ping":91},{"user_id":642,"name":"Johnny Lawrence #JohnnyMaxxing","steam_id":76561199367141671,"connected_time":33000000000,"state":"active","ping":67},{"user_id":629,"name":"biden cart 15 dollars","steam_id":76561198253731826,"connected_time":1327000000000,"state":"active","ping":66},{"user_id":630,"name":"Stupid? Probably :(","steam_id":76561198298310744,"connected_time":1216000000000,"state":"active","ping":74}]},{"server_id":106,"name":"Uncletopia | Chicago | 2 | All Maps","name_short":"chi-2","host":"chi-1.us.uncletopia.com","port":27025,"enabled":true,"region":"us-central","cc":"us","latitude":41.881832,"longitude":-87.62318,"reserved":0,"last_update":"0001-01-01T00:00:00Z","name_a2s":"Uncletopia | Chicago | 2 | All Maps","protocol":17,"map":"cp_sunshine","folder":"tf","game":"Team Fortress","app_id":440,"player_count":24,"max_players":24,"Bots":0,"server_type":"Dedicated","server_os":"Linux","password":true,"vac":true,"version":"7961495","steam_id":85568392924469985,"keywords":["cp","nocrits","nodmgspread","uncletopia"],"game_id":440,"stv_port":27026,"stv_name":"Uncletopia | Chicago | 2 | All Maps | STV","players":[{"user_id":133,"name":"Quentin","steam_id":76561198382768463,"connected_time":2027000000000,"state":"active","ping":86},{"user_id":107,"name":"Chadford","steam_id":76561198092439320,"connected_time":2582000000000,"state":"active","ping":61},{"user_id":138,"name":"loreson","steam_id":76561198179567291,"connected_time":992000000000,"state":"active","ping":109},{"user_id":73,"name":"Yeti‚Ñ¢","steam_id":76561199151545966,"connected_time":3977000000000,"state":"active","ping":52},{"user_id":148,"name":"Microsoft Hollowpoint","steam_id":76561198874445824,"connected_time":584000000000,"state":"active","ping":75},{"user_id":151,"name":"Tequila","steam_id":76561198968058652,"connected_time":450000000000,"state":"active","ping":107},{"user_id":123,"name":"jan kili","steam_id":76561198289894834,"connected_time":2109000000000,"state":"active","ping":60},{"user_id":149,"name":"Psycho Crusher","steam_id":76561198987125856,"connected_time":582000000000,"state":"active","ping":77},{"user_id":144,"name":"Shrebbie","steam_id":76561198875230824,"connected_time":620000000000,"state":"active","ping":56},{"user_id":124,"name":"pastry","steam_id":76561198038999341,"connected_time":2098000000000,"state":"active","ping":104},{"user_id":75,"name":"Monterfart","steam_id":76561198125034271,"connected_time":3961000000000,"state":"active","ping":66},{"user_id":119,"name":"aidonz","steam_id":76561198066395960,"connected_time":2155000000000,"state":"active","ping":59},{"user_id":150,"name":"Nelson","steam_id":76561198036822957,"connected_time":555000000000,"state":"active","ping":75},{"user_id":126,"name":"{BB} Mr_Stevie16","steam_id":76561198414959954,"connected_time":2063000000000,"state":"active","ping":102},{"user_id":158,"name":"drats!!!","steam_id":76561198072179483,"connected_time":151000000000,"state":"active","ping":91},{"user_id":157,"name":"kid named chill bill","steam_id":76561198181487950,"connected_time":223000000000,"state":"active","ping":75},{"user_id":127,"name":"Artgrendadier","steam_id":76561198063305359,"connected_time":2060000000000,"state":"active","ping":57},{"user_id":136,"name":"ACKNOWLEDGE ME ‚òù","steam_id":76561198288743767,"connected_time":1090000000000,"state":"active","ping":105},{"user_id":153,"name":"glam","steam_id":76561198059570070,"connected_time":435000000000,"state":"active","ping":52},{"user_id":137,"name":"PK","steam_id":76561198368722500,"connected_time":1089000000000,"state":"active","ping":65},{"user_id":131,"name":"crunchy obama","steam_id":76561198044485217,"connected_time":2040000000000,"state":"active","ping":102},{"user_id":156,"name":"Comrade","steam_id":76561199056721863,"connected_time":398000000000,"state":"active","ping":72},{"user_id":154,"name":"RaspberryKetchup","steam_id":76561198397331700,"connected_time":422000000000,"state":"active","ping":53},{"user_id":155,"name":"BurgerPizza","steam_id":76561198151256410,"connected_time":414000000000,"state":"active","ping":140}]},{"server_id":402,"name":"Uncletopia | Chicago | 3 | All Maps","name_short":"chi-3","host":"chi-1.us.uncletopia.com","port":27035,"enabled":true,"region":"us-central","cc":"us","latitude":41.881832,"longitude":-87.62318,"reserved":0,"last_update":"0001-01-01T00:00:00Z","name_a2s":"Uncletopia | Chicago | 3 | All Maps","protocol":17,"map":"pl_frontier_final","folder":"tf","game":"Team Fortress","app_id":440,"player_count":22,"max_players":24,"Bots":0,"server_type":"Dedicated","server_os":"Linux","password":true,"vac":true,"version":"7961495","steam_id":85568392924515191,"keywords":["nocrits","nodmgspread","payload","uncletopia"],"game_id":440,"stv_port":27036,"stv_name":"Uncletopia | Chicago | 3 | All Maps | STV","players":[{"user_id":123,"name":"Luigi from the 3DS","steam_id":76561199096240237,"connected_time":122000000000,"state":"active","ping":74},{"user_id":78,"name":"doubleshare","steam_id":76561198024472046,"connected_time":2912000000000,"state":"active","ping":70},{"user_id":98,"name":"Melaza Bois","steam_id":76561199031977210,"connected_time":1615000000000,"state":"active","ping":64},{"user_id":118,"name":"punk cock","steam_id":76561198418182764,"connected_time":331000000000,"state":"active","ping":72},{"user_id":101,"name":"carbuzz","steam_id":76561198129361580,"connected_time":1476000000000,"state":"active","ping":166},{"user_id":121,"name":"The Grim Heaper","steam_id":76561197987759101,"connected_time":193000000000,"state":"active","ping":101},{"user_id":126,"name":"nash","steam_id":76561198208327832,"connected_time":89000000000,"state":"active","ping":47},{"user_id":28,"name":" è·¥ú·¥ä…™","steam_id":76561198401572620,"connected_time":4453000000000,"state":"active","ping":60},{"user_id":29,"name":"Noobert McGlitchington the 3st","steam_id":76561198073176682,"connected_time":4445000000000,"state":"active","ping":60},{"user_id":113,"name":"Entar","steam_id":76561197968661166,"connected_time":1023000000000,"state":"active","ping":45},{"user_id":58,"name":"marceline","steam_id":76561198170642407,"connected_time":3431000000000,"state":"active","ping":69},{"user_id":122,"name":"GbGb","steam_id":76561198238155164,"connected_time":146000000000,"state":"active","ping":75},{"user_id":124,"name":"oppenheimer style","steam_id":76561198026664629,"connected_time":120000000000,"state":"active","ping":57},{"user_id":114,"name":"No, this is Patrick","steam_id":76561198058776774,"connected_time":883000000000,"state":"active","ping":51},{"user_id":125,"name":"Hilliage","steam_id":76561198999056342,"connected_time":106000000000,"state":"active","ping":73},{"user_id":127,"name":"Fentanyl76","steam_id":76561198043497451,"connected_time":25000000000,"state":"active","ping":67},{"user_id":94,"name":"just call me joe","steam_id":76561198043911582,"connected_time":1975000000000,"state":"active","ping":62},{"user_id":128,"name":"Jimbo Jones","steam_id":76561198031493107,"connected_time":14000000000,"state":"spawning","ping":67},{"user_id":106,"name":"Skip Hop Doo Bop","steam_id":76561199161571849,"connected_time":1327000000000,"state":"active","ping":103},{"user_id":97,"name":"Adam9","steam_id":76561198272853331,"connected_time":1645000000000,"state":"active","ping":52},{"user_id":120,"name":"Slapperpow","steam_id":76561198089895100,"connected_time":287000000000,"state":"active","ping":61},{"user_id":111,"name":"Kiervce","steam_id":76561199175427371,"connected_time":1142000000000,"state":"active","ping":53}]},{"server_id":403,"name":"Uncletopia | Chicago | 4 | All Maps","name_short":"chi-4","host":"chi-1.us.uncletopia.com","port":27045,"enabled":true,"region":"us-central","cc":"us","latitude":41.881832,"longitude":-87.62318,"reserved":0,"last_update":"0001-01-01T00:00:00Z","name_a2s":"Uncletopia | Chicago | 4 | All Maps","protocol":17,"map":"pl_badwater","folder":"tf","game":"Team Fortress","app_id":440,"player_count":24,"max_players":24,"Bots":0,"server_type":"Dedicated","server_os":"Linux","password":true,"vac":true,"version":"7961495","steam_id":85568392924515193,"keywords":["nocrits","nodmgspread","payload","uncletopia"],"game_id":440,"stv_port":27046,"stv_name":"Uncletopia | Chicago | 4 | All Maps | STV","players":[{"user_id":480,"name":"Crayfry","steam_id":76561198146525237,"connected_time":587000000000,"state":"active","ping":50},{"user_id":482,"name":"YoteDab McFapDab.jpg","steam_id":76561197984870380,"connected_time":561000000000,"state":"active","ping":98},{"user_id":472,"name":"stuff","steam_id":76561198190770226,"connected_time":1245000000000,"state":"active","ping":86},{"user_id":462,"name":"Rukks","steam_id":76561197993918954,"connected_time":1928000000000,"state":"active","ping":100},{"user_id":467,"name":"·¥Ñ Ä è ô·¥õ…™·¥Ö","steam_id":76561198043976328,"connected_time":1807000000000,"state":"active","ping":74},{"user_id":423,"name":"DEADHORSE","steam_id":76561198066342171,"connected_time":5627000000000,"state":"active","ping":75},{"user_id":450,"name":"Black Rose Oncore","steam_id":76561198040489960,"connected_time":3625000000000,"state":"active","ping":54},{"user_id":368,"name":"Point then Click","steam_id":76561198076133259,"connected_time":10511000000000,"state":"active","ping":105},{"user_id":427,"name":"OiledAssShaker","steam_id":76561198132068284,"connected_time":5178000000000,"state":"active","ping":65},{"user_id":479,"name":"bengineer","steam_id":76561198171912174,"connected_time":593000000000,"state":"active","ping":81},{"user_id":386,"name":"HumFreY","steam_id":76561198076639682,"connected_time":10025000000000,"state":"active","ping":74},{"user_id":465,"name":"gale","steam_id":76561198250068972,"connected_time":1849000000000,"state":"active","ping":97},{"user_id":481,"name":"Luca!","steam_id":76561198137880777,"connected_time":581000000000,"state":"active","ping":69},{"user_id":484,"name":"SleepiestCrow","steam_id":76561198042018679,"connected_time":357000000000,"state":"active","ping":51},{"user_id":487,"name":"Deathpill","steam_id":76561197994404793,"connected_time":129000000000,"state":"active","ping":64},{"user_id":452,"name":"medic who stares at rockets","steam_id":76561198138221795,"connected_time":3383000000000,"state":"active","ping":76},{"user_id":453,"name":"pizza rat","steam_id":76561198044874072,"connected_time":3265000000000,"state":"active","ping":46},{"user_id":478,"name":"Do Online Now Guys","steam_id":76561198120551862,"connected_time":602000000000,"state":"active","ping":63},{"user_id":441,"name":"Ferioth","steam_id":76561197997993090,"connected_time":3992000000000,"state":"active","ping":72},{"user_id":466,"name":"azufelt","steam_id":76561199259331226,"connected_time":1847000000000,"state":"active","ping":66},{"user_id":473,"name":"generic blue proto","steam_id":76561199000149623,"connected_time":1038000000000,"state":"active","ping":101},{"user_id":474,"name":"pussy DEMOLISHER","steam_id":76561199024788950,"connected_time":981000000000,"state":"active","ping":61},{"user_id":468,"name":"Pride_","steam_id":76561198046446797,"connected_time":1670000000000,"state":"active","ping":82},{"user_id":398,"name":"joosssh","steam_id":76561198072130805,"connected_time":8584000000000,"state":"active","ping":162}]},{"server_id":36,"name":"Uncletopia | Chicago | 5 | All Maps","name_short":"chi-5","host":"chi-2.us.uncletopia.com","port":27015,"enabled":true,"region":"us-central","cc":"us","latitude":41.881832,"longitude":-87.62318,"reserved":0,"last_update":"0001-01-01T00:00:00Z","name_a2s":"Uncletopia | Chicago | 5 | All Maps","protocol":17,"map":"cp_dustbowl","folder":"tf","game":"Team Fortress","app_id":440,"player_count":24,"max_players":24,"Bots":0,"server_type":"Dedicated","server_os":"Linux","password":true,"vac":true,"version":"7961495","steam_id":85568392924866362,"keywords":["cp","nocrits","nodmgspread","uncletopia"],"game_id":440,"stv_port":27016,"stv_name":"Uncletopia | Chicago | 5 | All Maps | STV","players":[{"user_id":270,"name":"QuintupletPuppies","steam_id":76561198926124738,"connected_time":1020000000000,"state":"active","ping":60},{"user_id":254,"name":"Tala\u003c3","steam_id":76561198169200739,"connected_time":2228000000000,"state":"active","ping":46},{"user_id":268,"name":"haraldÔº®Ôº°Ôº≤Ôº°Ôº¨Ôº§","steam_id":76561198116998970,"connected_time":1129000000000,"state":"active","ping":143},{"user_id":269,"name":"Poopisviel Von Einzbern","steam_id":76561198259260433,"connected_time":1127000000000,"state":"active","ping":77},{"user_id":212,"name":"ButterScotch","steam_id":76561199389314894,"connected_time":5301000000000,"state":"active","ping":80},{"user_id":266,"name":"Dr Smeggman","steam_id":76561197966614845,"connected_time":1144000000000,"state":"active","ping":131},{"user_id":231,"name":"MaineGameBoy","steam_id":76561198278698726,"connected_time":4396000000000,"state":"active","ping":81},{"user_id":283,"name":"BOUZENZEL","steam_id":76561198095000722,"connected_time":242000000000,"state":"active","ping":60},{"user_id":271,"name":"Mr Shrubface","steam_id":76561198024940555,"connected_time":1007000000000,"state":"active","ping":54},{"user_id":284,"name":"War on Drugs Fighter","steam_id":76561198103211035,"connected_time":36000000000,"state":"active","ping":54},{"user_id":265,"name":"Darkmaen","steam_id":76561198060543390,"connected_time":1148000000000,"state":"active","ping":140},{"user_id":274,"name":"fallingone","steam_id":76561199386627881,"connected_time":894000000000,"state":"active","ping":55},{"user_id":250,"name":"Oracle (She/Her)","steam_id":76561198401725755,"connected_time":2586000000000,"state":"active","ping":46},{"user_id":234,"name":"AstronautPug","steam_id":76561198162372709,"connected_time":4278000000000,"state":"active","ping":54},{"user_id":161,"name":"Lennu","steam_id":76561198060730154,"connected_time":9684000000000,"state":"active","ping":75},{"user_id":275,"name":"Space","steam_id":76561198090743707,"connected_time":877000000000,"state":"active","ping":60},{"user_id":278,"name":"Freddy Fatass","steam_id":76561199240301565,"connected_time":781000000000,"state":"active","ping":48},{"user_id":261,"name":"pelt","steam_id":76561197993593754,"connected_time":1581000000000,"state":"active","ping":59},{"user_id":279,"name":"Cutlession","steam_id":76561198243124624,"connected_time":778000000000,"state":"active","ping":89},{"user_id":280,"name":"notpanmanmemes","steam_id":76561199168536547,"connected_time":776000000000,"state":"active","ping":55},{"user_id":281,"name":"Ginger Jesus","steam_id":76561198052386458,"connected_time":752000000000,"state":"active","ping":62},{"user_id":282,"name":"flare","steam_id":76561198048623485,"connected_time":394000000000,"state":"active","ping":69},{"user_id":263,"name":"Ssmerff","steam_id":76561198130365619,"connected_time":1164000000000,"state":"active","ping":70},{"user_id":255,"name":"Young Eldritch, the Old God","steam_id":76561198063315444,"connected_time":2137000000000,"state":"active","ping":45}]},{"server_id":37,"name":"Uncletopia | Chicago | 6 | All Maps","name_short":"chi-6","host":"chi-2.us.uncletopia.com","port":27025,"enabled":true,"region":"us-central","cc":"us","latitude":41.881832,"longitude":-87.62318,"reserved":0,"last_update":"0001-01-01T00:00:00Z","name_a2s":"Uncletopia | Chicago | 6 | All Maps","protocol":17,"map":"pl_snowycoast","folder":"tf","game":"Team Fortress","app_id":440,"player_count":15,"max_players":24,"Bots":0,"server_type":"Dedicated","server_os":"Linux","password":true,"vac":true,"version":"7961495","steam_id":85568392924866363,"keywords":["nocrits","nodmgspread","payload","uncletopia"],"game_id":440,"stv_port":27026,"stv_name":"Uncletopia | Chicago | 6 | All Maps | STV","players":[{"user_id":141,"name":"scrotal recall","steam_id":76561198135945598,"connected_time":297000000000,"state":"active","ping":82},{"user_id":143,"name":"CuSO4","steam_id":76561199278147589,"connected_time":212000000000,"state":"active","ping":55},{"user_id":130,"name":"Strangelove","steam_id":76561198353773611,"connected_time":1815000000000,"state":"active","ping":105},{"user_id":111,"name":"Siz","steam_id":76561198072962154,"connected_time":2762000000000,"state":"active","ping":60},{"user_id":142,"name":"Looge","steam_id":76561198155483586,"connected_time":265000000000,"state":"active","ping":52},{"user_id":115,"name":"Nobody","steam_id":76561198286486517,"connected_time":2338000000000,"state":"active","ping":60},{"user_id":144,"name":"MagicCraftMaster","steam_id":76561198179156615,"connected_time":211000000000,"state":"active","ping":62},{"user_id":145,"name":"Alpha","steam_id":76561199482290132,"connected_time":113000000000,"state":"active","ping":69},{"user_id":96,"name":"DanYan","steam_id":76561198452073283,"connected_time":3920000000000,"state":"active","ping":105},{"user_id":146,"name":"William Lovett","steam_id":76561197991063996,"connected_time":42000000000,"state":"spawning","ping":45},{"user_id":135,"name":"starfungus","steam_id":76561198158312789,"connected_time":1246000000000,"state":"active","ping":62},{"user_id":113,"name":"Burilo","steam_id":76561198014445055,"connected_time":2510000000000,"state":"active","ping":175},{"user_id":112,"name":"IlikeChowMien","steam_id":76561199466131782,"connected_time":2634000000000,"state":"active","ping":73},{"user_id":87,"name":"TGD","steam_id":76561198197582594,"connected_time":5234000000000,"state":"active","ping":45},{"user_id":128,"name":"Dr Gregory House, MD","steam_id":76561198986281248,"connected_time":1991000000000,"state":"active","ping":73}]},{"server_id":38,"name":"Uncletopia | Chicago | 7 | Stopwatch","name_short":"chi-7","host":"chi-2.us.uncletopia.com","port":27035,"enabled":true,"region":"us-central","cc":"us","latitude":41.881832,"longitude":-87.62318,"reserved":0,"last_update":"0001-01-01T00:00:00Z","name_a2s":"Uncletopia | Chicago | 7 | Stopwatch","protocol":17,"map":"workshop/koth_clearcut_b15.ugc2107050255","folder":"tf","game":"Team Fortress","app_id":440,"player_count":0,"max_players":24,"Bots":0,"server_type":"Dedicated","server_os":"Linux","password":true,"vac":true,"version":"7961495","steam_id":85568392924866364,"keywords":["cp","nocrits","nodmgspread","uncletopia"],"game_id":440,"stv_port":27036,"stv_name":"Uncletopia | Chicago | 7 | Stopwatch | STV","players":null},{"server_id":39,"name":"Uncletopia | Chicago | 8 | Community","name_short":"chi-8","host":"chi-2.us.uncletopia.com","port":27045,"enabled":true,"region":"us-central","cc":"us","latitude":41.881832,"longitude":-87.62318,"reserved":0,"last_update":"0001-01-01T00:00:00Z","name_a2s":"Uncletopia | Chicago | 8 | Community","protocol":17,"map":"workshop/koth_slaughter_rc1.ugc1712845210","folder":"tf","game":"Team Fortress","app_id":440,"player_count":0,"max_players":24,"Bots":0,"server_type":"Dedicated","server_os":"Linux","password":true,"vac":true,"version":"7961495","steam_id":85568392924866365,"keywords":["cp","nocrits","nodmgspread","uncletopia"],"game_id":440,"stv_port":27046,"stv_name":"Uncletopia | Chicago | 8 | Community | STV","players":null},{"server_id":8,"name":"Uncletopia | Dallas | 1 | All Maps","name_short":"dal-1","host":"dal-1.us.uncletopia.com","port":27015,"enabled":true,"region":"us-central","cc":"us","latitude":32.779167,"longitude":-96.80889,"reserved":0,"last_update":"0001-01-01T00:00:00Z","name_a2s":"Uncletopia | Dallas | 1 | All Maps","protocol":17,"map":"pl_frontier_final","folder":"tf","game":"Team Fortress","app_id":440,"player_count":24,"max_players":24,"Bots":0,"server_type":"Dedicated","server_os":"Linux","password":true,"vac":true,"version":"7961495","steam_id":85568392924469986,"keywords":["nocrits","nodmgspread","payload","uncletopia"],"game_id":440,"stv_port":27016,"stv_name":"Uncletopia | Dallas | 1 | All Maps | STV","players":[{"user_id":513,"name":"Nostic","steam_id":76561199508767541,"connected_time":4858000000000,"state":"active","ping":60},{"user_id":560,"name":"Doey","steam_id":76561198380818567,"connected_time":1767000000000,"state":"active","ping":90},{"user_id":575,"name":"barker bill","steam_id":76561198018451994,"connected_time":714000000000,"state":"active","ping":58},{"user_id":566,"name":"sincerelymagicmeister","steam_id":76561198393923543,"connected_time":1259000000000,"state":"active","ping":87},{"user_id":579,"name":"abby","steam_id":76561197962810691,"connected_time":182000000000,"state":"active","ping":46},{"user_id":546,"name":"Cornelius Vanderbelt Jr The 3rd","steam_id":76561199083115222,"connected_time":2368000000000,"state":"active","ping":103},{"user_id":462,"name":"Da Policia","steam_id":76561198012762789,"connected_time":8832000000000,"state":"active","ping":44},{"user_id":558,"name":"tsz","steam_id":76561199246231090,"connected_time":1824000000000,"state":"active","ping":74},{"user_id":554,"name":"BrainlezBrainiac","steam_id":76561199193942805,"connected_time":1949000000000,"state":"active","ping":62},{"user_id":565,"name":"Mom","steam_id":76561198207936000,"connected_time":1277000000000,"state":"active","ping":75},{"user_id":567,"name":"Glaceon","steam_id":76561198177715869,"connected_time":1243000000000,"state":"active","ping":55},{"user_id":577,"name":"Furious George","steam_id":76561198405111646,"connected_time":613000000000,"state":"active","ping":75},{"user_id":570,"name":"Randy \"the Man\" Johnson","steam_id":76561198039124445,"connected_time":1044000000000,"state":"active","ping":120},{"user_id":576,"name":"caiptaincreemo","steam_id":76561198221714116,"connected_time":655000000000,"state":"active","ping":53},{"user_id":545,"name":"fish","steam_id":76561198111396488,"connected_time":2417000000000,"state":"active","ping":50},{"user_id":522,"name":"little orange juice","steam_id":76561198245246892,"connected_time":4064000000000,"state":"active","ping":89},{"user_id":563,"name":"SkyKing","steam_id":76561198094038320,"connected_time":1588000000000,"state":"active","ping":74},{"user_id":551,"name":"HP OfficeJet Pro 8600 Plus N911","steam_id":76561198828043376,"connected_time":2228000000000,"state":"active","ping":132},{"user_id":539,"name":"Butteryback","steam_id":76561198049642485,"connected_time":2961000000000,"state":"active","ping":60},{"user_id":569,"name":"Azary56","steam_id":76561198321404617,"connected_time":1196000000000,"state":"active","ping":113},{"user_id":559,"name":"MenInHatz","steam_id":76561198825094263,"connected_time":1820000000000,"state":"active","ping":67},{"user_id":578,"name":"Wookiee","steam_id":76561198139642742,"connected_time":600000000000,"state":"active","ping":74},{"user_id":564,"name":"think before you believe","steam_id":76561198857358730,"connected_time":1293000000000,"state":"active","ping":66},{"user_id":568,"name":"Karma","steam_id":76561198320530905,"connected_time":1235000000000,"state":"active","ping":59}]},{"server_id":108,"name":"Uncletopia | Dallas | 2 | All Maps","name_short":"dal-2","host":"dal-1.us.uncletopia.com","port":27025,"enabled":true,"region":"us-central","cc":"us","latitude":32.779167,"longitude":-96.80889,"reserved":0,"last_update":"0001-01-01T00:00:00Z","name_a2s":"Uncletopia | Dallas | 2 | All Maps","protocol":17,"map":"pl_borneo","folder":"tf","game":"Team Fortress","app_id":440,"player_count":24,"max_players":24,"Bots":0,"server_type":"Dedicated","server_os":"Linux","password":true,"vac":true,"version":"7961495","steam_id":85568392924469988,"keywords":["nocrits","nodmgspread","payload","uncletopia"],"game_id":440,"stv_port":27026,"stv_name":"Uncletopia | Dallas | 2 | All Maps | STV","players":[{"user_id":244,"name":"ihave80hp","steam_id":76561199251621911,"connected_time":2594000000000,"state":"active","ping":73},{"user_id":264,"name":"Legit_Jaxer","steam_id":76561198172234053,"connected_time":1371000000000,"state":"active","ping":109},{"user_id":287,"name":"Rhutebeer","steam_id":76561198018302761,"connected_time":362000000000,"state":"active","ping":54},{"user_id":257,"name":"Mocha Josie","steam_id":76561198066452726,"connected_time":2163000000000,"state":"active","ping":79},{"user_id":285,"name":"TATARA","steam_id":76561199098759517,"connected_time":417000000000,"state":"active","ping":117},{"user_id":288,"name":"Junfez","steam_id":76561198340001889,"connected_time":340000000000,"state":"active","ping":76},{"user_id":295,"name":"veemo","steam_id":76561198321393225,"connected_time":47000000000,"state":"active","ping":98},{"user_id":245,"name":"Kaestal","steam_id":76561198033174157,"connected_time":2593000000000,"state":"active","ping":31},{"user_id":249,"name":"Ander","steam_id":76561198014468512,"connected_time":2491000000000,"state":"active","ping":80},{"user_id":204,"name":"Hans","steam_id":76561199153433318,"connected_time":4264000000000,"state":"active","ping":44},{"user_id":261,"name":"phon","steam_id":76561198140659236,"connected_time":1508000000000,"state":"active","ping":75},{"user_id":290,"name":"kliki jumbaloi","steam_id":76561198843305999,"connected_time":273000000000,"state":"active","ping":84},{"user_id":230,"name":"CHero","steam_id":76561198242525850,"connected_time":3140000000000,"state":"active","ping":80},{"user_id":291,"name":"Tockbird","steam_id":76561199437964594,"connected_time":262000000000,"state":"active","ping":84},{"user_id":293,"name":"TheTiredMedic","steam_id":76561198920038097,"connected_time":110000000000,"state":"active","ping":109},{"user_id":279,"name":"Coach McFish","steam_id":76561198210456405,"connected_time":838000000000,"state":"active","ping":80},{"user_id":259,"name":"McDonald","steam_id":76561199028533497,"connected_time":1623000000000,"state":"active","ping":77},{"user_id":282,"name":"Will","steam_id":76561198098057581,"connected_time":683000000000,"state":"active","ping":98},{"user_id":213,"name":"Topaz Tom","steam_id":76561199214479904,"connected_time":4115000000000,"state":"active","ping":80},{"user_id":272,"name":"The Sex Update","steam_id":76561199490915173,"connected_time":1155000000000,"state":"active","ping":77},{"user_id":268,"name":"GO AHEAD AND MAKE MY DAY","steam_id":76561199509493760,"connected_time":1280000000000,"state":"active","ping":92},{"user_id":255,"name":"Z3US","steam_id":76561199229277296,"connected_time":2252000000000,"state":"active","ping":95},{"user_id":292,"name":"FOOL","steam_id":76561198370866973,"connected_time":259000000000,"state":"active","ping":83},{"user_id":273,"name":"Ampar (6d -\u003e üç∞)","steam_id":76561199066783653,"connected_time":1063000000000,"state":"active","ping":117}]},{"server_id":404,"name":"Uncletopia | Dallas | 3 | All Maps","name_short":"dal-3","host":"dal-1.us.uncletopia.com","port":27035,"enabled":true,"region":"us-central","cc":"us","latitude":32.779167,"longitude":-96.80889,"reserved":0,"last_update":"0001-01-01T00:00:00Z","name_a2s":"Uncletopia | Dallas | 3 | All Maps","protocol":17,"map":"pl_thundermountain","folder":"tf","game":"Team Fortress","app_id":440,"player_count":24,"max_players":24,"Bots":0,"server_type":"Dedicated","server_os":"Linux","password":true,"vac":true,"version":"7961495","steam_id":85568392924515219,"keywords":["nocrits","nodmgspread","payload","uncletopia"],"game_id":440,"stv_port":27036,"stv_name":"Uncletopia | Dallas | 3 | All Maps | STV","players":[{"user_id":149,"name":"TheBrocklobster","steam_id":76561198039682984,"connected_time":583000000000,"state":"active","ping":84},{"user_id":110,"name":"ŒûBrwni","steam_id":76561199031828153,"connected_time":2176000000000,"state":"active","ping":141},{"user_id":153,"name":"Trust","steam_id":76561198410958034,"connected_time":488000000000,"state":"active","ping":75},{"user_id":116,"name":"bcizzo","steam_id":76561197994399953,"connected_time":2083000000000,"state":"active","ping":87},{"user_id":141,"name":"Irritated Duck","steam_id":76561198247792076,"connected_time":976000000000,"state":"active","ping":103},{"user_id":142,"name":"tabascomilk","steam_id":76561198355094896,"connected_time":966000000000,"state":"active","ping":81},{"user_id":127,"name":"D(b) Hell","steam_id":76561198067869016,"connected_time":1739000000000,"state":"active","ping":70},{"user_id":131,"name":"2spooky","steam_id":76561198094747637,"connected_time":1469000000000,"state":"active","ping":105},{"user_id":140,"name":"Tanner Jarring","steam_id":76561198172024365,"connected_time":1102000000000,"state":"active","ping":87},{"user_id":154,"name":"Branch Prime (in god we bust)","steam_id":76561198045528191,"connected_time":460000000000,"state":"active","ping":75},{"user_id":132,"name":"TacoMan","steam_id":76561198049405741,"connected_time":1462000000000,"state":"active","ping":103},{"user_id":151,"name":"Eso Brad","steam_id":76561198802426616,"connected_time":580000000000,"state":"active","ping":134},{"user_id":128,"name":"You Don't Nomi.","steam_id":76561197969137836,"connected_time":1640000000000,"state":"active","ping":82},{"user_id":144,"name":"K2f","steam_id":76561198049600563,"connected_time":901000000000,"state":"active","ping":83},{"user_id":155,"name":"Tlaloc","steam_id":76561198375215983,"connected_time":403000000000,"state":"active","ping":128},{"user_id":157,"name":"comet sooicidy","steam_id":76561198025173479,"connected_time":244000000000,"state":"active","ping":91},{"user_id":156,"name":"Great Value Rice Crispers","steam_id":76561198211512619,"connected_time":367000000000,"state":"active","ping":251},{"user_id":159,"name":"Serenue","steam_id":76561199040361250,"connected_time":61000000000,"state":"active","ping":120},{"user_id":54,"name":"Snitzman","steam_id":76561198068303272,"connected_time":5554000000000,"state":"active","ping":68},{"user_id":99,"name":"mkl","steam_id":76561197986401685,"connected_time":2423000000000,"state":"active","ping":56},{"user_id":158,"name":"for the king","steam_id":76561197973488858,"connected_time":101000000000,"state":"active","ping":79},{"user_id":125,"name":"golebdoo","steam_id":76561198237496978,"connected_time":1797000000000,"state":"active","ping":90},{"user_id":136,"name":"Snivy64","steam_id":76561198423445376,"connected_time":1321000000000,"state":"active","ping":75},{"user_id":122,"name":"have blue","steam_id":76561198054260599,"connected_time":1851000000000,"state":"active","ping":61}]},{"server_id":405,"name":"Uncletopia | Dallas | 4 | Community","name_short":"dal-4","host":"dal-1.us.uncletopia.com","port":27045,"enabled":true,"region":"us-central","cc":"us","latitude":32.779167,"longitude":-96.80889,"reserved":0,"last_update":"0001-01-01T00:00:00Z","name_a2s":"Uncletopia | Dallas | 4 | Community","protocol":17,"map":"workshop/koth_trenchfoot_ab1.ugc731436616","folder":"tf","game":"Team Fortress","app_id":440,"player_count":0,"max_players":24,"Bots":0,"server_type":"Dedicated","server_os":"Linux","password":true,"vac":true,"version":"7961495","steam_id":85568392924515220,"keywords":["cp","nocrits","nodmgspread","uncletopia"],"game_id":440,"stv_port":27046,"stv_name":"Uncletopia | Dallas | 4 | Community | STV","players":null},{"server_id":5,"name":"Uncletopia | Frankfurt | 1 | All Maps","name_short":"frk-1","host":"frk-1.de.uncletopia.com","port":27015,"enabled":true,"region":"eu","cc":"de","latitude":50.110924,"longitude":8.682127,"reserved":0,"last_update":"0001-01-01T00:00:00Z","name_a2s":"Uncletopia | Frankfurt | 1 | All Maps","protocol":17,"map":"pl_barnblitz","folder":"tf","game":"Team Fortress","app_id":440,"player_count":2,"max_players":24,"Bots":0,"server_type":"Dedicated","server_os":"Linux","password":true,"vac":true,"version":"7961495","steam_id":85568392924469989,"keywords":["nocrits","nodmgspread","payload","uncletopia"],"game_id":440,"stv_port":27016,"stv_name":"Uncletopia | Frankfurt | 1 | All Maps | STV","players":[{"user_id":611,"name":"kdhbuilder","steam_id":76561199058095193,"connected_time":2103000000000,"state":"active","ping":174},{"user_id":598,"name":"G.L.O.R.I.","steam_id":76561198134414380,"connected_time":4406000000000,"state":"active","ping":67}]},{"server_id":110,"name":"Uncletopia | Frankfurt | 2 | All Maps","name_short":"frk-2","host":"frk-1.de.uncletopia.com","port":27025,"enabled":true,"region":"eu","cc":"de","latitude":50.110924,"longitude":8.682127,"reserved":0,"last_update":"0001-01-01T00:00:00Z","name_a2s":"Uncletopia | Frankfurt | 2 | All Maps","protocol":17,"map":"pl_frontier_final","folder":"tf","game":"Team Fortress","app_id":440,"player_count":20,"max_players":24,"Bots":0,"server_type":"Dedicated","server_os":"Linux","password":true,"vac":true,"version":"7961495","steam_id":85568392924469990,"keywords":["nocrits","nodmgspread","payload","uncletopia"],"game_id":440,"stv_port":27026,"stv_name":"Uncletopia | Frankfurt | 2 | All Maps | STV","players":[{"user_id":911,"name":"usuikui","steam_id":76561198093304268,"connected_time":213000000000,"state":"active","ping":62},{"user_id":903,"name":"Sambucone Molinari","steam_id":76561199105854514,"connected_time":854000000000,"state":"active","ping":55},{"user_id":813,"name":"Sir, we are out of chips","steam_id":76561198826005248,"connected_time":7005000000000,"state":"active","ping":46},{"user_id":912,"name":"ItsMaxey","steam_id":76561198110129513,"connected_time":102000000000,"state":"active","ping":45},{"user_id":894,"name":":::::","steam_id":76561197990757157,"connected_time":1842000000000,"state":"active","ping":75},{"user_id":886,"name":"giovanni.storti.1957","steam_id":76561199233979726,"connected_time":2016000000000,"state":"active","ping":80},{"user_id":900,"name":"Geralt","steam_id":76561198312472845,"connected_time":1112000000000,"state":"active","ping":76},{"user_id":905,"name":"tm`","steam_id":76561197993580412,"connected_time":701000000000,"state":"active","ping":60},{"user_id":906,"name":"PancakePatrick1234","steam_id":76561198089478290,"connected_time":632000000000,"state":"active","ping":54},{"user_id":913,"name":"WarmeWurst","steam_id":76561199108708764,"connected_time":75000000000,"state":"active","ping":62},{"user_id":914,"name":"spell_hunter","steam_id":76561198943936090,"connected_time":65000000000,"state":"active","ping":51},{"user_id":863,"name":"ChPerette üéÆ","steam_id":76561198060004887,"connected_time":3614000000000,"state":"active","ping":45},{"user_id":899,"name":"Stop The Violence","steam_id":76561198044876779,"connected_time":1268000000000,"state":"active","ping":65},{"user_id":915,"name":"dirtydan","steam_id":76561199093380890,"connected_time":52000000000,"state":"active","ping":34},{"user_id":896,"name":"nordstream bomber","steam_id":76561199401283123,"connected_time":1448000000000,"state":"active","ping":47},{"user_id":908,"name":"Lucas","steam_id":76561198398982908,"connected_time":567000000000,"state":"active","ping":89},{"user_id":909,"name":"biohazard.pt","steam_id":76561198088367808,"connected_time":497000000000,"state":"active","ping":75},{"user_id":870,"name":"Kral1003","steam_id":76561198813600089,"connected_time":3479000000000,"state":"active","ping":82},{"user_id":885,"name":"Valen","steam_id":76561198049614521,"connected_time":2042000000000,"state":"active","ping":60},{"user_id":893,"name":"Ealum","steam_id":76561198055366023,"connected_time":1917000000000,"state":"active","ping":47}]},{"server_id":308,"name":"Uncletopia | Frankfurt | 3 | All Maps","name_short":"frk-3","host":"frk-1.de.uncletopia.com","port":27035,"enabled":true,"region":"eu","cc":"de","latitude":50.110924,"longitude":8.682127,"reserved":0,"last_update":"0001-01-01T00:00:00Z","name_a2s":"Uncletopia | Frankfurt | 3 | All Maps","protocol":17,"map":"koth_viaduct","folder":"tf","game":"Team Fortress","app_id":440,"player_count":0,"max_players":24,"Bots":0,"server_type":"Dedicated","server_os":"Linux","password":true,"vac":true,"version":"7961495","steam_id":85568392924504274,"keywords":["cp","nocrits","nodmgspread","uncletopia"],"game_id":440,"stv_port":27036,"stv_name":"Uncletopia | Frankfurt | 3 | All Maps | STV","players":null},{"server_id":309,"name":"Uncletopia | Frankfurt | 4 | All Maps","name_short":"frk-4","host":"frk-1.de.uncletopia.com","port":27045,"enabled":true,"region":"eu","cc":"de","latitude":50.110924,"longitude":8.682127,"reserved":0,"last_update":"0001-01-01T00:00:00Z","name_a2s":"Uncletopia | Frankfurt | 4 | All Maps","protocol":17,"map":"pl_upward","folder":"tf","game":"Team Fortress","app_id":440,"player_count":22,"max_players":24,"Bots":0,"server_type":"Dedicated","server_os":"Linux","password":true,"vac":true,"version":"7961495","steam_id":85568392924504275,"keywords":["nocrits","nodmgspread","payload","uncletopia"],"game_id":440,"stv_port":27046,"stv_name":"Uncletopia | Frankfurt | 4 | All Maps | STV","players":[{"user_id":741,"name":"RAT BASTARD","steam_id":76561199195985387,"connected_time":4007000000000,"state":"active","ping":82},{"user_id":766,"name":"Brian","steam_id":76561198077756206,"connected_time":2068000000000,"state":"active","ping":55},{"user_id":769,"name":"tombouctou","steam_id":76561198065132197,"connected_time":1534000000000,"state":"active","ping":116},{"user_id":743,"name":"weed solja","steam_id":76561198127037343,"connected_time":3939000000000,"state":"active","ping":75},{"user_id":739,"name":"MENTABETAI","steam_id":76561198049728799,"connected_time":4162000000000,"state":"active","ping":74},{"user_id":677,"name":"Ink in veins","steam_id":76561199082262091,"connected_time":7692000000000,"state":"active","ping":62},{"user_id":750,"name":"DankDuck","steam_id":76561198160086418,"connected_time":3165000000000,"state":"active","ping":84},{"user_id":751,"name":"√áanak yalayƒ±cƒ±","steam_id":76561198113677852,"connected_time":3160000000000,"state":"active","ping":85},{"user_id":740,"name":"Lers","steam_id":76561198061619788,"connected_time":4092000000000,"state":"active","ping":58},{"user_id":777,"name":"Jargo","steam_id":76561198064231790,"connected_time":47000000000,"state":"active","ping":77},{"user_id":764,"name":"‚ò© Knightz ‚ò©","steam_id":76561198040936414,"connected_time":2235000000000,"state":"active","ping":107},{"user_id":745,"name":"darkusio","steam_id":76561197976493695,"connected_time":3906000000000,"state":"active","ping":62},{"user_id":767,"name":"Junkfish","steam_id":76561199168630846,"connected_time":2030000000000,"state":"active","ping":134},{"user_id":736,"name":"TheEventGuy","steam_id":76561197972797744,"connected_time":4367000000000,"state":"active","ping":64},{"user_id":762,"name":"Valfezant","steam_id":76561199063983797,"connected_time":2319000000000,"state":"active","ping":56},{"user_id":771,"name":"DoKo_O","steam_id":76561198028025069,"connected_time":1223000000000,"state":"active","ping":45},{"user_id":340,"name":"‚ù§Speedbump‚ù§","steam_id":76561198388690313,"connected_time":26381000000000,"state":"active","ping":50},{"user_id":775,"name":"else1","steam_id":76561197996558319,"connected_time":855000000000,"state":"active","ping":75},{"user_id":759,"name":"KittyKate ‚ù§","steam_id":76561198116340817,"connected_time":2462000000000,"state":"active","ping":61},{"user_id":760,"name":"BuzzBees ‚ù§","steam_id":76561198101502273,"connected_time":2445000000000,"state":"active","ping":62},{"user_id":748,"name":"Meff","steam_id":76561197970610839,"connected_time":3588000000000,"state":"active","ping":39},{"user_id":749,"name":"Niyaah","steam_id":76561198110209191,"connected_time":3563000000000,"state":"active","ping":61}]},{"server_id":310,"name":"Uncletopia | Frankfurt | 5 | All Maps","name_short":"frk-5","host":"frk-1.de.uncletopia.com","port":27055,"enabled":true,"region":"eu","cc":"de","latitude":50.110924,"longitude":8.682127,"reserved":0,"last_update":"0001-01-01T00:00:00Z","name_a2s":"Uncletopia | Frankfurt | 5 | All Maps","protocol":17,"map":"cp_sunshine","folder":"tf","game":"Team Fortress","app_id":440,"player_count":0,"max_players":24,"Bots":0,"server_type":"Dedicated","server_os":"Linux","password":true,"vac":true,"version":"7961495","steam_id":85568392924504277,"keywords":["cp","nocrits","nodmgspread","uncletopia"],"game_id":440,"stv_port":27056,"stv_name":"Uncletopia | Frankfurt | 5 | All Maps | STV","players":null},{"server_id":311,"name":"Uncletopia | Frankfurt | 6 | All Maps","name_short":"frk-6","host":"frk-1.de.uncletopia.com","port":27065,"enabled":true,"region":"eu","cc":"de","latitude":50.110924,"longitude":8.682127,"reserved":0,"last_update":"0001-01-01T00:00:00Z","name_a2s":"Uncletopia | Frankfurt | 6 | All Maps","protocol":17,"map":"pl_snowycoast","folder":"tf","game":"Team Fortress","app_id":440,"player_count":5,"max_players":24,"Bots":0,"server_type":"Dedicated","server_os":"Linux","password":true,"vac":true,"version":"7961495","steam_id":85568392924504278,"keywords":["nocrits","nodmgspread","payload","uncletopia"],"game_id":440,"stv_port":27066,"stv_name":"Uncletopia | Frankfurt | 6 | All Maps | STV","players":[{"user_id":539,"name":"MrSpaceBebop","steam_id":76561198152796582,"connected_time":281000000000,"state":"active","ping":128},{"user_id":524,"name":"mrbeast109385079350229083479082","steam_id":76561198370687830,"connected_time":1032000000000,"state":"active","ping":120},{"user_id":533,"name":"donatofina","steam_id":76561198353497885,"connected_time":590000000000,"state":"active","ping":82},{"user_id":534,"name":"Henk_de_Patatman","steam_id":76561198070103191,"connected_time":505000000000,"state":"active","ping":35},{"user_id":537,"name":"SkyroseTwo","steam_id":76561199502107568,"connected_time":412000000000,"state":"active","ping":255}]},{"server_id":23,"name":"Uncletopia | Frankfurt | 7 | Stopwatch","name_short":"frk-7","host":"frk-1.de.uncletopia.com","port":27075,"enabled":true,"region":"eu","cc":"de","latitude":50.110924,"longitude":8.682127,"reserved":0,"last_update":"0001-01-01T00:00:00Z","name_a2s":"Uncletopia | Frankfurt | 7 | Stopwatch","protocol":17,"map":"koth_highpass","folder":"tf","game":"Team Fortress","app_id":440,"player_count":0,"max_players":24,"Bots":0,"server_type":"Dedicated","server_os":"Linux","password":true,"vac":true,"version":"7961495","steam_id":85568392924742827,"keywords":["cp","nocrits","nodmgspread","uncletopia"],"game_id":440,"stv_port":27076,"stv_name":"Uncletopia | Frankfurt | 7 | Stopwatch | STV","players":null},{"server_id":24,"name":"Uncletopia | Frankfurt | 8 | Community","name_short":"frk-8","host":"frk-1.de.uncletopia.com","port":27085,"enabled":true,"region":"eu","cc":"de","latitude":50.110924,"longitude":8.682127,"reserved":0,"last_update":"0001-01-01T00:00:00Z","name_a2s":"Uncletopia | Frankfurt | 8 | Community","protocol":17,"map":"workshop/pl_fifthcurve_rc1.ugc648227046","folder":"tf","game":"Team Fortress","app_id":440,"player_count":0,"max_players":24,"Bots":0,"server_type":"Dedicated","server_os":"Linux","password":true,"vac":true,"version":"7961495","steam_id":85568392924742828,"keywords":["nocrits","nodmgspread","payload","uncletopia"],"game_id":440,"stv_port":27086,"stv_name":"Uncletopia | Frankfurt | 8 | Community | STV","players":null},{"server_id":202,"name":"Uncletopia | Hong Kong | 1 | All Maps","name_short":"hgk-1","host":"hgk-1.hk.uncletopia.com","port":27015,"enabled":true,"region":"asia","cc":"hk","latitude":22.302711,"longitude":114.177216,"reserved":0,"last_update":"0001-01-01T00:00:00Z","name_a2s":"Uncletopia | Hong Kong | 1 | All Maps","protocol":17,"map":"cp_gravelpit","folder":"tf","game":"Team Fortress","app_id":440,"player_count":0,"max_players":24,"Bots":0,"server_type":"Dedicated","server_os":"Linux","password":true,"vac":true,"version":"7961495","steam_id":85568392924494504,"keywords":["cp","nocrits","nodmgspread","uncletopia"],"game_id":440,"stv_port":27016,"stv_name":"Uncletopia | Hong Kong | 1 | All Maps | STV","players":null},{"server_id":1,"name":"Uncletopia | Los Angeles | 1 | All Maps","name_short":"lax-1","host":"lax-1.us.uncletopia.com","port":27015,"enabled":true,"region":"us-west","cc":"us","latitude":33.94279,"longitude":-118.41004,"reserved":0,"last_update":"0001-01-01T00:00:00Z","name_a2s":"Uncletopia | Los Angeles | 1 | All Maps","protocol":17,"map":"cp_dustbowl","folder":"tf","game":"Team Fortress","app_id":440,"player_count":0,"max_players":24,"Bots":0,"server_type":"Dedicated","server_os":"Linux","password":true,"vac":true,"version":"7961495","steam_id":85568392924469991,"keywords":["cp","nocrits","nodmgspread","uncletopia"],"game_id":440,"stv_port":27016,"stv_name":"Uncletopia | Los Angeles | 1 | All Maps | STV","players":null},{"server_id":112,"name":"Uncletopia | Los Angeles | 2 | All Maps","name_short":"lax-2","host":"lax-1.us.uncletopia.com","port":27025,"enabled":true,"region":"us-west","cc":"us","latitude":33.94279,"longitude":-118.41004,"reserved":0,"last_update":"0001-01-01T00:00:00Z","name_a2s":"Uncletopia | Los Angeles | 2 | All Maps","protocol":17,"map":"koth_cascade","folder":"tf","game":"Team Fortress","app_id":440,"player_count":0,"max_players":24,"Bots":0,"server_type":"Dedicated","server_os":"Linux","password":true,"vac":true,"version":"7961495","steam_id":85568392924469992,"keywords":["cp","nocrits","nodmgspread","uncletopia"],"game_id":440,"stv_port":27026,"stv_name":"Uncletopia | Los Angeles | 2 | All Maps | STV","players":null},{"server_id":324,"name":"Uncletopia | Los Angeles | 3 | All Maps","name_short":"lax-3","host":"lax-1.us.uncletopia.com","port":27035,"enabled":true,"region":"us-west","cc":"us","latitude":33.94279,"longitude":-118.41004,"reserved":0,"last_update":"0001-01-01T00:00:00Z","name_a2s":"Uncletopia | Los Angeles | 3 | All Maps","protocol":17,"map":"pl_pier","folder":"tf","game":"Team Fortress","app_id":440,"player_count":0,"max_players":24,"Bots":0,"server_type":"Dedicated","server_os":"Linux","password":true,"vac":true,"version":"7961495","steam_id":85568392924510198,"keywords":["nocrits","nodmgspread","payload","uncletopia"],"game_id":440,"stv_port":27036,"stv_name":"Uncletopia | Los Angeles | 3 | All Maps | STV","players":null},{"server_id":25,"name":"Uncletopia | Los Angeles | 4 | Stopwatch","name_short":"lax-4","host":"lax-1.us.uncletopia.com","port":27045,"enabled":true,"region":"us-west","cc":"us","latitude":33.94279,"longitude":-118.41004,"reserved":0,"last_update":"0001-01-01T00:00:00Z","name_a2s":"Uncletopia | Los Angeles | 4 | Stopwatch","protocol":17,"map":"workshop/koth_product_final.ugc454272353","folder":"tf","game":"Team Fortress","app_id":440,"player_count":0,"max_players":24,"Bots":0,"server_type":"Dedicated","server_os":"Linux","password":true,"vac":true,"version":"7961495","steam_id":85568392924510199,"keywords":["cp","nocrits","nodmgspread","uncletopia"],"game_id":440,"stv_port":27046,"stv_name":"Uncletopia | Los Angeles | 4 | Stopwatch | STV","players":null},{"server_id":11,"name":"Uncletopia | London | 1 | All Maps","name_short":"lon-1","host":"lon-1.uk.uncletopia.com","port":27015,"enabled":true,"region":"eu","cc":"gb","latitude":51.509865,"longitude":-0.118092,"reserved":0,"last_update":"0001-01-01T00:00:00Z","name_a2s":"Uncletopia | London | 1 | All Maps","protocol":17,"map":"cp_well","folder":"tf","game":"Team Fortress","app_id":440,"player_count":23,"max_players":24,"Bots":0,"server_type":"Dedicated","server_os":"Linux","password":true,"vac":true,"version":"7961495","steam_id":85568392924367362,"keywords":["cp","nocrits","nodmgspread","uncletopia"],"game_id":440,"stv_port":27016,"stv_name":"Uncletopia | London | 1 | All Maps | STV","players":[{"user_id":599,"name":"Pinkchup","steam_id":76561198106802803,"connected_time":7841000000000,"state":"active","ping":80},{"user_id":646,"name":"magÃ∂pÃ∂iÃ∂e ‚úø","steam_id":76561198797266244,"connected_time":1973000000000,"state":"active","ping":63},{"user_id":651,"name":"1 toke 4 mars bars","steam_id":76561198056460000,"connected_time":1121000000000,"state":"active","ping":49},{"user_id":644,"name":"Ozzie","steam_id":76561197992915315,"connected_time":2024000000000,"state":"active","ping":74},{"user_id":620,"name":"charge it doc","steam_id":76561198249832770,"connected_time":5053000000000,"state":"active","ping":46},{"user_id":659,"name":"Pimpin' \u0026 Blimpin'","steam_id":76561198326776107,"connected_time":84000000000,"state":"active","ping":83},{"user_id":626,"name":"suicidal","steam_id":76561199383437138,"connected_time":4169000000000,"state":"active","ping":113},{"user_id":660,"name":"Wilderhammer","steam_id":76561198132133702,"connected_time":27000000000,"state":"active","ping":45},{"user_id":638,"name":"i beat the last giant","steam_id":76561198080524596,"connected_time":2485000000000,"state":"active","ping":45},{"user_id":650,"name":"yuno appreciator","steam_id":76561198083286511,"connected_time":1304000000000,"state":"active","ping":44},{"user_id":635,"name":"katana on the trains","steam_id":76561198202464032,"connected_time":2967000000000,"state":"active","ping":57},{"user_id":643,"name":"BreadBubbles","steam_id":76561198174332826,"connected_time":2052000000000,"state":"active","ping":43},{"user_id":628,"name":"oof","steam_id":76561198249210016,"connected_time":3736000000000,"state":"active","ping":77},{"user_id":616,"name":"ashley","steam_id":76561198448551449,"connected_time":5680000000000,"state":"active","ping":33},{"user_id":614,"name":"bruhemian ((NEW YT VID))","steam_id":76561198191854931,"connected_time":5690000000000,"state":"active","ping":51},{"user_id":621,"name":"Umme","steam_id":76561198053809566,"connected_time":5023000000000,"state":"active","ping":77},{"user_id":647,"name":"TSx* Naxer","steam_id":76561198011986779,"connected_time":1599000000000,"state":"active","ping":79},{"user_id":649,"name":"A Monkey?","steam_id":76561198047600058,"connected_time":1316000000000,"state":"active","ping":50},{"user_id":602,"name":"Laru","steam_id":76561197998838438,"connected_time":6627000000000,"state":"active","ping":87},{"user_id":608,"name":"Minimi","steam_id":76561198873850443,"connected_time":5716000000000,"state":"active","ping":48},{"user_id":653,"name":"Japie","steam_id":76561198084292558,"connected_time":855000000000,"state":"active","ping":40},{"user_id":624,"name":"flick","steam_id":76561198083505031,"connected_time":4568000000000,"state":"active","ping":45},{"user_id":658,"name":"MaxVegas","steam_id":76561197987524887,"connected_time":194000000000,"state":"active","ping":45}]},{"server_id":114,"name":"Uncletopia | London | 2 | All Maps","name_short":"lon-2","host":"lon-1.uk.uncletopia.com","port":27025,"enabled":true,"region":"eu","cc":"gb","latitude":51.509865,"longitude":-0.118092,"reserved":0,"last_update":"0001-01-01T00:00:00Z","name_a2s":"Uncletopia | London | 2 | All Maps","protocol":17,"map":"cp_dustbowl","folder":"tf","game":"Team Fortress","app_id":440,"player_count":0,"max_players":24,"Bots":0,"server_type":"Dedicated","server_os":"Linux","password":true,"vac":true,"version":"7961495","steam_id":85568392924470941,"keywords":["cp","nocrits","nodmgspread","uncletopia"],"game_id":440,"stv_port":27026,"stv_name":"Uncletopia | London | 2 | All Maps | STV","players":null},{"server_id":320,"name":"Uncletopia | London | 3 | All Maps","name_short":"lon-3","host":"lon-1.uk.uncletopia.com","port":27035,"enabled":true,"region":"eu","cc":"gb","latitude":51.509865,"longitude":-0.118092,"reserved":0,"last_update":"0001-01-01T00:00:00Z","name_a2s":"Uncletopia | London | 3 | All Maps","protocol":17,"map":"cp_well","folder":"tf","game":"Team Fortress","app_id":440,"player_count":0,"max_players":24,"Bots":0,"server_type":"Dedicated","server_os":"Linux","password":true,"vac":true,"version":"7961495","steam_id":85568392924510192,"keywords":["cp","nocrits","nodmgspread","uncletopia"],"game_id":440,"stv_port":27036,"stv_name":"Uncletopia | London | 3 | All Maps | STV","players":null},{"server_id":321,"name":"Uncletopia | London | 4 | All Maps","name_short":"lon-4","host":"lon-1.uk.uncletopia.com","port":27045,"enabled":true,"region":"eu","cc":"gb","latitude":51.509865,"longitude":-0.118092,"reserved":0,"last_update":"0001-01-01T00:00:00Z","name_a2s":"Uncletopia | London | 4 | All Maps","protocol":17,"map":"pl_thundermountain","folder":"tf","game":"Team Fortress","app_id":440,"player_count":21,"max_players":24,"Bots":0,"server_type":"Dedicated","server_os":"Linux","password":true,"vac":true,"version":"7961495","steam_id":85568392924510193,"keywords":["nocrits","nodmgspread","payload","uncletopia"],"game_id":440,"stv_port":27046,"stv_name":"Uncletopia | London | 4 | All Maps | STV","players":[{"user_id":462,"name":"Lark","steam_id":76561198066937447,"connected_time":5332000000000,"state":"active","ping":91},{"user_id":448,"name":"Em","steam_id":76561198057911246,"connected_time":5927000000000,"state":"active","ping":72},{"user_id":445,"name":"Charon","steam_id":76561198061714753,"connected_time":6315000000000,"state":"active","ping":89},{"user_id":531,"name":"Overseer Boots","steam_id":76561199115636221,"connected_time":897000000000,"state":"active","ping":47},{"user_id":449,"name":"disabled chimp","steam_id":76561198132062857,"connected_time":5921000000000,"state":"active","ping":74},{"user_id":488,"name":"Metal Gear Solid 2 for PS2","steam_id":76561198110611210,"connected_time":3597000000000,"state":"active","ping":52},{"user_id":450,"name":"Ôº∞ÔΩèÔΩèÔΩîÔΩâÔΩì!","steam_id":76561197970114051,"connected_time":5821000000000,"state":"active","ping":44},{"user_id":535,"name":"Disco Inferno","steam_id":76561198063398791,"connected_time":655000000000,"state":"active","ping":34},{"user_id":536,"name":"Pin Box","steam_id":76561198360501390,"connected_time":403000000000,"state":"active","ping":81},{"user_id":522,"name":"R A S M U S","steam_id":76561198279799226,"connected_time":1594000000000,"state":"active","ping":65},{"user_id":479,"name":"Silver\u003c3 (12k hours and trash)","steam_id":76561198022351828,"connected_time":4043000000000,"state":"active","ping":50},{"user_id":537,"name":"birchy","steam_id":76561198166697295,"connected_time":378000000000,"state":"active","ping":41},{"user_id":530,"name":"frutta","steam_id":76561198131786352,"connected_time":1235000000000,"state":"active","ping":62},{"user_id":503,"name":"sin","steam_id":76561198193416785,"connected_time":2818000000000,"state":"active","ping":91},{"user_id":532,"name":"Iris","steam_id":76561198430295815,"connected_time":798000000000,"state":"active","ping":60},{"user_id":467,"name":"rgb4","steam_id":76561198267916695,"connected_time":4910000000000,"state":"active","ping":45},{"user_id":471,"name":"‚úûhe nowhere k;ng.","steam_id":76561198042830349,"connected_time":4480000000000,"state":"active","ping":66},{"user_id":526,"name":"Personano","steam_id":76561198994355577,"connected_time":1419000000000,"state":"active","ping":44},{"user_id":528,"name":"Nassu","steam_id":76561198147367577,"connected_time":1394000000000,"state":"active","ping":145},{"user_id":534,"name":"Ashen","steam_id":76561198274631806,"connected_time":755000000000,"state":"active","ping":47},{"user_id":463,"name":"Ignazoz #Mannscaped","steam_id":76561198951908940,"connected_time":5186000000000,"state":"active","ping":71}]},{"server_id":21,"name":"Uncletopia | London | 5 | All Maps","name_short":"lon-5","host":"lon-1.uk.uncletopia.com","port":27055,"enabled":true,"region":"eu","cc":"gb","latitude":51.509865,"longitude":-0.118092,"reserved":0,"last_update":"0001-01-01T00:00:00Z","name_a2s":"Uncletopia | London | 5 | All Maps","protocol":17,"map":"cp_dustbowl","folder":"tf","game":"Team Fortress","app_id":440,"player_count":4,"max_players":24,"Bots":0,"server_type":"Dedicated","server_os":"Linux","password":true,"vac":true,"version":"7961495","steam_id":85568392924742829,"keywords":["cp","nocrits","nodmgspread","uncletopia"],"game_id":440,"stv_port":27056,"stv_name":"Uncletopia | London | 5 | All Maps | STV","players":[{"user_id":356,"name":"Yimir","steam_id":76561198122584400,"connected_time":4864000000000,"state":"active","ping":30},{"user_id":357,"name":"Enigma","steam_id":76561198248221296,"connected_time":4854000000000,"state":"active","ping":58},{"user_id":362,"name":"Sizzle","steam_id":76561198180239650,"connected_time":3976000000000,"state":"active","ping":37},{"user_id":366,"name":"Danizk0","steam_id":76561198147958743,"connected_time":2825000000000,"state":"active","ping":81}]},{"server_id":22,"name":"Uncletopia | London | 6 | All Maps","name_short":"lon-6","host":"lon-1.uk.uncletopia.com","port":27065,"enabled":true,"region":"eu","cc":"gb","latitude":51.509865,"longitude":-0.118092,"reserved":0,"last_update":"0001-01-01T00:00:00Z","name_a2s":"Uncletopia | London | 6 | All Maps","protocol":17,"map":"pl_borneo","folder":"tf","game":"Team Fortress","app_id":440,"player_count":24,"max_players":24,"Bots":0,"server_type":"Dedicated","server_os":"Linux","password":true,"vac":true,"version":"7961495","steam_id":85568392924742830,"keywords":["nocrits","nodmgspread","payload","uncletopia"],"game_id":440,"stv_port":27066,"stv_name":"Uncletopia | London | 6 | All Maps | STV","players":[{"user_id":261,"name":"Sabour","steam_id":76561197963965445,"connected_time":1462000000000,"state":"active","ping":60},{"user_id":266,"name":"hawkblob","steam_id":76561198803720565,"connected_time":983000000000,"state":"active","ping":77},{"user_id":238,"name":"ekn","steam_id":76561198238126246,"connected_time":2544000000000,"state":"active","ping":60},{"user_id":267,"name":"charlatan","steam_id":76561198167104693,"connected_time":962000000000,"state":"active","ping":45},{"user_id":248,"name":"Bronchius Bonehead","steam_id":76561198133961416,"connected_time":2094000000000,"state":"active","ping":48},{"user_id":232,"name":"Kelpy G gaming","steam_id":76561198056995633,"connected_time":3476000000000,"state":"active","ping":46},{"user_id":268,"name":"Water","steam_id":76561198154851729,"connected_time":888000000000,"state":"active","ping":71},{"user_id":213,"name":"dools18","steam_id":76561198880768062,"connected_time":4587000000000,"state":"active","ping":56},{"user_id":258,"name":"WOWOWOWOWWOW","steam_id":76561198276681691,"connected_time":1539000000000,"state":"active","ping":49},{"user_id":241,"name":"Joe","steam_id":76561198145639903,"connected_time":2487000000000,"state":"active","ping":88},{"user_id":265,"name":"¬∑L. Ron Hoyabembe¬∑","steam_id":76561198000639489,"connected_time":1149000000000,"state":"active","ping":45},{"user_id":230,"name":"tapeworms!","steam_id":76561198069649097,"connected_time":3517000000000,"state":"active","ping":51},{"user_id":269,"name":"finbar","steam_id":76561198056812396,"connected_time":825000000000,"state":"active","ping":77},{"user_id":193,"name":"Weegee","steam_id":76561198150308523,"connected_time":5933000000000,"state":"active","ping":49},{"user_id":255,"name":"rez777ka","steam_id":76561198107605938,"connected_time":1826000000000,"state":"active","ping":91},{"user_id":190,"name":"mah_man","steam_id":76561198828510784,"connected_time":6249000000000,"state":"active","ping":72},{"user_id":257,"name":"dsibobcat","steam_id":76561198199117446,"connected_time":1575000000000,"state":"active","ping":64},{"user_id":221,"name":"C.I.","steam_id":76561197972438196,"connected_time":4251000000000,"state":"active","ping":45},{"user_id":242,"name":"slnc","steam_id":76561198041151496,"connected_time":2473000000000,"state":"active","ping":71},{"user_id":271,"name":"‚ù§Luna Bee‚ù§","steam_id":76561199230209215,"connected_time":4000000000,"state":"spawning","ping":54},{"user_id":264,"name":"Shromide","steam_id":76561198140382935,"connected_time":1364000000000,"state":"active","ping":46},{"user_id":250,"name":"AMDA10SERIES","steam_id":76561198869269479,"connected_time":2011000000000,"state":"active","ping":45},{"user_id":259,"name":"SparkyDoodles - Artist","steam_id":76561198060128235,"connected_time":1528000000000,"state":"active","ping":60},{"user_id":260,"name":"alerte √† la bombe de Schr√∂din","steam_id":76561198798803845,"connected_time":1525000000000,"state":"active","ping":55}]},{"server_id":40,"name":"Uncletopia | London | 7 | Stopwatch","name_short":"lon-7","host":"lon-1.uk.uncletopia.com","port":27075,"enabled":true,"region":"eu","cc":"gb","latitude":51.509865,"longitude":-0.118092,"reserved":0,"last_update":"0001-01-01T00:00:00Z","name_a2s":"Uncletopia | London | 7 | Stopwatch","protocol":17,"map":"workshop/koth_ashville_final.ugc2130459942","folder":"tf","game":"Team Fortress","app_id":440,"player_count":0,"max_players":24,"Bots":0,"server_type":"Dedicated","server_os":"Linux","password":true,"vac":true,"version":"7961495","steam_id":85568392924964314,"keywords":["cp","nocrits","nodmgspread","uncletopia"],"game_id":440,"stv_port":27076,"stv_name":"Uncletopia | London | 7 | Stopwatch | STV","players":null},{"server_id":41,"name":"Uncletopia | London | 8 | Community","name_short":"lon-8","host":"lon-1.uk.uncletopia.com","port":27085,"enabled":true,"region":"eu","cc":"gb","latitude":51.509865,"longitude":-0.118092,"reserved":0,"last_update":"0001-01-01T00:00:00Z","name_a2s":"Uncletopia | London | 8 | Community","protocol":17,"map":"workshop/pl_boundary_final1.ugc456799153","folder":"tf","game":"Team Fortress","app_id":440,"player_count":0,"max_players":24,"Bots":0,"server_type":"Dedicated","server_os":"Linux","password":true,"vac":true,"version":"7961495","steam_id":85568392924964315,"keywords":["nocrits","nodmgspread","payload","uncletopia"],"game_id":440,"stv_port":27086,"stv_name":"Uncletopia | London | 8 | Community | STV","players":null},{"server_id":300,"name":"Uncletopia | Montr√©al | 1 | One Thousand Uncles","name_short":"mtl-1","host":"mtl-1.ca.uncletopia.com","port":27015,"enabled":true,"region":"us-east","cc":"ca","latitude":45.50889,"longitude":-73.56167,"reserved":0,"last_update":"0001-01-01T00:00:00Z","name_a2s":"Uncletopia | Montr√©al | 1 | One Thousand Uncles","protocol":17,"map":"pl_chilly","folder":"tf","game":"Team Fortress","app_id":440,"player_count":0,"max_players":32,"Bots":0,"server_type":"Dedicated","server_os":"Linux","password":true,"vac":true,"version":"7961495","steam_id":85568392924500087,"keywords":["alltalk","danepve","increased_maxplayers","norespawntime","payload","uncletopia"],"game_id":440,"stv_port":0,"stv_name":"","players":null},{"server_id":301,"name":"Uncletopia | Montr√©al | 2 | One Thousand Uncles","name_short":"mtl-2","host":"mtl-1.ca.uncletopia.com","port":27025,"enabled":true,"region":"us-east","cc":"ca","latitude":45.50889,"longitude":-73.56167,"reserved":0,"last_update":"0001-01-01T00:00:00Z","name_a2s":"Uncletopia | Montr√©al | 2 | One Thousand Uncles","protocol":17,"map":"pl_snowycoast","folder":"tf","game":"Team Fortress","app_id":440,"player_count":0,"max_players":32,"Bots":0,"server_type":"Dedicated","server_os":"Linux","password":true,"vac":true,"version":"7961495","steam_id":85568392924500088,"keywords":["alltalk","danepve","increased_maxplayers","norespawntime","payload","uncletopia"],"game_id":440,"stv_port":0,"stv_name":"","players":null},{"server_id":302,"name":"Uncletopia | Montr√©al | 3 | One Thousand Uncles","name_short":"mtl-3","host":"mtl-1.ca.uncletopia.com","port":27035,"enabled":true,"region":"us-east","cc":"ca","latitude":45.50889,"longitude":-73.56167,"reserved":0,"last_update":"0001-01-01T00:00:00Z","name_a2s":"Uncletopia | Montr√©al | 3 | One Thousand Uncles","protocol":17,"map":"pl_goldrush","folder":"tf","game":"Team Fortress","app_id":440,"player_count":27,"max_players":32,"Bots":16,"server_type":"Dedicated","server_os":"Linux","password":true,"vac":true,"version":"7961495","steam_id":85568392924500089,"keywords":["alltalk","bots","danepve","increased_maxplayers","norespawntime","payload","uncletopia"],"game_id":440,"stv_port":0,"stv_name":"","players":[{"user_id":171,"name":"CCTV CAMERA","steam_id":76561198079973828,"connected_time":1269000000000,"state":"active","ping":84},{"user_id":118,"name":"Eric Cartman Gaming","steam_id":76561199382783363,"connected_time":7356000000000,"state":"active","ping":73},{"user_id":164,"name":"üå∏O L I V I Aüå∏","steam_id":76561198321854032,"connected_time":2745000000000,"state":"active","ping":82},{"user_id":173,"name":"BlueGiant89","steam_id":76561198113581718,"connected_time":595000000000,"state":"active","ping":72},{"user_id":152,"name":"goobiestgoober","steam_id":76561199487899460,"connected_time":4609000000000,"state":"active","ping":710},{"user_id":159,"name":"brian damage","steam_id":76561198118455606,"connected_time":3413000000000,"state":"active","ping":41},{"user_id":174,"name":"ty","steam_id":76561199416036160,"connected_time":479000000000,"state":"active","ping":65},{"user_id":175,"name":"willow","steam_id":76561198276866938,"connected_time":299000000000,"state":"active","ping":52},{"user_id":177,"name":"MC_Void_0","steam_id":76561199148827012,"connected_time":79000000000,"state":"active","ping":105},{"user_id":146,"name":"gillmore.samuel","steam_id":76561198109742336,"connected_time":5202000000000,"state":"active","ping":37},{"user_id":147,"name":"gr33nfish77","steam_id":76561199080818119,"connected_time":5167000000000,"state":"active","ping":53}]},{"server_id":13,"name":"Uncletopia | New York City | 1 | All Maps","name_short":"nyc-1","host":"nyc-1.us.uncletopia.com","port":27015,"enabled":true,"region":"us-east","cc":"us","latitude":40.73061,"longitude":-73.93524,"reserved":0,"last_update":"0001-01-01T00:00:00Z","name_a2s":"Uncletopia | New York City | 1 | All Maps","protocol":17,"map":"cp_dustbowl","folder":"tf","game":"Team Fortress","app_id":440,"player_count":24,"max_players":24,"Bots":0,"server_type":"Dedicated","server_os":"Linux","password":true,"vac":true,"version":"7961495","steam_id":85568392924469993,"keywords":["cp","nocrits","nodmgspread","uncletopia"],"game_id":440,"stv_port":27016,"stv_name":"Uncletopia | New York City | 1 | All Maps | STV","players":[{"user_id":315,"name":"Sorbet Shark Cookie","steam_id":76561198133082665,"connected_time":4649000000000,"state":"active","ping":42},{"user_id":367,"name":"SgtGuppers","steam_id":76561198201351493,"connected_time":732000000000,"state":"active","ping":48},{"user_id":308,"name":"googa","steam_id":76561198133130452,"connected_time":5947000000000,"state":"active","ping":44},{"user_id":345,"name":"HEAVEN IS FALLING","steam_id":76561198360470632,"connected_time":2166000000000,"state":"active","ping":72},{"user_id":359,"name":"Dareu","steam_id":76561198081781710,"connected_time":1271000000000,"state":"active","ping":45},{"user_id":230,"name":"CRAZY engineer","steam_id":76561198887937902,"connected_time":11275000000000,"state":"active","ping":53},{"user_id":333,"name":"NinjaLau95","steam_id":76561198001069938,"connected_time":3094000000000,"state":"active","ping":59},{"user_id":352,"name":"Xavibite","steam_id":76561198209380493,"connected_time":1689000000000,"state":"active","ping":42},{"user_id":341,"name":"ndvr (femboy (REAL))","steam_id":76561199379200102,"connected_time":2642000000000,"state":"active","ping":43},{"user_id":368,"name":"Two-Teste Tommy","steam_id":76561198064308936,"connected_time":545000000000,"state":"active","ping":59},{"user_id":353,"name":"mdos","steam_id":76561198332133944,"connected_time":1569000000000,"state":"active","ping":52},{"user_id":369,"name":"IdkProlly","steam_id":76561198269212968,"connected_time":322000000000,"state":"active","ping":40},{"user_id":365,"name":"Xx_Savage_Twerks_xX","steam_id":76561198011665915,"connected_time":883000000000,"state":"active","ping":45},{"user_id":349,"name":"Primitive","steam_id":76561198060500671,"connected_time":1952000000000,"state":"active","ping":38},{"user_id":324,"name":"vv","steam_id":76561198134813102,"connected_time":3535000000000,"state":"active","ping":60},{"user_id":363,"name":"Bartholomew Binglebottom","steam_id":76561198347286009,"connected_time":954000000000,"state":"active","ping":50},{"user_id":355,"name":"Shrep","steam_id":76561198127341481,"connected_time":1528000000000,"state":"active","ping":77},{"user_id":317,"name":"microsoft solitaire expert","steam_id":76561199134895220,"connected_time":4595000000000,"state":"active","ping":46},{"user_id":297,"name":"START PRAYIN BOY","steam_id":76561198089173996,"connected_time":6486000000000,"state":"active","ping":55},{"user_id":370,"name":"SilhigTukog","steam_id":76561197964741131,"connected_time":0,"state":"spawning","ping":22},{"user_id":334,"name":"Aokuma","steam_id":76561198808387179,"connected_time":3081000000000,"state":"active","ping":52},{"user_id":322,"name":"MR DADDY","steam_id":76561198350794663,"connected_time":3748000000000,"state":"active","ping":59},{"user_id":364,"name":"Gilliam Onzo","steam_id":76561198066671343,"connected_time":936000000000,"state":"active","ping":65},{"user_id":337,"name":"Stonks","steam_id":76561199490085068,"connected_time":3021000000000,"state":"active","ping":53}]},{"server_id":14,"name":"Uncletopia | New York City | 2 | All Maps","name_short":"nyc-2","host":"nyc-1.us.uncletopia.com","port":27025,"enabled":true,"region":"us-east","cc":"us","latitude":40.73061,"longitude":-73.93524,"reserved":0,"last_update":"0001-01-01T00:00:00Z","name_a2s":"Uncletopia | New York City | 2 | All Maps","protocol":17,"map":"pl_barnblitz","folder":"tf","game":"Team Fortress","app_id":440,"player_count":24,"max_players":24,"Bots":0,"server_type":"Dedicated","server_os":"Linux","password":true,"vac":true,"version":"7961495","steam_id":85568392924469994,"keywords":["nocrits","nodmgspread","payload","uncletopia"],"game_id":440,"stv_port":27026,"stv_name":"Uncletopia | New York City | 2 | All Maps | STV","players":[{"user_id":490,"name":"CheetoSmoke7","steam_id":76561198095217273,"connected_time":1059000000000,"state":"active","ping":42},{"user_id":336,"name":"Mr. Squirt","steam_id":76561198174755679,"connected_time":12156000000000,"state":"active","ping":45},{"user_id":438,"name":"runescape legend","steam_id":76561198077791373,"connected_time":5809000000000,"state":"active","ping":72},{"user_id":475,"name":"Shane","steam_id":76561198034801867,"connected_time":2075000000000,"state":"active","ping":138},{"user_id":486,"name":"Meat","steam_id":76561197995864332,"connected_time":1114000000000,"state":"active","ping":46},{"user_id":440,"name":"drink cup","steam_id":76561198096336917,"connected_time":5569000000000,"state":"active","ping":90},{"user_id":484,"name":"**alleged** public masturbator","steam_id":76561198007494744,"connected_time":1349000000000,"state":"active","ping":135},{"user_id":471,"name":"exe-blue-cat","steam_id":76561199385932189,"connected_time":2426000000000,"state":"active","ping":146},{"user_id":478,"name":"Halal meat","steam_id":76561199467106636,"connected_time":1745000000000,"state":"active","ping":42},{"user_id":466,"name":"russames","steam_id":76561198007535911,"connected_time":2959000000000,"state":"active","ping":72},{"user_id":477,"name":"Catling","steam_id":76561197970142430,"connected_time":1931000000000,"state":"active","ping":150},{"user_id":442,"name":"soup","steam_id":76561198880568662,"connected_time":5402000000000,"state":"active","ping":67},{"user_id":496,"name":"Baron von Whoopsie","steam_id":76561197996691013,"connected_time":96000000000,"state":"active","ping":48},{"user_id":443,"name":"tizflint8008","steam_id":76561199034250277,"connected_time":5402000000000,"state":"active","ping":76},{"user_id":491,"name":"hazypoz","steam_id":76561198075647830,"connected_time":918000000000,"state":"active","ping":72},{"user_id":473,"name":"Skipiste","steam_id":76561198125735622,"connected_time":2364000000000,"state":"active","ping":102},{"user_id":463,"name":"rocket1714","steam_id":76561198255152396,"connected_time":3934000000000,"state":"active","ping":94},{"user_id":479,"name":"Crabs","steam_id":76561198145145305,"connected_time":1714000000000,"state":"active","ping":44},{"user_id":482,"name":"Saucy Boy","steam_id":76561198178332031,"connected_time":1563000000000,"state":"active","ping":80},{"user_id":488,"name":"Jeffery Jitterson","steam_id":76561199021400714,"connected_time":1104000000000,"state":"active","ping":53},{"user_id":495,"name":"YourFriendJessie *REAL*","steam_id":76561198176883097,"connected_time":121000000000,"state":"active","ping":50},{"user_id":494,"name":"Jeremiah Finch","steam_id":76561198046899113,"connected_time":661000000000,"state":"active","ping":71},{"user_id":497,"name":"Strange Diplomat","steam_id":76561198428191920,"connected_time":39000000000,"state":"spawning","ping":51},{"user_id":493,"name":"icecxld","steam_id":76561198079018805,"connected_time":902000000000,"state":"active","ping":74}]},{"server_id":15,"name":"Uncletopia | New York City | 3 | Stopwatch","name_short":"nyc-3","host":"nyc-1.us.uncletopia.com","port":27035,"enabled":true,"region":"us-east","cc":"us","latitude":40.73061,"longitude":-73.93524,"reserved":0,"last_update":"0001-01-01T00:00:00Z","name_a2s":"Uncletopia | New York City | 3 | Stopwatch","protocol":17,"map":"koth_lakeside_final","folder":"tf","game":"Team Fortress","app_id":440,"player_count":0,"max_players":24,"Bots":0,"server_type":"Dedicated","server_os":"Linux","password":true,"vac":true,"version":"7961495","steam_id":85568392924742820,"keywords":["cp","nocrits","nodmgspread","uncletopia"],"game_id":440,"stv_port":27036,"stv_name":"Uncletopia | New York City | 3 | Stopwatch | STV","players":null},{"server_id":16,"name":"Uncletopia | New York City | 4 | Community","name_short":"nyc-4","host":"nyc-1.us.uncletopia.com","port":27045,"enabled":true,"region":"us-east","cc":"us","latitude":40.73061,"longitude":-73.93524,"reserved":0,"last_update":"0001-01-01T00:00:00Z","name_a2s":"Uncletopia | New York City | 4 | Community","protocol":17,"map":"workshop/koth_jamram_rc1a.ugc2964065613","folder":"tf","game":"Team Fortress","app_id":440,"player_count":0,"max_players":24,"Bots":0,"server_type":"Dedicated","server_os":"Linux","password":true,"vac":true,"version":"7961495","steam_id":85568392924742821,"keywords":["cp","nocrits","nodmgspread","uncletopia"],"game_id":440,"stv_port":27046,"stv_name":"Uncletopia | New York City | 4 | Community | STV","players":null},{"server_id":142,"name":"Uncletopia | S√£o Paulo | 1 | All Maps","name_short":"sao-1","host":"sao-1.br.uncletopia.com","port":27015,"enabled":true,"region":"sa","cc":"br","latitude":-23.533773,"longitude":-46.62529,"reserved":0,"last_update":"0001-01-01T00:00:00Z","name_a2s":"Uncletopia | S√£o Paulo | 1 | All Maps","protocol":17,"map":"koth_highpass","folder":"tf","game":"Team Fortress","app_id":440,"player_count":0,"max_players":24,"Bots":0,"server_type":"Dedicated","server_os":"Linux","password":true,"vac":true,"version":"7961495","steam_id":85568392924469996,"keywords":["cp","nocrits","nodmgspread","uncletopia"],"game_id":440,"stv_port":27016,"stv_name":"Uncletopia | S√£o Paulo | 1 | All Maps | STV","players":null},{"server_id":143,"name":"Uncletopia | S√£o Paulo | 2 | Community","name_short":"sao-2","host":"sao-2.br.uncletopia.com","port":27015,"enabled":true,"region":"sa","cc":"br","latitude":-23.533773,"longitude":-46.62529,"reserved":0,"last_update":"0001-01-01T00:00:00Z","name_a2s":"Uncletopia | S√£o Paulo | 2 | Community","protocol":17,"map":"workshop/koth_jamram_rc1a.ugc2964065613","folder":"tf","game":"Team Fortress","app_id":440,"player_count":2,"max_players":24,"Bots":0,"server_type":"Dedicated","server_os":"Linux","password":true,"vac":true,"version":"7961495","steam_id":85568392924485349,"keywords":["cp","nocrits","nodmgspread","uncletopia"],"game_id":440,"stv_port":27016,"stv_name":"Uncletopia | S√£o Paulo | 2 | Community | STV","players":[{"user_id":6,"name":"SmoggySkewball","steam_id":76561198428665466,"connected_time":2434000000000,"state":"active","ping":64},{"user_id":7,"name":"twistedVodka","steam_id":76561199429163241,"connected_time":2270000000000,"state":"active","ping":65}]},{"server_id":7,"name":"Uncletopia | Seattle | 1 | All Maps","name_short":"sea-1","host":"sea-1.us.uncletopia.com","port":27015,"enabled":true,"region":"us-west","cc":"us","latitude":47.608013,"longitude":-122.33517,"reserved":0,"last_update":"0001-01-01T00:00:00Z","name_a2s":"Uncletopia | Seattle | 1 | All Maps","protocol":17,"map":"pl_barnblitz","folder":"tf","game":"Team Fortress","app_id":440,"player_count":24,"max_players":24,"Bots":0,"server_type":"Dedicated","server_os":"Linux","password":true,"vac":true,"version":"7961495","steam_id":85568392924469997,"keywords":["nocrits","nodmgspread","payload","uncletopia"],"game_id":440,"stv_port":27016,"stv_name":"Uncletopia | Seattle | 1 | All Maps | STV","players":[{"user_id":240,"name":"j3nga","steam_id":76561198094296283,"connected_time":724000000000,"state":"active","ping":60},{"user_id":197,"name":"Seriously Bruh","steam_id":76561198070408485,"connected_time":4381000000000,"state":"active","ping":52},{"user_id":242,"name":"jer","steam_id":76561198148235230,"connected_time":552000000000,"state":"active","ping":79},{"user_id":232,"name":"fancyfreak","steam_id":76561198326466375,"connected_time":1677000000000,"state":"active","ping":70},{"user_id":112,"name":"Banana Man","steam_id":76561199012105803,"connected_time":8268000000000,"state":"active","ping":37},{"user_id":225,"name":"Sasha The Foxgirl","steam_id":76561198018403555,"connected_time":1880000000000,"state":"active","ping":49},{"user_id":222,"name":"SmallErection","steam_id":76561198071770147,"connected_time":2553000000000,"state":"active","ping":35},{"user_id":233,"name":"Streamline","steam_id":76561198031098638,"connected_time":1620000000000,"state":"active","ping":85},{"user_id":237,"name":"flishko","steam_id":76561198326489802,"connected_time":1171000000000,"state":"active","ping":42},{"user_id":224,"name":"panda","steam_id":76561198025214612,"connected_time":1901000000000,"state":"active","ping":30},{"user_id":238,"name":"üëÅ sumixodic","steam_id":76561198090770710,"connected_time":1121000000000,"state":"active","ping":45},{"user_id":168,"name":"beezer","steam_id":76561199049160726,"connected_time":6645000000000,"state":"active","ping":70},{"user_id":236,"name":"AlIen","steam_id":76561198093605031,"connected_time":1427000000000,"state":"active","ping":54},{"user_id":244,"name":"BlazedBunny","steam_id":76561198243610560,"connected_time":450000000000,"state":"active","ping":45},{"user_id":248,"name":"EatSomeBEES","steam_id":76561198047334307,"connected_time":15000000000,"state":"spawning","ping":112},{"user_id":246,"name":"Ethaniac","steam_id":76561199075069457,"connected_time":223000000000,"state":"active","ping":35},{"user_id":157,"name":"Sudsen","steam_id":76561198370603787,"connected_time":7426000000000,"state":"active","ping":63},{"user_id":247,"name":"Zenire","steam_id":76561199087298510,"connected_time":22000000000,"state":"active","ping":48},{"user_id":235,"name":"Niftis","steam_id":76561199123171549,"connected_time":1565000000000,"state":"active","ping":88},{"user_id":239,"name":"Dongus","steam_id":76561197979056451,"connected_time":992000000000,"state":"active","ping":51},{"user_id":245,"name":"CHIEF_JUSTICE_FUCKASS","steam_id":76561199261675844,"connected_time":368000000000,"state":"active","ping":49},{"user_id":227,"name":"goos  e","steam_id":76561198036774894,"connected_time":1868000000000,"state":"active","ping":41},{"user_id":230,"name":"vfa","steam_id":76561198055729118,"connected_time":1790000000000,"state":"active","ping":60},{"user_id":249,"name":"Jovo","steam_id":76561197993265970,"connected_time":15000000000,"state":"active","ping":67}]},{"server_id":119,"name":"Uncletopia | Seattle | 2 | All Maps","name_short":"sea-2","host":"sea-1.us.uncletopia.com","port":27025,"enabled":true,"region":"us-west","cc":"us","latitude":47.608013,"longitude":-122.33517,"reserved":0,"last_update":"0001-01-01T00:00:00Z","name_a2s":"Uncletopia | Seattle | 2 | All Maps","protocol":17,"map":"koth_viaduct","folder":"tf","game":"Team Fortress","app_id":440,"player_count":0,"max_players":24,"Bots":0,"server_type":"Dedicated","server_os":"Linux","password":true,"vac":true,"version":"7961495","steam_id":85568392924469998,"keywords":["cp","nocrits","nodmgspread","uncletopia"],"game_id":440,"stv_port":27026,"stv_name":"Uncletopia | Seattle | 2 | All Maps | STV","players":null},{"server_id":406,"name":"Uncletopia | Seattle | 3 | Stopwatch","name_short":"sea-3","host":"sea-1.us.uncletopia.com","port":27035,"enabled":true,"region":"us-west","cc":"us","latitude":47.608013,"longitude":-122.33517,"reserved":0,"last_update":"0001-01-01T00:00:00Z","name_a2s":"Uncletopia | Seattle | 3 | Stopwatch","protocol":17,"map":"pl_upward","folder":"tf","game":"Team Fortress","app_id":440,"player_count":0,"max_players":24,"Bots":0,"server_type":"Dedicated","server_os":"Linux","password":true,"vac":true,"version":"7961495","steam_id":85568392924515217,"keywords":["nocrits","nodmgspread","payload","uncletopia"],"game_id":440,"stv_port":27036,"stv_name":"Uncletopia | Seattle | 3 | Stopwatch | STV","players":null},{"server_id":17,"name":"Uncletopia | San Francisco | 1 | All Maps","name_short":"sfo-1","host":"sfo-1.us.uncletopia.com","port":27015,"enabled":true,"region":"us-west","cc":"us","latitude":37.77397,"longitude":-122.4313,"reserved":0,"last_update":"0001-01-01T00:00:00Z","name_a2s":"Uncletopia | San Francisco | 1 | All Maps","protocol":17,"map":"cp_dustbowl","folder":"tf","game":"Team Fortress","app_id":440,"player_count":18,"max_players":24,"Bots":0,"server_type":"Dedicated","server_os":"Linux","password":true,"vac":true,"version":"7961495","steam_id":85568392924469999,"keywords":["cp","nocrits","nodmgspread","uncletopia"],"game_id":440,"stv_port":27016,"stv_name":"Uncletopia | San Francisco | 1 | All Maps | STV","players":[{"user_id":418,"name":"The Lovers?","steam_id":76561198066619792,"connected_time":4013000000000,"state":"active","ping":75},{"user_id":455,"name":"ningelo","steam_id":76561198133057951,"connected_time":40000000000,"state":"connecting","ping":86},{"user_id":438,"name":"T√ºCold","steam_id":76561198111278197,"connected_time":1590000000000,"state":"active","ping":48},{"user_id":287,"name":"Marzbee115","steam_id":76561198095821025,"connected_time":12780000000000,"state":"active","ping":56},{"user_id":335,"name":"SQbuilder","steam_id":76561198076473375,"connected_time":10058000000000,"state":"active","ping":46},{"user_id":445,"name":"jetllamachicken","steam_id":76561199055365143,"connected_time":800000000000,"state":"active","ping":50},{"user_id":414,"name":"Dog Evaporator","steam_id":76561199015890000,"connected_time":4063000000000,"state":"active","ping":68},{"user_id":449,"name":"Superepickitty","steam_id":76561199111413405,"connected_time":589000000000,"state":"active","ping":61},{"user_id":415,"name":"verd","steam_id":76561198012001217,"connected_time":4058000000000,"state":"active","ping":120},{"user_id":320,"name":"Trips","steam_id":76561198054581597,"connected_time":11311000000000,"state":"active","ping":37},{"user_id":428,"name":"Jacasola","steam_id":76561198055460402,"connected_time":3125000000000,"state":"active","ping":32},{"user_id":446,"name":"some guy","steam_id":76561198085567614,"connected_time":736000000000,"state":"active","ping":88},{"user_id":412,"name":"Pyrano","steam_id":76561198841531936,"connected_time":4757000000000,"state":"active","ping":69},{"user_id":382,"name":"MORE BOUNCE TO THE OUNCE","steam_id":76561198243399336,"connected_time":7426000000000,"state":"active","ping":54},{"user_id":384,"name":"Eden","steam_id":76561198081284664,"connected_time":7390000000000,"state":"active","ping":60},{"user_id":454,"name":"not duck","steam_id":76561198116975060,"connected_time":155000000000,"state":"active","ping":54},{"user_id":451,"name":"Electric Owl","steam_id":76561198318126190,"connected_time":224000000000,"state":"active","ping":166},{"user_id":450,"name":"RockiMtnOystr","steam_id":76561198106915405,"connected_time":418000000000,"state":"active","ping":60}]},{"server_id":18,"name":"Uncletopia | San Francisco | 2 | All Maps","name_short":"sfo-2","host":"sfo-1.us.uncletopia.com","port":27025,"enabled":true,"region":"us-west","cc":"us","latitude":37.77397,"longitude":-122.4313,"reserved":0,"last_update":"0001-01-01T00:00:00Z","name_a2s":"Uncletopia | San Francisco | 2 | All Maps","protocol":17,"map":"cp_mountainlab","folder":"tf","game":"Team Fortress","app_id":440,"player_count":0,"max_players":24,"Bots":0,"server_type":"Dedicated","server_os":"Linux","password":true,"vac":true,"version":"7961495","steam_id":85568392924470000,"keywords":["cp","nocrits","nodmgspread","uncletopia"],"game_id":440,"stv_port":27026,"stv_name":"Uncletopia | San Francisco | 2 | All Maps | STV","players":null},{"server_id":19,"name":"Uncletopia | San Francisco | 3 | Stopwatch","name_short":"sfo-3","host":"sfo-1.us.uncletopia.com","port":27035,"enabled":true,"region":"us-west","cc":"us","latitude":37.77397,"longitude":-122.4313,"reserved":0,"last_update":"0001-01-01T00:00:00Z","name_a2s":"Uncletopia | San Francisco | 3 | Stopwatch","protocol":17,"map":"workshop/koth_product_final.ugc454272353","folder":"tf","game":"Team Fortress","app_id":440,"player_count":0,"max_players":24,"Bots":0,"server_type":"Dedicated","server_os":"Linux","password":true,"vac":true,"version":"7961495","steam_id":85568392924742824,"keywords":["cp","nocrits","nodmgspread","uncletopia"],"game_id":440,"stv_port":27036,"stv_name":"Uncletopia | San Francisco | 3 | Stopwatch | STV","players":null},{"server_id":20,"name":"Uncletopia | San Francisco | 4 | Community","name_short":"sfo-4","host":"sfo-1.us.uncletopia.com","port":27045,"enabled":true,"region":"us-west","cc":"us","latitude":37.77397,"longitude":-122.4313,"reserved":0,"last_update":"0001-01-01T00:00:00Z","name_a2s":"Uncletopia | San Francisco | 4 | Community","protocol":17,"map":"workshop/cp_indulge.ugc528106646","folder":"tf","game":"Team Fortress","app_id":440,"player_count":0,"max_players":24,"Bots":0,"server_type":"Dedicated","server_os":"Linux","password":true,"vac":true,"version":"7961495","steam_id":85568392924742826,"keywords":["cp","nocrits","nodmgspread","uncletopia"],"game_id":440,"stv_port":27046,"stv_name":"Uncletopia | San Francisco | 4 | Community | STV","players":null},{"server_id":141,"name":"Uncletopia | Sydney | 1 | All Maps","name_short":"syd-1","host":"syd-1.au.uncletopia.com","port":27015,"enabled":true,"region":"au","cc":"au","latitude":-33.865143,"longitude":151.2099,"reserved":0,"last_update":"0001-01-01T00:00:00Z","name_a2s":"Uncletopia | Sydney | 1 | All Maps","protocol":17,"map":"koth_nucleus","folder":"tf","game":"Team Fortress","app_id":440,"player_count":0,"max_players":24,"Bots":0,"server_type":"Dedicated","server_os":"Linux","password":true,"vac":true,"version":"7961495","steam_id":85568392924470001,"keywords":["cp","nocrits","nodmgspread","uncletopia"],"game_id":440,"stv_port":27016,"stv_name":"Uncletopia | Sydney | 1 | All Maps | STV","players":null},{"server_id":123,"name":"Uncletopia | Sydney | 2 | All Maps","name_short":"syd-2","host":"syd-1.au.uncletopia.com","port":27025,"enabled":true,"region":"au","cc":"au","latitude":-33.865143,"longitude":151.2099,"reserved":0,"last_update":"0001-01-01T00:00:00Z","name_a2s":"Uncletopia | Sydney | 2 | All Maps","protocol":17,"map":"cp_fastlane","folder":"tf","game":"Team Fortress","app_id":440,"player_count":0,"max_players":24,"Bots":0,"server_type":"Dedicated","server_os":"Linux","password":true,"vac":true,"version":"7961495","steam_id":85568392924470002,"keywords":["cp","nocrits","nodmgspread","uncletopia"],"game_id":440,"stv_port":27026,"stv_name":"Uncletopia | Sydney | 2 | All Maps | STV","players":null},{"server_id":395,"name":"Uncletopia | Sydney | 3 | All Maps","name_short":"syd-3","host":"syd-1.au.uncletopia.com","port":27035,"enabled":true,"region":"au","cc":"au","latitude":-33.865143,"longitude":151.2099,"reserved":0,"last_update":"0001-01-01T00:00:00Z","name_a2s":"Uncletopia | Sydney | 3 | All Maps","protocol":17,"map":"cp_metalworks","folder":"tf","game":"Team Fortress","app_id":440,"player_count":0,"max_players":24,"Bots":0,"server_type":"Dedicated","server_os":"Linux","password":true,"vac":true,"version":"7961495","steam_id":85568392925194467,"keywords":["cp","nocrits","nodmgspread","uncletopia"],"game_id":440,"stv_port":27036,"stv_name":"Uncletopia | Sydney | 3 | All Maps | STV","players":null},{"server_id":396,"name":"Uncletopia | Sydney | 4 | All Maps","name_short":"syd-4","host":"syd-1.au.uncletopia.com","port":27045,"enabled":true,"region":"au","cc":"au","latitude":-33.865143,"longitude":151.2099,"reserved":0,"last_update":"0001-01-01T00:00:00Z","name_a2s":"Uncletopia | Sydney | 4 | All Maps","protocol":17,"map":"koth_cascade","folder":"tf","game":"Team Fortress","app_id":440,"player_count":0,"max_players":24,"Bots":0,"server_type":"Dedicated","server_os":"Linux","password":true,"vac":true,"version":"7961495","steam_id":85568392925397958,"keywords":["cp","nocrits","nodmgspread","uncletopia"],"game_id":440,"stv_port":27046,"stv_name":"Uncletopia | Sydney | 4 | All Maps | STV","players":null},{"server_id":58,"name":"Uncletopia | Sydney | 5 | Stopwatch","name_short":"syd-5","host":"syd-1.au.uncletopia.com","port":27055,"enabled":true,"region":"au","cc":"au","latitude":-33.865143,"longitude":151.2099,"reserved":0,"last_update":"0001-01-01T00:00:00Z","name_a2s":"Uncletopia | Sydney | 5 | Stopwatch","protocol":17,"map":"workshop/koth_product_final.ugc454272353","folder":"tf","game":"Team Fortress","app_id":440,"player_count":0,"max_players":24,"Bots":0,"server_type":"Dedicated","server_os":"Linux","password":true,"vac":true,"version":"7961495","steam_id":85568392925397959,"keywords":["cp","nocrits","nodmgspread","uncletopia"],"game_id":440,"stv_port":27056,"stv_name":"Uncletopia | Sydney | 5 | Stopwatch | STV","players":null},{"server_id":59,"name":"Uncletopia | Sydney | 6 | Community","name_short":"syd-6","host":"syd-1.au.uncletopia.com","port":27065,"enabled":true,"region":"au","cc":"au","latitude":-33.865143,"longitude":151.2099,"reserved":0,"last_update":"0001-01-01T00:00:00Z","name_a2s":"Uncletopia | Sydney | 6 | Community","protocol":17,"map":"workshop/koth_trenchfoot_ab1.ugc731436616","folder":"tf","game":"Team Fortress","app_id":440,"player_count":0,"max_players":24,"Bots":0,"server_type":"Dedicated","server_os":"Linux","password":true,"vac":true,"version":"7961495","steam_id":85568392925397960,"keywords":["cp","nocrits","nodmgspread","uncletopia"],"game_id":440,"stv_port":27066,"stv_name":"Uncletopia | Sydney | 6 | Community | STV","players":null},{"server_id":49,"name":"Uncletopia | Warsaw | 1 | One Thousand Uncles","name_short":"waw-1","host":"waw-1.pl.uncletopia.com","port":27015,"enabled":true,"region":"eu","cc":"pl","latitude":52.2297,"longitude":21.017532,"reserved":0,"last_update":"0001-01-01T00:00:00Z","name_a2s":"Uncletopia | Warsaw | 1 | One Thousand Uncles","protocol":17,"map":"pl_upward","folder":"tf","game":"Team Fortress","app_id":440,"player_count":0,"max_players":32,"Bots":0,"server_type":"Dedicated","server_os":"Linux","password":true,"vac":true,"version":"7961495","steam_id":85568392925397850,"keywords":["alltalk","danepve","increased_maxplayers","norespawntime","payload","uncletopia"],"game_id":440,"stv_port":0,"stv_name":"","players":null},{"server_id":50,"name":"Uncletopia | Warsaw | 2 | One Thousand Uncles","name_short":"waw-2","host":"waw-1.pl.uncletopia.com","port":27025,"enabled":true,"region":"eu","cc":"pl","latitude":52.2297,"longitude":21.017532,"reserved":0,"last_update":"0001-01-01T00:00:00Z","name_a2s":"Uncletopia | Warsaw | 2 | One Thousand Uncles","protocol":17,"map":"pl_goldrush","folder":"tf","game":"Team Fortress","app_id":440,"player_count":0,"max_players":32,"Bots":0,"server_type":"Dedicated","server_os":"Linux","password":true,"vac":true,"version":"7961495","steam_id":85568392925397851,"keywords":["alltalk","danepve","increased_maxplayers","norespawntime","payload","uncletopia"],"game_id":440,"stv_port":0,"stv_name":"","players":null},{"server_id":51,"name":"Uncletopia | Warsaw | 3 | All Maps","name_short":"waw-3","host":"waw-1.pl.uncletopia.com","port":27035,"enabled":true,"region":"eu","cc":"pl","latitude":52.2297,"longitude":21.017532,"reserved":0,"last_update":"0001-01-01T00:00:00Z","name_a2s":"Uncletopia | Warsaw | 3 | All Maps","protocol":17,"map":"koth_viaduct","folder":"tf","game":"Team Fortress","app_id":440,"player_count":0,"max_players":24,"Bots":0,"server_type":"Dedicated","server_os":"Linux","password":true,"vac":true,"version":"7961495","steam_id":85568392925397852,"keywords":["cp","nocrits","nodmgspread","uncletopia"],"game_id":440,"stv_port":27036,"stv_name":"Uncletopia | Warsaw | 3 | All Maps | STV","players":null},{"server_id":52,"name":"Uncletopia | Warsaw | 4 | All Maps","name_short":"waw-4","host":"waw-1.pl.uncletopia.com","port":27045,"enabled":true,"region":"eu","cc":"pl","latitude":52.2297,"longitude":21.017532,"reserved":0,"last_update":"0001-01-01T00:00:00Z","name_a2s":"Uncletopia | Warsaw | 4 | All Maps","protocol":17,"map":"cp_altitude","folder":"tf","game":"Team Fortress","app_id":440,"player_count":0,"max_players":24,"Bots":0,"server_type":"Dedicated","server_os":"Linux","password":true,"vac":true,"version":"7961495","steam_id":85568392925397853,"keywords":["cp","nocrits","nodmgspread","uncletopia"],"game_id":440,"stv_port":27046,"stv_name":"Uncletopia | Warsaw | 4 | All Maps | STV","players":null},{"server_id":53,"name":"Uncletopia | Warsaw | 5 | Stopwatch","name_short":"waw-5","host":"waw-1.pl.uncletopia.com","port":27055,"enabled":true,"region":"eu","cc":"pl","latitude":52.2297,"longitude":21.017532,"reserved":0,"last_update":"0001-01-01T00:00:00Z","name_a2s":"Uncletopia | Warsaw | 5 | Stopwatch","protocol":17,"map":"workshop/koth_bagel_rc6.ugc2514036946","folder":"tf","game":"Team Fortress","app_id":440,"player_count":0,"max_players":24,"Bots":0,"server_type":"Dedicated","server_os":"Linux","password":true,"vac":true,"version":"7961495","steam_id":85568392925397854,"keywords":["cp","nocrits","nodmgspread","uncletopia"],"game_id":440,"stv_port":27056,"stv_name":"Uncletopia | Warsaw | 5 | Stopwatch | STV","players":null},{"server_id":54,"name":"Uncletopia | Warsaw | 6 | Community","name_short":"waw-6","host":"waw-1.pl.uncletopia.com","port":27065,"enabled":true,"region":"eu","cc":"pl","latitude":52.2297,"longitude":21.017532,"reserved":0,"last_update":"0001-01-01T00:00:00Z","name_a2s":"Uncletopia | Warsaw | 6 | Community","protocol":17,"map":"workshop/rd_asteroid_redux_b1.ugc2154902912","folder":"tf","game":"Team Fortress","app_id":440,"player_count":0,"max_players":24,"Bots":0,"server_type":"Dedicated","server_os":"Linux","password":true,"vac":true,"version":"7961495","steam_id":85568392925397856,"keywords":["beta","nocrits","nodmgspread","rd","uncletopia"],"game_id":440,"stv_port":27066,"stv_name":"Uncletopia | Warsaw | 6 | Community | STV","players":null}]}