{"status":true,"message":"","result":[{"server_id":9,"name":"Uncletopia | Atlanta | 1 | All Maps","name_short":"atl-1","host":"atl-1.us.uncletopia.com","port":27015,"enabled":true,"region":"us-east","cc":"us","latitude":33.753746,"longitude":-84.38633,"reserved":0,"last_update":"0001-01-01T00:00:00Z","name_a2s":"Uncletopia | Atlanta | 1 | All Maps","protocol":17,"map":"cp_snakewater_final1","folder":"tf","game":"Team Fortress","app_id":440,"player_count":14,"max_players":24,"Bots":0,"server_type":"Dedicated","server_os":"Linux","password":true,"vac":true,"version":"7932396","steam_id":85568392924469982,"keywords":["cp","nocrits","nodmgspread","uncletopia"],"game_id":440,"stv_port":27016,"stv_name":"Uncletopia | Atlanta | 1 | All Maps | STV","players":[{"user_id":475,"name":"Shush","steam_id":76561198123902813,"connected_time":200000000000,"state":"active","ping":89},{"user_id":473,"name":"TwoBit","steam_id":76561198062437559,"connected_time":228000000000,"state":"active","ping":106},{"user_id":474,"name":"josh","steam_id":76561198092176972,"connected_time":218000000000,"state":"active","ping":89},{"user_id":438,"name":"nalezinik","steam_id":76561198030026119,"connected_time":1084000000000,"state":"active","ping":95},{"user_id":454,"name":"Furious warrior","steam_id":76561199047757939,"connected_time":480000000000,"state":"active","ping":96},{"user_id":476,"name":"lyra","steam_id":76561198200002859,"connected_time":192000000000,"state":"active","ping":59},{"user_id":441,"name":"PinkKong","steam_id":76561197993950694,"connected_time":993000000000,"state":"active","ping":183},{"user_id":435,"name":"博比","steam_id":76561198144186117,"connected_time":1222000000000,"state":"active","ping":97},{"user_id":445,"name":"Wackydavo","steam_id":76561197990094209,"connected_time":881000000000,"state":"active","ping":169},{"user_id":477,"name":"Unwavering Flavor","steam_id":76561198053306065,"connected_time":149000000000,"state":"active","ping":85},{"user_id":463,"name":"Noahthecrazy1","steam_id":76561199152995909,"connected_time":329000000000,"state":"active","ping":95},{"user_id":470,"name":"munch","steam_id":76561198820480684,"connected_time":266000000000,"state":"active","ping":90},{"user_id":429,"name":"Big Man","steam_id":76561198353366625,"connected_time":1415000000000,"state":"active","ping":79},{"user_id":468,"name":"Muffn","steam_id":76561198797691753,"connected_time":280000000000,"state":"active","ping":78}]},{"server_id":104,"name":"Uncletopia | Atlanta | 2 | All Maps","name_short":"atl-2","host":"atl-1.us.uncletopia.com","port":27025,"enabled":true,"region":"us-east","cc":"us","latitude":33.753746,"longitude":-84.38633,"reserved":0,"last_update":"0001-01-01T00:00:00Z","name_a2s":"Uncletopia | Atlanta | 2 | All Maps","protocol":17,"map":"koth_cascade","folder":"tf","game":"Team Fortress","app_id":440,"player_count":0,"max_players":24,"Bots":0,"server_type":"Dedicated","server_os":"Linux","password":true,"vac":true,"version":"7932396","steam_id":85568392924469983,"keywords":["cp","nocrits","nodmgspread","uncletopia"],"game_id":440,"stv_port":27026,"stv_name":"Uncletopia | Atlanta | 2 | All Maps | STV","players":null},{"server_id":400,"name":"Uncletopia | Atlanta | 3 | Community","name_short":"atl-3","host":"atl-1.us.uncletopia.com","port":27035,"enabled":true,"region":"us-east","cc":"us","latitude":33.753746,"longitude":-84.38633,"reserved":0,"last_update":"0001-01-01T00:00:00Z","name_a2s":"Uncletopia | Atlanta | 3 | Community","protocol":17,"map":"workshop/cp_logjam_rc12.ugc454812035","folder":"tf","game":"Team Fortress","app_id":440,"player_count":0,"max_players":24,"Bots":0,"server_type":"Dedicated","server_os":"Linux","password":true,"vac":true,"version":"7932396","steam_id":85568392924515187,"keywords":["cp","nocrits","nodmgspread","uncletopia"],"game_id":440,"stv_port":27036,"stv_name":"Uncletopia | Atlanta | 3 | Community | STV","players":null},{"server_id":401,"name":"Uncletopia | Atlanta | 4 | No Payload","name_short":"atl-4","host":"atl-1.us.uncletopia.com","port":27045,"enabled":true,"region":"us-east","cc":"us","latitude":33.753746,"longitude":-84.38633,"reserved":0,"last_update":"0001-01-01T00:00:00Z","name_a2s":"","protocol":0,"map":"","folder":"","game":"","app_id":0,"player_count":0,"max_players":0,"Bots":0,"server_type":"","server_os":"","password":false,"vac":false,"version":"","steam_id":0,"keywords":null,"game_id":0,"stv_port":0,"stv_name":"","players":null},{"server_id":2,"name":"Uncletopia | Chicago | 1 | All Maps","name_short":"chi-1","host":"chi-1.us.uncletopia.com","port":27015,"enabled":true,"region":"us-central","cc":"us","latitude":41.881832,"longitude":-87.62318,"reserved":0,"last_update":"0001-01-01T00:00:00Z","name_a2s":"Uncletopia | Chicago | 1 | All Maps","protocol":17,"map":"cp_snakewater_final1","folder":"tf","game":"Team Fortress","app_id":440,"player_count":24,"max_players":24,"Bots":0,"server_type":"Dedicated","server_os":"Linux","password":true,"vac":true,"version":"7932396","steam_id":85568392924469984,"keywords":["cp","nocrits","nodmgspread","uncletopia"],"game_id":440,"stv_port":27016,"stv_name":"Uncletopia | Chicago | 1 | All Maps | STV","players":[{"user_id":436,"name":"HUNGRY DOGS EAT FASTER","steam_id":76561198040440984,"connected_time":985000000000,"state":"active","ping":69},{"user_id":453,"name":"PTR","steam_id":76561198237253772,"connected_time":170000000000,"state":"active","ping":69},{"user_id":382,"name":"entityfromohio","steam_id":76561198031675881,"connected_time":6073000000000,"state":"active","ping":37},{"user_id":427,"name":"Mr. Soupman","steam_id":76561198021649598,"connected_time":1846000000000,"state":"active","ping":60},{"user_id":449,"name":"leonardo doujinshi","steam_id":76561198025810326,"connected_time":522000000000,"state":"active","ping":75},{"user_id":442,"name":"car","steam_id":76561198999217575,"connected_time":747000000000,"state":"active","ping":64},{"user_id":441,"name":"Cedric","steam_id":76561198072090580,"connected_time":785000000000,"state":"active","ping":89},{"user_id":433,"name":"DinkleBerg","steam_id":76561198891626233,"connected_time":1277000000000,"state":"active","ping":60},{"user_id":440,"name":"Mburesh","steam_id":76561198137460717,"connected_time":873000000000,"state":"active","ping":58},{"user_id":429,"name":"Acehay14","steam_id":76561198052373291,"connected_time":1487000000000,"state":"active","ping":60},{"user_id":448,"name":"The new day","steam_id":76561198855144603,"connected_time":590000000000,"state":"active","ping":64},{"user_id":450,"name":"Jo","steam_id":76561198060447015,"connected_time":479000000000,"state":"active","ping":76},{"user_id":403,"name":"Bill Clinton","steam_id":76561198163291190,"connected_time":3814000000000,"state":"active","ping":93},{"user_id":405,"name":"Maverick","steam_id":76561198322829814,"connected_time":3663000000000,"state":"active","ping":82},{"user_id":378,"name":"TGD","steam_id":76561198197582594,"connected_time":6207000000000,"state":"active","ping":45},{"user_id":415,"name":"Gnarly Shark Bite","steam_id":76561198004058342,"connected_time":2150000000000,"state":"active","ping":80},{"user_id":437,"name":"Filthy Acts at Reasonable Price","steam_id":76561198354615890,"connected_time":943000000000,"state":"active","ping":57},{"user_id":430,"name":"blob","steam_id":76561198122375328,"connected_time":1396000000000,"state":"active","ping":54},{"user_id":432,"name":"\"Super\" Mario","steam_id":76561198341537452,"connected_time":1342000000000,"state":"active","ping":75},{"user_id":445,"name":"lost in spaaaaace","steam_id":76561199085974120,"connected_time":645000000000,"state":"active","ping":72},{"user_id":381,"name":"Owixan","steam_id":76561198074990070,"connected_time":6146000000000,"state":"active","ping":44},{"user_id":446,"name":"Candy Sparkles","steam_id":76561198126871264,"connected_time":642000000000,"state":"active","ping":86},{"user_id":390,"name":"Ras","steam_id":76561198123546775,"connected_time":5455000000000,"state":"active","ping":75},{"user_id":454,"name":"Jon","steam_id":76561198044252213,"connected_time":32000000000,"state":"spawning","ping":45}]},{"server_id":106,"name":"Uncletopia | Chicago | 2 | All Maps","name_short":"chi-2","host":"chi-1.us.uncletopia.com","port":27025,"enabled":true,"region":"us-central","cc":"us","latitude":41.881832,"longitude":-87.62318,"reserved":0,"last_update":"0001-01-01T00:00:00Z","name_a2s":"Uncletopia | Chicago | 2 | All Maps","protocol":17,"map":"pl_barnblitz","folder":"tf","game":"Team Fortress","app_id":440,"player_count":24,"max_players":24,"Bots":0,"server_type":"Dedicated","server_os":"Linux","password":true,"vac":true,"version":"7932396","steam_id":85568392924469985,"keywords":["nocrits","nodmgspread","payload","uncletopia"],"game_id":440,"stv_port":27026,"stv_name":"Uncletopia | Chicago | 2 | All Maps | STV","players":[{"user_id":420,"name":"immortal lobster (dog sized)","steam_id":76561198185980055,"connected_time":1228000000000,"state":"active","ping":59},{"user_id":410,"name":"Barbados Slim","steam_id":76561199483183459,"connected_time":2296000000000,"state":"active","ping":92},{"user_id":412,"name":"Gaming","steam_id":76561198107080532,"connected_time":2179000000000,"state":"active","ping":74},{"user_id":425,"name":"Albino Jellyfish","steam_id":76561198208561097,"connected_time":255000000000,"state":"active","ping":68},{"user_id":424,"name":"xX_HimboSwallower_Xx","steam_id":76561198016029965,"connected_time":536000000000,"state":"active","ping":58},{"user_id":416,"name":"Cat Hicks","steam_id":76561198122049803,"connected_time":1487000000000,"state":"active","ping":108},{"user_id":399,"name":"Cheese4Everyone","steam_id":76561198022333985,"connected_time":3090000000000,"state":"active","ping":64},{"user_id":374,"name":"youve been scrongbongled","steam_id":76561198115874625,"connected_time":5090000000000,"state":"active","ping":64},{"user_id":418,"name":"Breach","steam_id":76561198045060392,"connected_time":1255000000000,"state":"active","ping":46},{"user_id":429,"name":"CinnamonBoy","steam_id":76561198882330338,"connected_time":84000000000,"state":"active","ping":70},{"user_id":405,"name":"SirJellyRolls","steam_id":76561198119277244,"connected_time":2867000000000,"state":"active","ping":72},{"user_id":422,"name":"Corbe","steam_id":76561198353893927,"connected_time":1201000000000,"state":"active","ping":41},{"user_id":435,"name":"Lynx","steam_id":76561198322363286,"connected_time":6000000000,"state":"spawning","ping":78},{"user_id":402,"name":"Some random dude","steam_id":76561199477705792,"connected_time":3021000000000,"state":"active","ping":123},{"user_id":376,"name":"Hob-Goblin Jim The IV","steam_id":76561199046650666,"connected_time":5070000000000,"state":"active","ping":56},{"user_id":432,"name":"Wuncle Dumps","steam_id":76561198067167895,"connected_time":29000000000,"state":"active","ping":72},{"user_id":406,"name":"Jesse Bear","steam_id":76561198217075305,"connected_time":2848000000000,"state":"active","ping":74},{"user_id":433,"name":"MoonWolf","steam_id":76561198095735033,"connected_time":17000000000,"state":"active","ping":73},{"user_id":367,"name":"Kirby, Eater of Gods","steam_id":76561199013548188,"connected_time":5802000000000,"state":"active","ping":54},{"user_id":394,"name":"Glanderson booper","steam_id":76561198021223747,"connected_time":3329000000000,"state":"active","ping":112},{"user_id":414,"name":"Drew P. Sack","steam_id":76561198036201738,"connected_time":1549000000000,"state":"active","ping":54},{"user_id":423,"name":"clavin_","steam_id":76561198046398447,"connected_time":1190000000000,"state":"active","ping":49},{"user_id":434,"name":"Sora the Sorcerer","steam_id":76561198162077961,"connected_time":15000000000,"state":"active","ping":67},{"user_id":378,"name":"vince","steam_id":76561198054144974,"connected_time":4695000000000,"state":"active","ping":91}]},{"server_id":402,"name":"Uncletopia | Chicago | 3 | All Maps","name_short":"chi-3","host":"chi-1.us.uncletopia.com","port":27035,"enabled":true,"region":"us-central","cc":"us","latitude":41.881832,"longitude":-87.62318,"reserved":0,"last_update":"0001-01-01T00:00:00Z","name_a2s":"Uncletopia | Chicago | 3 | All Maps","protocol":17,"map":"cp_snakewater_final1","folder":"tf","game":"Team Fortress","app_id":440,"player_count":25,"max_players":24,"Bots":0,"server_type":"Dedicated","server_os":"Linux","password":true,"vac":true,"version":"7932396","steam_id":85568392924515191,"keywords":["cp","nocrits","nodmgspread","uncletopia"],"game_id":440,"stv_port":27036,"stv_name":"Uncletopia | Chicago | 3 | All Maps | STV","players":[{"user_id":21,"name":"Metbol","steam_id":76561198001362410,"connected_time":7299000000000,"state":"active","ping":79},{"user_id":144,"name":"demoknight tf2","steam_id":76561198070393998,"connected_time":954000000000,"state":"active","ping":76},{"user_id":141,"name":"=PB=","steam_id":76561197999146612,"connected_time":987000000000,"state":"active","ping":123},{"user_id":110,"name":"Katy","steam_id":76561198079395814,"connected_time":1763000000000,"state":"active","ping":60},{"user_id":169,"name":"Farmer2145","steam_id":76561198217084115,"connected_time":477000000000,"state":"active","ping":74},{"user_id":147,"name":"SСАТТЕR","steam_id":76561198405168492,"connected_time":941000000000,"state":"active","ping":80},{"user_id":127,"name":"cow","steam_id":76561198117331762,"connected_time":1342000000000,"state":"active","ping":45},{"user_id":71,"name":"e doctor","steam_id":76561198081851446,"connected_time":3417000000000,"state":"active","ping":45},{"user_id":78,"name":"Fobby #Savetf2","steam_id":76561198047681469,"connected_time":3068000000000,"state":"active","ping":69},{"user_id":87,"name":"Luca!","steam_id":76561198137880777,"connected_time":2500000000000,"state":"active","ping":73},{"user_id":94,"name":"CyberZayne","steam_id":76561198002351356,"connected_time":2163000000000,"state":"active","ping":82},{"user_id":140,"name":"F_L dullahan","steam_id":76561198278736434,"connected_time":1002000000000,"state":"active","ping":58},{"user_id":115,"name":"acxeu","steam_id":76561198394435000,"connected_time":1694000000000,"state":"active","ping":60},{"user_id":143,"name":"Bonk","steam_id":76561198156970801,"connected_time":965000000000,"state":"active","ping":102},{"user_id":148,"name":"GoofyAhGamingGuy","steam_id":76561199331315881,"connected_time":922000000000,"state":"active","ping":74},{"user_id":149,"name":"Kamin","steam_id":76561198255299559,"connected_time":918000000000,"state":"active","ping":89},{"user_id":128,"name":"wavlog0124","steam_id":76561199079614516,"connected_time":1319000000000,"state":"active","ping":55},{"user_id":91,"name":"gay sex (enjoyer of)","steam_id":76561198250068972,"connected_time":2294000000000,"state":"active","ping":98},{"user_id":82,"name":"David De Bergerac","steam_id":76561198010306294,"connected_time":2804000000000,"state":"active","ping":90},{"user_id":101,"name":"NerdCuddles","steam_id":76561198078915242,"connected_time":1962000000000,"state":"active","ping":56},{"user_id":195,"name":"Anonymous Redneck","steam_id":76561198006140954,"connected_time":1000000000,"state":"spawning","ping":51},{"user_id":175,"name":"Triwq","steam_id":76561198054810406,"connected_time":333000000000,"state":"active","ping":67},{"user_id":152,"name":"Cretin32","steam_id":76561198986265728,"connected_time":864000000000,"state":"active","ping":100},{"user_id":59,"name":"Soul Garg Plushy","steam_id":76561198044480181,"connected_time":4019000000000,"state":"active","ping":48},{"user_id":99,"name":"Versuski","steam_id":76561198085193084,"connected_time":2008000000000,"state":"active","ping":74}]},{"server_id":403,"name":"Uncletopia | Chicago | 4 | All Maps","name_short":"chi-4","host":"chi-1.us.uncletopia.com","port":27045,"enabled":true,"region":"us-central","cc":"us","latitude":41.881832,"longitude":-87.62318,"reserved":0,"last_update":"0001-01-01T00:00:00Z","name_a2s":"Uncletopia | Chicago | 4 | All Maps","protocol":17,"map":"cp_snakewater_final1","folder":"tf","game":"Team Fortress","app_id":440,"player_count":24,"max_players":24,"Bots":0,"server_type":"Dedicated","server_os":"Linux","password":true,"vac":true,"version":"7932396","steam_id":85568392924515193,"keywords":["cp","nocrits","nodmgspread","uncletopia"],"game_id":440,"stv_port":27046,"stv_name":"Uncletopia | Chicago | 4 | All Maps | STV","players":[{"user_id":181,"name":"Michael Jackson","steam_id":76561198140186384,"connected_time":632000000000,"state":"active","ping":97},{"user_id":182,"name":"LukeLeal","steam_id":76561198049822995,"connected_time":603000000000,"state":"active","ping":175},{"user_id":151,"name":"Corpe","steam_id":76561198054490549,"connected_time":2861000000000,"state":"active","ping":105},{"user_id":191,"name":"chiswola","steam_id":76561198046920142,"connected_time":236000000000,"state":"active","ping":72},{"user_id":159,"name":"Elena Manetta","steam_id":76561197998344054,"connected_time":1745000000000,"state":"active","ping":49},{"user_id":160,"name":"Tri-Dot","steam_id":76561199075186597,"connected_time":1736000000000,"state":"active","ping":93},{"user_id":167,"name":"Gason Homoa","steam_id":76561199000180522,"connected_time":1620000000000,"state":"active","ping":85},{"user_id":139,"name":"JJmanepic Loves Bingus","steam_id":76561198387660652,"connected_time":3376000000000,"state":"active","ping":60},{"user_id":169,"name":"Shorty","steam_id":76561198044873248,"connected_time":1334000000000,"state":"active","ping":45},{"user_id":168,"name":"RyInc","steam_id":76561198874261643,"connected_time":1599000000000,"state":"active","ping":46},{"user_id":171,"name":"StarLy","steam_id":76561198174428289,"connected_time":1248000000000,"state":"active","ping":75},{"user_id":154,"name":"4 life","steam_id":76561198175961598,"connected_time":2650000000000,"state":"active","ping":119},{"user_id":172,"name":"ItsRoy","steam_id":76561198119525485,"connected_time":1248000000000,"state":"active","ping":55},{"user_id":170,"name":"winrarFanatic","steam_id":76561198026538317,"connected_time":1266000000000,"state":"active","ping":54},{"user_id":183,"name":"☂Bliffenstimmers☂","steam_id":76561198059984896,"connected_time":597000000000,"state":"active","ping":88},{"user_id":153,"name":"ElZeto","steam_id":76561198252322622,"connected_time":2668000000000,"state":"active","ping":110},{"user_id":178,"name":"Ty!","steam_id":76561198132068284,"connected_time":670000000000,"state":"active","ping":74},{"user_id":164,"name":"American Dad","steam_id":76561198059711448,"connected_time":1701000000000,"state":"active","ping":72},{"user_id":108,"name":"tesagi","steam_id":76561198026664629,"connected_time":5497000000000,"state":"active","ping":49},{"user_id":165,"name":"shadow wizard money gang","steam_id":76561198418414338,"connected_time":1696000000000,"state":"active","ping":84},{"user_id":141,"name":"therajmahal","steam_id":76561199012370396,"connected_time":3370000000000,"state":"active","ping":60},{"user_id":189,"name":"BenEnderBen","steam_id":76561198839934440,"connected_time":435000000000,"state":"active","ping":76},{"user_id":188,"name":"hammies","steam_id":76561198974986456,"connected_time":568000000000,"state":"active","ping":92},{"user_id":175,"name":"kritik","steam_id":76561198075216115,"connected_time":1069000000000,"state":"active","ping":138}]},{"server_id":36,"name":"Uncletopia | Chicago | 5 | All Maps","name_short":"chi-5","host":"chi-2.us.uncletopia.com","port":27015,"enabled":true,"region":"us-central","cc":"us","latitude":41.881832,"longitude":-87.62318,"reserved":0,"last_update":"0001-01-01T00:00:00Z","name_a2s":"Uncletopia | Chicago | 5 | All Maps","protocol":17,"map":"koth_highpass","folder":"tf","game":"Team Fortress","app_id":440,"player_count":0,"max_players":24,"Bots":0,"server_type":"Dedicated","server_os":"Linux","password":true,"vac":true,"version":"7932396","steam_id":85568392924866362,"keywords":["cp","nocrits","nodmgspread","uncletopia"],"game_id":440,"stv_port":27016,"stv_name":"Uncletopia | Chicago | 5 | All Maps | STV","players":null},{"server_id":37,"name":"Uncletopia | Chicago | 6 | All Maps","name_short":"chi-6","host":"chi-2.us.uncletopia.com","port":27025,"enabled":true,"region":"us-central","cc":"us","latitude":41.881832,"longitude":-87.62318,"reserved":0,"last_update":"0001-01-01T00:00:00Z","name_a2s":"Uncletopia | Chicago | 6 | All Maps","protocol":17,"map":"koth_viaduct","folder":"tf","game":"Team Fortress","app_id":440,"player_count":0,"max_players":24,"Bots":0,"server_type":"Dedicated","server_os":"Linux","password":true,"vac":true,"version":"7932396","steam_id":85568392924866363,"keywords":["cp","nocrits","nodmgspread","uncletopia"],"game_id":440,"stv_port":27026,"stv_name":"Uncletopia | Chicago | 6 | All Maps | STV","players":null},{"server_id":38,"name":"Uncletopia | Chicago | 7 | Stopwatch Beta","name_short":"chi-7","host":"chi-2.us.uncletopia.com","port":27035,"enabled":true,"region":"us-central","cc":"us","latitude":41.881832,"longitude":-87.62318,"reserved":0,"last_update":"0001-01-01T00:00:00Z","name_a2s":"Uncletopia | Chicago | 7 | Stopwatch Beta","protocol":17,"map":"pl_borneo","folder":"tf","game":"Team Fortress","app_id":440,"player_count":0,"max_players":24,"Bots":0,"server_type":"Dedicated","server_os":"Linux","password":true,"vac":true,"version":"7932396","steam_id":85568392924866364,"keywords":["nocrits","nodmgspread","payload","uncletopia"],"game_id":440,"stv_port":27036,"stv_name":"Uncletopia | Chicago | 7 | Stopwatch Beta | STV","players":null},{"server_id":39,"name":"Uncletopia | Chicago | 8 | Community","name_short":"chi-8","host":"chi-2.us.uncletopia.com","port":27045,"enabled":true,"region":"us-central","cc":"us","latitude":41.881832,"longitude":-87.62318,"reserved":0,"last_update":"0001-01-01T00:00:00Z","name_a2s":"Uncletopia | Chicago | 8 | Community","protocol":17,"map":"workshop/koth_product_final.ugc454272353","folder":"tf","game":"Team Fortress","app_id":440,"player_count":0,"max_players":24,"Bots":0,"server_type":"Dedicated","server_os":"Linux","password":true,"vac":true,"version":"7932396","steam_id":85568392924866365,"keywords":["cp","nocrits","nodmgspread","uncletopia"],"game_id":440,"stv_port":27046,"stv_name":"Uncletopia | Chicago | 8 | Community | STV","players":null},{"server_id":8,"name":"Uncletopia | Dallas | 1 | All Maps","name_short":"dal-1","host":"dal-1.us.uncletopia.com","port":27015,"enabled":true,"region":"us-central","cc":"us","latitude":32.779167,"longitude":-96.80889,"reserved":0,"last_update":"0001-01-01T00:00:00Z","name_a2s":"Uncletopia | Dallas | 1 | All Maps","protocol":17,"map":"koth_sawmill","folder":"tf","game":"Team Fortress","app_id":440,"player_count":24,"max_players":24,"Bots":0,"server_type":"Dedicated","server_os":"Linux","password":true,"vac":true,"version":"7932396","steam_id":85568392924469986,"keywords":["cp","nocrits","nodmgspread","uncletopia"],"game_id":440,"stv_port":27016,"stv_name":"Uncletopia | Dallas | 1 | All Maps | STV","players":[{"user_id":365,"name":"fudge lord","steam_id":76561198118318422,"connected_time":70000000000,"state":"active","ping":87},{"user_id":325,"name":"Borgir","steam_id":76561198325390265,"connected_time":3763000000000,"state":"active","ping":70},{"user_id":301,"name":"Holp","steam_id":76561199019186848,"connected_time":5348000000000,"state":"active","ping":90},{"user_id":366,"name":"TechnoBear2099","steam_id":76561198238863596,"connected_time":37000000000,"state":"active","ping":46},{"user_id":342,"name":"ATL1 | on my hunting trip","steam_id":76561198315341646,"connected_time":2684000000000,"state":"active","ping":91},{"user_id":354,"name":"Bird of Paradise","steam_id":76561198891152046,"connected_time":1141000000000,"state":"active","ping":103},{"user_id":364,"name":"Mehman","steam_id":76561199020244051,"connected_time":162000000000,"state":"active","ping":102},{"user_id":322,"name":"Agent Bowtie","steam_id":76561198175839279,"connected_time":4294000000000,"state":"active","ping":57},{"user_id":346,"name":"Lilith (She/They)","steam_id":76561198240578890,"connected_time":1922000000000,"state":"active","ping":47},{"user_id":358,"name":"Discourse","steam_id":76561198984286678,"connected_time":516000000000,"state":"active","ping":78},{"user_id":355,"name":"Ata","steam_id":76561198349085545,"connected_time":1140000000000,"state":"active","ping":83},{"user_id":308,"name":"hforce11","steam_id":76561198087647130,"connected_time":4556000000000,"state":"active","ping":63},{"user_id":336,"name":"juicebox","steam_id":76561198440352528,"connected_time":2909000000000,"state":"active","ping":71},{"user_id":360,"name":"doomster","steam_id":76561198131576005,"connected_time":473000000000,"state":"active","ping":66},{"user_id":337,"name":"Fishstall","steam_id":76561198038126034,"connected_time":2816000000000,"state":"active","ping":69},{"user_id":356,"name":"Kitapult","steam_id":76561198280166036,"connected_time":1120000000000,"state":"active","ping":65},{"user_id":338,"name":"Mint Jelly","steam_id":76561197991286751,"connected_time":2813000000000,"state":"active","ping":70},{"user_id":312,"name":"kdoubledizz","steam_id":76561199226501998,"connected_time":4479000000000,"state":"active","ping":78},{"user_id":362,"name":"Moose","steam_id":76561198081492095,"connected_time":285000000000,"state":"active","ping":87},{"user_id":345,"name":"Dacoolbeans","steam_id":76561198027227459,"connected_time":2401000000000,"state":"active","ping":75},{"user_id":361,"name":"mutedx10","steam_id":76561198253556858,"connected_time":337000000000,"state":"active","ping":47},{"user_id":357,"name":"0x01FE","steam_id":76561198838881917,"connected_time":717000000000,"state":"active","ping":162},{"user_id":363,"name":"Analogous","steam_id":76561198242842394,"connected_time":229000000000,"state":"active","ping":50},{"user_id":351,"name":"CJammy","steam_id":76561199074691047,"connected_time":1349000000000,"state":"active","ping":111}]},{"server_id":108,"name":"Uncletopia | Dallas | 2 | All Maps","name_short":"dal-2","host":"dal-1.us.uncletopia.com","port":27025,"enabled":true,"region":"us-central","cc":"us","latitude":32.779167,"longitude":-96.80889,"reserved":0,"last_update":"0001-01-01T00:00:00Z","name_a2s":"Uncletopia | Dallas | 2 | All Maps","protocol":17,"map":"pl_pier","folder":"tf","game":"Team Fortress","app_id":440,"player_count":0,"max_players":24,"Bots":0,"server_type":"Dedicated","server_os":"Linux","password":true,"vac":true,"version":"7932396","steam_id":85568392924469988,"keywords":["nocrits","nodmgspread","payload","uncletopia"],"game_id":440,"stv_port":27026,"stv_name":"Uncletopia | Dallas | 2 | All Maps | STV","players":null},{"server_id":5,"name":"Uncletopia | Frankfurt | 1 | All Maps","name_short":"frk-1","host":"frk-1.de.uncletopia.com","port":27015,"enabled":true,"region":"eu","cc":"de","latitude":50.110924,"longitude":8.682127,"reserved":0,"last_update":"0001-01-01T00:00:00Z","name_a2s":"Uncletopia | Frankfurt | 1 | All Maps","protocol":17,"map":"pl_upward","folder":"tf","game":"Team Fortress","app_id":440,"player_count":23,"max_players":24,"Bots":0,"server_type":"Dedicated","server_os":"Linux","password":true,"vac":true,"version":"7932396","steam_id":85568392924469989,"keywords":["nocrits","nodmgspread","payload","uncletopia"],"game_id":440,"stv_port":27016,"stv_name":"Uncletopia | Frankfurt | 1 | All Maps | STV","players":[{"user_id":694,"name":"F12.tompp.EOMUK","steam_id":76561198143529110,"connected_time":2195000000000,"state":"active","ping":45},{"user_id":704,"name":"♂ Dungeon Master ♂","steam_id":76561198106441033,"connected_time":687000000000,"state":"active","ping":99},{"user_id":590,"name":"finbar","steam_id":76561198056812396,"connected_time":9167000000000,"state":"active","ping":72},{"user_id":701,"name":"Tea guy","steam_id":76561198797847641,"connected_time":1051000000000,"state":"active","ping":77},{"user_id":705,"name":"Bucket","steam_id":76561199165494885,"connected_time":679000000000,"state":"active","ping":112},{"user_id":695,"name":"Senpai Prowper","steam_id":76561198141963161,"connected_time":1877000000000,"state":"active","ping":55},{"user_id":699,"name":"Syn Bolesława Bieruta","steam_id":76561198280192512,"connected_time":1201000000000,"state":"active","ping":71},{"user_id":667,"name":"Ecton","steam_id":76561198025103720,"connected_time":4293000000000,"state":"active","ping":60},{"user_id":716,"name":"boeuf de coubeh","steam_id":76561198084798301,"connected_time":40000000000,"state":"active","ping":75},{"user_id":697,"name":"Halal Goku","steam_id":76561198161822358,"connected_time":1457000000000,"state":"active","ping":60},{"user_id":698,"name":"Dwapking","steam_id":76561198039583834,"connected_time":1329000000000,"state":"active","ping":58},{"user_id":713,"name":"kevinus","steam_id":76561198059722457,"connected_time":79000000000,"state":"active","ping":59},{"user_id":714,"name":"Gimmick","steam_id":76561197979603871,"connected_time":71000000000,"state":"active","ping":61},{"user_id":712,"name":"Googlemaps","steam_id":76561198098135409,"connected_time":178000000000,"state":"active","ping":67},{"user_id":700,"name":"Live Laugh Love","steam_id":76561198306066820,"connected_time":1168000000000,"state":"active","ping":86},{"user_id":711,"name":"Qestes","steam_id":76561198172417590,"connected_time":277000000000,"state":"active","ping":67},{"user_id":708,"name":"Dangerousbros","steam_id":76561198088952519,"connected_time":648000000000,"state":"active","ping":46},{"user_id":670,"name":"Grander","steam_id":76561198011492179,"connected_time":3967000000000,"state":"active","ping":83},{"user_id":715,"name":"Gavias","steam_id":76561198071589819,"connected_time":60000000000,"state":"active","ping":135},{"user_id":702,"name":"Jemes","steam_id":76561198055620906,"connected_time":1016000000000,"state":"active","ping":71},{"user_id":709,"name":"LazySan","steam_id":76561198085914304,"connected_time":597000000000,"state":"active","ping":88},{"user_id":649,"name":"Carl","steam_id":76561198045638738,"connected_time":5554000000000,"state":"active","ping":75},{"user_id":655,"name":"gagalak","steam_id":76561198089979108,"connected_time":4699000000000,"state":"active","ping":89}]},{"server_id":110,"name":"Uncletopia | Frankfurt | 2 | All Maps","name_short":"frk-2","host":"frk-1.de.uncletopia.com","port":27025,"enabled":true,"region":"eu","cc":"de","latitude":50.110924,"longitude":8.682127,"reserved":0,"last_update":"0001-01-01T00:00:00Z","name_a2s":"Uncletopia | Frankfurt | 2 | All Maps","protocol":17,"map":"cp_process_final","folder":"tf","game":"Team Fortress","app_id":440,"player_count":24,"max_players":24,"Bots":0,"server_type":"Dedicated","server_os":"Linux","password":true,"vac":true,"version":"7932396","steam_id":85568392924469990,"keywords":["cp","nocrits","nodmgspread","uncletopia"],"game_id":440,"stv_port":27026,"stv_name":"Uncletopia | Frankfurt | 2 | All Maps | STV","players":[{"user_id":357,"name":"rajAs | Aoeitalia.com","steam_id":76561198035928111,"connected_time":1570000000000,"state":"active","ping":71},{"user_id":370,"name":"P I S S","steam_id":76561199197497757,"connected_time":1066000000000,"state":"active","ping":141},{"user_id":345,"name":"jfg","steam_id":76561199062437546,"connected_time":2772000000000,"state":"active","ping":53},{"user_id":361,"name":"bossievossie","steam_id":76561198836337543,"connected_time":1496000000000,"state":"active","ping":80},{"user_id":362,"name":"rez777ka","steam_id":76561198107605938,"connected_time":1489000000000,"state":"active","ping":90},{"user_id":363,"name":"zinzyk","steam_id":76561198128011822,"connected_time":1478000000000,"state":"active","ping":60},{"user_id":374,"name":"Chucko Kokos","steam_id":76561198112553005,"connected_time":274000000000,"state":"active","ping":69},{"user_id":353,"name":"xavier","steam_id":76561198076494034,"connected_time":1720000000000,"state":"active","ping":56},{"user_id":344,"name":"stuntz","steam_id":76561197974814348,"connected_time":2942000000000,"state":"active","ping":75},{"user_id":371,"name":"Emperor Haddad","steam_id":76561198308853672,"connected_time":963000000000,"state":"active","ping":58},{"user_id":352,"name":"OhNoPhoton","steam_id":76561198119399146,"connected_time":2060000000000,"state":"active","ping":82},{"user_id":302,"name":"Carrot","steam_id":76561198119340863,"connected_time":4387000000000,"state":"active","ping":55},{"user_id":336,"name":"Bajas","steam_id":76561198179339326,"connected_time":2999000000000,"state":"active","ping":76},{"user_id":337,"name":"B19-PP","steam_id":76561198057733920,"connected_time":2994000000000,"state":"active","ping":117},{"user_id":351,"name":"metamikko","steam_id":76561198324704234,"connected_time":2098000000000,"state":"active","ping":95},{"user_id":364,"name":"shr1mple","steam_id":76561198173537027,"connected_time":1467000000000,"state":"active","ping":39},{"user_id":365,"name":"VenatorBG","steam_id":76561198052197810,"connected_time":1462000000000,"state":"active","ping":83},{"user_id":372,"name":"Dragon","steam_id":76561198163255365,"connected_time":445000000000,"state":"active","ping":99},{"user_id":339,"name":"Pilaarius","steam_id":76561198120273212,"connected_time":2957000000000,"state":"active","ping":95},{"user_id":369,"name":"fénix","steam_id":76561198083199151,"connected_time":1212000000000,"state":"active","ping":61},{"user_id":366,"name":"Smilin' Wanderer","steam_id":76561198067698907,"connected_time":1435000000000,"state":"active","ping":73},{"user_id":354,"name":"Adopted?","steam_id":76561198118667043,"connected_time":1658000000000,"state":"active","ping":55},{"user_id":342,"name":"Mi Manchi","steam_id":76561198171573129,"connected_time":2949000000000,"state":"active","ping":60},{"user_id":368,"name":"F U S ∑","steam_id":76561198026657173,"connected_time":1316000000000,"state":"active","ping":72}]},{"server_id":308,"name":"Uncletopia | Frankfurt | 3 | All Maps","name_short":"frk-3","host":"frk-1.de.uncletopia.com","port":27035,"enabled":true,"region":"eu","cc":"de","latitude":50.110924,"longitude":8.682127,"reserved":0,"last_update":"0001-01-01T00:00:00Z","name_a2s":"Uncletopia | Frankfurt | 3 | All Maps","protocol":17,"map":"pl_pier","folder":"tf","game":"Team Fortress","app_id":440,"player_count":22,"max_players":24,"Bots":0,"server_type":"Dedicated","server_os":"Linux","password":true,"vac":true,"version":"7932396","steam_id":85568392924504274,"keywords":["nocrits","nodmgspread","payload","uncletopia"],"game_id":440,"stv_port":27036,"stv_name":"Uncletopia | Frankfurt | 3 | All Maps | STV","players":[{"user_id":114,"name":"Accident","steam_id":76561198037232641,"connected_time":3482000000000,"state":"active","ping":75},{"user_id":156,"name":"Flame☠","steam_id":76561198192163673,"connected_time":1161000000000,"state":"active","ping":52},{"user_id":162,"name":"veigar team fortress 2","steam_id":76561198184674173,"connected_time":227000000000,"state":"active","ping":93},{"user_id":133,"name":"speedy_vespa","steam_id":76561199092013231,"connected_time":2193000000000,"state":"active","ping":80},{"user_id":163,"name":"/hm/","steam_id":76561199213268288,"connected_time":188000000000,"state":"active","ping":83},{"user_id":161,"name":"LOBZIK","steam_id":76561198114830120,"connected_time":250000000000,"state":"active","ping":77},{"user_id":164,"name":"loaxy's 1# enemy","steam_id":76561199016057782,"connected_time":186000000000,"state":"active","ping":155},{"user_id":120,"name":"DJPNK","steam_id":76561197989948420,"connected_time":2709000000000,"state":"active","ping":78},{"user_id":165,"name":"meatsoupcube","steam_id":76561198276802249,"connected_time":182000000000,"state":"active","ping":102},{"user_id":136,"name":"Rez","steam_id":76561198410598772,"connected_time":2009000000000,"state":"active","ping":53},{"user_id":47,"name":"ODanial","steam_id":76561198034854402,"connected_time":8104000000000,"state":"active","ping":86},{"user_id":131,"name":"101 000 tuns of democracy","steam_id":76561198218257120,"connected_time":2373000000000,"state":"active","ping":64},{"user_id":166,"name":"Vampaier2","steam_id":76561198391013060,"connected_time":162000000000,"state":"active","ping":87},{"user_id":137,"name":"ant753","steam_id":76561198103458889,"connected_time":2001000000000,"state":"active","ping":74},{"user_id":160,"name":"jakonator1","steam_id":76561198127792559,"connected_time":404000000000,"state":"active","ping":97},{"user_id":139,"name":"K'aax Itzam","steam_id":76561198044024509,"connected_time":1973000000000,"state":"active","ping":101},{"user_id":159,"name":"Oaky Leaf","steam_id":76561198162821920,"connected_time":625000000000,"state":"active","ping":85},{"user_id":152,"name":"pakin157","steam_id":76561198035125667,"connected_time":1665000000000,"state":"active","ping":80},{"user_id":168,"name":"Not A Fake Uncletopia Server","steam_id":76561198152871288,"connected_time":74000000000,"state":"active","ping":55},{"user_id":144,"name":"Schmack","steam_id":76561198026535437,"connected_time":1913000000000,"state":"active","ping":61},{"user_id":167,"name":"omarking1st","steam_id":76561199393063989,"connected_time":117000000000,"state":"active","ping":576},{"user_id":148,"name":"Charles Darwin","steam_id":76561197973496139,"connected_time":1824000000000,"state":"active","ping":60}]},{"server_id":309,"name":"Uncletopia | Frankfurt | 4 | All Maps","name_short":"frk-4","host":"frk-1.de.uncletopia.com","port":27045,"enabled":true,"region":"eu","cc":"de","latitude":50.110924,"longitude":8.682127,"reserved":0,"last_update":"0001-01-01T00:00:00Z","name_a2s":"Uncletopia | Frankfurt | 4 | All Maps","protocol":17,"map":"pl_snowycoast","folder":"tf","game":"Team Fortress","app_id":440,"player_count":22,"max_players":24,"Bots":0,"server_type":"Dedicated","server_os":"Linux","password":true,"vac":true,"version":"7932396","steam_id":85568392924504275,"keywords":["nocrits","nodmgspread","payload","uncletopia"],"game_id":440,"stv_port":27046,"stv_name":"Uncletopia | Frankfurt | 4 | All Maps | STV","players":[{"user_id":471,"name":"walking plane","steam_id":76561198146779559,"connected_time":402000000000,"state":"active","ping":75},{"user_id":371,"name":"Suetolog","steam_id":76561199053090212,"connected_time":7232000000000,"state":"active","ping":51},{"user_id":456,"name":"Lux","steam_id":76561198060417740,"connected_time":1003000000000,"state":"active","ping":46},{"user_id":465,"name":"Mommy O.","steam_id":76561198122933193,"connected_time":689000000000,"state":"active","ping":89},{"user_id":472,"name":"Filin_Fill","steam_id":76561198044037139,"connected_time":316000000000,"state":"active","ping":95},{"user_id":435,"name":"Dabadyeet","steam_id":76561198047359132,"connected_time":2618000000000,"state":"active","ping":63},{"user_id":446,"name":"Satanael","steam_id":76561198165252930,"connected_time":2148000000000,"state":"active","ping":123},{"user_id":325,"name":"weird gamer","steam_id":76561198047749446,"connected_time":10610000000000,"state":"active","ping":50},{"user_id":469,"name":"Zenssei","steam_id":76561198209895623,"connected_time":541000000000,"state":"active","ping":102},{"user_id":427,"name":"Menty","steam_id":76561198036748212,"connected_time":2749000000000,"state":"active","ping":48},{"user_id":467,"name":"Stranger in a Strange Land","steam_id":76561198049843671,"connected_time":606000000000,"state":"active","ping":178},{"user_id":454,"name":"fb","steam_id":76561197988802856,"connected_time":1440000000000,"state":"active","ping":46},{"user_id":436,"name":"stun","steam_id":76561198276681691,"connected_time":2611000000000,"state":"active","ping":52},{"user_id":455,"name":"Asmodeus","steam_id":76561198283156425,"connected_time":1216000000000,"state":"active","ping":77},{"user_id":473,"name":"beurgeur","steam_id":76561198872426314,"connected_time":155000000000,"state":"active","ping":46},{"user_id":448,"name":"MorVill","steam_id":76561198809859945,"connected_time":1903000000000,"state":"active","ping":67},{"user_id":419,"name":"AftiksPL","steam_id":76561198875182686,"connected_time":3846000000000,"state":"active","ping":89},{"user_id":391,"name":"aww yeah","steam_id":76561197992978878,"connected_time":6579000000000,"state":"active","ping":80},{"user_id":464,"name":"Gangwolf","steam_id":76561198043868575,"connected_time":737000000000,"state":"active","ping":53},{"user_id":442,"name":"Mrbluuub","steam_id":76561199273847084,"connected_time":2327000000000,"state":"active","ping":67},{"user_id":410,"name":"Benzo Fury","steam_id":76561198025259336,"connected_time":5005000000000,"state":"active","ping":54},{"user_id":447,"name":"TheEventGuy","steam_id":76561197972797744,"connected_time":1940000000000,"state":"active","ping":53}]},{"server_id":310,"name":"Uncletopia | Frankfurt | 5 | All Maps","name_short":"frk-5","host":"frk-1.de.uncletopia.com","port":27055,"enabled":true,"region":"eu","cc":"de","latitude":50.110924,"longitude":8.682127,"reserved":0,"last_update":"0001-01-01T00:00:00Z","name_a2s":"Uncletopia | Frankfurt | 5 | All Maps","protocol":17,"map":"koth_viaduct","folder":"tf","game":"Team Fortress","app_id":440,"player_count":0,"max_players":24,"Bots":0,"server_type":"Dedicated","server_os":"Linux","password":true,"vac":true,"version":"7932396","steam_id":85568392924504277,"keywords":["cp","nocrits","nodmgspread","uncletopia"],"game_id":440,"stv_port":27056,"stv_name":"Uncletopia | Frankfurt | 5 | All Maps | STV","players":null},{"server_id":311,"name":"Uncletopia | Frankfurt | 6 | All Maps","name_short":"frk-6","host":"frk-1.de.uncletopia.com","port":27065,"enabled":true,"region":"eu","cc":"de","latitude":50.110924,"longitude":8.682127,"reserved":0,"last_update":"0001-01-01T00:00:00Z","name_a2s":"Uncletopia | Frankfurt | 6 | All Maps","protocol":17,"map":"cp_steel","folder":"tf","game":"Team Fortress","app_id":440,"player_count":10,"max_players":24,"Bots":0,"server_type":"Dedicated","server_os":"Linux","password":true,"vac":true,"version":"7932396","steam_id":85568392924504278,"keywords":["cp","nocrits","nodmgspread","uncletopia"],"game_id":440,"stv_port":27066,"stv_name":"Uncletopia | Frankfurt | 6 | All Maps | STV","players":[{"user_id":707,"name":"Juiceydough","steam_id":76561197997323419,"connected_time":400000000000,"state":"active","ping":89},{"user_id":644,"name":"FanFish","steam_id":76561199389558024,"connected_time":4759000000000,"state":"active","ping":66},{"user_id":666,"name":"tunamayo","steam_id":76561198127099299,"connected_time":4240000000000,"state":"active","ping":47},{"user_id":705,"name":"Chen","steam_id":76561198440363619,"connected_time":440000000000,"state":"active","ping":50},{"user_id":681,"name":"Españaa","steam_id":76561198879587832,"connected_time":2994000000000,"state":"active","ping":81},{"user_id":715,"name":"cp_steel_f10","steam_id":76561198274631806,"connected_time":111000000000,"state":"active","ping":46},{"user_id":698,"name":"Gety0","steam_id":76561198044387185,"connected_time":874000000000,"state":"active","ping":98},{"user_id":711,"name":"Vexu","steam_id":76561198113145846,"connected_time":247000000000,"state":"active","ping":100},{"user_id":701,"name":"Mr. Sandman","steam_id":76561198281209867,"connected_time":684000000000,"state":"active","ping":60},{"user_id":702,"name":"PANK_Y","steam_id":76561198327715144,"connected_time":681000000000,"state":"active","ping":70}]},{"server_id":23,"name":"Uncletopia | Frankfurt | 7 | Stopwatch Beta","name_short":"frk-7","host":"frk-1.de.uncletopia.com","port":27075,"enabled":true,"region":"eu","cc":"de","latitude":50.110924,"longitude":8.682127,"reserved":0,"last_update":"0001-01-01T00:00:00Z","name_a2s":"Uncletopia | Frankfurt | 7 | Stopwatch Beta","protocol":17,"map":"pl_snowycoast","folder":"tf","game":"Team Fortress","app_id":440,"player_count":1,"max_players":24,"Bots":0,"server_type":"Dedicated","server_os":"Linux","password":true,"vac":true,"version":"7932396","steam_id":85568392924742827,"keywords":["nocrits","nodmgspread","payload","uncletopia"],"game_id":440,"stv_port":27076,"stv_name":"Uncletopia | Frankfurt | 7 | Stopwatch Beta | STV","players":[{"user_id":13,"name":"N.M.E","steam_id":76561198012351470,"connected_time":6000000000,"state":"spawning","ping":44}]},{"server_id":24,"name":"Uncletopia | Frankfurt | 8 | Community","name_short":"frk-8","host":"frk-1.de.uncletopia.com","port":27085,"enabled":true,"region":"eu","cc":"de","latitude":50.110924,"longitude":8.682127,"reserved":0,"last_update":"0001-01-01T00:00:00Z","name_a2s":"Uncletopia | Frankfurt | 8 | Community","protocol":17,"map":"workshop/pl_highwood_b13.ugc1769496557","folder":"tf","game":"Team Fortress","app_id":440,"player_count":0,"max_players":24,"Bots":0,"server_type":"Dedicated","server_os":"Linux","password":true,"vac":true,"version":"7932396","steam_id":85568392924742828,"keywords":["nocrits","nodmgspread","payload","uncletopia"],"game_id":440,"stv_port":27086,"stv_name":"Uncletopia | Frankfurt | 8 | Community | STV","players":null},{"server_id":202,"name":"Uncletopia | Hong Kong | 1 | All Maps","name_short":"hgk-1","host":"hgk-1.hk.uncletopia.com","port":27015,"enabled":true,"region":"asia","cc":"hk","latitude":22.302711,"longitude":114.177216,"reserved":0,"last_update":"0001-01-01T00:00:00Z","name_a2s":"Uncletopia | Hong Kong | 1 | All Maps","protocol":17,"map":"cp_process_final","folder":"tf","game":"Team Fortress","app_id":440,"player_count":0,"max_players":24,"Bots":0,"server_type":"Dedicated","server_os":"Linux","password":true,"vac":true,"version":"7932396","steam_id":85568392924494504,"keywords":["cp","nocrits","nodmgspread","uncletopia"],"game_id":440,"stv_port":27016,"stv_name":"Uncletopia | Hong Kong | 1 | All Maps | STV","players":null},{"server_id":1,"name":"Uncletopia | Los Angeles | 1 | All Maps","name_short":"lax-1","host":"lax-1.us.uncletopia.com","port":27015,"enabled":true,"region":"us-west","cc":"us","latitude":33.94279,"longitude":-118.41004,"reserved":0,"last_update":"0001-01-01T00:00:00Z","name_a2s":"Uncletopia | Los Angeles | 1 | All Maps","protocol":17,"map":"cp_mountainlab","folder":"tf","game":"Team Fortress","app_id":440,"player_count":0,"max_players":24,"Bots":0,"server_type":"Dedicated","server_os":"Linux","password":true,"vac":true,"version":"7932396","steam_id":85568392924469991,"keywords":["cp","nocrits","nodmgspread","uncletopia"],"game_id":440,"stv_port":27016,"stv_name":"Uncletopia | Los Angeles | 1 | All Maps | STV","players":null},{"server_id":112,"name":"Uncletopia | Los Angeles | 2 | All Maps","name_short":"lax-2","host":"lax-1.us.uncletopia.com","port":27025,"enabled":true,"region":"us-west","cc":"us","latitude":33.94279,"longitude":-118.41004,"reserved":0,"last_update":"0001-01-01T00:00:00Z","name_a2s":"Uncletopia | Los Angeles | 2 | All Maps","protocol":17,"map":"pl_frontier_final","folder":"tf","game":"Team Fortress","app_id":440,"player_count":0,"max_players":24,"Bots":0,"server_type":"Dedicated","server_os":"Linux","password":true,"vac":true,"version":"7932396","steam_id":85568392924469992,"keywords":["nocrits","nodmgspread","payload","uncletopia"],"game_id":440,"stv_port":27026,"stv_name":"Uncletopia | Los Angeles | 2 | All Maps | STV","players":null},{"server_id":324,"name":"Uncletopia | Los Angeles | 3 | All Maps","name_short":"lax-3","host":"lax-1.us.uncletopia.com","port":27035,"enabled":true,"region":"us-west","cc":"us","latitude":33.94279,"longitude":-118.41004,"reserved":0,"last_update":"0001-01-01T00:00:00Z","name_a2s":"Uncletopia | Los Angeles | 3 | All Maps","protocol":17,"map":"cp_sunshine","folder":"tf","game":"Team Fortress","app_id":440,"player_count":24,"max_players":24,"Bots":0,"server_type":"Dedicated","server_os":"Linux","password":true,"vac":true,"version":"7932396","steam_id":85568392924510198,"keywords":["cp","nocrits","nodmgspread","uncletopia"],"game_id":440,"stv_port":27036,"stv_name":"Uncletopia | Los Angeles | 3 | All Maps | STV","players":[{"user_id":180,"name":"DowaTF","steam_id":76561198171329921,"connected_time":3509000000000,"state":"active","ping":75},{"user_id":215,"name":"IMM0RTAL","steam_id":76561198013747901,"connected_time":874000000000,"state":"active","ping":95},{"user_id":205,"name":"IDFWU","steam_id":76561198086525936,"connected_time":2169000000000,"state":"active","ping":114},{"user_id":216,"name":"Shinies","steam_id":76561198169459631,"connected_time":792000000000,"state":"active","ping":70},{"user_id":187,"name":"Kung fu Mungus","steam_id":76561198069281556,"connected_time":3056000000000,"state":"active","ping":82},{"user_id":229,"name":"An Unhappy Clown","steam_id":76561198175516514,"connected_time":7000000000,"state":"spawning","ping":286},{"user_id":146,"name":"reknud","steam_id":76561198066114874,"connected_time":6170000000000,"state":"active","ping":83},{"user_id":220,"name":"twizzyrich.com","steam_id":76561199474493516,"connected_time":595000000000,"state":"active","ping":54},{"user_id":221,"name":"RIP Old Man Chico :(","steam_id":76561198865172720,"connected_time":488000000000,"state":"active","ping":63},{"user_id":177,"name":"Agent Q","steam_id":76561198830829003,"connected_time":3598000000000,"state":"active","ping":63},{"user_id":218,"name":"WesyUWU (The mini crit pig)","steam_id":76561198069188177,"connected_time":770000000000,"state":"active","ping":86},{"user_id":206,"name":"Minerva","steam_id":76561198438979758,"connected_time":2104000000000,"state":"active","ping":116},{"user_id":203,"name":"Fictional Antagonist","steam_id":76561198102009930,"connected_time":2266000000000,"state":"active","ping":53},{"user_id":222,"name":"Dexter's Laboratory","steam_id":76561198199258353,"connected_time":487000000000,"state":"active","ping":103},{"user_id":227,"name":"Universe Man","steam_id":76561197997710655,"connected_time":361000000000,"state":"active","ping":118},{"user_id":178,"name":"☆*:.｡.Babygore.｡.:*☆","steam_id":76561198175257901,"connected_time":3592000000000,"state":"active","ping":125},{"user_id":224,"name":"The Dick Drainer","steam_id":76561198887041407,"connected_time":476000000000,"state":"active","ping":104},{"user_id":174,"name":"J. Zolo","steam_id":76561198072112494,"connected_time":3915000000000,"state":"active","ping":86},{"user_id":228,"name":"Greskrendtregk","steam_id":76561197969553142,"connected_time":350000000000,"state":"active","ping":77},{"user_id":214,"name":"Ghworg","steam_id":76561198324891401,"connected_time":1074000000000,"state":"active","ping":104},{"user_id":226,"name":"whimsical little creature","steam_id":76561198271710504,"connected_time":462000000000,"state":"active","ping":110},{"user_id":150,"name":"nea styles","steam_id":76561198149443710,"connected_time":5512000000000,"state":"active","ping":50},{"user_id":175,"name":"Etzan","steam_id":76561198026897084,"connected_time":3909000000000,"state":"active","ping":63},{"user_id":212,"name":"Brain damage squirrel","steam_id":76561198846344452,"connected_time":1279000000000,"state":"active","ping":50}]},{"server_id":25,"name":"Uncletopia | Los Angeles | 4 | Stopwatch Beta","name_short":"lax-4","host":"lax-1.us.uncletopia.com","port":27045,"enabled":true,"region":"us-west","cc":"us","latitude":33.94279,"longitude":-118.41004,"reserved":0,"last_update":"0001-01-01T00:00:00Z","name_a2s":"Uncletopia | Los Angeles | 4 | Stopwatch Beta","protocol":17,"map":"cp_altitude","folder":"tf","game":"Team Fortress","app_id":440,"player_count":0,"max_players":24,"Bots":0,"server_type":"Dedicated","server_os":"Linux","password":true,"vac":true,"version":"7932396","steam_id":85568392924510199,"keywords":["cp","nocrits","nodmgspread","uncletopia"],"game_id":440,"stv_port":27046,"stv_name":"Uncletopia | Los Angeles | 4 | Stopwatch Beta | STV","players":null},{"server_id":11,"name":"Uncletopia | London | 1 | All Maps","name_short":"lon-1","host":"lon-1.uk.uncletopia.com","port":27015,"enabled":true,"region":"eu","cc":"gb","latitude":51.509865,"longitude":-0.118092,"reserved":0,"last_update":"0001-01-01T00:00:00Z","name_a2s":"Uncletopia | London | 1 | All Maps","protocol":17,"map":"pl_borneo","folder":"tf","game":"Team Fortress","app_id":440,"player_count":21,"max_players":24,"Bots":0,"server_type":"Dedicated","server_os":"Linux","password":true,"vac":true,"version":"7932396","steam_id":85568392924367362,"keywords":["nocrits","nodmgspread","payload","uncletopia"],"game_id":440,"stv_port":27016,"stv_name":"Uncletopia | London | 1 | All Maps | STV","players":[{"user_id":705,"name":"I am NOT in your walls...","steam_id":76561198347336086,"connected_time":3710000000000,"state":"active","ping":44},{"user_id":741,"name":"Bill Carr","steam_id":76561198110033943,"connected_time":1430000000000,"state":"active","ping":31},{"user_id":748,"name":"thorn648","steam_id":76561198012565777,"connected_time":42000000000,"state":"active","ping":172},{"user_id":707,"name":"LarsInABox","steam_id":76561198028329262,"connected_time":3699000000000,"state":"active","ping":74},{"user_id":710,"name":"Pestdoktor","steam_id":76561198058159271,"connected_time":3637000000000,"state":"active","ping":73},{"user_id":700,"name":"Kleiner Engel","steam_id":76561198009922500,"connected_time":4208000000000,"state":"active","ping":60},{"user_id":745,"name":"chief","steam_id":76561198111308484,"connected_time":455000000000,"state":"active","ping":57},{"user_id":749,"name":"percocet.puppy.2007","steam_id":76561198148074472,"connected_time":27000000000,"state":"active","ping":52},{"user_id":747,"name":"✪ qua ✪","steam_id":76561198066408333,"connected_time":82000000000,"state":"active","ping":75},{"user_id":685,"name":"jimmy bob","steam_id":76561198319583692,"connected_time":6074000000000,"state":"active","ping":57},{"user_id":734,"name":"Fwebbie","steam_id":76561199006875621,"connected_time":2021000000000,"state":"active","ping":49},{"user_id":729,"name":"bruhemian","steam_id":76561198191854931,"connected_time":2058000000000,"state":"active","ping":50},{"user_id":728,"name":"Caerot","steam_id":76561198839000676,"connected_time":2071000000000,"state":"active","ping":70},{"user_id":735,"name":"cuddles \u003c3","steam_id":76561198805181599,"connected_time":2016000000000,"state":"active","ping":58},{"user_id":750,"name":"weed.kitten.2009","steam_id":76561198147277460,"connected_time":24000000000,"state":"active","ping":67},{"user_id":727,"name":"Lykos","steam_id":76561198074827880,"connected_time":2507000000000,"state":"active","ping":109},{"user_id":743,"name":"trite","steam_id":76561197983765323,"connected_time":1010000000000,"state":"active","ping":55},{"user_id":702,"name":"Woman (Real)","steam_id":76561199151823932,"connected_time":4076000000000,"state":"active","ping":93},{"user_id":719,"name":"Sylvanas","steam_id":76561198154904165,"connected_time":2988000000000,"state":"active","ping":107},{"user_id":744,"name":"AWildTamim","steam_id":76561198048060652,"connected_time":917000000000,"state":"active","ping":42},{"user_id":732,"name":"🃔 Katarina","steam_id":76561198065652251,"connected_time":2051000000000,"state":"active","ping":51}]},{"server_id":114,"name":"Uncletopia | London | 2 | All Maps","name_short":"lon-2","host":"lon-1.uk.uncletopia.com","port":27025,"enabled":true,"region":"eu","cc":"gb","latitude":51.509865,"longitude":-0.118092,"reserved":0,"last_update":"0001-01-01T00:00:00Z","name_a2s":"Uncletopia | London | 2 | All Maps","protocol":17,"map":"pl_badwater","folder":"tf","game":"Team Fortress","app_id":440,"player_count":24,"max_players":24,"Bots":0,"server_type":"Dedicated","server_os":"Linux","password":true,"vac":true,"version":"7932396","steam_id":85568392924470941,"keywords":["nocrits","nodmgspread","payload","uncletopia"],"game_id":440,"stv_port":27026,"stv_name":"Uncletopia | London | 2 | All Maps | STV","players":[{"user_id":511,"name":"Rocade","steam_id":76561198116634856,"connected_time":5491000000000,"state":"active","ping":59},{"user_id":571,"name":"pvt. dancer","steam_id":76561197971490587,"connected_time":1187000000000,"state":"active","ping":48},{"user_id":558,"name":"Martin.","steam_id":76561199487883321,"connected_time":1824000000000,"state":"active","ping":60},{"user_id":589,"name":"asami","steam_id":76561197995593787,"connected_time":260000000000,"state":"active","ping":60},{"user_id":563,"name":"Wattseyy","steam_id":76561198248567360,"connected_time":1381000000000,"state":"active","ping":48},{"user_id":577,"name":":P","steam_id":76561198106399430,"connected_time":565000000000,"state":"active","ping":41},{"user_id":578,"name":"ValentiN","steam_id":76561198183759705,"connected_time":478000000000,"state":"active","ping":44},{"user_id":560,"name":"outlaw","steam_id":76561198323805289,"connected_time":1546000000000,"state":"active","ping":33},{"user_id":586,"name":"Zina Tv","steam_id":76561198116530769,"connected_time":371000000000,"state":"active","ping":94},{"user_id":561,"name":"Dim","steam_id":76561198141549249,"connected_time":1399000000000,"state":"active","ping":136},{"user_id":588,"name":"LemonLeCitron","steam_id":76561198215545267,"connected_time":328000000000,"state":"active","ping":70},{"user_id":590,"name":"ldshwt","steam_id":76561198090364357,"connected_time":192000000000,"state":"active","ping":61},{"user_id":533,"name":"COW MANGLING UR MOM","steam_id":76561198062171002,"connected_time":3842000000000,"state":"active","ping":46},{"user_id":581,"name":"IDon'tNeedACoolName","steam_id":76561198013547503,"connected_time":430000000000,"state":"active","ping":65},{"user_id":580,"name":"nemelex","steam_id":76561198958005865,"connected_time":436000000000,"state":"active","ping":59},{"user_id":573,"name":"schmick h_stt 0","steam_id":76561198039537958,"connected_time":1136000000000,"state":"active","ping":44},{"user_id":546,"name":"Kurage","steam_id":76561198021221288,"connected_time":2884000000000,"state":"active","ping":69},{"user_id":583,"name":"Whos Mans Is Dis","steam_id":76561198370978056,"connected_time":427000000000,"state":"active","ping":191},{"user_id":587,"name":"jt7","steam_id":76561198073655162,"connected_time":363000000000,"state":"active","ping":82},{"user_id":557,"name":"Pronton","steam_id":76561198082502910,"connected_time":1889000000000,"state":"active","ping":65},{"user_id":550,"name":"Dirty Joe","steam_id":76561198142418870,"connected_time":2550000000000,"state":"active","ping":46},{"user_id":527,"name":"Proud Jojo Fan #TF2SP","steam_id":76561198847327216,"connected_time":4876000000000,"state":"active","ping":73},{"user_id":570,"name":"Purple toaster yt","steam_id":76561199071229316,"connected_time":1294000000000,"state":"active","ping":56},{"user_id":517,"name":"Syd","steam_id":76561198020515027,"connected_time":5257000000000,"state":"active","ping":89}]},{"server_id":320,"name":"Uncletopia | London | 3 | All Maps","name_short":"lon-3","host":"lon-1.uk.uncletopia.com","port":27035,"enabled":true,"region":"eu","cc":"gb","latitude":51.509865,"longitude":-0.118092,"reserved":0,"last_update":"0001-01-01T00:00:00Z","name_a2s":"Uncletopia | London | 3 | All Maps","protocol":17,"map":"cp_mountainlab","folder":"tf","game":"Team Fortress","app_id":440,"player_count":24,"max_players":24,"Bots":0,"server_type":"Dedicated","server_os":"Linux","password":true,"vac":true,"version":"7932396","steam_id":85568392924510192,"keywords":["cp","nocrits","nodmgspread","uncletopia"],"game_id":440,"stv_port":27036,"stv_name":"Uncletopia | London | 3 | All Maps | STV","players":[{"user_id":538,"name":"TylowStar","steam_id":76561198357107806,"connected_time":376000000000,"state":"active","ping":62},{"user_id":345,"name":"transgender e-girl","steam_id":76561198168589809,"connected_time":9615000000000,"state":"active","ping":68},{"user_id":525,"name":"degroot farmer","steam_id":76561199042470246,"connected_time":2413000000000,"state":"active","ping":59},{"user_id":495,"name":"Envy","steam_id":76561198132723219,"connected_time":5172000000000,"state":"active","ping":105},{"user_id":522,"name":"I want to kms","steam_id":76561199441131396,"connected_time":2945000000000,"state":"active","ping":127},{"user_id":494,"name":"Pogmanson","steam_id":76561198919953445,"connected_time":5197000000000,"state":"active","ping":39},{"user_id":539,"name":"Doctor Medic","steam_id":76561198100957443,"connected_time":304000000000,"state":"active","ping":70},{"user_id":535,"name":"lofimonkeyjazzfan","steam_id":76561198852091531,"connected_time":1004000000000,"state":"active","ping":50},{"user_id":529,"name":"Sandshee","steam_id":76561198088574666,"connected_time":1974000000000,"state":"active","ping":35},{"user_id":524,"name":"♥ Emma ♥","steam_id":76561198046796406,"connected_time":2481000000000,"state":"active","ping":51},{"user_id":540,"name":"GroGroudonDu31","steam_id":76561198155106297,"connected_time":261000000000,"state":"active","ping":59},{"user_id":541,"name":"C.H.E.R.E.P.","steam_id":76561198026938595,"connected_time":259000000000,"state":"active","ping":77},{"user_id":537,"name":"le perv","steam_id":76561198272559112,"connected_time":430000000000,"state":"active","ping":105},{"user_id":542,"name":"E² FTH","steam_id":76561198066287815,"connected_time":210000000000,"state":"active","ping":113},{"user_id":543,"name":"Grillem Dafoe","steam_id":76561198306874574,"connected_time":92000000000,"state":"active","ping":62},{"user_id":532,"name":"Zambiealex","steam_id":76561198356826485,"connected_time":1282000000000,"state":"active","ping":48},{"user_id":505,"name":"♥aura♥","steam_id":76561198066258544,"connected_time":4488000000000,"state":"active","ping":63},{"user_id":544,"name":"Rezzarezz","steam_id":76561198092020043,"connected_time":69000000000,"state":"active","ping":75},{"user_id":545,"name":"I Don't Know","steam_id":76561198841011430,"connected_time":67000000000,"state":"active","ping":76},{"user_id":464,"name":"Astolfo","steam_id":76561198354584982,"connected_time":6212000000000,"state":"active","ping":62},{"user_id":536,"name":"Son Goku","steam_id":76561199383437138,"connected_time":626000000000,"state":"active","ping":130},{"user_id":162,"name":"1914","steam_id":76561198257383813,"connected_time":15582000000000,"state":"active","ping":57},{"user_id":528,"name":"pyro gaming","steam_id":76561198087970118,"connected_time":2050000000000,"state":"active","ping":74},{"user_id":518,"name":"ROX","steam_id":76561198272289320,"connected_time":3141000000000,"state":"active","ping":56}]},{"server_id":321,"name":"Uncletopia | London | 4 | All Maps","name_short":"lon-4","host":"lon-1.uk.uncletopia.com","port":27045,"enabled":true,"region":"eu","cc":"gb","latitude":51.509865,"longitude":-0.118092,"reserved":0,"last_update":"0001-01-01T00:00:00Z","name_a2s":"Uncletopia | London | 4 | All Maps","protocol":17,"map":"pl_barnblitz","folder":"tf","game":"Team Fortress","app_id":440,"player_count":24,"max_players":24,"Bots":0,"server_type":"Dedicated","server_os":"Linux","password":true,"vac":true,"version":"7932396","steam_id":85568392924510193,"keywords":["nocrits","nodmgspread","payload","uncletopia"],"game_id":440,"stv_port":27046,"stv_name":"Uncletopia | London | 4 | All Maps | STV","players":[{"user_id":363,"name":"Tywhip","steam_id":76561199207545191,"connected_time":507000000000,"state":"active","ping":55},{"user_id":294,"name":"DelaNo","steam_id":76561199125086655,"connected_time":5611000000000,"state":"active","ping":41},{"user_id":342,"name":"TheMinerat","steam_id":76561198201171941,"connected_time":1502000000000,"state":"active","ping":67},{"user_id":343,"name":"Saya","steam_id":76561198250126168,"connected_time":1442000000000,"state":"active","ping":70},{"user_id":362,"name":"❤Femboy boy❤","steam_id":76561198977980700,"connected_time":604000000000,"state":"active","ping":88},{"user_id":280,"name":"GoblinGaming","steam_id":76561198360395476,"connected_time":6458000000000,"state":"active","ping":37},{"user_id":302,"name":"IndigoJones","steam_id":76561198050284262,"connected_time":4704000000000,"state":"active","ping":51},{"user_id":344,"name":"Sharkteethgamer","steam_id":76561198811122376,"connected_time":1369000000000,"state":"active","ping":84},{"user_id":340,"name":"Vermin","steam_id":76561198045527771,"connected_time":1599000000000,"state":"active","ping":55},{"user_id":345,"name":"Gekko","steam_id":76561198869884227,"connected_time":1264000000000,"state":"active","ping":85},{"user_id":347,"name":"Eidolon","steam_id":76561198043919565,"connected_time":1238000000000,"state":"active","ping":68},{"user_id":361,"name":"glyph","steam_id":76561197980736364,"connected_time":659000000000,"state":"active","ping":88},{"user_id":360,"name":"StagRed","steam_id":76561198055973266,"connected_time":906000000000,"state":"active","ping":126},{"user_id":364,"name":"D0ntDieAlone","steam_id":76561198029248604,"connected_time":450000000000,"state":"active","ping":56},{"user_id":292,"name":"Zerfesh","steam_id":76561198117534358,"connected_time":5756000000000,"state":"active","ping":97},{"user_id":351,"name":"Kamikrazy","steam_id":76561198044254918,"connected_time":1092000000000,"state":"active","ping":60},{"user_id":352,"name":"KaasKrans","steam_id":76561198240451972,"connected_time":1079000000000,"state":"active","ping":58},{"user_id":366,"name":"Abaddon","steam_id":76561198030992243,"connected_time":372000000000,"state":"active","ping":119},{"user_id":354,"name":"✧ Ghosty ✧","steam_id":76561198312022168,"connected_time":1050000000000,"state":"active","ping":56},{"user_id":295,"name":"pAftAq","steam_id":76561198359966356,"connected_time":5467000000000,"state":"active","ping":109},{"user_id":355,"name":"CrazyPatryk1234","steam_id":76561198079235472,"connected_time":1041000000000,"state":"active","ping":69},{"user_id":356,"name":"Darfsterman #rustclash","steam_id":76561199004139305,"connected_time":1033000000000,"state":"active","ping":69},{"user_id":357,"name":"ButtSucker69","steam_id":76561199162157270,"connected_time":1025000000000,"state":"active","ping":144},{"user_id":358,"name":"*glups* uh-OH","steam_id":76561198034955422,"connected_time":1022000000000,"state":"active","ping":60}]},{"server_id":21,"name":"Uncletopia | London | 5 | All Maps","name_short":"lon-5","host":"lon-1.uk.uncletopia.com","port":27055,"enabled":true,"region":"eu","cc":"gb","latitude":51.509865,"longitude":-0.118092,"reserved":0,"last_update":"0001-01-01T00:00:00Z","name_a2s":"Uncletopia | London | 5 | All Maps","protocol":17,"map":"plr_hightower","folder":"tf","game":"Team Fortress","app_id":440,"player_count":24,"max_players":24,"Bots":0,"server_type":"Dedicated","server_os":"Linux","password":true,"vac":true,"version":"7932396","steam_id":85568392924742829,"keywords":["nocrits","nodmgspread","payload","uncletopia"],"game_id":440,"stv_port":27056,"stv_name":"Uncletopia | London | 5 | All Maps | STV","players":[{"user_id":401,"name":"the indomitable human spirit","steam_id":76561198718760200,"connected_time":437000000000,"state":"active","ping":47},{"user_id":402,"name":"Max Power","steam_id":76561198019269089,"connected_time":372000000000,"state":"active","ping":54},{"user_id":363,"name":"killbind irl","steam_id":76561198180637374,"connected_time":3427000000000,"state":"active","ping":92},{"user_id":395,"name":"Sirzen","steam_id":76561198170155434,"connected_time":952000000000,"state":"active","ping":48},{"user_id":345,"name":"FoxyTheFish","steam_id":76561199074190919,"connected_time":4553000000000,"state":"active","ping":59},{"user_id":403,"name":"The Power","steam_id":76561198060566884,"connected_time":228000000000,"state":"active","ping":41},{"user_id":391,"name":"CEO of Duck","steam_id":76561198992388065,"connected_time":1139000000000,"state":"active","ping":71},{"user_id":313,"name":"ThatSiegeKid","steam_id":76561198368037656,"connected_time":5902000000000,"state":"active","ping":44},{"user_id":337,"name":":3","steam_id":76561198169471853,"connected_time":4935000000000,"state":"active","ping":41},{"user_id":404,"name":"Alias_of_Grey","steam_id":76561198198843910,"connected_time":192000000000,"state":"active","ping":148},{"user_id":405,"name":"Particularly Dangerous Moth","steam_id":76561198204179347,"connected_time":183000000000,"state":"active","ping":136},{"user_id":399,"name":"scott steiners strongest warrio","steam_id":76561198148888622,"connected_time":640000000000,"state":"active","ping":59},{"user_id":389,"name":"Adib al-asfar","steam_id":76561198095691592,"connected_time":1353000000000,"state":"active","ping":72},{"user_id":381,"name":"stonemonkey","steam_id":76561199478378377,"connected_time":2186000000000,"state":"active","ping":55},{"user_id":393,"name":"Lappy","steam_id":76561198271783717,"connected_time":1127000000000,"state":"active","ping":65},{"user_id":398,"name":"ThaumielAT","steam_id":76561199488559560,"connected_time":671000000000,"state":"active","ping":116},{"user_id":311,"name":"BOT Tøfler","steam_id":76561198070606923,"connected_time":5990000000000,"state":"active","ping":78},{"user_id":294,"name":"Thing","steam_id":76561197997904403,"connected_time":6800000000000,"state":"active","ping":102},{"user_id":334,"name":"Vitphire","steam_id":76561198842686821,"connected_time":5061000000000,"state":"active","ping":80},{"user_id":376,"name":"P.A.J","steam_id":76561198064104531,"connected_time":2543000000000,"state":"active","ping":84},{"user_id":329,"name":"MrGazdag","steam_id":76561198238900054,"connected_time":5077000000000,"state":"active","ping":46},{"user_id":353,"name":"carrots are the future","steam_id":76561198069649097,"connected_time":4101000000000,"state":"active","ping":63},{"user_id":283,"name":"333res","steam_id":76561198148106704,"connected_time":7429000000000,"state":"active","ping":87},{"user_id":359,"name":"Peanut","steam_id":76561198018865486,"connected_time":3751000000000,"state":"active","ping":71}]},{"server_id":22,"name":"Uncletopia | London | 6 | All Maps","name_short":"lon-6","host":"lon-1.uk.uncletopia.com","port":27065,"enabled":true,"region":"eu","cc":"gb","latitude":51.509865,"longitude":-0.118092,"reserved":0,"last_update":"0001-01-01T00:00:00Z","name_a2s":"Uncletopia | London | 6 | All Maps","protocol":17,"map":"pl_pier","folder":"tf","game":"Team Fortress","app_id":440,"player_count":24,"max_players":24,"Bots":0,"server_type":"Dedicated","server_os":"Linux","password":true,"vac":true,"version":"7932396","steam_id":85568392924742830,"keywords":["nocrits","nodmgspread","payload","uncletopia"],"game_id":440,"stv_port":27066,"stv_name":"Uncletopia | London | 6 | All Maps | STV","players":[{"user_id":193,"name":"NikIdamous","steam_id":76561198147872963,"connected_time":1019000000000,"state":"active","ping":107},{"user_id":146,"name":"Heed","steam_id":76561198033605800,"connected_time":4819000000000,"state":"active","ping":89},{"user_id":185,"name":"yeah","steam_id":76561198188642265,"connected_time":2031000000000,"state":"active","ping":53},{"user_id":148,"name":"After8","steam_id":76561198090750865,"connected_time":4806000000000,"state":"active","ping":75},{"user_id":191,"name":"RedFog","steam_id":76561198284713081,"connected_time":1257000000000,"state":"active","ping":48},{"user_id":196,"name":"Baron","steam_id":76561198021901783,"connected_time":905000000000,"state":"active","ping":61},{"user_id":160,"name":"FoOzTV","steam_id":76561197998636728,"connected_time":4422000000000,"state":"active","ping":70},{"user_id":190,"name":"Burgoo_King","steam_id":76561198133572225,"connected_time":1349000000000,"state":"active","ping":83},{"user_id":208,"name":"shankz","steam_id":76561198128803260,"connected_time":274000000000,"state":"active","ping":47},{"user_id":197,"name":"omnibombulator","steam_id":76561198025858897,"connected_time":903000000000,"state":"active","ping":46},{"user_id":198,"name":"Genesis","steam_id":76561198999652040,"connected_time":900000000000,"state":"active","ping":56},{"user_id":174,"name":"JaneDoe","steam_id":76561198067081506,"connected_time":3118000000000,"state":"active","ping":84},{"user_id":184,"name":"Puss in Boots","steam_id":76561198211599767,"connected_time":2039000000000,"state":"active","ping":53},{"user_id":186,"name":"xiiski","steam_id":76561198152387747,"connected_time":1984000000000,"state":"active","ping":106},{"user_id":199,"name":"Teecho","steam_id":76561197995269610,"connected_time":895000000000,"state":"active","ping":57},{"user_id":166,"name":"Lempii","steam_id":76561198433507634,"connected_time":3791000000000,"state":"active","ping":98},{"user_id":200,"name":"superpx1","steam_id":76561198112530280,"connected_time":886000000000,"state":"active","ping":81},{"user_id":206,"name":"Malai","steam_id":76561198062537014,"connected_time":433000000000,"state":"active","ping":64},{"user_id":201,"name":"HEXXUKI","steam_id":76561199078076373,"connected_time":878000000000,"state":"active","ping":46},{"user_id":112,"name":"Dr Sex","steam_id":76561198029044617,"connected_time":7854000000000,"state":"active","ping":49},{"user_id":136,"name":"Carrotcracker","steam_id":76561198034862396,"connected_time":5860000000000,"state":"active","ping":78},{"user_id":205,"name":"Have A Blessed Day","steam_id":76561198030956814,"connected_time":617000000000,"state":"active","ping":76},{"user_id":204,"name":"Dewotter","steam_id":76561198007653168,"connected_time":796000000000,"state":"active","ping":60},{"user_id":60,"name":"Wattsy","steam_id":76561199143306500,"connected_time":11301000000000,"state":"active","ping":65}]},{"server_id":40,"name":"Uncletopia | London | 7 | No Payload","name_short":"lon-7","host":"lon-1.uk.uncletopia.com","port":27075,"enabled":true,"region":"eu","cc":"gb","latitude":51.509865,"longitude":-0.118092,"reserved":0,"last_update":"0001-01-01T00:00:00Z","name_a2s":"Uncletopia | London | 7 | No Payload","protocol":17,"map":"cp_fastlane","folder":"tf","game":"Team Fortress","app_id":440,"player_count":23,"max_players":24,"Bots":0,"server_type":"Dedicated","server_os":"Linux","password":true,"vac":true,"version":"7932396","steam_id":85568392924964314,"keywords":["cp","nocrits","nodmgspread","uncletopia"],"game_id":440,"stv_port":27076,"stv_name":"Uncletopia | London | 7 | No Payload | STV","players":[{"user_id":145,"name":"QuorglepleegJR","steam_id":76561198984658438,"connected_time":2977000000000,"state":"active","ping":49},{"user_id":188,"name":"CrashFlash","steam_id":76561198090573902,"connected_time":71000000000,"state":"active","ping":45},{"user_id":169,"name":"Pvt. Prinny","steam_id":76561198030278562,"connected_time":1024000000000,"state":"active","ping":62},{"user_id":177,"name":"bowchika wowa #SlavaUkraine","steam_id":76561198159564550,"connected_time":787000000000,"state":"active","ping":69},{"user_id":183,"name":"install gentoo","steam_id":76561198185257982,"connected_time":416000000000,"state":"active","ping":79},{"user_id":163,"name":"akakez","steam_id":76561198095432821,"connected_time":1341000000000,"state":"active","ping":115},{"user_id":178,"name":"._.","steam_id":76561198300316801,"connected_time":614000000000,"state":"active","ping":109},{"user_id":137,"name":"Bobirulez","steam_id":76561198009125458,"connected_time":4047000000000,"state":"active","ping":60},{"user_id":171,"name":"180p","steam_id":76561198342171751,"connected_time":996000000000,"state":"active","ping":142},{"user_id":160,"name":"M2rtRa","steam_id":76561198111036466,"connected_time":1584000000000,"state":"active","ping":76},{"user_id":157,"name":"quickfast","steam_id":76561199438900919,"connected_time":2156000000000,"state":"active","ping":43},{"user_id":140,"name":"Udinese Dion","steam_id":76561198067931573,"connected_time":3713000000000,"state":"active","ping":63},{"user_id":180,"name":"midlpsyzl47","steam_id":76561199475972637,"connected_time":562000000000,"state":"active","ping":71},{"user_id":182,"name":"OutOfDucks","steam_id":76561198166376227,"connected_time":494000000000,"state":"active","ping":57},{"user_id":164,"name":"TekuSP","steam_id":76561198072367754,"connected_time":1272000000000,"state":"active","ping":60},{"user_id":173,"name":"Konfy","steam_id":76561197985074663,"connected_time":941000000000,"state":"active","ping":59},{"user_id":159,"name":"Mega","steam_id":76561197970389664,"connected_time":1726000000000,"state":"active","ping":47},{"user_id":118,"name":"CubiCub","steam_id":76561198063875960,"connected_time":5206000000000,"state":"active","ping":108},{"user_id":184,"name":"DarthPaul8181","steam_id":76561198373050455,"connected_time":327000000000,"state":"active","ping":52},{"user_id":189,"name":"jeans","steam_id":76561198097706286,"connected_time":40000000000,"state":"active","ping":56},{"user_id":186,"name":"Healix","steam_id":76561198130270161,"connected_time":201000000000,"state":"active","ping":60},{"user_id":187,"name":"Orbit","steam_id":76561198242999878,"connected_time":178000000000,"state":"active","ping":56},{"user_id":156,"name":"Petight","steam_id":76561197999438798,"connected_time":2223000000000,"state":"active","ping":32}]},{"server_id":41,"name":"Uncletopia | London | 8 | Community","name_short":"lon-8","host":"lon-1.uk.uncletopia.com","port":27085,"enabled":true,"region":"eu","cc":"gb","latitude":51.509865,"longitude":-0.118092,"reserved":0,"last_update":"0001-01-01T00:00:00Z","name_a2s":"Uncletopia | London | 8 | Community","protocol":17,"map":"workshop/pl_divulgence_b4b.ugc2884808746","folder":"tf","game":"Team Fortress","app_id":440,"player_count":0,"max_players":24,"Bots":0,"server_type":"Dedicated","server_os":"Linux","password":true,"vac":true,"version":"7932396","steam_id":85568392924964315,"keywords":["nocrits","nodmgspread","payload","uncletopia"],"game_id":440,"stv_port":27086,"stv_name":"Uncletopia | London | 8 | Community | STV","players":null},{"server_id":300,"name":"Uncletopia | Montréal | 1 | All Maps","name_short":"mtl-1","host":"mtl-1.ca.uncletopia.com","port":27015,"enabled":true,"region":"us-east","cc":"ca","latitude":45.50889,"longitude":-73.56167,"reserved":0,"last_update":"0001-01-01T00:00:00Z","name_a2s":"Uncletopia | Montréal | 1 | All Maps","protocol":17,"map":"cp_altitude","folder":"tf","game":"Team Fortress","app_id":440,"player_count":0,"max_players":24,"Bots":0,"server_type":"Dedicated","server_os":"Linux","password":true,"vac":true,"version":"7932396","steam_id":85568392924500087,"keywords":["cp","nocrits","nodmgspread","uncletopia"],"game_id":440,"stv_port":27016,"stv_name":"Uncletopia | Montréal | 1 | All Maps | STV","players":null},{"server_id":301,"name":"Uncletopia | Montréal | 2 | All Maps","name_short":"mtl-2","host":"mtl-1.ca.uncletopia.com","port":27025,"enabled":true,"region":"us-east","cc":"ca","latitude":45.50889,"longitude":-73.56167,"reserved":0,"last_update":"0001-01-01T00:00:00Z","name_a2s":"Uncletopia | Montréal | 2 | All Maps","protocol":17,"map":"koth_lakeside_final","folder":"tf","game":"Team Fortress","app_id":440,"player_count":0,"max_players":24,"Bots":0,"server_type":"Dedicated","server_os":"Linux","password":true,"vac":true,"version":"7932396","steam_id":85568392924500088,"keywords":["cp","nocrits","nodmgspread","uncletopia"],"game_id":440,"stv_port":27026,"stv_name":"Uncletopia | Montréal | 2 | All Maps | STV","players":null},{"server_id":302,"name":"Uncletopia | Montréal | 3 | All Maps","name_short":"mtl-3","host":"mtl-1.ca.uncletopia.com","port":27035,"enabled":true,"region":"us-east","cc":"ca","latitude":45.50889,"longitude":-73.56167,"reserved":0,"last_update":"0001-01-01T00:00:00Z","name_a2s":"Uncletopia | Montréal | 3 | All Maps","protocol":17,"map":"cp_process_final","folder":"tf","game":"Team Fortress","app_id":440,"player_count":0,"max_players":24,"Bots":0,"server_type":"Dedicated","server_os":"Linux","password":true,"vac":true,"version":"7932396","steam_id":85568392924500089,"keywords":["cp","nocrits","nodmgspread","uncletopia"],"game_id":440,"stv_port":27036,"stv_name":"Uncletopia | Montréal | 3 | All Maps | STV","players":null},{"server_id":303,"name":"Uncletopia | Montréal | 4 | No Payload","name_short":"mtl-4","host":"mtl-1.ca.uncletopia.com","port":27045,"enabled":true,"region":"us-east","cc":"ca","latitude":45.50889,"longitude":-73.56167,"reserved":0,"last_update":"0001-01-01T00:00:00Z","name_a2s":"Uncletopia | Montréal | 4 | No Payload","protocol":17,"map":"cp_snakewater_final1","folder":"tf","game":"Team Fortress","app_id":440,"player_count":0,"max_players":24,"Bots":0,"server_type":"Dedicated","server_os":"Linux","password":true,"vac":true,"version":"7932396","steam_id":85568392924500090,"keywords":["cp","nocrits","nodmgspread","uncletopia"],"game_id":440,"stv_port":27046,"stv_name":"Uncletopia | Montréal | 4 | No Payload | STV","players":null},{"server_id":13,"name":"Uncletopia | New York City | 1 | All Maps","name_short":"nyc-1","host":"nyc-1.us.uncletopia.com","port":27015,"enabled":true,"region":"us-east","cc":"us","latitude":40.73061,"longitude":-73.93524,"reserved":0,"last_update":"0001-01-01T00:00:00Z","name_a2s":"Uncletopia | New York City | 1 | All Maps","protocol":17,"map":"cp_5gorge","folder":"tf","game":"Team Fortress","app_id":440,"player_count":19,"max_players":24,"Bots":0,"server_type":"Dedicated","server_os":"Linux","password":true,"vac":true,"version":"7932396","steam_id":85568392924469993,"keywords":["cp","nocrits","nodmgspread","uncletopia"],"game_id":440,"stv_port":27016,"stv_name":"Uncletopia | New York City | 1 | All Maps | STV","players":[{"user_id":30,"name":"Xx_gam3rberg_xX","steam_id":76561199035781025,"connected_time":815000000000,"state":"active","ping":66},{"user_id":27,"name":"misterspud","steam_id":76561198195306218,"connected_time":1276000000000,"state":"active","ping":54},{"user_id":28,"name":"Importality","steam_id":76561198049943127,"connected_time":1274000000000,"state":"active","ping":85},{"user_id":29,"name":"Womp","steam_id":76561198245103000,"connected_time":1264000000000,"state":"active","ping":44},{"user_id":31,"name":"Bubz","steam_id":76561199013499631,"connected_time":744000000000,"state":"active","ping":76},{"user_id":33,"name":"turd ferguson","steam_id":76561198071620782,"connected_time":534000000000,"state":"active","ping":61},{"user_id":36,"name":"[BBC] Justario","steam_id":76561198016095410,"connected_time":291000000000,"state":"active","ping":45},{"user_id":35,"name":"diaper!","steam_id":76561198839562402,"connected_time":383000000000,"state":"active","ping":81},{"user_id":37,"name":"Myn","steam_id":76561198055438857,"connected_time":256000000000,"state":"active","ping":56},{"user_id":38,"name":".Thomas","steam_id":76561198162759004,"connected_time":249000000000,"state":"active","ping":68},{"user_id":39,"name":"whats an egg","steam_id":76561198991039398,"connected_time":240000000000,"state":"active","ping":81},{"user_id":47,"name":"pipibaby","steam_id":76561198067430685,"connected_time":83000000000,"state":"active","ping":60},{"user_id":41,"name":"carrot cake","steam_id":76561198055174915,"connected_time":217000000000,"state":"active","ping":63},{"user_id":42,"name":"Big Soup","steam_id":76561198045609958,"connected_time":213000000000,"state":"active","ping":97},{"user_id":43,"name":"theMathExists","steam_id":76561199405895104,"connected_time":212000000000,"state":"active","ping":92},{"user_id":48,"name":"Toast","steam_id":76561198401995265,"connected_time":60000000000,"state":"active","ping":75},{"user_id":45,"name":"Mr.Government","steam_id":76561199076891158,"connected_time":117000000000,"state":"active","ping":75},{"user_id":46,"name":"dave","steam_id":76561198944952153,"connected_time":101000000000,"state":"active","ping":76},{"user_id":49,"name":"Timothy Grunclebottoms","steam_id":76561198871450477,"connected_time":33000000000,"state":"active","ping":60}]},{"server_id":14,"name":"Uncletopia | New York City | 2 | All Maps","name_short":"nyc-2","host":"nyc-1.us.uncletopia.com","port":27025,"enabled":true,"region":"us-east","cc":"us","latitude":40.73061,"longitude":-73.93524,"reserved":0,"last_update":"0001-01-01T00:00:00Z","name_a2s":"Uncletopia | New York City | 2 | All Maps","protocol":17,"map":"cp_vanguard","folder":"tf","game":"Team Fortress","app_id":440,"player_count":23,"max_players":24,"Bots":0,"server_type":"Dedicated","server_os":"Linux","password":true,"vac":true,"version":"7932396","steam_id":85568392924469994,"keywords":["cp","nocrits","nodmgspread","uncletopia"],"game_id":440,"stv_port":27026,"stv_name":"Uncletopia | New York City | 2 | All Maps | STV","players":[{"user_id":246,"name":"Persona 5 Gaming","steam_id":76561198362884509,"connected_time":555000000000,"state":"active","ping":70},{"user_id":209,"name":"Damonj17","steam_id":76561198062964879,"connected_time":3007000000000,"state":"active","ping":49},{"user_id":176,"name":"aisu","steam_id":76561198043768507,"connected_time":6337000000000,"state":"active","ping":90},{"user_id":198,"name":"flamingcookies","steam_id":76561198280864779,"connected_time":4029000000000,"state":"active","ping":75},{"user_id":215,"name":"you forgot the sauce","steam_id":76561198387016713,"connected_time":2750000000000,"state":"active","ping":56},{"user_id":244,"name":"Parth Makeo","steam_id":76561198002516581,"connected_time":569000000000,"state":"active","ping":44},{"user_id":202,"name":"spherewithahat","steam_id":76561199122192660,"connected_time":3792000000000,"state":"active","ping":58},{"user_id":248,"name":"marge","steam_id":76561198064823861,"connected_time":394000000000,"state":"active","ping":54},{"user_id":236,"name":"gmaay","steam_id":76561199104911185,"connected_time":1457000000000,"state":"active","ping":55},{"user_id":247,"name":"coolfalcon168","steam_id":76561198948665710,"connected_time":554000000000,"state":"active","ping":57},{"user_id":254,"name":"el wiwi","steam_id":76561198857304367,"connected_time":105000000000,"state":"active","ping":68},{"user_id":240,"name":"greg","steam_id":76561198997016490,"connected_time":633000000000,"state":"active","ping":84},{"user_id":235,"name":"Dude, error.","steam_id":76561198046705420,"connected_time":1571000000000,"state":"active","ping":74},{"user_id":223,"name":"Nerrrd_","steam_id":76561198870129960,"connected_time":2208000000000,"state":"active","ping":40},{"user_id":234,"name":"dak","steam_id":76561198076596506,"connected_time":1629000000000,"state":"active","ping":75},{"user_id":245,"name":"TravelerFinis","steam_id":76561199181244690,"connected_time":566000000000,"state":"active","ping":99},{"user_id":203,"name":"nhbiker","steam_id":76561198081277675,"connected_time":3606000000000,"state":"active","ping":45},{"user_id":232,"name":"Xavibite","steam_id":76561198209380493,"connected_time":1801000000000,"state":"active","ping":44},{"user_id":221,"name":"Prestoneon003","steam_id":76561198348279581,"connected_time":2478000000000,"state":"active","ping":55},{"user_id":226,"name":"Wigl","steam_id":76561198019324464,"connected_time":1909000000000,"state":"active","ping":50},{"user_id":204,"name":"homer","steam_id":76561198171491110,"connected_time":3470000000000,"state":"active","ping":48},{"user_id":227,"name":"PyroEagle","steam_id":76561198296434231,"connected_time":1894000000000,"state":"active","ping":86},{"user_id":253,"name":"Comrade Chaos","steam_id":76561198216223608,"connected_time":305000000000,"state":"active","ping":47}]},{"server_id":15,"name":"Uncletopia | New York City | 3 | Stopwatch Beta","name_short":"nyc-3","host":"nyc-1.us.uncletopia.com","port":27035,"enabled":true,"region":"us-east","cc":"us","latitude":40.73061,"longitude":-73.93524,"reserved":0,"last_update":"0001-01-01T00:00:00Z","name_a2s":"Uncletopia | New York City | 3 | Stopwatch Beta","protocol":17,"map":"cp_sunshine","folder":"tf","game":"Team Fortress","app_id":440,"player_count":0,"max_players":24,"Bots":0,"server_type":"Dedicated","server_os":"Linux","password":true,"vac":true,"version":"7932396","steam_id":85568392924742820,"keywords":["cp","nocrits","nodmgspread","uncletopia"],"game_id":440,"stv_port":27036,"stv_name":"Uncletopia | New York City | 3 | Stopwatch Beta | STV","players":null},{"server_id":16,"name":"Uncletopia | New York City | 4 | Community","name_short":"nyc-4","host":"nyc-1.us.uncletopia.com","port":27045,"enabled":true,"region":"us-east","cc":"us","latitude":40.73061,"longitude":-73.93524,"reserved":0,"last_update":"0001-01-01T00:00:00Z","name_a2s":"Uncletopia | New York City | 4 | Community","protocol":17,"map":"workshop/koth_bagel_rc6.ugc2514036946","folder":"tf","game":"Team Fortress","app_id":440,"player_count":0,"max_players":24,"Bots":0,"server_type":"Dedicated","server_os":"Linux","password":true,"vac":true,"version":"7932396","steam_id":85568392924742821,"keywords":["cp","nocrits","nodmgspread","uncletopia"],"game_id":440,"stv_port":27046,"stv_name":"Uncletopia | New York City | 4 | Community | STV","players":null},{"server_id":142,"name":"Uncletopia | São Paulo | 1 | All Maps","name_short":"sao-1","host":"sao-1.br.uncletopia.com","port":27015,"enabled":true,"region":"sa","cc":"br","latitude":-23.533773,"longitude":-46.62529,"reserved":0,"last_update":"0001-01-01T00:00:00Z","name_a2s":"Uncletopia | São Paulo | 1 | All Maps","protocol":17,"map":"pl_snowycoast","folder":"tf","game":"Team Fortress","app_id":440,"player_count":2,"max_players":24,"Bots":0,"server_type":"Dedicated","server_os":"Linux","password":true,"vac":true,"version":"7932396","steam_id":85568392924469996,"keywords":["nocrits","nodmgspread","payload","uncletopia"],"game_id":440,"stv_port":27016,"stv_name":"Uncletopia | São Paulo | 1 | All Maps | STV","players":[{"user_id":5,"name":"guarda-chuva","steam_id":76561198078694330,"connected_time":281000000000,"state":"active","ping":60},{"user_id":6,"name":"Tert_14","steam_id":76561198185952289,"connected_time":275000000000,"state":"active","ping":71}]},{"server_id":143,"name":"Uncletopia | São Paulo | 2 | All Maps","name_short":"sao-2","host":"sao-2.br.uncletopia.com","port":27015,"enabled":true,"region":"sa","cc":"br","latitude":-23.533773,"longitude":-46.62529,"reserved":0,"last_update":"0001-01-01T00:00:00Z","name_a2s":"Uncletopia | São Paulo | 2 | All Maps","protocol":17,"map":"pl_badwater","folder":"tf","game":"Team Fortress","app_id":440,"player_count":15,"max_players":24,"Bots":0,"server_type":"Dedicated","server_os":"Linux","password":true,"vac":true,"version":"7932396","steam_id":85568392924485349,"keywords":["nocrits","nodmgspread","payload","uncletopia"],"game_id":440,"stv_port":27016,"stv_name":"Uncletopia | São Paulo | 2 | All Maps | STV","players":[{"user_id":43,"name":"Frans","steam_id":76561198207928860,"connected_time":663000000000,"state":"active","ping":35},{"user_id":31,"name":"N0wite","steam_id":76561199152018345,"connected_time":1176000000000,"state":"active","ping":69},{"user_id":47,"name":"da","steam_id":76561199486536003,"connected_time":388000000000,"state":"active","ping":37},{"user_id":22,"name":"Orcellius","steam_id":76561198060099886,"connected_time":2029000000000,"state":"active","ping":84},{"user_id":28,"name":"jr_","steam_id":76561198313937899,"connected_time":1514000000000,"state":"active","ping":45},{"user_id":40,"name":"[F@Z3] ! VR0MRNB4$$HER","steam_id":76561198124781832,"connected_time":770000000000,"state":"active","ping":99},{"user_id":27,"name":"teg","steam_id":76561198076003158,"connected_time":1615000000000,"state":"active","ping":53},{"user_id":24,"name":"Sopa de Macarrao","steam_id":76561199059835856,"connected_time":1911000000000,"state":"active","ping":78},{"user_id":32,"name":"bombs","steam_id":76561198801134216,"connected_time":1162000000000,"state":"active","ping":47},{"user_id":48,"name":"Brunik101","steam_id":76561199094742392,"connected_time":323000000000,"state":"active","ping":48},{"user_id":34,"name":"Mikael_01","steam_id":76561199080253129,"connected_time":972000000000,"state":"active","ping":61},{"user_id":38,"name":"Blue9Fairy","steam_id":76561198039942928,"connected_time":833000000000,"state":"active","ping":53},{"user_id":35,"name":"el prepucio","steam_id":76561199087663959,"connected_time":963000000000,"state":"active","ping":49},{"user_id":36,"name":"Heavy's sandwicheria","steam_id":76561199434489438,"connected_time":946000000000,"state":"active","ping":78},{"user_id":50,"name":"[CWB] junin75hz","steam_id":76561198259077410,"connected_time":243000000000,"state":"active","ping":45}]},{"server_id":7,"name":"Uncletopia | Seattle | 1 | All Maps","name_short":"sea-1","host":"sea-1.us.uncletopia.com","port":27015,"enabled":true,"region":"us-west","cc":"us","latitude":47.608013,"longitude":-122.33517,"reserved":0,"last_update":"0001-01-01T00:00:00Z","name_a2s":"Uncletopia | Seattle | 1 | All Maps","protocol":17,"map":"koth_lakeside_final","folder":"tf","game":"Team Fortress","app_id":440,"player_count":24,"max_players":24,"Bots":0,"server_type":"Dedicated","server_os":"Linux","password":true,"vac":true,"version":"7932396","steam_id":85568392924469997,"keywords":["cp","nocrits","nodmgspread","uncletopia"],"game_id":440,"stv_port":27016,"stv_name":"Uncletopia | Seattle | 1 | All Maps | STV","players":[{"user_id":405,"name":"Noxitril_Enjoyer","steam_id":76561198870649125,"connected_time":1486000000000,"state":"active","ping":89},{"user_id":410,"name":"shiadyne","steam_id":76561198271939793,"connected_time":719000000000,"state":"active","ping":43},{"user_id":406,"name":"Shark Sandwich","steam_id":76561198025007938,"connected_time":1109000000000,"state":"active","ping":58},{"user_id":335,"name":"lili","steam_id":76561199391478575,"connected_time":6326000000000,"state":"active","ping":67},{"user_id":418,"name":"Pah-Wraith Gul Dukat","steam_id":76561198033918106,"connected_time":198000000000,"state":"active","ping":72},{"user_id":391,"name":"E4Estrogen","steam_id":76561198085813708,"connected_time":3140000000000,"state":"active","ping":116},{"user_id":408,"name":"captain red","steam_id":76561198191587983,"connected_time":725000000000,"state":"active","ping":75},{"user_id":370,"name":"summerlis","steam_id":76561198165324438,"connected_time":4728000000000,"state":"active","ping":61},{"user_id":392,"name":"SnoDot","steam_id":76561198062209970,"connected_time":2749000000000,"state":"active","ping":34},{"user_id":419,"name":"Astronat","steam_id":76561198096321896,"connected_time":185000000000,"state":"active","ping":72},{"user_id":356,"name":"dillpickle","steam_id":76561198156957191,"connected_time":5230000000000,"state":"active","ping":76},{"user_id":337,"name":"Themasterman75","steam_id":76561199385573293,"connected_time":6130000000000,"state":"active","ping":64},{"user_id":385,"name":"Portal2Player","steam_id":76561198062870114,"connected_time":3551000000000,"state":"active","ping":134},{"user_id":403,"name":"Google","steam_id":76561198857237473,"connected_time":1844000000000,"state":"active","ping":48},{"user_id":336,"name":"jayeskae","steam_id":76561198144220801,"connected_time":6149000000000,"state":"active","ping":45},{"user_id":407,"name":"resting neutral face","steam_id":76561197999259502,"connected_time":733000000000,"state":"active","ping":58},{"user_id":416,"name":"Trueno","steam_id":76561199080515661,"connected_time":446000000000,"state":"active","ping":62},{"user_id":386,"name":"Banzai","steam_id":76561198196503877,"connected_time":3542000000000,"state":"active","ping":45},{"user_id":352,"name":"Sudsen","steam_id":76561198370603787,"connected_time":5618000000000,"state":"active","ping":75},{"user_id":393,"name":"Big Juicy","steam_id":76561198018062350,"connected_time":2658000000000,"state":"active","ping":63},{"user_id":420,"name":"RocketofPanda(It/They)","steam_id":76561198133133187,"connected_time":17000000000,"state":"active","ping":82},{"user_id":414,"name":"Marcy","steam_id":76561198097413073,"connected_time":664000000000,"state":"active","ping":46},{"user_id":398,"name":"fwoov","steam_id":76561198129166260,"connected_time":2323000000000,"state":"active","ping":75},{"user_id":402,"name":"SibilantSerpent","steam_id":76561198154488754,"connected_time":1893000000000,"state":"active","ping":55}]},{"server_id":119,"name":"Uncletopia | Seattle | 2 | All Maps","name_short":"sea-2","host":"sea-1.us.uncletopia.com","port":27025,"enabled":true,"region":"us-west","cc":"us","latitude":47.608013,"longitude":-122.33517,"reserved":0,"last_update":"0001-01-01T00:00:00Z","name_a2s":"Uncletopia | Seattle | 2 | All Maps","protocol":17,"map":"koth_cascade","folder":"tf","game":"Team Fortress","app_id":440,"player_count":0,"max_players":24,"Bots":0,"server_type":"Dedicated","server_os":"Linux","password":true,"vac":true,"version":"7932396","steam_id":85568392924469998,"keywords":["cp","nocrits","nodmgspread","uncletopia"],"game_id":440,"stv_port":27026,"stv_name":"Uncletopia | Seattle | 2 | All Maps | STV","players":null},{"server_id":406,"name":"Uncletopia | Seattle | 3 | Stopwatch Beta","name_short":"sea-3","host":"sea-1.us.uncletopia.com","port":27035,"enabled":true,"region":"us-west","cc":"us","latitude":47.608013,"longitude":-122.33517,"reserved":0,"last_update":"0001-01-01T00:00:00Z","name_a2s":"Uncletopia | Seattle | 3 | Stopwatch Beta","protocol":17,"map":"workshop/koth_product_final.ugc454272353","folder":"tf","game":"Team Fortress","app_id":440,"player_count":0,"max_players":24,"Bots":0,"server_type":"Dedicated","server_os":"Linux","password":true,"vac":true,"version":"7932396","steam_id":85568392924515217,"keywords":["cp","nocrits","nodmgspread","uncletopia"],"game_id":440,"stv_port":27036,"stv_name":"Uncletopia | Seattle | 3 | Stopwatch Beta | STV","players":null},{"server_id":17,"name":"Uncletopia | San Francisco | 1 | All Maps","name_short":"sfo-1","host":"sfo-1.us.uncletopia.com","port":27015,"enabled":true,"region":"us-west","cc":"us","latitude":37.77397,"longitude":-122.4313,"reserved":0,"last_update":"0001-01-01T00:00:00Z","name_a2s":"Uncletopia | San Francisco | 1 | All Maps","protocol":17,"map":"cp_dustbowl","folder":"tf","game":"Team Fortress","app_id":440,"player_count":24,"max_players":24,"Bots":0,"server_type":"Dedicated","server_os":"Linux","password":true,"vac":true,"version":"7932396","steam_id":85568392924469999,"keywords":["cp","nocrits","nodmgspread","uncletopia"],"game_id":440,"stv_port":27016,"stv_name":"Uncletopia | San Francisco | 1 | All Maps | STV","players":[{"user_id":489,"name":"shakoiwa","steam_id":76561199059441773,"connected_time":1301000000000,"state":"active","ping":61},{"user_id":458,"name":"Franz","steam_id":76561198041929745,"connected_time":2767000000000,"state":"active","ping":55},{"user_id":508,"name":"badas smoking camol","steam_id":76561198043732416,"connected_time":346000000000,"state":"active","ping":92},{"user_id":459,"name":"meme","steam_id":76561199170771700,"connected_time":2756000000000,"state":"active","ping":67},{"user_id":460,"name":"ThatGamingKiwi","steam_id":76561199170522237,"connected_time":2693000000000,"state":"active","ping":127},{"user_id":510,"name":"Leifvs","steam_id":76561198255946142,"connected_time":257000000000,"state":"active","ping":98},{"user_id":511,"name":"Quietsharp","steam_id":76561198277968438,"connected_time":253000000000,"state":"active","ping":67},{"user_id":506,"name":"-_-","steam_id":76561198048754646,"connected_time":608000000000,"state":"active","ping":55},{"user_id":515,"name":"The Benefactor","steam_id":76561198307247913,"connected_time":177000000000,"state":"active","ping":55},{"user_id":490,"name":"TeriyakiDynamite","steam_id":76561198050049346,"connected_time":1268000000000,"state":"active","ping":66},{"user_id":498,"name":"max's friend","steam_id":76561198218080731,"connected_time":904000000000,"state":"active","ping":67},{"user_id":487,"name":"Oops","steam_id":76561198015032646,"connected_time":1375000000000,"state":"active","ping":45},{"user_id":503,"name":"Riller928","steam_id":76561198150299035,"connected_time":724000000000,"state":"active","ping":61},{"user_id":517,"name":"Funkboi","steam_id":76561198046235038,"connected_time":24000000000,"state":"spawning","ping":60},{"user_id":513,"name":"Ciaphas Cain","steam_id":76561198067029049,"connected_time":232000000000,"state":"active","ping":60},{"user_id":502,"name":"rat bastard","steam_id":76561198123679124,"connected_time":735000000000,"state":"active","ping":59},{"user_id":507,"name":"Xeno","steam_id":76561198089138085,"connected_time":571000000000,"state":"active","ping":59},{"user_id":453,"name":"Alkimia","steam_id":76561198385763137,"connected_time":3330000000000,"state":"active","ping":111},{"user_id":493,"name":"Tomoko2001","steam_id":76561198047117990,"connected_time":1170000000000,"state":"active","ping":105},{"user_id":479,"name":"Ultimacapeluigi","steam_id":76561198099478686,"connected_time":1904000000000,"state":"active","ping":47},{"user_id":509,"name":"the dreamer","steam_id":76561198144909435,"connected_time":299000000000,"state":"active","ping":61},{"user_id":501,"name":"fliggoo giggoo","steam_id":76561198986534519,"connected_time":837000000000,"state":"active","ping":45},{"user_id":516,"name":"St. Bimmius","steam_id":76561198013595716,"connected_time":156000000000,"state":"active","ping":72},{"user_id":435,"name":"Ockulus","steam_id":76561199069638460,"connected_time":4917000000000,"state":"active","ping":64}]},{"server_id":18,"name":"Uncletopia | San Francisco | 2 | All Maps","name_short":"sfo-2","host":"sfo-1.us.uncletopia.com","port":27025,"enabled":true,"region":"us-west","cc":"us","latitude":37.77397,"longitude":-122.4313,"reserved":0,"last_update":"0001-01-01T00:00:00Z","name_a2s":"Uncletopia | San Francisco | 2 | All Maps","protocol":17,"map":"pl_borneo","folder":"tf","game":"Team Fortress","app_id":440,"player_count":19,"max_players":24,"Bots":0,"server_type":"Dedicated","server_os":"Linux","password":true,"vac":true,"version":"7932396","steam_id":85568392924470000,"keywords":["nocrits","nodmgspread","payload","uncletopia"],"game_id":440,"stv_port":27026,"stv_name":"Uncletopia | San Francisco | 2 | All Maps | STV","players":[{"user_id":106,"name":"b10wiebe","steam_id":76561199485631206,"connected_time":415000000000,"state":"active","ping":96},{"user_id":97,"name":"Mr. Pockets","steam_id":76561198053657771,"connected_time":1074000000000,"state":"active","ping":67},{"user_id":109,"name":"Zana","steam_id":76561198075908156,"connected_time":300000000000,"state":"active","ping":66},{"user_id":96,"name":"Spuunster","steam_id":76561199070008096,"connected_time":1207000000000,"state":"active","ping":78},{"user_id":110,"name":"Xubs (◕ω◕✿)","steam_id":76561197999170933,"connected_time":280000000000,"state":"active","ping":95},{"user_id":99,"name":"HeinzRichter","steam_id":76561198854966161,"connected_time":1045000000000,"state":"active","ping":51},{"user_id":107,"name":"yaoipilled","steam_id":76561198055486814,"connected_time":396000000000,"state":"active","ping":62},{"user_id":102,"name":"Darkspiral","steam_id":76561198080807559,"connected_time":935000000000,"state":"active","ping":59},{"user_id":112,"name":"pyonpyon","steam_id":76561198402500100,"connected_time":251000000000,"state":"active","ping":95},{"user_id":105,"name":"tiredfisherman69","steam_id":76561199228963816,"connected_time":655000000000,"state":"active","ping":61},{"user_id":108,"name":"help","steam_id":76561198044689625,"connected_time":376000000000,"state":"active","ping":61},{"user_id":121,"name":"Arche234","steam_id":76561198302695001,"connected_time":10000000000,"state":"spawning","ping":125},{"user_id":116,"name":"Huh?","steam_id":76561198054866271,"connected_time":87000000000,"state":"active","ping":55},{"user_id":117,"name":"cake-mix","steam_id":76561199475394535,"connected_time":87000000000,"state":"active","ping":61},{"user_id":118,"name":"Papababoon","steam_id":76561198107202420,"connected_time":85000000000,"state":"active","ping":71},{"user_id":119,"name":"1998 Mazda b2500","steam_id":76561198883172857,"connected_time":48000000000,"state":"connecting","ping":76},{"user_id":120,"name":"GumZie","steam_id":76561198202584223,"connected_time":39000000000,"state":"active","ping":57},{"user_id":56,"name":"🅜🅔🅔🅚🅢🅣🅔\ufffd\ufffd\ufffd","steam_id":76561197999748343,"connected_time":2888000000000,"state":"active","ping":75},{"user_id":51,"name":"BrightOrangeMango","steam_id":76561198023144607,"connected_time":3089000000000,"state":"active","ping":73}]},{"server_id":19,"name":"Uncletopia | San Francisco | 3 | Stopwatch Beta","name_short":"sfo-3","host":"sfo-1.us.uncletopia.com","port":27035,"enabled":true,"region":"us-west","cc":"us","latitude":37.77397,"longitude":-122.4313,"reserved":0,"last_update":"0001-01-01T00:00:00Z","name_a2s":"Uncletopia | San Francisco | 3 | Stopwatch Beta","protocol":17,"map":"koth_lakeside_final","folder":"tf","game":"Team Fortress","app_id":440,"player_count":0,"max_players":24,"Bots":0,"server_type":"Dedicated","server_os":"Linux","password":true,"vac":true,"version":"7932396","steam_id":85568392924742824,"keywords":["cp","nocrits","nodmgspread","uncletopia"],"game_id":440,"stv_port":27036,"stv_name":"Uncletopia | San Francisco | 3 | Stopwatch Beta | STV","players":null},{"server_id":20,"name":"Uncletopia | San Francisco | 4 | Community","name_short":"sfo-4","host":"sfo-1.us.uncletopia.com","port":27045,"enabled":true,"region":"us-west","cc":"us","latitude":37.77397,"longitude":-122.4313,"reserved":0,"last_update":"0001-01-01T00:00:00Z","name_a2s":"Uncletopia | San Francisco | 4 | Community","protocol":17,"map":"pl_borneo","folder":"tf","game":"Team Fortress","app_id":440,"player_count":0,"max_players":24,"Bots":0,"server_type":"Dedicated","server_os":"Linux","password":true,"vac":true,"version":"7932396","steam_id":85568392924742826,"keywords":["nocrits","nodmgspread","payload","uncletopia"],"game_id":440,"stv_port":27046,"stv_name":"Uncletopia | San Francisco | 4 | Community | STV","players":null},{"server_id":141,"name":"Uncletopia | Sydney | 1 | All Maps","name_short":"syd-1","host":"syd-1.au.uncletopia.com","port":27015,"enabled":true,"region":"au","cc":"au","latitude":-33.865143,"longitude":151.2099,"reserved":0,"last_update":"0001-01-01T00:00:00Z","name_a2s":"Uncletopia | Sydney | 1 | All Maps","protocol":17,"map":"koth_lakeside_final","folder":"tf","game":"Team Fortress","app_id":440,"player_count":0,"max_players":24,"Bots":0,"server_type":"Dedicated","server_os":"Linux","password":true,"vac":true,"version":"7932396","steam_id":85568392924470001,"keywords":["cp","nocrits","nodmgspread","uncletopia"],"game_id":440,"stv_port":27016,"stv_name":"Uncletopia | Sydney | 1 | All Maps | STV","players":null},{"server_id":123,"name":"Uncletopia | Sydney | 2 | All Maps","name_short":"syd-2","host":"syd-1.au.uncletopia.com","port":27025,"enabled":true,"region":"au","cc":"au","latitude":-33.865143,"longitude":151.2099,"reserved":0,"last_update":"0001-01-01T00:00:00Z","name_a2s":"Uncletopia | Sydney | 2 | All Maps","protocol":17,"map":"pl_snowycoast","folder":"tf","game":"Team Fortress","app_id":440,"player_count":0,"max_players":24,"Bots":0,"server_type":"Dedicated","server_os":"Linux","password":true,"vac":true,"version":"7932396","steam_id":85568392924470002,"keywords":["nocrits","nodmgspread","payload","uncletopia"],"game_id":440,"stv_port":27026,"stv_name":"Uncletopia | Sydney | 2 | All Maps | STV","players":null},{"server_id":395,"name":"Uncletopia | Sydney | 3 | All Maps","name_short":"syd-3","host":"syd-1.au.uncletopia.com","port":27035,"enabled":true,"region":"au","cc":"au","latitude":-33.865143,"longitude":151.2099,"reserved":0,"last_update":"0001-01-01T00:00:00Z","name_a2s":"Uncletopia | Sydney | 3 | All Maps","protocol":17,"map":"pl_barnblitz","folder":"tf","game":"Team Fortress","app_id":440,"player_count":0,"max_players":24,"Bots":0,"server_type":"Dedicated","server_os":"Linux","password":true,"vac":true,"version":"7932396","steam_id":85568392925194467,"keywords":["nocrits","nodmgspread","payload","uncletopia"],"game_id":440,"stv_port":27036,"stv_name":"Uncletopia | Sydney | 3 | All Maps | STV","players":null},{"server_id":396,"name":"Uncletopia | Sydney | 4 | All Maps","name_short":"syd-4","host":"syd-1.au.uncletopia.com","port":27045,"enabled":true,"region":"au","cc":"au","latitude":-33.865143,"longitude":151.2099,"reserved":0,"last_update":"0001-01-01T00:00:00Z","name_a2s":"Uncletopia | Sydney | 4 | All Maps","protocol":17,"map":"pl_pier","folder":"tf","game":"Team Fortress","app_id":440,"player_count":0,"max_players":24,"Bots":0,"server_type":"Dedicated","server_os":"Linux","password":true,"vac":true,"version":"7932396","steam_id":85568392925397958,"keywords":["nocrits","nodmgspread","payload","uncletopia"],"game_id":440,"stv_port":27046,"stv_name":"Uncletopia | Sydney | 4 | All Maps | STV","players":null},{"server_id":58,"name":"Uncletopia | Sydney | 5 | Stopwatch Beta","name_short":"syd-5","host":"syd-1.au.uncletopia.com","port":27055,"enabled":true,"region":"au","cc":"au","latitude":-33.865143,"longitude":151.2099,"reserved":0,"last_update":"0001-01-01T00:00:00Z","name_a2s":"Uncletopia | Sydney | 5 | Stopwatch Beta","protocol":17,"map":"pl_borneo","folder":"tf","game":"Team Fortress","app_id":440,"player_count":0,"max_players":24,"Bots":0,"server_type":"Dedicated","server_os":"Linux","password":true,"vac":true,"version":"7932396","steam_id":85568392925397959,"keywords":["nocrits","nodmgspread","payload","uncletopia"],"game_id":440,"stv_port":27056,"stv_name":"Uncletopia | Sydney | 5 | Stopwatch Beta | STV","players":null},{"server_id":59,"name":"Uncletopia | Sydney | 6 | Community","name_short":"syd-6","host":"syd-1.au.uncletopia.com","port":27065,"enabled":true,"region":"au","cc":"au","latitude":-33.865143,"longitude":151.2099,"reserved":0,"last_update":"0001-01-01T00:00:00Z","name_a2s":"Uncletopia | Sydney | 6 | Community","protocol":17,"map":"pl_badwater","folder":"tf","game":"Team Fortress","app_id":440,"player_count":0,"max_players":24,"Bots":0,"server_type":"Dedicated","server_os":"Linux","password":true,"vac":true,"version":"7932396","steam_id":85568392925397960,"keywords":["nocrits","nodmgspread","payload","uncletopia"],"game_id":440,"stv_port":27066,"stv_name":"Uncletopia | Sydney | 6 | Community | STV","players":null},{"server_id":49,"name":"Uncletopia | Warsaw | 1 | All Maps","name_short":"waw-1","host":"waw-1.pl.uncletopia.com","port":27015,"enabled":true,"region":"eu","cc":"pl","latitude":52.2297,"longitude":21.017532,"reserved":0,"last_update":"0001-01-01T00:00:00Z","name_a2s":"","protocol":0,"map":"","folder":"","game":"","app_id":0,"player_count":0,"max_players":0,"Bots":0,"server_type":"","server_os":"","password":false,"vac":false,"version":"","steam_id":0,"keywords":null,"game_id":0,"stv_port":0,"stv_name":"","players":null},{"server_id":50,"name":"Uncletopia | Warsaw | 2 | All Maps","name_short":"waw-2","host":"waw-1.pl.uncletopia.com","port":27025,"enabled":true,"region":"eu","cc":"pl","latitude":52.2297,"longitude":21.017532,"reserved":0,"last_update":"0001-01-01T00:00:00Z","name_a2s":"Uncletopia | Warsaw | 2 | All Maps","protocol":17,"map":"pl_borneo","folder":"tf","game":"Team Fortress","app_id":440,"player_count":0,"max_players":24,"Bots":0,"server_type":"Dedicated","server_os":"Linux","password":true,"vac":true,"version":"7932396","steam_id":85568392925397851,"keywords":["nocrits","nodmgspread","payload","uncletopia"],"game_id":440,"stv_port":27026,"stv_name":"Uncletopia | Warsaw | 2 | All Maps | STV","players":null},{"server_id":51,"name":"Uncletopia | Warsaw | 3 | All Maps","name_short":"waw-3","host":"waw-1.pl.uncletopia.com","port":27035,"enabled":true,"region":"eu","cc":"pl","latitude":52.2297,"longitude":21.017532,"reserved":0,"last_update":"0001-01-01T00:00:00Z","name_a2s":"Uncletopia | Warsaw | 3 | All Maps","protocol":17,"map":"koth_lakeside_final","folder":"tf","game":"Team Fortress","app_id":440,"player_count":0,"max_players":24,"Bots":0,"server_type":"Dedicated","server_os":"Linux","password":true,"vac":true,"version":"7932396","steam_id":85568392925397852,"keywords":["cp","nocrits","nodmgspread","uncletopia"],"game_id":440,"stv_port":27036,"stv_name":"Uncletopia | Warsaw | 3 | All Maps | STV","players":null},{"server_id":52,"name":"Uncletopia | Warsaw | 4 | All Maps","name_short":"waw-4","host":"waw-1.pl.uncletopia.com","port":27045,"enabled":true,"region":"eu","cc":"pl","latitude":52.2297,"longitude":21.017532,"reserved":0,"last_update":"0001-01-01T00:00:00Z","name_a2s":"Uncletopia | Warsaw | 4 | All Maps","protocol":17,"map":"koth_lakeside_final","folder":"tf","game":"Team Fortress","app_id":440,"player_count":0,"max_players":24,"Bots":0,"server_type":"Dedicated","server_os":"Linux","password":true,"vac":true,"version":"7932396","steam_id":85568392925397853,"keywords":["cp","nocrits","nodmgspread","uncletopia"],"game_id":440,"stv_port":27046,"stv_name":"Uncletopia | Warsaw | 4 | All Maps | STV","players":null},{"server_id":53,"name":"Uncletopia | Warsaw | 5 | Stopwatch Beta","name_short":"waw-5","host":"waw-1.pl.uncletopia.com","port":27055,"enabled":true,"region":"eu","cc":"pl","latitude":52.2297,"longitude":21.017532,"reserved":0,"last_update":"0001-01-01T00:00:00Z","name_a2s":"Uncletopia | Warsaw | 5 | Stopwatch Beta","protocol":17,"map":"koth_highpass","folder":"tf","game":"Team Fortress","app_id":440,"player_count":0,"max_players":24,"Bots":0,"server_type":"Dedicated","server_os":"Linux","password":true,"vac":true,"version":"7932396","steam_id":85568392925397854,"keywords":["cp","nocrits","nodmgspread","uncletopia"],"game_id":440,"stv_port":27056,"stv_name":"Uncletopia | Warsaw | 5 | Stopwatch Beta | STV","players":null},{"server_id":54,"name":"Uncletopia | Warsaw | 6 | Community","name_short":"waw-6","host":"waw-1.pl.uncletopia.com","port":27065,"enabled":true,"region":"eu","cc":"pl","latitude":52.2297,"longitude":21.017532,"reserved":0,"last_update":"0001-01-01T00:00:00Z","name_a2s":"Uncletopia | Warsaw | 6 | Community","protocol":17,"map":"workshop/koth_trenchfoot_b1a.ugc731436616","folder":"tf","game":"Team Fortress","app_id":440,"player_count":0,"max_players":24,"Bots":0,"server_type":"Dedicated","server_os":"Linux","password":true,"vac":true,"version":"7932396","steam_id":85568392925397856,"keywords":["cp","nocrits","nodmgspread","uncletopia"],"game_id":440,"stv_port":27066,"stv_name":"Uncletopia | Warsaw | 6 | Community | STV","players":null}]}