{"status":true,"message":"","result":[{"server_id":9,"name":"Uncletopia | Atlanta | 1 | All Maps","name_short":"atl-1","host":"atl-1.us.uncletopia.com","port":27015,"enabled":true,"region":"us-east","cc":"us","latitude":33.753746,"longitude":-84.38633,"reserved":0,"last_update":"0001-01-01T00:00:00Z","name_a2s":"Uncletopia | Atlanta | 1 | All Maps","protocol":17,"map":"pl_borneo","folder":"tf","game":"Team Fortress","app_id":440,"player_count":22,"max_players":24,"Bots":0,"server_type":"Dedicated","server_os":"Linux","password":true,"vac":true,"version":"7723704","steam_id":85568392924469982,"keywords":["nocrits","nodmgspread","payload","uncletopia"],"game_id":440,"stv_port":27016,"stv_name":"Uncletopia | Atlanta | 1 | All Maps | STV","players":[{"user_id":545,"name":"Spare(8)Ball","steam_id":76561197982432995,"connected_time":1318000000000,"state":"active","ping":111},{"user_id":528,"name":"Sham Cow","steam_id":76561198064556977,"connected_time":1670000000000,"state":"active","ping":74},{"user_id":663,"name":"ChickenManPhil","steam_id":76561199139508332,"connected_time":30000000000,"state":"spawning","ping":123},{"user_id":664,"name":"yuji","steam_id":76561198401572620,"connected_time":18000000000,"state":"active","ping":76},{"user_id":665,"name":"Snoogs","steam_id":76561198444880931,"connected_time":13000000000,"state":"active","ping":54},{"user_id":524,"name":"vid_","steam_id":76561198065159053,"connected_time":1753000000000,"state":"active","ping":34},{"user_id":532,"name":"GreenChristmasMan","steam_id":76561198089167462,"connected_time":1651000000000,"state":"active","ping":105},{"user_id":505,"name":"ATL1 | Psionic Present","steam_id":76561198151019322,"connected_time":4679000000000,"state":"active","ping":67},{"user_id":466,"name":"Vanya","steam_id":76561198042631561,"connected_time":8417000000000,"state":"active","ping":73},{"user_id":641,"name":"q!k.glodfyeehs","steam_id":76561198086008437,"connected_time":226000000000,"state":"active","ping":76},{"user_id":520,"name":"qjkxkcd","steam_id":76561198035922283,"connected_time":2365000000000,"state":"active","ping":61},{"user_id":514,"name":"‚òô Corrupt ‚ùß","steam_id":76561197977631915,"connected_time":3592000000000,"state":"active","ping":61},{"user_id":522,"name":"SamFec","steam_id":76561198414538682,"connected_time":2213000000000,"state":"spawning","ping":96},{"user_id":502,"name":"ATL1 | Vee (very holly \u0026 jolly)","steam_id":76561198330432889,"connected_time":5254000000000,"state":"active","ping":62},{"user_id":468,"name":"ATL1 | Kramer","steam_id":76561198083595936,"connected_time":8259000000000,"state":"active","ping":77},{"user_id":530,"name":"KritzKow","steam_id":76561198086164003,"connected_time":1659000000000,"state":"active","ping":63},{"user_id":546,"name":"Jin Gulilo","steam_id":76561198065151242,"connected_time":1316000000000,"state":"active","ping":64},{"user_id":660,"name":"beethan","steam_id":76561198148199120,"connected_time":57000000000,"state":"active","ping":71},{"user_id":662,"name":"mark hamill gaming","steam_id":76561198374453163,"connected_time":44000000000,"state":"active","ping":72},{"user_id":471,"name":"ATL1 | Lancer Fan Club","steam_id":76561198355495948,"connected_time":7376000000000,"state":"active","ping":82},{"user_id":558,"name":"FranTheDonut","steam_id":76561198862242760,"connected_time":978000000000,"state":"spawning","ping":98},{"user_id":516,"name":"ATL1 | Crystron","steam_id":76561198880437428,"connected_time":3385000000000,"state":"active","ping":103}]},{"server_id":400,"name":"Uncletopia | Atlanta | 3 | Stopwatch Beta","name_short":"atl-3","host":"atl-1.us.uncletopia.com","port":27035,"enabled":true,"region":"us-east","cc":"us","latitude":33.753746,"longitude":-84.38633,"reserved":0,"last_update":"0001-01-01T00:00:00Z","name_a2s":"Uncletopia | Atlanta | 3 | Stopwatch Beta","protocol":17,"map":"koth_cascade","folder":"tf","game":"Team Fortress","app_id":440,"player_count":0,"max_players":24,"Bots":0,"server_type":"Dedicated","server_os":"Linux","password":true,"vac":true,"version":"7723704","steam_id":85568392924515187,"keywords":["cp","nocrits","nodmgspread","uncletopia"],"game_id":440,"stv_port":27036,"stv_name":"Uncletopia | Atlanta | 3 | Stopwatch Beta | STV","players":null},{"server_id":401,"name":"Uncletopia | Atlanta | 4 | No Payload","name_short":"atl-4","host":"atl-1.us.uncletopia.com","port":27045,"enabled":true,"region":"us-east","cc":"us","latitude":33.753746,"longitude":-84.38633,"reserved":0,"last_update":"0001-01-01T00:00:00Z","name_a2s":"Uncletopia | Atlanta | 4 | No Payload","protocol":17,"map":"koth_nucleus","folder":"tf","game":"Team Fortress","app_id":440,"player_count":17,"max_players":24,"Bots":0,"server_type":"Dedicated","server_os":"Linux","password":true,"vac":true,"version":"7723704","steam_id":85568392924515188,"keywords":["cp","nocrits","nodmgspread","uncletopia"],"game_id":440,"stv_port":27046,"stv_name":"Uncletopia | Atlanta | 4 | No Payload | STV","players":[{"user_id":70,"name":"illious","steam_id":76561198169925494,"connected_time":4482000000000,"state":"active","ping":56},{"user_id":71,"name":"LinkFromDaPast","steam_id":76561198211437197,"connected_time":4471000000000,"state":"active","ping":77},{"user_id":107,"name":"kkhandy","steam_id":76561198266973661,"connected_time":204000000000,"state":"active","ping":81},{"user_id":76,"name":"uhooter","steam_id":76561198007829078,"connected_time":3627000000000,"state":"active","ping":71},{"user_id":97,"name":"Scrumpy Main","steam_id":76561198146302597,"connected_time":2110000000000,"state":"active","ping":61},{"user_id":102,"name":"festive meth dealer","steam_id":76561198845637652,"connected_time":877000000000,"state":"active","ping":73},{"user_id":111,"name":"The Builder","steam_id":76561198093432863,"connected_time":154000000000,"state":"active","ping":63},{"user_id":79,"name":"Aegis","steam_id":76561198272052750,"connected_time":3555000000000,"state":"active","ping":60},{"user_id":104,"name":"Williamtheinformed","steam_id":76561198877680992,"connected_time":245000000000,"state":"active","ping":99},{"user_id":105,"name":"H E A V Y  B O X I N G","steam_id":76561198413472674,"connected_time":219000000000,"state":"active","ping":35},{"user_id":106,"name":"sauce","steam_id":76561198068430673,"connected_time":208000000000,"state":"active","ping":80},{"user_id":108,"name":"Goth Hatsune Miku","steam_id":76561198880610797,"connected_time":175000000000,"state":"active","ping":144},{"user_id":109,"name":"picolol","steam_id":76561198249598784,"connected_time":174000000000,"state":"active","ping":110},{"user_id":112,"name":"PAIN","steam_id":76561199166248539,"connected_time":97000000000,"state":"active","ping":67},{"user_id":113,"name":"ChickeNuggets","steam_id":76561198997782584,"connected_time":68000000000,"state":"active","ping":60},{"user_id":114,"name":"Spoonman ü•Ñ","steam_id":76561199100285082,"connected_time":66000000000,"state":"active","ping":51},{"user_id":115,"name":"Sky (Festive)","steam_id":76561198853245153,"connected_time":39000000000,"state":"active","ping":97}]},{"server_id":2,"name":"Uncletopia | Chicago | 1 | All Maps","name_short":"chi-1","host":"chi-1.us.uncletopia.com","port":27015,"enabled":true,"region":"us-central","cc":"us","latitude":41.881832,"longitude":-87.62318,"reserved":0,"last_update":"0001-01-01T00:00:00Z","name_a2s":"Uncletopia | Chicago | 1 | All Maps","protocol":17,"map":"cp_process_final","folder":"tf","game":"Team Fortress","app_id":440,"player_count":24,"max_players":24,"Bots":0,"server_type":"Dedicated","server_os":"Linux","password":true,"vac":true,"version":"7723704","steam_id":85568392924469984,"keywords":["cp","nocrits","nodmgspread","uncletopia"],"game_id":440,"stv_port":27016,"stv_name":"Uncletopia | Chicago | 1 | All Maps | STV","players":[{"user_id":627,"name":"Pistol Packin' Pete","steam_id":76561198211892779,"connected_time":1130000000000,"state":"active","ping":60},{"user_id":637,"name":"BB Lorexav","steam_id":76561198207565988,"connected_time":848000000000,"state":"active","ping":76},{"user_id":628,"name":"cheetaz","steam_id":76561198224614084,"connected_time":1113000000000,"state":"active","ping":68},{"user_id":613,"name":"Thatoneguybunchanumbers","steam_id":76561198028039160,"connected_time":1617000000000,"state":"active","ping":80},{"user_id":522,"name":"blob","steam_id":76561198122375328,"connected_time":12887000000000,"state":"active","ping":60},{"user_id":614,"name":"Genius Meme","steam_id":76561198162911254,"connected_time":1602000000000,"state":"active","ping":110},{"user_id":640,"name":"Omnises","steam_id":76561198118053906,"connected_time":391000000000,"state":"active","ping":94},{"user_id":583,"name":"triangleman","steam_id":76561198972733542,"connected_time":4604000000000,"state":"active","ping":67},{"user_id":609,"name":"Sniper Knight","steam_id":76561198046942778,"connected_time":1828000000000,"state":"active","ping":72},{"user_id":615,"name":"Ngsterson","steam_id":76561198162108154,"connected_time":1569000000000,"state":"active","ping":89},{"user_id":554,"name":"[slug]","steam_id":76561197989592178,"connected_time":8456000000000,"state":"active","ping":66},{"user_id":616,"name":"Stylo","steam_id":76561198157735574,"connected_time":1569000000000,"state":"active","ping":117},{"user_id":624,"name":"Pinapley","steam_id":76561198063130298,"connected_time":1228000000000,"state":"active","ping":60},{"user_id":566,"name":"RaddahRaddah","steam_id":76561198194462829,"connected_time":7049000000000,"state":"active","ping":56},{"user_id":629,"name":"ZeN","steam_id":76561199098746585,"connected_time":1095000000000,"state":"active","ping":55},{"user_id":619,"name":"Goku‚Ñ¢ From Disney¬©","steam_id":76561198015327152,"connected_time":1513000000000,"state":"active","ping":64},{"user_id":548,"name":"Astori√¶!","steam_id":76561199090168858,"connected_time":9253000000000,"state":"active","ping":61},{"user_id":641,"name":"RIT Obelix","steam_id":76561198274715109,"connected_time":167000000000,"state":"active","ping":61},{"user_id":630,"name":"nezzy","steam_id":76561198127115509,"connected_time":1085000000000,"state":"active","ping":103},{"user_id":480,"name":"Ras","steam_id":76561198123546775,"connected_time":16201000000000,"state":"active","ping":68},{"user_id":634,"name":"My Red Hot Car","steam_id":76561198039149060,"connected_time":1057000000000,"state":"active","ping":72},{"user_id":589,"name":"Liquid Oxycodone","steam_id":76561198154162664,"connected_time":4355000000000,"state":"active","ping":77},{"user_id":590,"name":"what the fuck is up denny's","steam_id":76561198282764599,"connected_time":3937000000000,"state":"active","ping":52},{"user_id":633,"name":"The Muffin Man","steam_id":76561199088286427,"connected_time":1062000000000,"state":"active","ping":107}]},{"server_id":106,"name":"Uncletopia | Chicago | 2 | All Maps","name_short":"chi-2","host":"chi-1.us.uncletopia.com","port":27025,"enabled":true,"region":"us-central","cc":"us","latitude":41.881832,"longitude":-87.62318,"reserved":0,"last_update":"0001-01-01T00:00:00Z","name_a2s":"Uncletopia | Chicago | 2 | All Maps","protocol":17,"map":"pl_pier","folder":"tf","game":"Team Fortress","app_id":440,"player_count":24,"max_players":24,"Bots":0,"server_type":"Dedicated","server_os":"Linux","password":true,"vac":true,"version":"7723704","steam_id":85568392924469985,"keywords":["nocrits","nodmgspread","payload","uncletopia"],"game_id":440,"stv_port":27026,"stv_name":"Uncletopia | Chicago | 2 | All Maps | STV","players":[{"user_id":635,"name":"highWayy","steam_id":76561198042844908,"connected_time":1941000000000,"state":"active","ping":67},{"user_id":611,"name":"Rudy","steam_id":76561198013456828,"connected_time":3412000000000,"state":"active","ping":61},{"user_id":598,"name":"hashmap","steam_id":76561198043794014,"connected_time":4192000000000,"state":"active","ping":53},{"user_id":600,"name":"Jeromius","steam_id":76561198051865275,"connected_time":4070000000000,"state":"active","ping":75},{"user_id":630,"name":"busting on dave","steam_id":76561198072789439,"connected_time":2260000000000,"state":"active","ping":90},{"user_id":627,"name":"Summer","steam_id":76561198121692871,"connected_time":2314000000000,"state":"active","ping":59},{"user_id":623,"name":"greenboy135","steam_id":76561198057146944,"connected_time":2371000000000,"state":"active","ping":63},{"user_id":656,"name":"Random","steam_id":76561198318879454,"connected_time":70000000000,"state":"spawning","ping":72},{"user_id":654,"name":"perhaps (fitter happier)","steam_id":76561199144277101,"connected_time":167000000000,"state":"active","ping":65},{"user_id":643,"name":"xenolith","steam_id":76561198041496496,"connected_time":894000000000,"state":"active","ping":67},{"user_id":647,"name":"saltedmillk","steam_id":76561198153373490,"connected_time":592000000000,"state":"active","ping":45},{"user_id":637,"name":"donti","steam_id":76561197977223197,"connected_time":1107000000000,"state":"active","ping":56},{"user_id":517,"name":"C papi","steam_id":76561198027779564,"connected_time":12229000000000,"state":"active","ping":56},{"user_id":652,"name":"jakegus","steam_id":76561199060022512,"connected_time":188000000000,"state":"active","ping":112},{"user_id":617,"name":"Jeremy","steam_id":76561198286240347,"connected_time":3003000000000,"state":"active","ping":60},{"user_id":634,"name":"comet sooicidy","steam_id":76561198025173479,"connected_time":2037000000000,"state":"active","ping":91},{"user_id":638,"name":"Rein","steam_id":76561198300340427,"connected_time":1105000000000,"state":"active","ping":62},{"user_id":614,"name":"Got Hat?","steam_id":76561197998486431,"connected_time":3392000000000,"state":"active","ping":67},{"user_id":639,"name":"slimeyphusion","steam_id":76561198042300721,"connected_time":1099000000000,"state":"active","ping":71},{"user_id":483,"name":"daemon","steam_id":76561198001541433,"connected_time":14527000000000,"state":"active","ping":60},{"user_id":649,"name":"GibbyBiggy","steam_id":76561197993696081,"connected_time":215000000000,"state":"active","ping":63},{"user_id":648,"name":"Zell Da Sheepy","steam_id":76561198978753666,"connected_time":219000000000,"state":"active","ping":103},{"user_id":651,"name":"Penis Man","steam_id":76561199079213911,"connected_time":190000000000,"state":"active","ping":106},{"user_id":657,"name":"Dagsdaf","steam_id":76561198055317112,"connected_time":62000000000,"state":"active","ping":77}]},{"server_id":402,"name":"Uncletopia | Chicago | 3 | All Maps","name_short":"chi-3","host":"chi-1.us.uncletopia.com","port":27035,"enabled":true,"region":"us-central","cc":"us","latitude":41.881832,"longitude":-87.62318,"reserved":0,"last_update":"0001-01-01T00:00:00Z","name_a2s":"Uncletopia | Chicago | 3 | All Maps","protocol":17,"map":"pl_swiftwater_final1","folder":"tf","game":"Team Fortress","app_id":440,"player_count":24,"max_players":24,"Bots":0,"server_type":"Dedicated","server_os":"Linux","password":true,"vac":true,"version":"7723704","steam_id":85568392924515191,"keywords":["nocrits","nodmgspread","payload","uncletopia"],"game_id":440,"stv_port":27036,"stv_name":"Uncletopia | Chicago | 3 | All Maps | STV","players":[{"user_id":509,"name":"Bob Ross","steam_id":76561198932623728,"connected_time":1799000000000,"state":"active","ping":65},{"user_id":515,"name":"Bee_Pirate","steam_id":76561199000599111,"connected_time":921000000000,"state":"active","ping":71},{"user_id":497,"name":"derz","steam_id":76561198010742216,"connected_time":2659000000000,"state":"active","ping":52},{"user_id":478,"name":"Hylic","steam_id":76561199051314589,"connected_time":4285000000000,"state":"active","ping":60},{"user_id":518,"name":"Soldier Impact","steam_id":76561198157004224,"connected_time":739000000000,"state":"active","ping":61},{"user_id":505,"name":"BOTBOT","steam_id":76561198271928618,"connected_time":2063000000000,"state":"active","ping":86},{"user_id":523,"name":"Sicko Mode (Chris Pratt Cover)","steam_id":76561198315786174,"connected_time":138000000000,"state":"active","ping":94},{"user_id":479,"name":"PanCAKEEE","steam_id":76561198237489544,"connected_time":4246000000000,"state":"active","ping":114},{"user_id":517,"name":"tosm-AA-","steam_id":76561198130032444,"connected_time":747000000000,"state":"active","ping":107},{"user_id":516,"name":"SquirrelAway‚Ñ¢","steam_id":76561197998828619,"connected_time":905000000000,"state":"active","ping":72},{"user_id":501,"name":"JesterJasper","steam_id":76561198025338925,"connected_time":2611000000000,"state":"active","ping":93},{"user_id":512,"name":"timestew","steam_id":76561198367583372,"connected_time":1459000000000,"state":"active","ping":82},{"user_id":468,"name":"Space‚≠êTaffy","steam_id":76561198002271720,"connected_time":5029000000000,"state":"active","ping":45},{"user_id":502,"name":"strawberry","steam_id":76561198101926397,"connected_time":2607000000000,"state":"active","ping":52},{"user_id":495,"name":"Tick","steam_id":76561198184161214,"connected_time":2804000000000,"state":"active","ping":47},{"user_id":519,"name":"GrummBlumm","steam_id":76561198243035656,"connected_time":709000000000,"state":"active","ping":53},{"user_id":507,"name":"NoonCity","steam_id":76561198010165479,"connected_time":2013000000000,"state":"active","ping":70},{"user_id":463,"name":"a soul must somehow strive","steam_id":76561198096806703,"connected_time":5502000000000,"state":"active","ping":77},{"user_id":489,"name":"Snail Inquisitor","steam_id":76561198067151734,"connected_time":3932000000000,"state":"active","ping":55},{"user_id":490,"name":"Dino","steam_id":76561198383838640,"connected_time":3911000000000,"state":"active","ping":101},{"user_id":453,"name":"Fobby #Savetf2","steam_id":76561198047681469,"connected_time":6055000000000,"state":"active","ping":70},{"user_id":492,"name":"lost in spaaaaace","steam_id":76561199085974120,"connected_time":3317000000000,"state":"active","ping":72},{"user_id":508,"name":"Grundle Thunder","steam_id":76561197960790338,"connected_time":1873000000000,"state":"active","ping":81},{"user_id":262,"name":"{[F.H]} Hydroida","steam_id":76561197999797274,"connected_time":20835000000000,"state":"active","ping":148}]},{"server_id":403,"name":"Uncletopia | Chicago | 4 | All Maps","name_short":"chi-4","host":"chi-1.us.uncletopia.com","port":27045,"enabled":true,"region":"us-central","cc":"us","latitude":41.881832,"longitude":-87.62318,"reserved":0,"last_update":"0001-01-01T00:00:00Z","name_a2s":"Uncletopia | Chicago | 4 | All Maps","protocol":17,"map":"pl_upward","folder":"tf","game":"Team Fortress","app_id":440,"player_count":23,"max_players":24,"Bots":0,"server_type":"Dedicated","server_os":"Linux","password":true,"vac":true,"version":"7723704","steam_id":85568392924515193,"keywords":["nocrits","nodmgspread","payload","uncletopia"],"game_id":440,"stv_port":27046,"stv_name":"Uncletopia | Chicago | 4 | All Maps | STV","players":[{"user_id":541,"name":"eWVra2Vy","steam_id":76561198453565942,"connected_time":1328000000000,"state":"active","ping":66},{"user_id":444,"name":"Fitts1099","steam_id":76561198044986906,"connected_time":6697000000000,"state":"active","ping":36},{"user_id":561,"name":"Riboflavin","steam_id":76561198077328593,"connected_time":547000000000,"state":"active","ping":89},{"user_id":564,"name":"Twigsmack","steam_id":76561197991402159,"connected_time":488000000000,"state":"active","ping":121},{"user_id":548,"name":"Mina's Ninas","steam_id":76561198046502179,"connected_time":1031000000000,"state":"active","ping":94},{"user_id":549,"name":"golia","steam_id":76561198000264266,"connected_time":1006000000000,"state":"active","ping":95},{"user_id":562,"name":"a real swell guy","steam_id":76561198063211557,"connected_time":542000000000,"state":"active","ping":45},{"user_id":459,"name":"Thilo","steam_id":76561197987278784,"connected_time":5209000000000,"state":"active","ping":62},{"user_id":553,"name":"nalezinik","steam_id":76561198030026119,"connected_time":750000000000,"state":"active","ping":69},{"user_id":575,"name":"mua","steam_id":76561198091862137,"connected_time":126000000000,"state":"active","ping":66},{"user_id":573,"name":"lanoc","steam_id":76561198055415367,"connected_time":215000000000,"state":"active","ping":59},{"user_id":558,"name":"DS8U","steam_id":76561198151554321,"connected_time":643000000000,"state":"active","ping":56},{"user_id":565,"name":"phil mias","steam_id":76561198000564263,"connected_time":481000000000,"state":"active","ping":74},{"user_id":559,"name":"Croissant Guy","steam_id":76561198077719901,"connected_time":638000000000,"state":"active","ping":82},{"user_id":560,"name":"Corny Business","steam_id":76561198095204376,"connected_time":627000000000,"state":"active","ping":60},{"user_id":563,"name":"WhiskyTangoFoxy","steam_id":76561197994843275,"connected_time":542000000000,"state":"active","ping":98},{"user_id":566,"name":"java","steam_id":76561198030276792,"connected_time":476000000000,"state":"active","ping":63},{"user_id":567,"name":"Nuglels","steam_id":76561198010928944,"connected_time":457000000000,"state":"active","ping":79},{"user_id":568,"name":"Joji - Tick Tock","steam_id":76561198418414338,"connected_time":446000000000,"state":"active","ping":83},{"user_id":569,"name":"gretchling","steam_id":76561198046111695,"connected_time":442000000000,"state":"active","ping":61},{"user_id":572,"name":"Squid","steam_id":76561198197045587,"connected_time":328000000000,"state":"active","ping":90},{"user_id":533,"name":"give me your baby faces blaster","steam_id":76561199013442982,"connected_time":1975000000000,"state":"active","ping":79},{"user_id":571,"name":"I_made_cummy","steam_id":76561198086107548,"connected_time":427000000000,"state":"active","ping":70}]},{"server_id":36,"name":"Uncletopia | Chicago | 5 | All Maps","name_short":"chi-5","host":"chi-2.us.uncletopia.com","port":27015,"enabled":true,"region":"us-central","cc":"us","latitude":41.881832,"longitude":-87.62318,"reserved":0,"last_update":"0001-01-01T00:00:00Z","name_a2s":"Uncletopia | Chicago | 5 | All Maps","protocol":17,"map":"koth_cascade","folder":"tf","game":"Team Fortress","app_id":440,"player_count":0,"max_players":24,"Bots":0,"server_type":"Dedicated","server_os":"Linux","password":true,"vac":true,"version":"7723704","steam_id":85568392924866362,"keywords":["cp","nocrits","nodmgspread","uncletopia"],"game_id":440,"stv_port":27016,"stv_name":"Uncletopia | Chicago | 5 | All Maps | STV","players":null},{"server_id":37,"name":"Uncletopia | Chicago | 6 | All Maps","name_short":"chi-6","host":"chi-2.us.uncletopia.com","port":27025,"enabled":true,"region":"us-central","cc":"us","latitude":41.881832,"longitude":-87.62318,"reserved":0,"last_update":"0001-01-01T00:00:00Z","name_a2s":"Uncletopia | Chicago | 6 | All Maps","protocol":17,"map":"pl_barnblitz","folder":"tf","game":"Team Fortress","app_id":440,"player_count":24,"max_players":24,"Bots":0,"server_type":"Dedicated","server_os":"Linux","password":true,"vac":true,"version":"7723704","steam_id":85568392924866363,"keywords":["nocrits","nodmgspread","payload","uncletopia"],"game_id":440,"stv_port":27026,"stv_name":"Uncletopia | Chicago | 6 | All Maps | STV","players":[{"user_id":114,"name":"Delta","steam_id":76561199059668195,"connected_time":133000000000,"state":"active","ping":104},{"user_id":113,"name":"gonk","steam_id":76561198061206732,"connected_time":180000000000,"state":"active","ping":79},{"user_id":115,"name":"Bat","steam_id":76561198043986393,"connected_time":121000000000,"state":"active","ping":77},{"user_id":106,"name":"Wwaz","steam_id":76561198000240092,"connected_time":704000000000,"state":"active","ping":47},{"user_id":90,"name":"kennyohmalta","steam_id":76561198133239370,"connected_time":2449000000000,"state":"active","ping":54},{"user_id":103,"name":"mudspaw","steam_id":76561198101327448,"connected_time":853000000000,"state":"active","ping":52},{"user_id":91,"name":"Sm√ºsh","steam_id":76561198117801857,"connected_time":2446000000000,"state":"active","ping":60},{"user_id":116,"name":"Elizabeth truss","steam_id":76561198058250979,"connected_time":80000000000,"state":"active","ping":68},{"user_id":92,"name":"Webi Wabo","steam_id":76561198799224408,"connected_time":2436000000000,"state":"active","ping":66},{"user_id":99,"name":"wizard frog","steam_id":76561198008425691,"connected_time":1376000000000,"state":"active","ping":55},{"user_id":94,"name":"catrinaisahuman","steam_id":76561198281355729,"connected_time":2304000000000,"state":"active","ping":70},{"user_id":63,"name":"Aaron The Steel","steam_id":76561198046316686,"connected_time":4431000000000,"state":"active","ping":90},{"user_id":60,"name":"CHANCE112","steam_id":76561198032260856,"connected_time":4468000000000,"state":"active","ping":62},{"user_id":62,"name":"dillmud","steam_id":76561198165332132,"connected_time":4437000000000,"state":"active","ping":70},{"user_id":65,"name":"orin","steam_id":76561198058155898,"connected_time":4348000000000,"state":"active","ping":82},{"user_id":104,"name":"wife haver","steam_id":76561198248170354,"connected_time":810000000000,"state":"active","ping":66},{"user_id":117,"name":"cyclops","steam_id":76561197970370198,"connected_time":78000000000,"state":"active","ping":54},{"user_id":69,"name":"Stressmelo","steam_id":76561199204445185,"connected_time":4046000000000,"state":"active","ping":70},{"user_id":111,"name":"Professor Peppermint","steam_id":76561198184017082,"connected_time":396000000000,"state":"active","ping":49},{"user_id":109,"name":"soggymonki236","steam_id":76561198046953937,"connected_time":553000000000,"state":"active","ping":111},{"user_id":110,"name":"gonurlight","steam_id":76561198935839416,"connected_time":551000000000,"state":"active","ping":104},{"user_id":98,"name":"ÔºÆÔΩÅÔΩíÔΩìÔΩàÔΩÅÔΩå","steam_id":76561198009384584,"connected_time":1518000000000,"state":"active","ping":74},{"user_id":118,"name":"male pattern baldness","steam_id":76561199241807676,"connected_time":74000000000,"state":"active","ping":89},{"user_id":77,"name":"stop","steam_id":76561198268686419,"connected_time":3615000000000,"state":"active","ping":61}]},{"server_id":38,"name":"Uncletopia | Chicago | 7 | Stopwatch Beta","name_short":"chi-7","host":"chi-2.us.uncletopia.com","port":27035,"enabled":true,"region":"us-central","cc":"us","latitude":41.881832,"longitude":-87.62318,"reserved":0,"last_update":"0001-01-01T00:00:00Z","name_a2s":"Uncletopia | Chicago | 7 | Stopwatch Beta","protocol":17,"map":"pl_upward","folder":"tf","game":"Team Fortress","app_id":440,"player_count":0,"max_players":24,"Bots":0,"server_type":"Dedicated","server_os":"Linux","password":true,"vac":true,"version":"7723704","steam_id":85568392924866364,"keywords":["nocrits","nodmgspread","payload","uncletopia"],"game_id":440,"stv_port":27036,"stv_name":"Uncletopia | Chicago | 7 | Stopwatch Beta | STV","players":null},{"server_id":39,"name":"Uncletopia | Chicago | 8 | Community","name_short":"chi-8","host":"chi-2.us.uncletopia.com","port":27045,"enabled":true,"region":"us-central","cc":"us","latitude":41.881832,"longitude":-87.62318,"reserved":0,"last_update":"0001-01-01T00:00:00Z","name_a2s":"Uncletopia | Chicago | 8 | Community","protocol":17,"map":"workshop/pl_barnblitz_pro7.ugc582280235","folder":"tf","game":"Team Fortress","app_id":440,"player_count":24,"max_players":24,"Bots":0,"server_type":"Dedicated","server_os":"Linux","password":true,"vac":true,"version":"7723704","steam_id":85568392924866365,"keywords":["nocrits","nodmgspread","payload","uncletopia"],"game_id":440,"stv_port":27046,"stv_name":"Uncletopia | Chicago | 8 | Community | STV","players":[{"user_id":368,"name":"Grave Shifter15","steam_id":76561198036381323,"connected_time":72000000000,"state":"active","ping":60},{"user_id":364,"name":"Biggest Dude In Town 4U","steam_id":76561198070281464,"connected_time":625000000000,"state":"active","ping":131},{"user_id":336,"name":"United Bank of M O N E Y","steam_id":76561198251647556,"connected_time":1428000000000,"state":"active","ping":99},{"user_id":337,"name":"Rabbitone","steam_id":76561198132691749,"connected_time":1354000000000,"state":"active","ping":92},{"user_id":367,"name":"Lifial","steam_id":76561198271885819,"connected_time":154000000000,"state":"active","ping":75},{"user_id":366,"name":"MingePhreaker","steam_id":76561198215825893,"connected_time":307000000000,"state":"active","ping":66},{"user_id":360,"name":"dirty crab","steam_id":76561198142472788,"connected_time":798000000000,"state":"active","ping":77},{"user_id":339,"name":"E4Estrogen","steam_id":76561198085813708,"connected_time":1336000000000,"state":"active","ping":62},{"user_id":369,"name":"What are you doing?!","steam_id":76561198405248691,"connected_time":41000000000,"state":"spawning","ping":310},{"user_id":370,"name":"WallowInPain","steam_id":76561199239165015,"connected_time":28000000000,"state":"active","ping":89},{"user_id":362,"name":"A used self heating flesh-light","steam_id":76561198069918221,"connected_time":697000000000,"state":"active","ping":68},{"user_id":340,"name":"Huggernaut","steam_id":76561198043998084,"connected_time":1330000000000,"state":"active","ping":65},{"user_id":341,"name":"Koishi","steam_id":76561198054541054,"connected_time":1328000000000,"state":"active","ping":65},{"user_id":186,"name":"Killroy NQP ‚ù§","steam_id":76561198006983771,"connected_time":9674000000000,"state":"active","ping":76},{"user_id":315,"name":"Chauckles","steam_id":76561197993151595,"connected_time":2938000000000,"state":"active","ping":88},{"user_id":342,"name":"Doug Dimmadamndimmadimmadougdim","steam_id":76561198136169355,"connected_time":1317000000000,"state":"active","ping":52},{"user_id":351,"name":"goopgrabber","steam_id":76561199029951083,"connected_time":1196000000000,"state":"active","ping":84},{"user_id":363,"name":"WAP Wagon","steam_id":76561198306393090,"connected_time":681000000000,"state":"active","ping":55},{"user_id":355,"name":"rach9411","steam_id":76561198256535721,"connected_time":1079000000000,"state":"active","ping":136},{"user_id":357,"name":"is engineer still gaming","steam_id":76561199177942936,"connected_time":1045000000000,"state":"active","ping":66},{"user_id":356,"name":"crybaby","steam_id":76561199383952901,"connected_time":1072000000000,"state":"active","ping":97},{"user_id":350,"name":"Free2Play","steam_id":76561198992431846,"connected_time":1204000000000,"state":"active","ping":80},{"user_id":358,"name":"PlasmaPower","steam_id":76561198136316884,"connected_time":841000000000,"state":"active","ping":76},{"user_id":371,"name":"Dad 2","steam_id":76561198138546187,"connected_time":14000000000,"state":"active","ping":90}]},{"server_id":8,"name":"Uncletopia | Dallas | 1 | All Maps","name_short":"dal-1","host":"dal-1.us.uncletopia.com","port":27015,"enabled":true,"region":"us-central","cc":"us","latitude":32.779167,"longitude":-96.80889,"reserved":0,"last_update":"0001-01-01T00:00:00Z","name_a2s":"Uncletopia | Dallas | 1 | All Maps","protocol":17,"map":"cp_altitude","folder":"tf","game":"Team Fortress","app_id":440,"player_count":24,"max_players":24,"Bots":0,"server_type":"Dedicated","server_os":"Linux","password":true,"vac":true,"version":"7723704","steam_id":85568392924469986,"keywords":["cp","nocrits","nodmgspread","uncletopia"],"game_id":440,"stv_port":27016,"stv_name":"Uncletopia | Dallas | 1 | All Maps | STV","players":[{"user_id":656,"name":"GLG MUTT","steam_id":76561198147785541,"connected_time":952000000000,"state":"active","ping":53},{"user_id":668,"name":"iluvtoust","steam_id":76561198869269207,"connected_time":213000000000,"state":"active","ping":53},{"user_id":612,"name":"|-HyperCube-|","steam_id":76561198167133597,"connected_time":2880000000000,"state":"active","ping":57},{"user_id":654,"name":"GLG.Liz","steam_id":76561198021957956,"connected_time":967000000000,"state":"active","ping":45},{"user_id":655,"name":"MusKle Sandwich","steam_id":76561198088118846,"connected_time":961000000000,"state":"active","ping":91},{"user_id":649,"name":"Derply","steam_id":76561198871211642,"connected_time":1078000000000,"state":"active","ping":68},{"user_id":647,"name":"Dr. Ludwig","steam_id":76561198110246392,"connected_time":1168000000000,"state":"active","ping":58},{"user_id":610,"name":"Magnifecent Marble","steam_id":76561199021431393,"connected_time":3084000000000,"state":"active","ping":54},{"user_id":659,"name":"Ryo31337","steam_id":76561198063083553,"connected_time":847000000000,"state":"active","ping":54},{"user_id":616,"name":"Nathan Loves You","steam_id":76561198047371790,"connected_time":2488000000000,"state":"active","ping":106},{"user_id":617,"name":"DrChron420","steam_id":76561198058291674,"connected_time":2478000000000,"state":"active","ping":101},{"user_id":618,"name":"Ikaros","steam_id":76561198058324042,"connected_time":2471000000000,"state":"active","ping":89},{"user_id":644,"name":"BatJet","steam_id":76561198147738441,"connected_time":1606000000000,"state":"active","ping":87},{"user_id":632,"name":"CHRIMSTAS CAT","steam_id":76561198042570322,"connected_time":2151000000000,"state":"active","ping":80},{"user_id":635,"name":"Drakon","steam_id":76561198078210822,"connected_time":2135000000000,"state":"active","ping":92},{"user_id":663,"name":"Zoombini16","steam_id":76561198324428992,"connected_time":592000000000,"state":"active","ping":76},{"user_id":625,"name":"Susan","steam_id":76561198045705049,"connected_time":2249000000000,"state":"active","ping":83},{"user_id":626,"name":"Koraroco","steam_id":76561198981047117,"connected_time":2246000000000,"state":"active","ping":65},{"user_id":636,"name":"Pizza","steam_id":76561198118748364,"connected_time":2095000000000,"state":"active","ping":84},{"user_id":658,"name":"YoteDab McFapDab.jpg","steam_id":76561197984870380,"connected_time":912000000000,"state":"active","ping":99},{"user_id":651,"name":"anthonyperez6543","steam_id":76561199367988161,"connected_time":1038000000000,"state":"active","ping":156},{"user_id":575,"name":"ArnoldGaming","steam_id":76561198040140247,"connected_time":6182000000000,"state":"active","ping":97},{"user_id":662,"name":"Fever Dreams","steam_id":76561198116614620,"connected_time":658000000000,"state":"active","ping":81},{"user_id":638,"name":"Imrgrim","steam_id":76561198135866481,"connected_time":2067000000000,"state":"active","ping":64}]},{"server_id":108,"name":"Uncletopia | Dallas | 2 | All Maps","name_short":"dal-2","host":"dal-1.us.uncletopia.com","port":27025,"enabled":true,"region":"us-central","cc":"us","latitude":32.779167,"longitude":-96.80889,"reserved":0,"last_update":"0001-01-01T00:00:00Z","name_a2s":"Uncletopia | Dallas | 2 | All Maps","protocol":17,"map":"koth_lakeside_final","folder":"tf","game":"Team Fortress","app_id":440,"player_count":24,"max_players":24,"Bots":0,"server_type":"Dedicated","server_os":"Linux","password":true,"vac":true,"version":"7723704","steam_id":85568392924469988,"keywords":["cp","nocrits","nodmgspread","uncletopia"],"game_id":440,"stv_port":27026,"stv_name":"Uncletopia | Dallas | 2 | All Maps | STV","players":[{"user_id":341,"name":"fishfin","steam_id":76561198255819115,"connected_time":1282000000000,"state":"active","ping":81},{"user_id":343,"name":"Rock Kickass","steam_id":76561198450510841,"connected_time":1262000000000,"state":"active","ping":85},{"user_id":339,"name":"[ ¬£≈∏,ƒê ] Not AirmanBlueJay","steam_id":76561198030901346,"connected_time":1538000000000,"state":"active","ping":96},{"user_id":324,"name":"parsee","steam_id":76561198095139889,"connected_time":3365000000000,"state":"active","ping":86},{"user_id":338,"name":"Timbs!!","steam_id":76561198156215344,"connected_time":1858000000000,"state":"active","ping":54},{"user_id":336,"name":"Literally a Goat","steam_id":76561198048046579,"connected_time":2138000000000,"state":"active","ping":43},{"user_id":327,"name":"NEGUSSS","steam_id":76561198303869203,"connected_time":3294000000000,"state":"active","ping":94},{"user_id":352,"name":"Thrall","steam_id":76561198087004558,"connected_time":848000000000,"state":"active","ping":72},{"user_id":328,"name":"SE X","steam_id":76561198094525829,"connected_time":3292000000000,"state":"active","ping":91},{"user_id":337,"name":"Dihsar","steam_id":76561198065169821,"connected_time":1873000000000,"state":"active","ping":84},{"user_id":342,"name":"Shiny","steam_id":76561198172286358,"connected_time":1276000000000,"state":"active","ping":71},{"user_id":355,"name":"big guapo","steam_id":76561198103228695,"connected_time":481000000000,"state":"active","ping":75},{"user_id":356,"name":"Markers","steam_id":76561198044078932,"connected_time":315000000000,"state":"active","ping":86},{"user_id":334,"name":"SpinnerSpecial","steam_id":76561198065661869,"connected_time":2471000000000,"state":"active","ping":96},{"user_id":360,"name":"ChipperGunslinger","steam_id":76561199100483140,"connected_time":13000000000,"state":"spawning","ping":59},{"user_id":204,"name":"DrBenjas","steam_id":76561198345883103,"connected_time":10805000000000,"state":"active","ping":65},{"user_id":329,"name":"boomerangutang","steam_id":76561198151407214,"connected_time":3257000000000,"state":"active","ping":68},{"user_id":345,"name":"Teh Lemon","steam_id":76561199223429767,"connected_time":1254000000000,"state":"active","ping":104},{"user_id":357,"name":"Lingus Loopus","steam_id":76561198041426868,"connected_time":281000000000,"state":"active","ping":50},{"user_id":275,"name":"The Ultimate Coomer","steam_id":76561199128833757,"connected_time":6451000000000,"state":"active","ping":44},{"user_id":351,"name":"t","steam_id":76561198259394694,"connected_time":975000000000,"state":"active","ping":89},{"user_id":358,"name":"tell me about it","steam_id":76561198277799227,"connected_time":222000000000,"state":"active","ping":72},{"user_id":359,"name":"Sugercrash","steam_id":76561199187685119,"connected_time":221000000000,"state":"active","ping":82},{"user_id":335,"name":"Shaznable","steam_id":76561198101825959,"connected_time":2465000000000,"state":"active","ping":99}]},{"server_id":5,"name":"Uncletopia | Frankfurt | 1 | All Maps","name_short":"frk-1","host":"frk-1.de.uncletopia.com","port":27015,"enabled":true,"region":"eu","cc":"de","latitude":50.110924,"longitude":8.682127,"reserved":0,"last_update":"0001-01-01T00:00:00Z","name_a2s":"Uncletopia | Frankfurt | 1 | All Maps","protocol":17,"map":"koth_highpass","folder":"tf","game":"Team Fortress","app_id":440,"player_count":0,"max_players":24,"Bots":0,"server_type":"Dedicated","server_os":"Linux","password":true,"vac":true,"version":"7723704","steam_id":85568392924469989,"keywords":["cp","nocrits","nodmgspread","uncletopia"],"game_id":440,"stv_port":27016,"stv_name":"Uncletopia | Frankfurt | 1 | All Maps | STV","players":null},{"server_id":110,"name":"Uncletopia | Frankfurt | 2 | All Maps","name_short":"frk-2","host":"frk-1.de.uncletopia.com","port":27025,"enabled":true,"region":"eu","cc":"de","latitude":50.110924,"longitude":8.682127,"reserved":0,"last_update":"0001-01-01T00:00:00Z","name_a2s":"Uncletopia | Frankfurt | 2 | All Maps","protocol":17,"map":"koth_highpass","folder":"tf","game":"Team Fortress","app_id":440,"player_count":0,"max_players":24,"Bots":0,"server_type":"Dedicated","server_os":"Linux","password":true,"vac":true,"version":"7723704","steam_id":85568392924469990,"keywords":["cp","nocrits","nodmgspread","uncletopia"],"game_id":440,"stv_port":27026,"stv_name":"Uncletopia | Frankfurt | 2 | All Maps | STV","players":null},{"server_id":308,"name":"Uncletopia | Frankfurt | 3 | All Maps","name_short":"frk-3","host":"frk-1.de.uncletopia.com","port":27035,"enabled":true,"region":"eu","cc":"de","latitude":50.110924,"longitude":8.682127,"reserved":0,"last_update":"0001-01-01T00:00:00Z","name_a2s":"Uncletopia | Frankfurt | 3 | All Maps","protocol":17,"map":"koth_viaduct","folder":"tf","game":"Team Fortress","app_id":440,"player_count":0,"max_players":24,"Bots":0,"server_type":"Dedicated","server_os":"Linux","password":true,"vac":true,"version":"7723704","steam_id":85568392924504274,"keywords":["cp","nocrits","nodmgspread","uncletopia"],"game_id":440,"stv_port":27036,"stv_name":"Uncletopia | Frankfurt | 3 | All Maps | STV","players":null},{"server_id":309,"name":"Uncletopia | Frankfurt | 4 | All Maps","name_short":"frk-4","host":"frk-1.de.uncletopia.com","port":27045,"enabled":true,"region":"eu","cc":"de","latitude":50.110924,"longitude":8.682127,"reserved":0,"last_update":"0001-01-01T00:00:00Z","name_a2s":"Uncletopia | Frankfurt | 4 | All Maps","protocol":17,"map":"pl_swiftwater_final1","folder":"tf","game":"Team Fortress","app_id":440,"player_count":0,"max_players":24,"Bots":0,"server_type":"Dedicated","server_os":"Linux","password":true,"vac":true,"version":"7723704","steam_id":85568392924504275,"keywords":["nocrits","nodmgspread","payload","uncletopia"],"game_id":440,"stv_port":27046,"stv_name":"Uncletopia | Frankfurt | 4 | All Maps | STV","players":null},{"server_id":310,"name":"Uncletopia | Frankfurt | 5 | All Maps","name_short":"frk-5","host":"frk-1.de.uncletopia.com","port":27055,"enabled":true,"region":"eu","cc":"de","latitude":50.110924,"longitude":8.682127,"reserved":0,"last_update":"0001-01-01T00:00:00Z","name_a2s":"Uncletopia | Frankfurt | 5 | All Maps","protocol":17,"map":"cp_snakewater_final1","folder":"tf","game":"Team Fortress","app_id":440,"player_count":0,"max_players":24,"Bots":0,"server_type":"Dedicated","server_os":"Linux","password":true,"vac":true,"version":"7723704","steam_id":85568392924504277,"keywords":["cp","nocrits","nodmgspread","uncletopia"],"game_id":440,"stv_port":27056,"stv_name":"Uncletopia | Frankfurt | 5 | All Maps | STV","players":null},{"server_id":311,"name":"Uncletopia | Frankfurt | 6 | All Maps","name_short":"frk-6","host":"frk-1.de.uncletopia.com","port":27065,"enabled":true,"region":"eu","cc":"de","latitude":50.110924,"longitude":8.682127,"reserved":0,"last_update":"0001-01-01T00:00:00Z","name_a2s":"Uncletopia | Frankfurt | 6 | All Maps","protocol":17,"map":"cp_snakewater_final1","folder":"tf","game":"Team Fortress","app_id":440,"player_count":0,"max_players":24,"Bots":0,"server_type":"Dedicated","server_os":"Linux","password":true,"vac":true,"version":"7723704","steam_id":85568392924504278,"keywords":["cp","nocrits","nodmgspread","uncletopia"],"game_id":440,"stv_port":27066,"stv_name":"Uncletopia | Frankfurt | 6 | All Maps | STV","players":null},{"server_id":23,"name":"Uncletopia | Frankfurt | 7 | Stopwatch Beta","name_short":"frk-7","host":"frk-1.de.uncletopia.com","port":27075,"enabled":true,"region":"eu","cc":"de","latitude":50.110924,"longitude":8.682127,"reserved":0,"last_update":"0001-01-01T00:00:00Z","name_a2s":"Uncletopia | Frankfurt | 7 | Stopwatch Beta","protocol":17,"map":"workshop/cp_reckoner_rc6.ugc674719999","folder":"tf","game":"Team Fortress","app_id":440,"player_count":0,"max_players":24,"Bots":0,"server_type":"Dedicated","server_os":"Linux","password":true,"vac":true,"version":"7723704","steam_id":85568392924742827,"keywords":["cp","nocrits","nodmgspread","uncletopia"],"game_id":440,"stv_port":27076,"stv_name":"Uncletopia | Frankfurt | 7 | Stopwatch Beta | STV","players":null},{"server_id":24,"name":"Uncletopia | Frankfurt | 8 | Community","name_short":"frk-8","host":"frk-1.de.uncletopia.com","port":27085,"enabled":true,"region":"eu","cc":"de","latitude":50.110924,"longitude":8.682127,"reserved":0,"last_update":"0001-01-01T00:00:00Z","name_a2s":"Uncletopia | Frankfurt | 8 | Community","protocol":17,"map":"workshop/rd_asteroid_redux_rc9.ugc2154902912","folder":"tf","game":"Team Fortress","app_id":440,"player_count":0,"max_players":24,"Bots":0,"server_type":"Dedicated","server_os":"Linux","password":true,"vac":true,"version":"7723704","steam_id":85568392924742828,"keywords":["beta","nocrits","nodmgspread","rd","uncletopia"],"game_id":440,"stv_port":27086,"stv_name":"Uncletopia | Frankfurt | 8 | Community | STV","players":null},{"server_id":202,"name":"Uncletopia | Hong Kong | 1 | All Maps","name_short":"hgk-1","host":"hgk-1.hk.uncletopia.com","port":27015,"enabled":true,"region":"asia","cc":"hk","latitude":22.302711,"longitude":114.177216,"reserved":0,"last_update":"0001-01-01T00:00:00Z","name_a2s":"Uncletopia | Hong Kong | 1 | All Maps","protocol":17,"map":"pl_frontier_final","folder":"tf","game":"Team Fortress","app_id":440,"player_count":23,"max_players":24,"Bots":0,"server_type":"Dedicated","server_os":"Linux","password":true,"vac":true,"version":"7723704","steam_id":85568392924494504,"keywords":["nocrits","nodmgspread","payload","uncletopia"],"game_id":440,"stv_port":27016,"stv_name":"Uncletopia | Hong Kong | 1 | All Maps | STV","players":[{"user_id":100,"name":"alphakennybuddy","steam_id":76561199219625644,"connected_time":259000000000,"state":"active","ping":99},{"user_id":101,"name":"nyakky","steam_id":76561198927779787,"connected_time":212000000000,"state":"active","ping":94},{"user_id":106,"name":"Telekhine","steam_id":76561198387120618,"connected_time":0,"state":"connecting","ping":0},{"user_id":91,"name":"krankie ‚ô•","steam_id":76561198364773435,"connected_time":841000000000,"state":"active","ping":105},{"user_id":102,"name":"not flow","steam_id":76561198113244106,"connected_time":181000000000,"state":"active","ping":161},{"user_id":75,"name":"1989 tiananmen square","steam_id":76561198044081344,"connected_time":2017000000000,"state":"active","ping":77},{"user_id":90,"name":"CoatedInFire","steam_id":76561199070760845,"connected_time":1074000000000,"state":"active","ping":88},{"user_id":104,"name":"È∫°Âêñi","steam_id":76561198383204367,"connected_time":71000000000,"state":"active","ping":95},{"user_id":37,"name":"Wakiiiz","steam_id":76561198850134590,"connected_time":4745000000000,"state":"active","ping":59},{"user_id":96,"name":"Milk‚ù§ (most hated guy in ut)","steam_id":76561198163911560,"connected_time":501000000000,"state":"active","ping":93},{"user_id":64,"name":"gyneus","steam_id":76561198087349140,"connected_time":2853000000000,"state":"active","ping":85},{"user_id":56,"name":"Lynax","steam_id":76561198384987334,"connected_time":3609000000000,"state":"active","ping":92},{"user_id":42,"name":"nihil","steam_id":76561198339641444,"connected_time":4265000000000,"state":"active","ping":76},{"user_id":105,"name":"Corn_Archer","steam_id":76561199185044554,"connected_time":41000000000,"state":"active","ping":60},{"user_id":98,"name":"Yeun bi","steam_id":76561198264134863,"connected_time":284000000000,"state":"active","ping":116},{"user_id":97,"name":"Jarx246","steam_id":76561198138382025,"connected_time":460000000000,"state":"active","ping":105},{"user_id":53,"name":"screaming sniper","steam_id":76561199085568674,"connected_time":3656000000000,"state":"active","ping":62},{"user_id":88,"name":"brizzard","steam_id":76561198048438653,"connected_time":1133000000000,"state":"active","ping":46},{"user_id":85,"name":"MS PowerPoint","steam_id":76561198369523192,"connected_time":1402000000000,"state":"active","ping":63},{"user_id":71,"name":"P","steam_id":76561198304514505,"connected_time":2156000000000,"state":"active","ping":75},{"user_id":87,"name":"Tin-Tin \u003c3","steam_id":76561199247983065,"connected_time":1276000000000,"state":"active","ping":106},{"user_id":80,"name":"AAww","steam_id":76561199220320583,"connected_time":1806000000000,"state":"active","ping":66},{"user_id":86,"name":"master glu eater","steam_id":76561198069402937,"connected_time":1398000000000,"state":"active","ping":70}]},{"server_id":1,"name":"Uncletopia | Los Angeles | 1 | All Maps","name_short":"lax-1","host":"lax-1.us.uncletopia.com","port":27015,"enabled":true,"region":"us-west","cc":"us","latitude":33.94279,"longitude":-118.41004,"reserved":0,"last_update":"0001-01-01T00:00:00Z","name_a2s":"Uncletopia | Los Angeles | 1 | All Maps","protocol":17,"map":"pl_wutville_event","folder":"tf","game":"Team Fortress","app_id":440,"player_count":0,"max_players":24,"Bots":0,"server_type":"Dedicated","server_os":"Linux","password":true,"vac":true,"version":"7723704","steam_id":85568392924469991,"keywords":["nocrits","nodmgspread","payload","uncletopia"],"game_id":440,"stv_port":27016,"stv_name":"Uncletopia | Los Angeles | 1 | All Maps | STV","players":null},{"server_id":112,"name":"Uncletopia | Los Angeles | 2 | All Maps","name_short":"lax-2","host":"lax-1.us.uncletopia.com","port":27025,"enabled":true,"region":"us-west","cc":"us","latitude":33.94279,"longitude":-118.41004,"reserved":0,"last_update":"0001-01-01T00:00:00Z","name_a2s":"Uncletopia | Los Angeles | 2 | All Maps","protocol":17,"map":"pl_borneo","folder":"tf","game":"Team Fortress","app_id":440,"player_count":24,"max_players":24,"Bots":0,"server_type":"Dedicated","server_os":"Linux","password":true,"vac":true,"version":"7723704","steam_id":85568392924469992,"keywords":["nocrits","nodmgspread","payload","uncletopia"],"game_id":440,"stv_port":27026,"stv_name":"Uncletopia | Los Angeles | 2 | All Maps | STV","players":[{"user_id":164,"name":"superx","steam_id":76561198044976613,"connected_time":2000000000000,"state":"active","ping":107},{"user_id":157,"name":"Ashanti Clan","steam_id":76561198032651105,"connected_time":2509000000000,"state":"active","ping":74},{"user_id":127,"name":"kr1tsurf3r","steam_id":76561198076402476,"connected_time":4256000000000,"state":"active","ping":61},{"user_id":168,"name":"SHADOW (he/him)","steam_id":76561198207768148,"connected_time":1662000000000,"state":"active","ping":64},{"user_id":54,"name":"Mothma","steam_id":76561198353789504,"connected_time":9649000000000,"state":"active","ping":63},{"user_id":163,"name":"lokm","steam_id":76561198030374238,"connected_time":2108000000000,"state":"active","ping":56},{"user_id":155,"name":"......","steam_id":76561198067612741,"connected_time":2587000000000,"state":"active","ping":73},{"user_id":162,"name":"big g","steam_id":76561198067496197,"connected_time":2132000000000,"state":"active","ping":105},{"user_id":158,"name":"Canaan ‚ù§","steam_id":76561198044337051,"connected_time":2499000000000,"state":"active","ping":49},{"user_id":166,"name":"3neutral","steam_id":76561198196919359,"connected_time":1718000000000,"state":"active","ping":172},{"user_id":161,"name":"Pump","steam_id":76561198085846167,"connected_time":2334000000000,"state":"active","ping":68},{"user_id":170,"name":"king in the north!","steam_id":76561198035780415,"connected_time":947000000000,"state":"active","ping":55},{"user_id":176,"name":"Robyn Goodfellowe","steam_id":76561198074719241,"connected_time":693000000000,"state":"active","ping":104},{"user_id":169,"name":"HELP ME, the engineer","steam_id":76561198035698704,"connected_time":1170000000000,"state":"active","ping":67},{"user_id":40,"name":"Sabaman55","steam_id":76561198212267979,"connected_time":10196000000000,"state":"active","ping":86},{"user_id":174,"name":"Sad Sapling","steam_id":76561198075612150,"connected_time":780000000000,"state":"active","ping":56},{"user_id":150,"name":"The Squid Gamer‚Ñ¢","steam_id":76561198340621517,"connected_time":3153000000000,"state":"active","ping":76},{"user_id":142,"name":"PrinterLights","steam_id":76561198145909722,"connected_time":3408000000000,"state":"active","ping":64},{"user_id":182,"name":"ECH","steam_id":76561199209834538,"connected_time":141000000000,"state":"active","ping":85},{"user_id":177,"name":"anton ego","steam_id":76561199019583362,"connected_time":521000000000,"state":"active","ping":53},{"user_id":171,"name":"-trackpadgaming-","steam_id":76561198065752486,"connected_time":930000000000,"state":"active","ping":61},{"user_id":116,"name":"Soap Man","steam_id":76561198000490235,"connected_time":5205000000000,"state":"active","ping":97},{"user_id":180,"name":"jawnymac","steam_id":76561198179529599,"connected_time":402000000000,"state":"active","ping":61},{"user_id":181,"name":"Delta","steam_id":76561198021957971,"connected_time":192000000000,"state":"active","ping":47}]},{"server_id":324,"name":"Uncletopia | Los Angeles | 3 | All Maps","name_short":"lax-3","host":"lax-1.us.uncletopia.com","port":27035,"enabled":true,"region":"us-west","cc":"us","latitude":33.94279,"longitude":-118.41004,"reserved":0,"last_update":"0001-01-01T00:00:00Z","name_a2s":"Uncletopia | Los Angeles | 3 | All Maps","protocol":17,"map":"pl_badwater","folder":"tf","game":"Team Fortress","app_id":440,"player_count":24,"max_players":24,"Bots":0,"server_type":"Dedicated","server_os":"Linux","password":true,"vac":true,"version":"7723704","steam_id":85568392924510198,"keywords":["nocrits","nodmgspread","payload","uncletopia"],"game_id":440,"stv_port":27036,"stv_name":"Uncletopia | Los Angeles | 3 | All Maps | STV","players":[{"user_id":11,"name":"Baluk","steam_id":76561199064894050,"connected_time":9957000000000,"state":"active","ping":55},{"user_id":12,"name":"yellow","steam_id":76561198366474647,"connected_time":9951000000000,"state":"active","ping":32},{"user_id":64,"name":"Wso1123","steam_id":76561198048040111,"connected_time":4107000000000,"state":"active","ping":60},{"user_id":59,"name":"‚ù§ Ashley ‚ù§","steam_id":76561198056428303,"connected_time":4404000000000,"state":"active","ping":45},{"user_id":87,"name":"carloseolartec","steam_id":76561198396648023,"connected_time":1336000000000,"state":"active","ping":99},{"user_id":94,"name":"High Cotton","steam_id":76561197998894854,"connected_time":656000000000,"state":"active","ping":93},{"user_id":73,"name":"Arbiter Soul (Urine Enthusiast)","steam_id":76561198067798973,"connected_time":2963000000000,"state":"active","ping":59},{"user_id":95,"name":"Elias","steam_id":76561198031295139,"connected_time":57000000000,"state":"active","ping":64},{"user_id":65,"name":"Roomsky","steam_id":76561198012827494,"connected_time":3788000000000,"state":"active","ping":62},{"user_id":36,"name":"Star","steam_id":76561198422395239,"connected_time":6515000000000,"state":"active","ping":45},{"user_id":66,"name":"NASA PEEPO","steam_id":76561198024982267,"connected_time":3780000000000,"state":"active","ping":66},{"user_id":55,"name":"Altruisticailuridae","steam_id":76561198335295596,"connected_time":4878000000000,"state":"active","ping":164},{"user_id":28,"name":"Grassman (Cc)","steam_id":76561198026488532,"connected_time":7045000000000,"state":"active","ping":53},{"user_id":96,"name":"LtAlexandro","steam_id":76561198997494266,"connected_time":23000000000,"state":"spawning","ping":50},{"user_id":77,"name":"MarshallMellows","steam_id":76561198231561020,"connected_time":2790000000000,"state":"active","ping":61},{"user_id":83,"name":"Milk T34","steam_id":76561198116115227,"connected_time":1874000000000,"state":"active","ping":82},{"user_id":93,"name":"Krow","steam_id":76561198010392099,"connected_time":675000000000,"state":"active","ping":75},{"user_id":75,"name":"Big Pete","steam_id":76561198100754827,"connected_time":2948000000000,"state":"active","ping":51},{"user_id":78,"name":"Lonka","steam_id":76561199008415182,"connected_time":2396000000000,"state":"active","ping":54},{"user_id":80,"name":"User Interface","steam_id":76561198049238840,"connected_time":2248000000000,"state":"active","ping":75},{"user_id":41,"name":"Starbrew Coldbucks","steam_id":76561198281968441,"connected_time":6259000000000,"state":"active","ping":53},{"user_id":69,"name":"That Guy","steam_id":76561197997444126,"connected_time":3673000000000,"state":"active","ping":76},{"user_id":71,"name":"ForeignHistorian","steam_id":76561198985727182,"connected_time":3350000000000,"state":"active","ping":112},{"user_id":86,"name":"Stale","steam_id":76561198346390285,"connected_time":1402000000000,"state":"active","ping":55}]},{"server_id":25,"name":"Uncletopia | Los Angeles | 4 | Stopwatch Beta","name_short":"lax-4","host":"lax-1.us.uncletopia.com","port":27045,"enabled":true,"region":"us-west","cc":"us","latitude":33.94279,"longitude":-118.41004,"reserved":0,"last_update":"0001-01-01T00:00:00Z","name_a2s":"Uncletopia | Los Angeles | 4 | Stopwatch Beta","protocol":17,"map":"cp_sunshine","folder":"tf","game":"Team Fortress","app_id":440,"player_count":0,"max_players":24,"Bots":0,"server_type":"Dedicated","server_os":"Linux","password":true,"vac":true,"version":"7723704","steam_id":85568392924510199,"keywords":["cp","nocrits","nodmgspread","uncletopia"],"game_id":440,"stv_port":27046,"stv_name":"Uncletopia | Los Angeles | 4 | Stopwatch Beta | STV","players":null},{"server_id":11,"name":"Uncletopia | London | 1 | All Maps","name_short":"lon-1","host":"lon-1.uk.uncletopia.com","port":27015,"enabled":true,"region":"eu","cc":"gb","latitude":51.509865,"longitude":-0.118092,"reserved":0,"last_update":"0001-01-01T00:00:00Z","name_a2s":"Uncletopia | London | 1 | All Maps","protocol":17,"map":"pl_snowycoast","folder":"tf","game":"Team Fortress","app_id":440,"player_count":16,"max_players":24,"Bots":0,"server_type":"Dedicated","server_os":"Linux","password":true,"vac":true,"version":"7723704","steam_id":85568392924367362,"keywords":["nocrits","nodmgspread","payload","uncletopia"],"game_id":440,"stv_port":27016,"stv_name":"Uncletopia | London | 1 | All Maps | STV","players":[{"user_id":755,"name":"frosty","steam_id":76561198094560834,"connected_time":7658000000000,"state":"active","ping":45},{"user_id":820,"name":"twitch.tv/inviter","steam_id":76561198100268434,"connected_time":954000000000,"state":"active","ping":64},{"user_id":827,"name":"Kanny","steam_id":76561198058810184,"connected_time":158000000000,"state":"active","ping":60},{"user_id":805,"name":"latch","steam_id":76561198064878900,"connected_time":2727000000000,"state":"active","ping":61},{"user_id":824,"name":"Le Bon Toutou","steam_id":76561198300902712,"connected_time":337000000000,"state":"active","ping":64},{"user_id":825,"name":"Room","steam_id":76561199174579733,"connected_time":326000000000,"state":"active","ping":142},{"user_id":759,"name":"Quite exquisite","steam_id":76561198257836694,"connected_time":7389000000000,"state":"active","ping":39},{"user_id":826,"name":"Darkmaen","steam_id":76561198060543390,"connected_time":283000000000,"state":"active","ping":52},{"user_id":791,"name":"Meh","steam_id":76561198148030229,"connected_time":4108000000000,"state":"active","ping":67},{"user_id":776,"name":"SuperBob103","steam_id":76561199175360012,"connected_time":5686000000000,"state":"active","ping":48},{"user_id":762,"name":"vivid","steam_id":76561198346546144,"connected_time":6898000000000,"state":"active","ping":34},{"user_id":803,"name":"Sophie","steam_id":76561198267463398,"connected_time":2946000000000,"state":"active","ping":61},{"user_id":816,"name":"(Hu$tl3r) E1s","steam_id":76561198894958917,"connected_time":1220000000000,"state":"active","ping":55},{"user_id":730,"name":"cinny","steam_id":76561198832112629,"connected_time":11467000000000,"state":"active","ping":80},{"user_id":810,"name":"aph","steam_id":76561198057722639,"connected_time":2337000000000,"state":"active","ping":73},{"user_id":818,"name":"vani","steam_id":76561197991778291,"connected_time":977000000000,"state":"active","ping":78}]},{"server_id":114,"name":"Uncletopia | London | 2 | All Maps","name_short":"lon-2","host":"lon-1.uk.uncletopia.com","port":27025,"enabled":true,"region":"eu","cc":"gb","latitude":51.509865,"longitude":-0.118092,"reserved":0,"last_update":"0001-01-01T00:00:00Z","name_a2s":"Uncletopia | London | 2 | All Maps","protocol":17,"map":"pl_snowycoast","folder":"tf","game":"Team Fortress","app_id":440,"player_count":0,"max_players":24,"Bots":0,"server_type":"Dedicated","server_os":"Linux","password":true,"vac":true,"version":"7723704","steam_id":85568392924470941,"keywords":["nocrits","nodmgspread","payload","uncletopia"],"game_id":440,"stv_port":27026,"stv_name":"Uncletopia | London | 2 | All Maps | STV","players":null},{"server_id":320,"name":"Uncletopia | London | 3 | All Maps","name_short":"lon-3","host":"lon-1.uk.uncletopia.com","port":27035,"enabled":true,"region":"eu","cc":"gb","latitude":51.509865,"longitude":-0.118092,"reserved":0,"last_update":"0001-01-01T00:00:00Z","name_a2s":"Uncletopia | London | 3 | All Maps","protocol":17,"map":"koth_highpass","folder":"tf","game":"Team Fortress","app_id":440,"player_count":0,"max_players":24,"Bots":0,"server_type":"Dedicated","server_os":"Linux","password":true,"vac":true,"version":"7723704","steam_id":85568392924510192,"keywords":["cp","nocrits","nodmgspread","uncletopia"],"game_id":440,"stv_port":27036,"stv_name":"Uncletopia | London | 3 | All Maps | STV","players":null},{"server_id":321,"name":"Uncletopia | London | 4 | All Maps","name_short":"lon-4","host":"lon-1.uk.uncletopia.com","port":27045,"enabled":true,"region":"eu","cc":"gb","latitude":51.509865,"longitude":-0.118092,"reserved":0,"last_update":"0001-01-01T00:00:00Z","name_a2s":"Uncletopia | London | 4 | All Maps","protocol":17,"map":"pl_pier","folder":"tf","game":"Team Fortress","app_id":440,"player_count":3,"max_players":24,"Bots":0,"server_type":"Dedicated","server_os":"Linux","password":true,"vac":true,"version":"7723704","steam_id":85568392924510193,"keywords":["nocrits","nodmgspread","payload","uncletopia"],"game_id":440,"stv_port":27046,"stv_name":"Uncletopia | London | 4 | All Maps | STV","players":[{"user_id":370,"name":"fb","steam_id":76561197988802856,"connected_time":5086000000000,"state":"active","ping":61},{"user_id":315,"name":"Sonnakai","steam_id":76561198051688749,"connected_time":10016000000000,"state":"active","ping":32},{"user_id":316,"name":"Grey","steam_id":76561198187190267,"connected_time":10015000000000,"state":"active","ping":45}]},{"server_id":21,"name":"Uncletopia | London | 5 | All Maps","name_short":"lon-5","host":"lon-1.uk.uncletopia.com","port":27055,"enabled":true,"region":"eu","cc":"gb","latitude":51.509865,"longitude":-0.118092,"reserved":0,"last_update":"0001-01-01T00:00:00Z","name_a2s":"Uncletopia | London | 5 | All Maps","protocol":17,"map":"cp_process_final","folder":"tf","game":"Team Fortress","app_id":440,"player_count":0,"max_players":24,"Bots":0,"server_type":"Dedicated","server_os":"Linux","password":true,"vac":true,"version":"7723704","steam_id":85568392924742829,"keywords":["cp","nocrits","nodmgspread","uncletopia"],"game_id":440,"stv_port":27056,"stv_name":"Uncletopia | London | 5 | All Maps | STV","players":null},{"server_id":22,"name":"Uncletopia | London | 6 | All Maps","name_short":"lon-6","host":"lon-1.uk.uncletopia.com","port":27065,"enabled":true,"region":"eu","cc":"gb","latitude":51.509865,"longitude":-0.118092,"reserved":0,"last_update":"0001-01-01T00:00:00Z","name_a2s":"Uncletopia | London | 6 | All Maps","protocol":17,"map":"cp_dustbowl","folder":"tf","game":"Team Fortress","app_id":440,"player_count":0,"max_players":24,"Bots":0,"server_type":"Dedicated","server_os":"Linux","password":true,"vac":true,"version":"7723704","steam_id":85568392924742830,"keywords":["cp","nocrits","nodmgspread","uncletopia"],"game_id":440,"stv_port":27066,"stv_name":"Uncletopia | London | 6 | All Maps | STV","players":null},{"server_id":40,"name":"Uncletopia | London | 7 | No Payload","name_short":"lon-7","host":"lon-1.uk.uncletopia.com","port":27075,"enabled":true,"region":"eu","cc":"gb","latitude":51.509865,"longitude":-0.118092,"reserved":0,"last_update":"0001-01-01T00:00:00Z","name_a2s":"Uncletopia | London | 7 | No Payload","protocol":17,"map":"koth_sawmill","folder":"tf","game":"Team Fortress","app_id":440,"player_count":0,"max_players":24,"Bots":0,"server_type":"Dedicated","server_os":"Linux","password":true,"vac":true,"version":"7723704","steam_id":85568392924964314,"keywords":["cp","nocrits","nodmgspread","uncletopia"],"game_id":440,"stv_port":27076,"stv_name":"Uncletopia | London | 7 | No Payload | STV","players":null},{"server_id":41,"name":"Uncletopia | London | 8 | Community","name_short":"lon-8","host":"lon-1.uk.uncletopia.com","port":27085,"enabled":true,"region":"eu","cc":"gb","latitude":51.509865,"longitude":-0.118092,"reserved":0,"last_update":"0001-01-01T00:00:00Z","name_a2s":"Uncletopia | London | 8 | Community","protocol":17,"map":"koth_highpass","folder":"tf","game":"Team Fortress","app_id":440,"player_count":0,"max_players":24,"Bots":0,"server_type":"Dedicated","server_os":"Linux","password":true,"vac":true,"version":"7723704","steam_id":85568392924964315,"keywords":["cp","nocrits","nodmgspread","uncletopia"],"game_id":440,"stv_port":27086,"stv_name":"Uncletopia | London | 8 | Community | STV","players":null},{"server_id":300,"name":"Uncletopia | Montr√©al | 1 | All Maps","name_short":"mtl-1","host":"mtl-1.ca.uncletopia.com","port":27015,"enabled":true,"region":"us-east","cc":"ca","latitude":45.50889,"longitude":-73.56167,"reserved":0,"last_update":"0001-01-01T00:00:00Z","name_a2s":"Uncletopia | Montr√©al | 1 | All Maps","protocol":17,"map":"koth_cascade","folder":"tf","game":"Team Fortress","app_id":440,"player_count":0,"max_players":24,"Bots":0,"server_type":"Dedicated","server_os":"Linux","password":true,"vac":true,"version":"7723704","steam_id":85568392924500087,"keywords":["cp","nocrits","nodmgspread","uncletopia"],"game_id":440,"stv_port":27016,"stv_name":"Uncletopia | Montr√©al | 1 | All Maps | STV","players":null},{"server_id":301,"name":"Uncletopia | Montr√©al | 2 | All Maps","name_short":"mtl-2","host":"mtl-1.ca.uncletopia.com","port":27025,"enabled":true,"region":"us-east","cc":"ca","latitude":45.50889,"longitude":-73.56167,"reserved":0,"last_update":"0001-01-01T00:00:00Z","name_a2s":"Uncletopia | Montr√©al | 2 | All Maps","protocol":17,"map":"koth_highpass","folder":"tf","game":"Team Fortress","app_id":440,"player_count":0,"max_players":24,"Bots":0,"server_type":"Dedicated","server_os":"Linux","password":true,"vac":true,"version":"7723704","steam_id":85568392924500088,"keywords":["cp","nocrits","nodmgspread","uncletopia"],"game_id":440,"stv_port":27026,"stv_name":"Uncletopia | Montr√©al | 2 | All Maps | STV","players":null},{"server_id":302,"name":"Uncletopia | Montr√©al | 3 | All Maps","name_short":"mtl-3","host":"mtl-1.ca.uncletopia.com","port":27035,"enabled":true,"region":"us-east","cc":"ca","latitude":45.50889,"longitude":-73.56167,"reserved":0,"last_update":"0001-01-01T00:00:00Z","name_a2s":"Uncletopia | Montr√©al | 3 | All Maps","protocol":17,"map":"cp_mountainlab","folder":"tf","game":"Team Fortress","app_id":440,"player_count":0,"max_players":24,"Bots":0,"server_type":"Dedicated","server_os":"Linux","password":true,"vac":true,"version":"7723704","steam_id":85568392924500089,"keywords":["cp","nocrits","nodmgspread","uncletopia"],"game_id":440,"stv_port":27036,"stv_name":"Uncletopia | Montr√©al | 3 | All Maps | STV","players":null},{"server_id":303,"name":"Uncletopia | Montr√©al | 4 | No Payload","name_short":"mtl-4","host":"mtl-1.ca.uncletopia.com","port":27045,"enabled":true,"region":"us-east","cc":"ca","latitude":45.50889,"longitude":-73.56167,"reserved":0,"last_update":"0001-01-01T00:00:00Z","name_a2s":"Uncletopia | Montr√©al | 4 | No Payload","protocol":17,"map":"koth_viaduct","folder":"tf","game":"Team Fortress","app_id":440,"player_count":0,"max_players":24,"Bots":0,"server_type":"Dedicated","server_os":"Linux","password":true,"vac":true,"version":"7723704","steam_id":85568392924500090,"keywords":["cp","nocrits","nodmgspread","uncletopia"],"game_id":440,"stv_port":27046,"stv_name":"Uncletopia | Montr√©al | 4 | No Payload | STV","players":null},{"server_id":13,"name":"Uncletopia | New York City | 1 | All Maps","name_short":"nyc-1","host":"nyc-1.us.uncletopia.com","port":27015,"enabled":true,"region":"us-east","cc":"us","latitude":40.73061,"longitude":-73.93524,"reserved":0,"last_update":"0001-01-01T00:00:00Z","name_a2s":"Uncletopia | New York City | 1 | All Maps","protocol":17,"map":"cp_dustbowl","folder":"tf","game":"Team Fortress","app_id":440,"player_count":24,"max_players":24,"Bots":0,"server_type":"Dedicated","server_os":"Linux","password":true,"vac":true,"version":"7723704","steam_id":85568392924469993,"keywords":["cp","nocrits","nodmgspread","uncletopia"],"game_id":440,"stv_port":27016,"stv_name":"Uncletopia | New York City | 1 | All Maps | STV","players":[{"user_id":779,"name":"Society Crusher","steam_id":76561198042059080,"connected_time":2521000000000,"state":"active","ping":75},{"user_id":810,"name":"plutonium isotope","steam_id":76561198319442494,"connected_time":222000000000,"state":"active","ping":113},{"user_id":791,"name":"Tesman James","steam_id":76561199093793428,"connected_time":1121000000000,"state":"active","ping":40},{"user_id":794,"name":"Lukewarm","steam_id":76561198354626554,"connected_time":978000000000,"state":"active","ping":97},{"user_id":805,"name":"crabapples","steam_id":76561198075818655,"connected_time":741000000000,"state":"active","ping":56},{"user_id":764,"name":"monoculus man","steam_id":76561198065108835,"connected_time":3801000000000,"state":"active","ping":39},{"user_id":768,"name":"Dusty Bucket","steam_id":76561198037064732,"connected_time":3700000000000,"state":"active","ping":49},{"user_id":798,"name":"dog-shaped dog","steam_id":76561198286166220,"connected_time":870000000000,"state":"active","ping":68},{"user_id":769,"name":"Sideshow Penguin","steam_id":76561198128024135,"connected_time":3548000000000,"state":"active","ping":49},{"user_id":790,"name":"An Inordinate Amount of Beans","steam_id":76561198022758805,"connected_time":1243000000000,"state":"active","ping":88},{"user_id":774,"name":"ncc_42","steam_id":76561198066377700,"connected_time":2742000000000,"state":"active","ping":38},{"user_id":730,"name":"Wique","steam_id":76561198071217597,"connected_time":5427000000000,"state":"active","ping":62},{"user_id":775,"name":"No√´l610","steam_id":76561198850011631,"connected_time":2738000000000,"state":"active","ping":56},{"user_id":796,"name":"BD[PL]","steam_id":76561198115995871,"connected_time":958000000000,"state":"active","ping":147},{"user_id":782,"name":"GhostCoffee","steam_id":76561198105228900,"connected_time":2481000000000,"state":"active","ping":48},{"user_id":806,"name":"Uhonlapjanteszika","steam_id":76561199431280503,"connected_time":719000000000,"state":"active","ping":51},{"user_id":792,"name":"carrion goat","steam_id":76561198262064871,"connected_time":1062000000000,"state":"active","ping":48},{"user_id":762,"name":"Bear bird","steam_id":76561198166769479,"connected_time":3818000000000,"state":"active","ping":75},{"user_id":813,"name":"iL","steam_id":76561198086331015,"connected_time":77000000000,"state":"active","ping":37},{"user_id":807,"name":"Ripley","steam_id":76561198080766916,"connected_time":636000000000,"state":"active","ping":72},{"user_id":785,"name":"Caboom","steam_id":76561198040221007,"connected_time":1999000000000,"state":"active","ping":99},{"user_id":800,"name":"Braamklauw","steam_id":76561198283287697,"connected_time":859000000000,"state":"active","ping":147},{"user_id":808,"name":"LividALX","steam_id":76561198145429015,"connected_time":467000000000,"state":"active","ping":59},{"user_id":801,"name":"Sir Quacksalot","steam_id":76561198048942777,"connected_time":844000000000,"state":"active","ping":91}]},{"server_id":14,"name":"Uncletopia | New York City | 2 | All Maps","name_short":"nyc-2","host":"nyc-1.us.uncletopia.com","port":27025,"enabled":true,"region":"us-east","cc":"us","latitude":40.73061,"longitude":-73.93524,"reserved":0,"last_update":"0001-01-01T00:00:00Z","name_a2s":"Uncletopia | New York City | 2 | All Maps","protocol":17,"map":"pl_swiftwater_final1","folder":"tf","game":"Team Fortress","app_id":440,"player_count":24,"max_players":24,"Bots":0,"server_type":"Dedicated","server_os":"Linux","password":true,"vac":true,"version":"7723704","steam_id":85568392924469994,"keywords":["nocrits","nodmgspread","payload","uncletopia"],"game_id":440,"stv_port":27026,"stv_name":"Uncletopia | New York City | 2 | All Maps | STV","players":[{"user_id":216,"name":"bikerkid207","steam_id":76561198390782783,"connected_time":3158000000000,"state":"active","ping":47},{"user_id":238,"name":"ow#n","steam_id":76561198048969516,"connected_time":1704000000000,"state":"active","ping":81},{"user_id":237,"name":"kitten","steam_id":76561198094801861,"connected_time":1715000000000,"state":"active","ping":87},{"user_id":209,"name":"Medical Asshat","steam_id":76561198004584315,"connected_time":4261000000000,"state":"active","ping":92},{"user_id":239,"name":"Apollo","steam_id":76561198046083342,"connected_time":1665000000000,"state":"active","ping":44},{"user_id":255,"name":"Temper","steam_id":76561198044123690,"connected_time":494000000000,"state":"active","ping":59},{"user_id":256,"name":"Sassafrazz","steam_id":76561198036032168,"connected_time":491000000000,"state":"active","ping":71},{"user_id":257,"name":"Chechens Spotted","steam_id":76561199028910893,"connected_time":258000000000,"state":"active","ping":85},{"user_id":242,"name":"RumetCoke","steam_id":76561198125922681,"connected_time":1580000000000,"state":"active","ping":90},{"user_id":193,"name":"cube","steam_id":76561197991759721,"connected_time":5486000000000,"state":"active","ping":53},{"user_id":251,"name":"Ignalis","steam_id":76561198025662927,"connected_time":757000000000,"state":"active","ping":55},{"user_id":221,"name":"River","steam_id":76561198137529294,"connected_time":3076000000000,"state":"active","ping":67},{"user_id":222,"name":"Quinoa","steam_id":76561198446788303,"connected_time":3070000000000,"state":"active","ping":76},{"user_id":258,"name":"Ballin \u0026 Can't Get Up","steam_id":76561198047394013,"connected_time":145000000000,"state":"active","ping":66},{"user_id":243,"name":"PinkDizaster","steam_id":76561198112512523,"connected_time":1569000000000,"state":"active","ping":85},{"user_id":246,"name":"YASAI JUICE","steam_id":76561198131971992,"connected_time":1266000000000,"state":"active","ping":57},{"user_id":206,"name":"Do Moose go Moo?","steam_id":76561198073550620,"connected_time":4445000000000,"state":"active","ping":60},{"user_id":234,"name":"saus","steam_id":76561198114729364,"connected_time":2066000000000,"state":"active","ping":137},{"user_id":253,"name":"Pegway","steam_id":76561198044303814,"connected_time":701000000000,"state":"active","ping":56},{"user_id":236,"name":"iHateDying","steam_id":76561198321790697,"connected_time":1818000000000,"state":"active","ping":83},{"user_id":211,"name":"Waffle Wannabe","steam_id":76561198064510650,"connected_time":4233000000000,"state":"active","ping":56},{"user_id":232,"name":"Zelumie","steam_id":76561198147335801,"connected_time":2490000000000,"state":"active","ping":74},{"user_id":227,"name":"Cooldog","steam_id":76561198080548713,"connected_time":2979000000000,"state":"active","ping":47},{"user_id":254,"name":"uncle dane's evil twin brother","steam_id":76561199021737235,"connected_time":695000000000,"state":"active","ping":62}]},{"server_id":15,"name":"Uncletopia | New York City | 3 | Stopwatch Beta","name_short":"nyc-3","host":"nyc-1.us.uncletopia.com","port":27035,"enabled":true,"region":"us-east","cc":"us","latitude":40.73061,"longitude":-73.93524,"reserved":0,"last_update":"0001-01-01T00:00:00Z","name_a2s":"Uncletopia | New York City | 3 | Stopwatch Beta","protocol":17,"map":"workshop/pl_barnblitz_pro7.ugc582280235","folder":"tf","game":"Team Fortress","app_id":440,"player_count":24,"max_players":24,"Bots":0,"server_type":"Dedicated","server_os":"Linux","password":true,"vac":true,"version":"7723704","steam_id":85568392924742820,"keywords":["nocrits","nodmgspread","payload","uncletopia"],"game_id":440,"stv_port":27036,"stv_name":"Uncletopia | New York City | 3 | Stopwatch Beta | STV","players":[{"user_id":712,"name":"TheGhostThatWas","steam_id":76561198055836483,"connected_time":1560000000000,"state":"active","ping":44},{"user_id":664,"name":"crocodile fuck house","steam_id":76561198038901145,"connected_time":5596000000000,"state":"active","ping":71},{"user_id":697,"name":"Nevan Nedall","steam_id":76561198041026391,"connected_time":2919000000000,"state":"active","ping":62},{"user_id":669,"name":"Arick","steam_id":76561198053743602,"connected_time":4874000000000,"state":"active","ping":65},{"user_id":633,"name":"alligator fuckhouse","steam_id":76561198119178364,"connected_time":6788000000000,"state":"active","ping":75},{"user_id":679,"name":"CHIPMUNCHER19","steam_id":76561198071557391,"connected_time":4188000000000,"state":"active","ping":115},{"user_id":716,"name":"BoxOfRocks","steam_id":76561198379588782,"connected_time":1158000000000,"state":"active","ping":48},{"user_id":643,"name":"cellogamer","steam_id":76561198016937098,"connected_time":6149000000000,"state":"active","ping":49},{"user_id":640,"name":"Blagoni","steam_id":76561198079134230,"connected_time":6437000000000,"state":"active","ping":121},{"user_id":717,"name":"kob","steam_id":76561198065109021,"connected_time":1151000000000,"state":"active","ping":62},{"user_id":685,"name":"esoobac","steam_id":76561198010370396,"connected_time":4023000000000,"state":"active","ping":65},{"user_id":723,"name":"The Fortress From Team Fortress","steam_id":76561198081422503,"connected_time":1080000000000,"state":"active","ping":89},{"user_id":718,"name":"4Schlubz","steam_id":76561198359078725,"connected_time":1145000000000,"state":"active","ping":70},{"user_id":734,"name":"Takeover","steam_id":76561197996081461,"connected_time":70000000000,"state":"active","ping":49},{"user_id":732,"name":"CyDev","steam_id":76561198253072875,"connected_time":192000000000,"state":"active","ping":83},{"user_id":724,"name":"dude back off","steam_id":76561198389397410,"connected_time":1077000000000,"state":"active","ping":119},{"user_id":711,"name":"Dunmaglass","steam_id":76561198128928443,"connected_time":1980000000000,"state":"active","ping":54},{"user_id":725,"name":"RyanDCB [Real]","steam_id":76561198040138739,"connected_time":1060000000000,"state":"active","ping":76},{"user_id":729,"name":"The Sniper","steam_id":76561198882986104,"connected_time":748000000000,"state":"active","ping":74},{"user_id":707,"name":"Bimba","steam_id":76561198006883248,"connected_time":2399000000000,"state":"active","ping":90},{"user_id":735,"name":"CapnKris22","steam_id":76561198049010994,"connected_time":56000000000,"state":"active","ping":70},{"user_id":714,"name":"coms","steam_id":76561198359456881,"connected_time":1427000000000,"state":"active","ping":67},{"user_id":710,"name":"Festivized Diplomat","steam_id":76561198428191920,"connected_time":2056000000000,"state":"active","ping":60},{"user_id":731,"name":"Dispenser","steam_id":76561199260739414,"connected_time":607000000000,"state":"active","ping":85}]},{"server_id":16,"name":"Uncletopia | New York City | 4 | Community","name_short":"nyc-4","host":"nyc-1.us.uncletopia.com","port":27045,"enabled":true,"region":"us-east","cc":"us","latitude":40.73061,"longitude":-73.93524,"reserved":0,"last_update":"0001-01-01T00:00:00Z","name_a2s":"Uncletopia | New York City | 4 | Community","protocol":17,"map":"workshop/cp_caldera_rc2.ugc2834196889","folder":"tf","game":"Team Fortress","app_id":440,"player_count":2,"max_players":24,"Bots":0,"server_type":"Dedicated","server_os":"Linux","password":true,"vac":true,"version":"7723704","steam_id":85568392924742821,"keywords":["cp","nocrits","nodmgspread","uncletopia"],"game_id":440,"stv_port":27046,"stv_name":"Uncletopia | New York City | 4 | Community | STV","players":[{"user_id":13,"name":"buag","steam_id":76561198123669519,"connected_time":7223000000000,"state":"active","ping":74},{"user_id":14,"name":"purpl3raven","steam_id":76561198783212462,"connected_time":7157000000000,"state":"active","ping":78}]},{"server_id":142,"name":"Uncletopia | S√£o Paulo | 1 | All Maps","name_short":"sao-1","host":"sao-1.br.uncletopia.com","port":27015,"enabled":true,"region":"sa","cc":"br","latitude":-23.533773,"longitude":-46.62529,"reserved":0,"last_update":"0001-01-01T00:00:00Z","name_a2s":"Uncletopia | S√£o Paulo | 1 | All Maps","protocol":17,"map":"pl_badwater","folder":"tf","game":"Team Fortress","app_id":440,"player_count":0,"max_players":24,"Bots":0,"server_type":"Dedicated","server_os":"Linux","password":true,"vac":true,"version":"7723704","steam_id":85568392924469996,"keywords":["nocrits","nodmgspread","payload","uncletopia"],"game_id":440,"stv_port":27016,"stv_name":"Uncletopia | S√£o Paulo | 1 | All Maps | STV","players":null},{"server_id":143,"name":"Uncletopia | S√£o Paulo | 2 | All Maps","name_short":"sao-2","host":"sao-2.br.uncletopia.com","port":27015,"enabled":true,"region":"sa","cc":"br","latitude":-23.533773,"longitude":-46.62529,"reserved":0,"last_update":"0001-01-01T00:00:00Z","name_a2s":"Uncletopia | S√£o Paulo | 2 | All Maps","protocol":17,"map":"pl_swiftwater_final1","folder":"tf","game":"Team Fortress","app_id":440,"player_count":0,"max_players":24,"Bots":0,"server_type":"Dedicated","server_os":"Linux","password":true,"vac":true,"version":"7723704","steam_id":85568392924485349,"keywords":["nocrits","nodmgspread","payload","uncletopia"],"game_id":440,"stv_port":27016,"stv_name":"Uncletopia | S√£o Paulo | 2 | All Maps | STV","players":null},{"server_id":7,"name":"Uncletopia | Seattle | 1 | All Maps","name_short":"sea-1","host":"sea-1.us.uncletopia.com","port":27015,"enabled":true,"region":"us-west","cc":"us","latitude":47.608013,"longitude":-122.33517,"reserved":0,"last_update":"0001-01-01T00:00:00Z","name_a2s":"Uncletopia | Seattle | 1 | All Maps","protocol":17,"map":"pl_upward","folder":"tf","game":"Team Fortress","app_id":440,"player_count":25,"max_players":24,"Bots":0,"server_type":"Dedicated","server_os":"Linux","password":true,"vac":true,"version":"7723704","steam_id":85568392924469997,"keywords":["nocrits","nodmgspread","payload","uncletopia"],"game_id":440,"stv_port":27016,"stv_name":"Uncletopia | Seattle | 1 | All Maps | STV","players":[{"user_id":494,"name":"Spruce_fox","steam_id":76561198424946403,"connected_time":750000000000,"state":"active","ping":61},{"user_id":405,"name":"Luca","steam_id":76561198125087140,"connected_time":5604000000000,"state":"active","ping":46},{"user_id":435,"name":"BigGoose","steam_id":76561198833281392,"connected_time":2572000000000,"state":"active","ping":91},{"user_id":413,"name":"MegaBron James","steam_id":76561198066091050,"connected_time":4741000000000,"state":"active","ping":50},{"user_id":380,"name":"Ayayahuasca","steam_id":76561199002906056,"connected_time":6914000000000,"state":"active","ping":46},{"user_id":501,"name":"trubbabubba","steam_id":76561198095118127,"connected_time":603000000000,"state":"active","ping":101},{"user_id":406,"name":"haha funy pp man","steam_id":76561198116862395,"connected_time":5589000000000,"state":"active","ping":50},{"user_id":382,"name":"Joy in A Box","steam_id":76561198156820753,"connected_time":6743000000000,"state":"active","ping":180},{"user_id":443,"name":"Ham Fatty","steam_id":76561198071454198,"connected_time":2140000000000,"state":"active","ping":109},{"user_id":423,"name":"KingTinkerer","steam_id":76561198226856548,"connected_time":4601000000000,"state":"active","ping":72},{"user_id":529,"name":"Chamomile","steam_id":76561198063516307,"connected_time":14000000000,"state":"spawning","ping":58},{"user_id":452,"name":"spacechez","steam_id":76561198116996868,"connected_time":1459000000000,"state":"active","ping":51},{"user_id":440,"name":"Diegorkus","steam_id":76561198076956980,"connected_time":2320000000000,"state":"active","ping":43},{"user_id":417,"name":"lol","steam_id":76561198026491738,"connected_time":4732000000000,"state":"active","ping":85},{"user_id":398,"name":"COLLECT YOUR FACE AS TITHE","steam_id":76561198011675372,"connected_time":6109000000000,"state":"active","ping":51},{"user_id":449,"name":"shane","steam_id":76561198060491451,"connected_time":1857000000000,"state":"active","ping":96},{"user_id":431,"name":"Sweets","steam_id":76561198998446307,"connected_time":3438000000000,"state":"active","ping":631},{"user_id":436,"name":"Aardappel","steam_id":76561198030894676,"connected_time":2388000000000,"state":"active","ping":68},{"user_id":462,"name":"zzrat","steam_id":76561198014925415,"connected_time":1303000000000,"state":"active","ping":58},{"user_id":429,"name":"moe","steam_id":76561198929586245,"connected_time":3805000000000,"state":"active","ping":88},{"user_id":411,"name":"lili.winters","steam_id":76561199391478575,"connected_time":4814000000000,"state":"active","ping":67},{"user_id":466,"name":"The Goober tm","steam_id":76561198341214161,"connected_time":1244000000000,"state":"active","ping":54},{"user_id":525,"name":"lavender","steam_id":76561199069518286,"connected_time":84000000000,"state":"active","ping":77},{"user_id":438,"name":"tophawkyy","steam_id":76561199075934685,"connected_time":2385000000000,"state":"active","ping":84},{"user_id":458,"name":"SammyShammy ‚ô•","steam_id":76561198048120126,"connected_time":1356000000000,"state":"active","ping":74}]},{"server_id":119,"name":"Uncletopia | Seattle | 2 | All Maps","name_short":"sea-2","host":"sea-1.us.uncletopia.com","port":27025,"enabled":true,"region":"us-west","cc":"us","latitude":47.608013,"longitude":-122.33517,"reserved":0,"last_update":"0001-01-01T00:00:00Z","name_a2s":"Uncletopia | Seattle | 2 | All Maps","protocol":17,"map":"cp_steel","folder":"tf","game":"Team Fortress","app_id":440,"player_count":25,"max_players":24,"Bots":0,"server_type":"Dedicated","server_os":"Linux","password":true,"vac":true,"version":"7723704","steam_id":85568392924469998,"keywords":["cp","nocrits","nodmgspread","uncletopia"],"game_id":440,"stv_port":27026,"stv_name":"Uncletopia | Seattle | 2 | All Maps | STV","players":[{"user_id":461,"name":"Tree","steam_id":76561198346382060,"connected_time":1970000000000,"state":"active","ping":50},{"user_id":476,"name":"Silverkeys","steam_id":76561197986012496,"connected_time":679000000000,"state":"active","ping":122},{"user_id":460,"name":"Lt. Dan's Legs","steam_id":76561198043851584,"connected_time":1976000000000,"state":"active","ping":171},{"user_id":467,"name":"Best Bleach","steam_id":76561198090216348,"connected_time":1429000000000,"state":"active","ping":83},{"user_id":430,"name":"Seagoll","steam_id":76561198017953606,"connected_time":4460000000000,"state":"active","ping":61},{"user_id":490,"name":"hoodclips","steam_id":76561198253706796,"connected_time":7000000000,"state":"spawning","ping":107},{"user_id":478,"name":"timmy","steam_id":76561198063322988,"connected_time":650000000000,"state":"active","ping":51},{"user_id":456,"name":"Greskrendtregk","steam_id":76561197969553142,"connected_time":2857000000000,"state":"active","ping":50},{"user_id":484,"name":"blue duck the 2nd","steam_id":76561198263142765,"connected_time":517000000000,"state":"active","ping":77},{"user_id":374,"name":"gaming","steam_id":76561198338610196,"connected_time":7394000000000,"state":"active","ping":84},{"user_id":459,"name":"Gay Cake","steam_id":76561198004388831,"connected_time":1992000000000,"state":"active","ping":116},{"user_id":475,"name":"Glue Gobbler","steam_id":76561198237034712,"connected_time":700000000000,"state":"active","ping":46},{"user_id":438,"name":"MCman","steam_id":76561198412110305,"connected_time":4218000000000,"state":"active","ping":80},{"user_id":477,"name":"FridayThe13thFanNick1997","steam_id":76561198263004448,"connected_time":668000000000,"state":"active","ping":83},{"user_id":325,"name":"colorfulg70","steam_id":76561199010363371,"connected_time":10496000000000,"state":"active","ping":83},{"user_id":488,"name":"canadian birds","steam_id":76561198059466588,"connected_time":240000000000,"state":"active","ping":118},{"user_id":444,"name":"Furry Femboy Hooters","steam_id":76561198097745857,"connected_time":3726000000000,"state":"active","ping":90},{"user_id":486,"name":"cardboardwarrior1","steam_id":76561199145044693,"connected_time":497000000000,"state":"active","ping":79},{"user_id":471,"name":"vvvvvvvvvvvvvvvvvvvv","steam_id":76561198214024084,"connected_time":1111000000000,"state":"active","ping":54},{"user_id":480,"name":"Paper Clipp","steam_id":76561199065796296,"connected_time":629000000000,"state":"active","ping":64},{"user_id":428,"name":"Goldfish Cum","steam_id":76561198046621770,"connected_time":4545000000000,"state":"active","ping":62},{"user_id":483,"name":"bingle","steam_id":76561198359413453,"connected_time":526000000000,"state":"active","ping":134},{"user_id":485,"name":"JacenHan","steam_id":76561198077796718,"connected_time":510000000000,"state":"active","ping":50},{"user_id":442,"name":"General Fisticuffs","steam_id":76561198255721392,"connected_time":4009000000000,"state":"active","ping":109},{"user_id":491,"name":"RecklessRoadRage","steam_id":76561199089562026,"connected_time":6000000000,"state":"spawning","ping":53}]},{"server_id":406,"name":"Uncletopia | Seattle | 3 | Stopwatch Beta","name_short":"sea-3","host":"sea-1.us.uncletopia.com","port":27035,"enabled":true,"region":"us-west","cc":"us","latitude":47.608013,"longitude":-122.33517,"reserved":0,"last_update":"0001-01-01T00:00:00Z","name_a2s":"Uncletopia | Seattle | 3 | Stopwatch Beta","protocol":17,"map":"cp_altitude","folder":"tf","game":"Team Fortress","app_id":440,"player_count":0,"max_players":24,"Bots":0,"server_type":"Dedicated","server_os":"Linux","password":true,"vac":false,"version":"7723704","steam_id":0,"keywords":["cp","nocrits","nodmgspread","uncletopia"],"game_id":440,"stv_port":27036,"stv_name":"Uncletopia | Seattle | 3 | Stopwatch Beta | STV","players":null},{"server_id":17,"name":"Uncletopia | San Francisco | 1 | All Maps","name_short":"sfo-1","host":"sfo-1.us.uncletopia.com","port":27015,"enabled":true,"region":"us-west","cc":"us","latitude":37.77397,"longitude":-122.4313,"reserved":0,"last_update":"0001-01-01T00:00:00Z","name_a2s":"Uncletopia | San Francisco | 1 | All Maps","protocol":17,"map":"cp_process_final","folder":"tf","game":"Team Fortress","app_id":440,"player_count":4,"max_players":24,"Bots":0,"server_type":"Dedicated","server_os":"Linux","password":true,"vac":true,"version":"7723704","steam_id":85568392924469999,"keywords":["cp","nocrits","nodmgspread","uncletopia"],"game_id":440,"stv_port":27016,"stv_name":"Uncletopia | San Francisco | 1 | All Maps | STV","players":[{"user_id":488,"name":"facedatfatchat","steam_id":76561198335285125,"connected_time":1842000000000,"state":"active","ping":69},{"user_id":489,"name":"catscatechu","steam_id":76561198192500633,"connected_time":1839000000000,"state":"active","ping":69},{"user_id":492,"name":"Airbag Whacker","steam_id":76561198234311964,"connected_time":423000000000,"state":"active","ping":59},{"user_id":493,"name":"Zom_Named_Zam","steam_id":76561198328066203,"connected_time":144000000000,"state":"active","ping":61}]},{"server_id":18,"name":"Uncletopia | San Francisco | 2 | All Maps","name_short":"sfo-2","host":"sfo-1.us.uncletopia.com","port":27025,"enabled":true,"region":"us-west","cc":"us","latitude":37.77397,"longitude":-122.4313,"reserved":0,"last_update":"0001-01-01T00:00:00Z","name_a2s":"Uncletopia | San Francisco | 2 | All Maps","protocol":17,"map":"pl_upward","folder":"tf","game":"Team Fortress","app_id":440,"player_count":4,"max_players":24,"Bots":0,"server_type":"Dedicated","server_os":"Linux","password":true,"vac":true,"version":"7723704","steam_id":85568392924470000,"keywords":["nocrits","nodmgspread","payload","uncletopia"],"game_id":440,"stv_port":27026,"stv_name":"Uncletopia | San Francisco | 2 | All Maps | STV","players":[{"user_id":253,"name":"Karyu","steam_id":76561198237199130,"connected_time":1427000000000,"state":"active","ping":106},{"user_id":243,"name":"A Fruit","steam_id":76561198951830050,"connected_time":2077000000000,"state":"active","ping":75},{"user_id":224,"name":"TheMagicMrWaffle","steam_id":76561198104357256,"connected_time":3889000000000,"state":"active","ping":47},{"user_id":246,"name":"–ü–∞–≤–ª–æ –ü–∞—á–µ–Ω–∫–æ","steam_id":76561198314446564,"connected_time":1997000000000,"state":"active","ping":43}]},{"server_id":19,"name":"Uncletopia | San Francisco | 3 | Stopwatch Beta","name_short":"sfo-3","host":"sfo-1.us.uncletopia.com","port":27035,"enabled":true,"region":"us-west","cc":"us","latitude":37.77397,"longitude":-122.4313,"reserved":0,"last_update":"0001-01-01T00:00:00Z","name_a2s":"Uncletopia | San Francisco | 3 | Stopwatch Beta","protocol":17,"map":"pl_pier","folder":"tf","game":"Team Fortress","app_id":440,"player_count":0,"max_players":24,"Bots":0,"server_type":"Dedicated","server_os":"Linux","password":true,"vac":true,"version":"7723704","steam_id":85568392924742824,"keywords":["nocrits","nodmgspread","payload","uncletopia"],"game_id":440,"stv_port":27036,"stv_name":"Uncletopia | San Francisco | 3 | Stopwatch Beta | STV","players":null},{"server_id":20,"name":"Uncletopia | San Francisco | 4 | Community","name_short":"sfo-4","host":"sfo-1.us.uncletopia.com","port":27045,"enabled":true,"region":"us-west","cc":"us","latitude":37.77397,"longitude":-122.4313,"reserved":0,"last_update":"0001-01-01T00:00:00Z","name_a2s":"Uncletopia | San Francisco | 4 | Community","protocol":17,"map":"koth_cascade","folder":"tf","game":"Team Fortress","app_id":440,"player_count":0,"max_players":24,"Bots":0,"server_type":"Dedicated","server_os":"Linux","password":true,"vac":true,"version":"7723704","steam_id":85568392924742826,"keywords":["cp","nocrits","nodmgspread","uncletopia"],"game_id":440,"stv_port":27046,"stv_name":"Uncletopia | San Francisco | 4 | Community | STV","players":null},{"server_id":141,"name":"Uncletopia | Sydney | 1 | All Maps","name_short":"syd-1","host":"syd-1.au.uncletopia.com","port":27015,"enabled":true,"region":"au","cc":"au","latitude":-33.865143,"longitude":151.2099,"reserved":0,"last_update":"0001-01-01T00:00:00Z","name_a2s":"Uncletopia | Sydney | 1 | All Maps","protocol":17,"map":"koth_highpass","folder":"tf","game":"Team Fortress","app_id":440,"player_count":15,"max_players":24,"Bots":0,"server_type":"Dedicated","server_os":"Linux","password":true,"vac":true,"version":"7723704","steam_id":85568392924470001,"keywords":["cp","nocrits","nodmgspread","uncletopia"],"game_id":440,"stv_port":27016,"stv_name":"Uncletopia | Sydney | 1 | All Maps | STV","players":[{"user_id":227,"name":"Toki","steam_id":76561198818864521,"connected_time":720000000000,"state":"active","ping":59},{"user_id":237,"name":"Bolzen","steam_id":76561198046093482,"connected_time":123000000000,"state":"active","ping":61},{"user_id":235,"name":"Kevinrulz2","steam_id":76561199445893884,"connected_time":335000000000,"state":"active","ping":60},{"user_id":228,"name":"Shart","steam_id":76561198198491197,"connected_time":710000000000,"state":"active","ping":128},{"user_id":229,"name":"Spoke","steam_id":76561198417696707,"connected_time":704000000000,"state":"active","ping":58},{"user_id":216,"name":"Classy Doctor","steam_id":76561198257123968,"connected_time":2925000000000,"state":"active","ping":246},{"user_id":230,"name":"P√§iv√§t√§r.","steam_id":76561198948183007,"connected_time":649000000000,"state":"active","ping":52},{"user_id":231,"name":"Expresso","steam_id":76561198848523318,"connected_time":646000000000,"state":"active","ping":56},{"user_id":232,"name":"Eagle","steam_id":76561198076227203,"connected_time":597000000000,"state":"active","ping":55},{"user_id":233,"name":"Pencil Crusher","steam_id":76561198841932913,"connected_time":486000000000,"state":"active","ping":59},{"user_id":234,"name":"void","steam_id":76561198241303512,"connected_time":440000000000,"state":"active","ping":70},{"user_id":236,"name":"hobo","steam_id":76561199046481213,"connected_time":279000000000,"state":"active","ping":65},{"user_id":238,"name":"dragonfruitconsumer22","steam_id":76561198042198744,"connected_time":110000000000,"state":"active","ping":60},{"user_id":200,"name":"FiveAssMonkey","steam_id":76561197993413334,"connected_time":4205000000000,"state":"active","ping":49},{"user_id":239,"name":"worst player on rerad","steam_id":76561198163369325,"connected_time":99000000000,"state":"active","ping":45}]},{"server_id":123,"name":"Uncletopia | Sydney | 2 | All Maps","name_short":"syd-2","host":"syd-1.au.uncletopia.com","port":27025,"enabled":true,"region":"au","cc":"au","latitude":-33.865143,"longitude":151.2099,"reserved":0,"last_update":"0001-01-01T00:00:00Z","name_a2s":"Uncletopia | Sydney | 2 | All Maps","protocol":17,"map":"koth_cascade","folder":"tf","game":"Team Fortress","app_id":440,"player_count":0,"max_players":24,"Bots":0,"server_type":"Dedicated","server_os":"Linux","password":true,"vac":true,"version":"7723704","steam_id":85568392924470002,"keywords":["cp","nocrits","nodmgspread","uncletopia"],"game_id":440,"stv_port":27026,"stv_name":"Uncletopia | Sydney | 2 | All Maps | STV","players":null},{"server_id":395,"name":"Uncletopia | Sydney | 3 | All Maps","name_short":"syd-3","host":"syd-1.au.uncletopia.com","port":27035,"enabled":true,"region":"au","cc":"au","latitude":-33.865143,"longitude":151.2099,"reserved":0,"last_update":"0001-01-01T00:00:00Z","name_a2s":"Uncletopia | Sydney | 3 | All Maps","protocol":17,"map":"cp_mountainlab","folder":"tf","game":"Team Fortress","app_id":440,"player_count":0,"max_players":24,"Bots":0,"server_type":"Dedicated","server_os":"Linux","password":true,"vac":true,"version":"7723704","steam_id":85568392925194467,"keywords":["cp","nocrits","nodmgspread","uncletopia"],"game_id":440,"stv_port":27036,"stv_name":"Uncletopia | Sydney | 3 | All Maps | STV","players":null},{"server_id":396,"name":"Uncletopia | Sydney | 4 | All Maps","name_short":"syd-4","host":"syd-1.au.uncletopia.com","port":27045,"enabled":true,"region":"au","cc":"au","latitude":-33.865143,"longitude":151.2099,"reserved":0,"last_update":"0001-01-01T00:00:00Z","name_a2s":"Uncletopia | Sydney | 4 | All Maps","protocol":17,"map":"koth_viaduct","folder":"tf","game":"Team Fortress","app_id":440,"player_count":0,"max_players":24,"Bots":0,"server_type":"Dedicated","server_os":"Linux","password":true,"vac":true,"version":"7723704","steam_id":85568392925397958,"keywords":["cp","nocrits","nodmgspread","uncletopia"],"game_id":440,"stv_port":27046,"stv_name":"Uncletopia | Sydney | 4 | All Maps | STV","players":null},{"server_id":58,"name":"Uncletopia | Sydney | 5 | Stopwatch Beta","name_short":"syd-5","host":"syd-1.au.uncletopia.com","port":27055,"enabled":true,"region":"au","cc":"au","latitude":-33.865143,"longitude":151.2099,"reserved":0,"last_update":"0001-01-01T00:00:00Z","name_a2s":"Uncletopia | Sydney | 5 | Stopwatch Beta","protocol":17,"map":"cp_altitude","folder":"tf","game":"Team Fortress","app_id":440,"player_count":0,"max_players":24,"Bots":0,"server_type":"Dedicated","server_os":"Linux","password":true,"vac":true,"version":"7723704","steam_id":85568392925397959,"keywords":["cp","nocrits","nodmgspread","uncletopia"],"game_id":440,"stv_port":27056,"stv_name":"Uncletopia | Sydney | 5 | Stopwatch Beta | STV","players":null},{"server_id":59,"name":"Uncletopia | Sydney | 6 | Community","name_short":"syd-6","host":"syd-1.au.uncletopia.com","port":27065,"enabled":true,"region":"au","cc":"au","latitude":-33.865143,"longitude":151.2099,"reserved":0,"last_update":"0001-01-01T00:00:00Z","name_a2s":"Uncletopia | Sydney | 6 | Community","protocol":17,"map":"pl_frontier_final","folder":"tf","game":"Team Fortress","app_id":440,"player_count":0,"max_players":24,"Bots":0,"server_type":"Dedicated","server_os":"Linux","password":true,"vac":true,"version":"7723704","steam_id":85568392925397960,"keywords":["nocrits","nodmgspread","payload","uncletopia"],"game_id":440,"stv_port":27066,"stv_name":"Uncletopia | Sydney | 6 | Community | STV","players":null},{"server_id":49,"name":"Uncletopia | Warsaw | 1 | All Maps","name_short":"waw-1","host":"waw-1.pl.uncletopia.com","port":27015,"enabled":true,"region":"eu","cc":"pl","latitude":52.2297,"longitude":21.017532,"reserved":0,"last_update":"0001-01-01T00:00:00Z","name_a2s":"Uncletopia | Warsaw | 1 | All Maps","protocol":17,"map":"koth_highpass","folder":"tf","game":"Team Fortress","app_id":440,"player_count":0,"max_players":24,"Bots":0,"server_type":"Dedicated","server_os":"Linux","password":true,"vac":true,"version":"7723704","steam_id":85568392925397850,"keywords":["cp","nocrits","nodmgspread","uncletopia"],"game_id":440,"stv_port":27016,"stv_name":"Uncletopia | Warsaw | 1 | All Maps | STV","players":null},{"server_id":50,"name":"Uncletopia | Warsaw | 2 | All Maps","name_short":"waw-2","host":"waw-1.pl.uncletopia.com","port":27025,"enabled":true,"region":"eu","cc":"pl","latitude":52.2297,"longitude":21.017532,"reserved":0,"last_update":"0001-01-01T00:00:00Z","name_a2s":"Uncletopia | Warsaw | 2 | All Maps","protocol":17,"map":"koth_viaduct","folder":"tf","game":"Team Fortress","app_id":440,"player_count":0,"max_players":24,"Bots":0,"server_type":"Dedicated","server_os":"Linux","password":true,"vac":true,"version":"7723704","steam_id":85568392925397851,"keywords":["cp","nocrits","nodmgspread","uncletopia"],"game_id":440,"stv_port":27026,"stv_name":"Uncletopia | Warsaw | 2 | All Maps | STV","players":null},{"server_id":51,"name":"Uncletopia | Warsaw | 3 | All Maps","name_short":"waw-3","host":"waw-1.pl.uncletopia.com","port":27035,"enabled":true,"region":"eu","cc":"pl","latitude":52.2297,"longitude":21.017532,"reserved":0,"last_update":"0001-01-01T00:00:00Z","name_a2s":"Uncletopia | Warsaw | 3 | All Maps","protocol":17,"map":"koth_viaduct","folder":"tf","game":"Team Fortress","app_id":440,"player_count":0,"max_players":24,"Bots":0,"server_type":"Dedicated","server_os":"Linux","password":true,"vac":true,"version":"7723704","steam_id":85568392925397852,"keywords":["cp","nocrits","nodmgspread","uncletopia"],"game_id":440,"stv_port":27036,"stv_name":"Uncletopia | Warsaw | 3 | All Maps | STV","players":null},{"server_id":52,"name":"Uncletopia | Warsaw | 4 | All Maps","name_short":"waw-4","host":"waw-1.pl.uncletopia.com","port":27045,"enabled":true,"region":"eu","cc":"pl","latitude":52.2297,"longitude":21.017532,"reserved":0,"last_update":"0001-01-01T00:00:00Z","name_a2s":"Uncletopia | Warsaw | 4 | All Maps","protocol":17,"map":"koth_viaduct","folder":"tf","game":"Team Fortress","app_id":440,"player_count":0,"max_players":24,"Bots":0,"server_type":"Dedicated","server_os":"Linux","password":true,"vac":true,"version":"7723704","steam_id":85568392925397853,"keywords":["cp","nocrits","nodmgspread","uncletopia"],"game_id":440,"stv_port":27046,"stv_name":"Uncletopia | Warsaw | 4 | All Maps | STV","players":null},{"server_id":53,"name":"Uncletopia | Warsaw | 5 | Stopwatch Beta","name_short":"waw-5","host":"waw-1.pl.uncletopia.com","port":27055,"enabled":true,"region":"eu","cc":"pl","latitude":52.2297,"longitude":21.017532,"reserved":0,"last_update":"0001-01-01T00:00:00Z","name_a2s":"Uncletopia | Warsaw | 5 | Stopwatch Beta","protocol":17,"map":"cp_sunshine","folder":"tf","game":"Team Fortress","app_id":440,"player_count":0,"max_players":24,"Bots":0,"server_type":"Dedicated","server_os":"Linux","password":true,"vac":true,"version":"7723704","steam_id":85568392925397854,"keywords":["cp","nocrits","nodmgspread","uncletopia"],"game_id":440,"stv_port":27056,"stv_name":"Uncletopia | Warsaw | 5 | Stopwatch Beta | STV","players":null},{"server_id":54,"name":"Uncletopia | Warsaw | 6 | Community","name_short":"waw-6","host":"waw-1.pl.uncletopia.com","port":27065,"enabled":true,"region":"eu","cc":"pl","latitude":52.2297,"longitude":21.017532,"reserved":0,"last_update":"0001-01-01T00:00:00Z","name_a2s":"Uncletopia | Warsaw | 6 | Community","protocol":17,"map":"workshop/cp_caldera_rc2.ugc2834196889","folder":"tf","game":"Team Fortress","app_id":440,"player_count":0,"max_players":24,"Bots":0,"server_type":"Dedicated","server_os":"Linux","password":true,"vac":true,"version":"7723704","steam_id":85568392925397856,"keywords":["cp","nocrits","nodmgspread","uncletopia"],"game_id":440,"stv_port":27066,"stv_name":"Uncletopia | Warsaw | 6 | Community | STV","players":null}]}