{"status":true,"message":"","result":[{"server_id":9,"name":"Uncletopia | Atlanta | 1 | All Maps","name_short":"atl-1","host":"atl-1.us.uncletopia.com","port":27015,"enabled":true,"region":"us-east","cc":"us","latitude":33.753746,"longitude":-84.38633,"reserved":0,"last_update":"0001-01-01T00:00:00Z","name_a2s":"Uncletopia | Atlanta | 1 | All Maps","protocol":17,"map":"pl_badwater","folder":"tf","game":"Team Fortress","app_id":440,"player_count":23,"max_players":24,"Bots":0,"server_type":"Dedicated","server_os":"Linux","password":true,"vac":true,"version":"7961495","steam_id":85568392924469982,"keywords":["nocrits","nodmgspread","payload","uncletopia"],"game_id":440,"stv_port":27016,"stv_name":"Uncletopia | Atlanta | 1 | All Maps | STV","players":null},{"server_id":104,"name":"Uncletopia | Atlanta | 2 | All Maps","name_short":"atl-2","host":"atl-1.us.uncletopia.com","port":27025,"enabled":true,"region":"us-east","cc":"us","latitude":33.753746,"longitude":-84.38633,"reserved":0,"last_update":"0001-01-01T00:00:00Z","name_a2s":"Uncletopia | Atlanta | 2 | All Maps","protocol":17,"map":"ctf_turbine","folder":"tf","game":"Team Fortress","app_id":440,"player_count":24,"max_players":24,"Bots":0,"server_type":"Dedicated","server_os":"Linux","password":true,"vac":true,"version":"7961495","steam_id":85568392924469983,"keywords":["ctf","nocrits","nodmgspread","uncletopia"],"game_id":440,"stv_port":27026,"stv_name":"Uncletopia | Atlanta | 2 | All Maps | STV","players":null},{"server_id":400,"name":"Uncletopia | Atlanta | 3 | Stopwatch","name_short":"atl-3","host":"atl-1.us.uncletopia.com","port":27035,"enabled":true,"region":"us-east","cc":"us","latitude":33.753746,"longitude":-84.38633,"reserved":0,"last_update":"0001-01-01T00:00:00Z","name_a2s":"Uncletopia | Atlanta | 3 | Stopwatch","protocol":17,"map":"koth_clearcut_b15","folder":"tf","game":"Team Fortress","app_id":440,"player_count":1,"max_players":24,"Bots":0,"server_type":"Dedicated","server_os":"Linux","password":true,"vac":true,"version":"7961495","steam_id":85568392924515187,"keywords":["cp","nocrits","nodmgspread","uncletopia"],"game_id":440,"stv_port":27036,"stv_name":"Uncletopia | Atlanta | 3 | Stopwatch | STV","players":null},{"server_id":401,"name":"Uncletopia | Atlanta | 4 | Community","name_short":"atl-4","host":"atl-1.us.uncletopia.com","port":27045,"enabled":true,"region":"us-east","cc":"us","latitude":33.753746,"longitude":-84.38633,"reserved":0,"last_update":"0001-01-01T00:00:00Z","name_a2s":"Uncletopia | Atlanta | 4 | Community","protocol":17,"map":"pl_boundary_final1","folder":"tf","game":"Team Fortress","app_id":440,"player_count":24,"max_players":24,"Bots":0,"server_type":"Dedicated","server_os":"Linux","password":true,"vac":true,"version":"7961495","steam_id":85568392924515188,"keywords":["nocrits","nodmgspread","payload","uncletopia"],"game_id":440,"stv_port":27046,"stv_name":"Uncletopia | Atlanta | 4 | Community | STV","players":null},{"server_id":2,"name":"Uncletopia | Chicago | 1 | All Maps","name_short":"chi-1","host":"chi-1.us.uncletopia.com","port":27015,"enabled":true,"region":"us-central","cc":"us","latitude":41.881832,"longitude":-87.62318,"reserved":0,"last_update":"0001-01-01T00:00:00Z","name_a2s":"Uncletopia | Chicago | 1 | All Maps","protocol":17,"map":"pl_swiftwater_final1","folder":"tf","game":"Team Fortress","app_id":440,"player_count":25,"max_players":24,"Bots":0,"server_type":"Dedicated","server_os":"Linux","password":true,"vac":true,"version":"7961495","steam_id":85568392924469984,"keywords":["nocrits","nodmgspread","payload","uncletopia"],"game_id":440,"stv_port":27016,"stv_name":"Uncletopia | Chicago | 1 | All Maps | STV","players":[{"user_id":414,"name":"Cream Corn","steam_id":76561198043791586,"connected_time":1173000000000,"state":"active","ping":57},{"user_id":397,"name":"Gabinator32","steam_id":76561198872467183,"connected_time":2093000000000,"state":"active","ping":45},{"user_id":333,"name":"ToroKe","steam_id":76561198078873266,"connected_time":8823000000000,"state":"active","ping":91},{"user_id":415,"name":"Praise_to_the_Flashlight!","steam_id":76561199001728789,"connected_time":710000000000,"state":"active","ping":61},{"user_id":418,"name":"exile ace","steam_id":76561198058814369,"connected_time":557000000000,"state":"active","ping":71},{"user_id":410,"name":"Hunt0rb","steam_id":76561198120527608,"connected_time":1470000000000,"state":"active","ping":69},{"user_id":398,"name":"Tito","steam_id":76561198041702529,"connected_time":1879000000000,"state":"active","ping":86},{"user_id":365,"name":"YummerBummer","steam_id":76561198094773987,"connected_time":5663000000000,"state":"active","ping":63},{"user_id":411,"name":"Cdesmondd","steam_id":76561198072774462,"connected_time":1395000000000,"state":"active","ping":59},{"user_id":381,"name":".JIFF","steam_id":76561198045181760,"connected_time":4304000000000,"state":"active","ping":60},{"user_id":370,"name":"Im High","steam_id":76561198049954886,"connected_time":5038000000000,"state":"active","ping":73},{"user_id":376,"name":"Ducter","steam_id":76561198085369908,"connected_time":4791000000000,"state":"active","ping":59},{"user_id":354,"name":"Ms Twig","steam_id":76561198144111736,"connected_time":6346000000000,"state":"active","ping":58},{"user_id":417,"name":"I.C.","steam_id":76561198049256017,"connected_time":700000000000,"state":"active","ping":79},{"user_id":386,"name":"subdromeda","steam_id":76561198884351860,"connected_time":4013000000000,"state":"active","ping":60},{"user_id":391,"name":"Cooler Ye","steam_id":76561198068830312,"connected_time":3669000000000,"state":"active","ping":47},{"user_id":358,"name":"TallBit","steam_id":76561199059748976,"connected_time":5981000000000,"state":"active","ping":50},{"user_id":405,"name":"Milkmur","steam_id":76561198210043821,"connected_time":1654000000000,"state":"active","ping":69},{"user_id":403,"name":"Word To Your Mothership","steam_id":76561198034329138,"connected_time":1800000000000,"state":"active","ping":93},{"user_id":428,"name":"Endzilla88","steam_id":76561198257926514,"connected_time":271000000000,"state":"active","ping":74},{"user_id":413,"name":"BigNugs","steam_id":76561198056402610,"connected_time":1292000000000,"state":"active","ping":75},{"user_id":335,"name":"Anthid","steam_id":76561198074493797,"connected_time":8256000000000,"state":"active","ping":71},{"user_id":434,"name":"Hideo Kojima","steam_id":76561198082582335,"connected_time":16000000000,"state":"spawning","ping":52},{"user_id":422,"name":"debin","steam_id":76561198070711217,"connected_time":335000000000,"state":"active","ping":46},{"user_id":435,"name":"małię","steam_id":76561198337705174,"connected_time":6000000000,"state":"spawning","ping":121}]},{"server_id":106,"name":"Uncletopia | Chicago | 2 | All Maps","name_short":"chi-2","host":"chi-1.us.uncletopia.com","port":27025,"enabled":true,"region":"us-central","cc":"us","latitude":41.881832,"longitude":-87.62318,"reserved":0,"last_update":"0001-01-01T00:00:00Z","name_a2s":"Uncletopia | Chicago | 2 | All Maps","protocol":17,"map":"pl_snowycoast","folder":"tf","game":"Team Fortress","app_id":440,"player_count":24,"max_players":24,"Bots":0,"server_type":"Dedicated","server_os":"Linux","password":true,"vac":true,"version":"7961495","steam_id":85568392924469985,"keywords":["nocrits","nodmgspread","payload","uncletopia"],"game_id":440,"stv_port":27026,"stv_name":"Uncletopia | Chicago | 2 | All Maps | STV","players":[{"user_id":699,"name":"menonamed","steam_id":76561198199564382,"connected_time":276000000000,"state":"active","ping":68},{"user_id":693,"name":"Boomerish","steam_id":76561198083946878,"connected_time":1099000000000,"state":"active","ping":71},{"user_id":634,"name":"King's Disease","steam_id":76561198076639682,"connected_time":5948000000000,"state":"active","ping":70},{"user_id":657,"name":"poopybutt420","steam_id":76561199000805315,"connected_time":4877000000000,"state":"active","ping":95},{"user_id":671,"name":"uzi murder drones (evil)","steam_id":76561198156799627,"connected_time":3651000000000,"state":"active","ping":77},{"user_id":695,"name":"Rudy","steam_id":76561198013456828,"connected_time":1058000000000,"state":"active","ping":60},{"user_id":705,"name":"i eat glue","steam_id":76561198827026673,"connected_time":1000000000,"state":"spawning","ping":38},{"user_id":670,"name":"carrion goat","steam_id":76561198262064871,"connected_time":3677000000000,"state":"active","ping":51},{"user_id":702,"name":"joethefool","steam_id":76561199015436319,"connected_time":226000000000,"state":"active","ping":67},{"user_id":673,"name":"RocketRabbit","steam_id":76561198803062131,"connected_time":3587000000000,"state":"active","ping":68},{"user_id":669,"name":"Hexadecatrack","steam_id":76561198044480181,"connected_time":3714000000000,"state":"active","ping":48},{"user_id":696,"name":"Zanartan","steam_id":76561198050528902,"connected_time":1047000000000,"state":"active","ping":188},{"user_id":684,"name":"Randumb","steam_id":76561199083286636,"connected_time":2294000000000,"state":"active","ping":52},{"user_id":688,"name":"Crazy Insane Proboscis Monkey","steam_id":76561198061011176,"connected_time":2046000000000,"state":"active","ping":89},{"user_id":681,"name":"Papahemmy","steam_id":76561198155470810,"connected_time":2312000000000,"state":"active","ping":65},{"user_id":680,"name":"TheGrassMan (He/Him)","steam_id":76561198118984048,"connected_time":2781000000000,"state":"active","ping":55},{"user_id":678,"name":"The Jar","steam_id":76561198146013385,"connected_time":3297000000000,"state":"active","ping":72},{"user_id":685,"name":"Catherine","steam_id":76561198125233120,"connected_time":2294000000000,"state":"active","ping":101},{"user_id":697,"name":"Asbestos McFlave","steam_id":76561198001136560,"connected_time":813000000000,"state":"active","ping":75},{"user_id":656,"name":"Brown_Dream","steam_id":76561198975766145,"connected_time":4963000000000,"state":"active","ping":83},{"user_id":689,"name":"dan","steam_id":76561198296887150,"connected_time":1859000000000,"state":"active","ping":93},{"user_id":698,"name":"Glue Gulper","steam_id":76561198158014525,"connected_time":533000000000,"state":"active","ping":61},{"user_id":690,"name":"Anatomically Correct Log","steam_id":76561198026909318,"connected_time":1812000000000,"state":"active","ping":89},{"user_id":703,"name":"Space⭐Taffy","steam_id":76561198002271720,"connected_time":226000000000,"state":"active","ping":67}]},{"server_id":402,"name":"Uncletopia | Chicago | 3 | All Maps","name_short":"chi-3","host":"chi-1.us.uncletopia.com","port":27035,"enabled":true,"region":"us-central","cc":"us","latitude":41.881832,"longitude":-87.62318,"reserved":0,"last_update":"0001-01-01T00:00:00Z","name_a2s":"Uncletopia | Chicago | 3 | All Maps","protocol":17,"map":"cp_dustbowl","folder":"tf","game":"Team Fortress","app_id":440,"player_count":24,"max_players":24,"Bots":0,"server_type":"Dedicated","server_os":"Linux","password":true,"vac":true,"version":"7961495","steam_id":85568392924515191,"keywords":["cp","nocrits","nodmgspread","uncletopia"],"game_id":440,"stv_port":27036,"stv_name":"Uncletopia | Chicago | 3 | All Maps | STV","players":[{"user_id":222,"name":"Osrio","steam_id":76561198083428069,"connected_time":1259000000000,"state":"active","ping":86},{"user_id":234,"name":"Imagine being trash at Medic","steam_id":76561197986530028,"connected_time":921000000000,"state":"active","ping":91},{"user_id":186,"name":"TheChickenChuck","steam_id":76561199192686708,"connected_time":3394000000000,"state":"active","ping":100},{"user_id":156,"name":"hot glass of onionaid","steam_id":76561198065266282,"connected_time":5207000000000,"state":"active","ping":138},{"user_id":240,"name":"gay sex","steam_id":76561198138467891,"connected_time":10000000000,"state":"spawning","ping":170},{"user_id":204,"name":"AlexLovesYou","steam_id":76561199163263543,"connected_time":2774000000000,"state":"active","ping":105},{"user_id":235,"name":"The milkman (milks you)","steam_id":76561199155456102,"connected_time":921000000000,"state":"active","ping":81},{"user_id":239,"name":"queso","steam_id":76561198403072474,"connected_time":79000000000,"state":"active","ping":98},{"user_id":221,"name":"Fairchild Republic A-10 Thndrbl","steam_id":76561199038043360,"connected_time":1269000000000,"state":"active","ping":126},{"user_id":159,"name":"GreatTimBones","steam_id":76561198409145748,"connected_time":5075000000000,"state":"active","ping":85},{"user_id":130,"name":"notdoxed","steam_id":76561197992591404,"connected_time":7150000000000,"state":"active","ping":49},{"user_id":224,"name":"Mr. Tickle","steam_id":76561198126684647,"connected_time":1234000000000,"state":"active","ping":59},{"user_id":225,"name":"Kay ☭","steam_id":76561198353432576,"connected_time":1225000000000,"state":"active","ping":61},{"user_id":237,"name":"PK","steam_id":76561198368722500,"connected_time":521000000000,"state":"active","ping":77},{"user_id":202,"name":"[MRY] Sk-iLite","steam_id":76561198041797350,"connected_time":2878000000000,"state":"active","ping":63},{"user_id":185,"name":"rainy queen of the midwest","steam_id":76561198396620113,"connected_time":3418000000000,"state":"active","ping":56},{"user_id":231,"name":"Epifiny","steam_id":76561198027958086,"connected_time":1118000000000,"state":"active","ping":61},{"user_id":236,"name":"rickyrickyricky","steam_id":76561198041765918,"connected_time":735000000000,"state":"active","ping":81},{"user_id":238,"name":"RaixaR","steam_id":76561198025289430,"connected_time":178000000000,"state":"active","ping":73},{"user_id":207,"name":"H0ovy","steam_id":76561198996230924,"connected_time":2679000000000,"state":"active","ping":60},{"user_id":208,"name":"MarauderOP","steam_id":76561199087316861,"connected_time":2534000000000,"state":"active","ping":74},{"user_id":233,"name":"Sveniven","steam_id":76561198118864411,"connected_time":1076000000000,"state":"active","ping":72},{"user_id":217,"name":"barth","steam_id":76561198292896412,"connected_time":1983000000000,"state":"active","ping":71},{"user_id":194,"name":"The Overmind","steam_id":76561199170229428,"connected_time":3247000000000,"state":"active","ping":76}]},{"server_id":403,"name":"Uncletopia | Chicago | 4 | All Maps","name_short":"chi-4","host":"chi-1.us.uncletopia.com","port":27045,"enabled":true,"region":"us-central","cc":"us","latitude":41.881832,"longitude":-87.62318,"reserved":0,"last_update":"0001-01-01T00:00:00Z","name_a2s":"Uncletopia | Chicago | 4 | All Maps","protocol":17,"map":"pl_upward","folder":"tf","game":"Team Fortress","app_id":440,"player_count":24,"max_players":24,"Bots":0,"server_type":"Dedicated","server_os":"Linux","password":true,"vac":true,"version":"7961495","steam_id":85568392924515193,"keywords":["nocrits","nodmgspread","payload","uncletopia"],"game_id":440,"stv_port":27046,"stv_name":"Uncletopia | Chicago | 4 | All Maps | STV","players":[{"user_id":218,"name":"volta","steam_id":76561199214283884,"connected_time":999000000000,"state":"active","ping":108},{"user_id":232,"name":"totally not a pile of beans","steam_id":76561198119851931,"connected_time":347000000000,"state":"active","ping":76},{"user_id":179,"name":"Ace Chromatica","steam_id":76561198042211131,"connected_time":4294000000000,"state":"active","ping":57},{"user_id":231,"name":"Female Gamer","steam_id":76561199366482682,"connected_time":359000000000,"state":"active","ping":102},{"user_id":233,"name":"MitcheyHD","steam_id":76561198066489645,"connected_time":335000000000,"state":"active","ping":80},{"user_id":212,"name":"cherms","steam_id":76561198060029029,"connected_time":2034000000000,"state":"active","ping":78},{"user_id":234,"name":"Archie","steam_id":76561198137112917,"connected_time":327000000000,"state":"active","ping":91},{"user_id":229,"name":"She Pegs Me","steam_id":76561198099770390,"connected_time":519000000000,"state":"active","ping":55},{"user_id":228,"name":"jayeezy","steam_id":76561198118562391,"connected_time":561000000000,"state":"active","ping":74},{"user_id":200,"name":"YoteDab McFapDab.jpg","steam_id":76561197984870380,"connected_time":2353000000000,"state":"active","ping":84},{"user_id":235,"name":"Bones0010","steam_id":76561198096186958,"connected_time":325000000000,"state":"active","ping":117},{"user_id":239,"name":"Winter Not Summer","steam_id":76561198201409574,"connected_time":178000000000,"state":"active","ping":49},{"user_id":204,"name":"Bad Medic Buddy","steam_id":76561198093222632,"connected_time":2315000000000,"state":"active","ping":79},{"user_id":213,"name":"gaming gerald","steam_id":76561198011707083,"connected_time":2018000000000,"state":"active","ping":55},{"user_id":240,"name":"wario","steam_id":76561199069748074,"connected_time":82000000000,"state":"active","ping":49},{"user_id":208,"name":"stick","steam_id":76561198049489094,"connected_time":2198000000000,"state":"active","ping":53},{"user_id":226,"name":"j020","steam_id":76561198243358410,"connected_time":767000000000,"state":"active","ping":75},{"user_id":227,"name":"ChillyJones","steam_id":76561198017658702,"connected_time":761000000000,"state":"active","ping":76},{"user_id":206,"name":"stupid ape","steam_id":76561198350027075,"connected_time":2256000000000,"state":"active","ping":52},{"user_id":224,"name":"Syynth","steam_id":76561198161328298,"connected_time":944000000000,"state":"active","ping":73},{"user_id":236,"name":"Sanic_Bum","steam_id":76561198094179822,"connected_time":324000000000,"state":"active","ping":55},{"user_id":238,"name":"Sir.TopHats","steam_id":76561198267326839,"connected_time":283000000000,"state":"active","ping":91},{"user_id":190,"name":"booze cruiser","steam_id":76561198203395648,"connected_time":3624000000000,"state":"active","ping":76}]},{"server_id":36,"name":"Uncletopia | Chicago | 5 | All Maps","name_short":"chi-5","host":"chi-2.us.uncletopia.com","port":27015,"enabled":true,"region":"us-central","cc":"us","latitude":41.881832,"longitude":-87.62318,"reserved":0,"last_update":"0001-01-01T00:00:00Z","name_a2s":"Uncletopia | Chicago | 5 | All Maps","protocol":17,"map":"cp_dustbowl","folder":"tf","game":"Team Fortress","app_id":440,"player_count":24,"max_players":24,"Bots":0,"server_type":"Dedicated","server_os":"Linux","password":true,"vac":true,"version":"7961495","steam_id":85568392924866362,"keywords":["cp","nocrits","nodmgspread","uncletopia"],"game_id":440,"stv_port":27016,"stv_name":"Uncletopia | Chicago | 5 | All Maps | STV","players":[{"user_id":193,"name":"Pebbles","steam_id":76561197985155770,"connected_time":1030000000000,"state":"active","ping":68},{"user_id":180,"name":"nonagon infinity","steam_id":76561198397662124,"connected_time":2164000000000,"state":"active","ping":89},{"user_id":105,"name":"Bee_Pirate","steam_id":76561199000599111,"connected_time":8759000000000,"state":"active","ping":58},{"user_id":156,"name":"nhbiker","steam_id":76561198081277675,"connected_time":4618000000000,"state":"active","ping":55},{"user_id":134,"name":"Piyono","steam_id":76561197962188504,"connected_time":6541000000000,"state":"active","ping":71},{"user_id":202,"name":"Smiles","steam_id":76561198107197973,"connected_time":746000000000,"state":"active","ping":61},{"user_id":183,"name":"The Assistant Regional Manager","steam_id":76561199221484936,"connected_time":1805000000000,"state":"active","ping":120},{"user_id":172,"name":"MR SKELTAL","steam_id":76561198031089598,"connected_time":3030000000000,"state":"active","ping":69},{"user_id":100,"name":"irritable vowel syndrome","steam_id":76561198117033273,"connected_time":9297000000000,"state":"active","ping":156},{"user_id":184,"name":"DankMemes4EV3R","steam_id":76561199012294783,"connected_time":1798000000000,"state":"active","ping":65},{"user_id":93,"name":"YASAI JUICE","steam_id":76561198131971992,"connected_time":9901000000000,"state":"active","ping":37},{"user_id":201,"name":"Reji05","steam_id":76561198190711753,"connected_time":756000000000,"state":"active","ping":85},{"user_id":168,"name":"winrarFanatic","steam_id":76561198026538317,"connected_time":3502000000000,"state":"active","ping":60},{"user_id":194,"name":"Ulysses  a.D.","steam_id":76561198070493483,"connected_time":1022000000000,"state":"active","ping":104},{"user_id":82,"name":"bbcf keeps crashing","steam_id":76561198303948269,"connected_time":10332000000000,"state":"active","ping":63},{"user_id":179,"name":"Huff Dog","steam_id":76561198113397623,"connected_time":2534000000000,"state":"active","ping":73},{"user_id":200,"name":"Lumberjack Wharfie","steam_id":76561198023400820,"connected_time":799000000000,"state":"active","ping":47},{"user_id":198,"name":"Riflect","steam_id":76561198072199525,"connected_time":960000000000,"state":"active","ping":73},{"user_id":195,"name":"Gato.jpg","steam_id":76561199072803317,"connected_time":1013000000000,"state":"active","ping":138},{"user_id":203,"name":"Aspxts","steam_id":76561199125254746,"connected_time":596000000000,"state":"active","ping":58},{"user_id":161,"name":"Riske","steam_id":76561198115840568,"connected_time":4423000000000,"state":"active","ping":70},{"user_id":205,"name":"steakfarmasian","steam_id":76561198212754036,"connected_time":560000000000,"state":"active","ping":52},{"user_id":204,"name":"Chadwick Strongpants","steam_id":76561198160522777,"connected_time":570000000000,"state":"active","ping":92},{"user_id":192,"name":"totoro","steam_id":76561198210420871,"connected_time":1045000000000,"state":"active","ping":51}]},{"server_id":37,"name":"Uncletopia | Chicago | 6 | All Maps","name_short":"chi-6","host":"chi-2.us.uncletopia.com","port":27025,"enabled":true,"region":"us-central","cc":"us","latitude":41.881832,"longitude":-87.62318,"reserved":0,"last_update":"0001-01-01T00:00:00Z","name_a2s":"Uncletopia | Chicago | 6 | All Maps","protocol":17,"map":"pl_borneo","folder":"tf","game":"Team Fortress","app_id":440,"player_count":24,"max_players":24,"Bots":0,"server_type":"Dedicated","server_os":"Linux","password":true,"vac":true,"version":"7961495","steam_id":85568392924866363,"keywords":["nocrits","nodmgspread","payload","uncletopia"],"game_id":440,"stv_port":27026,"stv_name":"Uncletopia | Chicago | 6 | All Maps | STV","players":[{"user_id":377,"name":"Fried Water?!","steam_id":76561198053164815,"connected_time":3701000000000,"state":"active","ping":62},{"user_id":407,"name":"weakest tf2 player","steam_id":76561198160174097,"connected_time":1341000000000,"state":"active","ping":57},{"user_id":405,"name":"Terry Bogard's beefin 12 inch","steam_id":76561198371133385,"connected_time":1353000000000,"state":"active","ping":78},{"user_id":386,"name":"Steeb","steam_id":76561198008058593,"connected_time":2724000000000,"state":"active","ping":55},{"user_id":388,"name":"FrostStorm","steam_id":76561198142685151,"connected_time":2691000000000,"state":"active","ping":72},{"user_id":399,"name":"Yucky","steam_id":76561198077358516,"connected_time":1750000000000,"state":"active","ping":60},{"user_id":408,"name":"Ringo x Seiran","steam_id":76561198357437908,"connected_time":1330000000000,"state":"active","ping":75},{"user_id":425,"name":"SquishyDog","steam_id":76561198059014380,"connected_time":147000000000,"state":"active","ping":37},{"user_id":406,"name":"TransPuppygirlUp4Adoption","steam_id":76561198085813708,"connected_time":1348000000000,"state":"active","ping":70},{"user_id":363,"name":"Ultimatefirestar","steam_id":76561198176337885,"connected_time":4367000000000,"state":"active","ping":83},{"user_id":426,"name":"runtzaplyshe","steam_id":76561198107925719,"connected_time":82000000000,"state":"active","ping":65},{"user_id":422,"name":"Balerion the Black Dread","steam_id":76561198003728369,"connected_time":280000000000,"state":"active","ping":57},{"user_id":419,"name":"Jamie Hyneman","steam_id":76561199196036481,"connected_time":714000000000,"state":"active","ping":97},{"user_id":411,"name":"confuzzeldpeeps","steam_id":76561198361267349,"connected_time":1326000000000,"state":"active","ping":57},{"user_id":418,"name":"flare","steam_id":76561198048623485,"connected_time":789000000000,"state":"active","ping":68},{"user_id":362,"name":"Jx","steam_id":76561198154699005,"connected_time":4372000000000,"state":"active","ping":66},{"user_id":378,"name":"Goldfire","steam_id":76561198061999410,"connected_time":3691000000000,"state":"active","ping":111},{"user_id":372,"name":"IAmAProfesonal","steam_id":76561199171858953,"connected_time":3905000000000,"state":"active","ping":47},{"user_id":390,"name":"TinyTator","steam_id":76561198799282234,"connected_time":2648000000000,"state":"active","ping":83},{"user_id":397,"name":"Thirty Thirty","steam_id":76561197987242808,"connected_time":1768000000000,"state":"active","ping":86},{"user_id":413,"name":"BreadNoose","steam_id":76561198104027367,"connected_time":1308000000000,"state":"active","ping":60},{"user_id":398,"name":"Egg","steam_id":76561198028157625,"connected_time":1761000000000,"state":"active","ping":83},{"user_id":414,"name":"bobbymcbobington","steam_id":76561199089411172,"connected_time":1307000000000,"state":"active","ping":119},{"user_id":424,"name":"|MT|","steam_id":76561199052865451,"connected_time":260000000000,"state":"active","ping":55}]},{"server_id":38,"name":"Uncletopia | Chicago | 7 | Stopwatch","name_short":"chi-7","host":"chi-2.us.uncletopia.com","port":27035,"enabled":true,"region":"us-central","cc":"us","latitude":41.881832,"longitude":-87.62318,"reserved":0,"last_update":"0001-01-01T00:00:00Z","name_a2s":"Uncletopia | Chicago | 7 | Stopwatch","protocol":17,"map":"workshop/koth_ashville_final.ugc2130459942","folder":"tf","game":"Team Fortress","app_id":440,"player_count":22,"max_players":24,"Bots":0,"server_type":"Dedicated","server_os":"Linux","password":true,"vac":true,"version":"7961495","steam_id":85568392924866364,"keywords":["cp","nocrits","nodmgspread","uncletopia"],"game_id":440,"stv_port":27036,"stv_name":"Uncletopia | Chicago | 7 | Stopwatch | STV","players":[{"user_id":313,"name":"Lawnmower","steam_id":76561198186680197,"connected_time":606000000000,"state":"active","ping":88},{"user_id":314,"name":"Squid","steam_id":76561198142873471,"connected_time":564000000000,"state":"active","ping":85},{"user_id":296,"name":"Uncle Crang","steam_id":76561198218558897,"connected_time":1412000000000,"state":"active","ping":167},{"user_id":307,"name":"Borked","steam_id":76561197984964095,"connected_time":898000000000,"state":"active","ping":101},{"user_id":308,"name":"Sqiddwr","steam_id":76561197998071622,"connected_time":885000000000,"state":"active","ping":89},{"user_id":280,"name":"Leonardo DiCaprio","steam_id":76561198121886765,"connected_time":1789000000000,"state":"active","ping":56},{"user_id":311,"name":"smetc","steam_id":76561198240696986,"connected_time":734000000000,"state":"active","ping":67},{"user_id":315,"name":"A Good Boy","steam_id":76561198066998594,"connected_time":544000000000,"state":"active","ping":83},{"user_id":251,"name":"SirSkellyKing","steam_id":76561198313097751,"connected_time":3632000000000,"state":"active","ping":71},{"user_id":322,"name":"leonardo doujinshi","steam_id":76561198025810326,"connected_time":330000000000,"state":"active","ping":74},{"user_id":316,"name":"DweltAlone","steam_id":76561198043786742,"connected_time":542000000000,"state":"active","ping":73},{"user_id":299,"name":"Keegs","steam_id":76561198346917831,"connected_time":1382000000000,"state":"active","ping":54},{"user_id":324,"name":"Soy","steam_id":76561198015120487,"connected_time":198000000000,"state":"active","ping":53},{"user_id":317,"name":"SilentGuy","steam_id":76561198149395324,"connected_time":533000000000,"state":"active","ping":86},{"user_id":271,"name":"y0","steam_id":76561198143894333,"connected_time":2192000000000,"state":"active","ping":48},{"user_id":269,"name":"chunk","steam_id":76561198134775401,"connected_time":2318000000000,"state":"active","ping":60},{"user_id":298,"name":"xLeoparrd","steam_id":76561198940657194,"connected_time":1394000000000,"state":"active","ping":75},{"user_id":318,"name":"SEGNO","steam_id":76561198102780113,"connected_time":516000000000,"state":"active","ping":60},{"user_id":224,"name":"Minus-Abinus","steam_id":76561199080630632,"connected_time":4850000000000,"state":"active","ping":90},{"user_id":305,"name":"H.","steam_id":76561198074951179,"connected_time":1076000000000,"state":"active","ping":103},{"user_id":304,"name":"wintersalamander","steam_id":76561198067261793,"connected_time":1115000000000,"state":"active","ping":68},{"user_id":320,"name":"Eustace \"CA$H MONEY\" Bagge","steam_id":76561198154022811,"connected_time":442000000000,"state":"active","ping":70}]},{"server_id":39,"name":"Uncletopia | Chicago | 8 | Community","name_short":"chi-8","host":"chi-2.us.uncletopia.com","port":27045,"enabled":true,"region":"us-central","cc":"us","latitude":41.881832,"longitude":-87.62318,"reserved":0,"last_update":"0001-01-01T00:00:00Z","name_a2s":"Uncletopia | Chicago | 8 | Community","protocol":17,"map":"workshop/cp_sulfur_rc2.ugc619869471","folder":"tf","game":"Team Fortress","app_id":440,"player_count":1,"max_players":24,"Bots":0,"server_type":"Dedicated","server_os":"Linux","password":true,"vac":true,"version":"7961495","steam_id":85568392924866365,"keywords":["cp","nocrits","nodmgspread","uncletopia"],"game_id":440,"stv_port":27046,"stv_name":"Uncletopia | Chicago | 8 | Community | STV","players":[{"user_id":13,"name":"The Notorious T.A.F.T.","steam_id":76561198073012352,"connected_time":301000000000,"state":"active","ping":73}]},{"server_id":8,"name":"Uncletopia | Dallas | 1 | All Maps","name_short":"dal-1","host":"dal-1.us.uncletopia.com","port":27015,"enabled":true,"region":"us-central","cc":"us","latitude":32.779167,"longitude":-96.80889,"reserved":0,"last_update":"0001-01-01T00:00:00Z","name_a2s":"Uncletopia | Dallas | 1 | All Maps","protocol":17,"map":"ctf_doublecross","folder":"tf","game":"Team Fortress","app_id":440,"player_count":23,"max_players":24,"Bots":0,"server_type":"Dedicated","server_os":"Linux","password":true,"vac":true,"version":"7961495","steam_id":85568392924469986,"keywords":["ctf","nocrits","nodmgspread","uncletopia"],"game_id":440,"stv_port":27016,"stv_name":"Uncletopia | Dallas | 1 | All Maps | STV","players":[{"user_id":440,"name":"Bombsgamer","steam_id":76561198350009050,"connected_time":522000000000,"state":"active","ping":86},{"user_id":443,"name":"Iron Argus","steam_id":76561198181088245,"connected_time":408000000000,"state":"active","ping":97},{"user_id":441,"name":"LitchCraft271","steam_id":76561199072151338,"connected_time":518000000000,"state":"active","ping":137},{"user_id":396,"name":"sapphoroth","steam_id":76561198062263639,"connected_time":4774000000000,"state":"active","ping":50},{"user_id":428,"name":"plink","steam_id":76561198057829889,"connected_time":2146000000000,"state":"active","ping":55},{"user_id":437,"name":"❶rye_die","steam_id":76561198069436648,"connected_time":580000000000,"state":"active","ping":81},{"user_id":419,"name":"Science Pants","steam_id":76561198050013796,"connected_time":2465000000000,"state":"active","ping":98},{"user_id":422,"name":"MARIOPARTYDSFAN","steam_id":76561198872122117,"connected_time":2271000000000,"state":"active","ping":66},{"user_id":431,"name":"DragonHunter994","steam_id":76561199076203907,"connected_time":1998000000000,"state":"active","ping":64},{"user_id":415,"name":"dunky donut","steam_id":76561198070574618,"connected_time":2763000000000,"state":"active","ping":51},{"user_id":435,"name":"Borgir","steam_id":76561198325390265,"connected_time":1074000000000,"state":"active","ping":62},{"user_id":358,"name":"leesh","steam_id":76561198079603938,"connected_time":8374000000000,"state":"active","ping":60},{"user_id":442,"name":"Ewan303","steam_id":76561198246769118,"connected_time":518000000000,"state":"active","ping":82},{"user_id":434,"name":"LampMan","steam_id":76561198079857527,"connected_time":1195000000000,"state":"active","ping":59},{"user_id":397,"name":"Imrgrim","steam_id":76561198135866481,"connected_time":4576000000000,"state":"active","ping":74},{"user_id":432,"name":"VivianDawn","steam_id":76561198292292930,"connected_time":1950000000000,"state":"active","ping":71},{"user_id":421,"name":"Jade666","steam_id":76561198180878031,"connected_time":2275000000000,"state":"active","ping":60},{"user_id":423,"name":"DlTTO","steam_id":76561199427026752,"connected_time":2269000000000,"state":"active","ping":104},{"user_id":429,"name":"PROPERTY DAMAGE","steam_id":76561198076693017,"connected_time":2137000000000,"state":"active","ping":96},{"user_id":223,"name":"THRONGLER","steam_id":76561198198563466,"connected_time":18237000000000,"state":"active","ping":43},{"user_id":445,"name":"Coach Twig","steam_id":76561198058831591,"connected_time":271000000000,"state":"active","ping":60},{"user_id":402,"name":"FanaticSalt","steam_id":76561199380123059,"connected_time":4414000000000,"state":"active","ping":65},{"user_id":406,"name":"AzuriousAlex","steam_id":76561198158026405,"connected_time":3986000000000,"state":"active","ping":79}]},{"server_id":108,"name":"Uncletopia | Dallas | 2 | All Maps","name_short":"dal-2","host":"dal-1.us.uncletopia.com","port":27025,"enabled":true,"region":"us-central","cc":"us","latitude":32.779167,"longitude":-96.80889,"reserved":0,"last_update":"0001-01-01T00:00:00Z","name_a2s":"Uncletopia | Dallas | 2 | All Maps","protocol":17,"map":"pl_frontier_final","folder":"tf","game":"Team Fortress","app_id":440,"player_count":23,"max_players":24,"Bots":0,"server_type":"Dedicated","server_os":"Linux","password":true,"vac":true,"version":"7961495","steam_id":85568392924469988,"keywords":["nocrits","nodmgspread","payload","uncletopia"],"game_id":440,"stv_port":27026,"stv_name":"Uncletopia | Dallas | 2 | All Maps | STV","players":[{"user_id":797,"name":"Tots","steam_id":76561198027485007,"connected_time":57000000000,"state":"active","ping":61},{"user_id":786,"name":"oh god i'm gonna CHUM","steam_id":76561198019210187,"connected_time":261000000000,"state":"active","ping":49},{"user_id":787,"name":"Garfeels","steam_id":76561198027998666,"connected_time":258000000000,"state":"active","ping":74},{"user_id":762,"name":"loser","steam_id":76561198259380127,"connected_time":1571000000000,"state":"active","ping":83},{"user_id":754,"name":"Major Woody","steam_id":76561198835541533,"connected_time":1857000000000,"state":"active","ping":62},{"user_id":783,"name":"DeKaiju","steam_id":76561198124898225,"connected_time":689000000000,"state":"active","ping":65},{"user_id":782,"name":"Drapph","steam_id":76561199384213314,"connected_time":720000000000,"state":"active","ping":87},{"user_id":798,"name":"Dan","steam_id":76561199236719411,"connected_time":44000000000,"state":"active","ping":84},{"user_id":763,"name":"CoziestGlobe","steam_id":76561198199237735,"connected_time":1556000000000,"state":"active","ping":80},{"user_id":790,"name":"dailydiamond","steam_id":76561199123582502,"connected_time":160000000000,"state":"active","ping":108},{"user_id":767,"name":"rf","steam_id":76561198195359229,"connected_time":1451000000000,"state":"active","ping":92},{"user_id":760,"name":"Ominous Whir","steam_id":76561198002851724,"connected_time":1666000000000,"state":"active","ping":55},{"user_id":756,"name":"ZeFizzyPop™","steam_id":76561198258104981,"connected_time":1852000000000,"state":"active","ping":78},{"user_id":753,"name":"self sufficient kitten","steam_id":76561197960592612,"connected_time":2202000000000,"state":"active","ping":91},{"user_id":785,"name":"MaybeMars","steam_id":76561198084736804,"connected_time":278000000000,"state":"active","ping":89},{"user_id":741,"name":"Supahotfire","steam_id":76561198842022089,"connected_time":2887000000000,"state":"active","ping":84},{"user_id":791,"name":"Intex","steam_id":76561198231061660,"connected_time":154000000000,"state":"active","ping":107},{"user_id":719,"name":"❤ Ashley ❤","steam_id":76561198056428303,"connected_time":4359000000000,"state":"active","ping":81},{"user_id":799,"name":"Poopdick McGee","steam_id":76561198168976029,"connected_time":43000000000,"state":"active","ping":103},{"user_id":800,"name":"Mumble","steam_id":76561198043390321,"connected_time":29000000000,"state":"active","ping":75},{"user_id":795,"name":"Deaddropping","steam_id":76561198043711366,"connected_time":105000000000,"state":"active","ping":72},{"user_id":793,"name":"hank","steam_id":76561199041547921,"connected_time":143000000000,"state":"active","ping":56},{"user_id":796,"name":"Lucky Roux","steam_id":76561198298884337,"connected_time":93000000000,"state":"active","ping":86}]},{"server_id":404,"name":"Uncletopia | Dallas | 3 | All Maps","name_short":"dal-3","host":"dal-1.us.uncletopia.com","port":27035,"enabled":true,"region":"us-central","cc":"us","latitude":32.779167,"longitude":-96.80889,"reserved":0,"last_update":"0001-01-01T00:00:00Z","name_a2s":"Uncletopia | Dallas | 3 | All Maps","protocol":17,"map":"pl_swiftwater_final1","folder":"tf","game":"Team Fortress","app_id":440,"player_count":24,"max_players":24,"Bots":0,"server_type":"Dedicated","server_os":"Linux","password":true,"vac":true,"version":"7961495","steam_id":85568392924515219,"keywords":["nocrits","nodmgspread","payload","uncletopia"],"game_id":440,"stv_port":27036,"stv_name":"Uncletopia | Dallas | 3 | All Maps | STV","players":[{"user_id":62,"name":"Alchemist","steam_id":76561198094238189,"connected_time":9520000000000,"state":"active","ping":69},{"user_id":197,"name":"Periergos","steam_id":76561198062030412,"connected_time":2763000000000,"state":"active","ping":52},{"user_id":227,"name":"Bacon","steam_id":76561199078407152,"connected_time":224000000000,"state":"active","ping":85},{"user_id":200,"name":"Luky","steam_id":76561198970778850,"connected_time":2608000000000,"state":"active","ping":74},{"user_id":219,"name":"BigButternater","steam_id":76561199046684880,"connected_time":1192000000000,"state":"active","ping":113},{"user_id":226,"name":"skullface","steam_id":76561198353704776,"connected_time":445000000000,"state":"active","ping":43},{"user_id":189,"name":"Da Policia","steam_id":76561198012762789,"connected_time":3648000000000,"state":"active","ping":46},{"user_id":201,"name":"Starlotte","steam_id":76561198204734477,"connected_time":2607000000000,"state":"active","ping":88},{"user_id":217,"name":"Solid Water","steam_id":76561198318540579,"connected_time":1752000000000,"state":"active","ping":82},{"user_id":218,"name":"firefly","steam_id":76561198151308698,"connected_time":1217000000000,"state":"active","ping":47},{"user_id":158,"name":"CoffeeZombee","steam_id":76561198172708053,"connected_time":4248000000000,"state":"active","ping":100},{"user_id":222,"name":"Emberformula","steam_id":76561198171526119,"connected_time":685000000000,"state":"active","ping":57},{"user_id":223,"name":"TheLightOf87","steam_id":76561199229969259,"connected_time":679000000000,"state":"active","ping":81},{"user_id":220,"name":"An Engineer","steam_id":76561198110381643,"connected_time":1185000000000,"state":"active","ping":46},{"user_id":181,"name":"HundchenTanque","steam_id":76561198122692754,"connected_time":4151000000000,"state":"active","ping":78},{"user_id":136,"name":"They/Them Pyro Truther","steam_id":76561198893358191,"connected_time":5263000000000,"state":"active","ping":100},{"user_id":224,"name":"npc energy","steam_id":76561198035342207,"connected_time":639000000000,"state":"active","ping":63},{"user_id":195,"name":"Pal The Palm","steam_id":76561198191507485,"connected_time":2971000000000,"state":"active","ping":80},{"user_id":196,"name":"Drained","steam_id":76561198081974528,"connected_time":2851000000000,"state":"active","ping":70},{"user_id":205,"name":"Smatilda","steam_id":76561198116648118,"connected_time":2556000000000,"state":"active","ping":70},{"user_id":152,"name":"High Tier Mortal","steam_id":76561198138347045,"connected_time":4655000000000,"state":"active","ping":77},{"user_id":147,"name":"Winzinf","steam_id":76561198026152232,"connected_time":4987000000000,"state":"active","ping":86},{"user_id":211,"name":"FerretWithAHat","steam_id":76561198184773007,"connected_time":2073000000000,"state":"active","ping":85},{"user_id":191,"name":"Kuyumiester","steam_id":76561198126835302,"connected_time":3491000000000,"state":"active","ping":62}]},{"server_id":405,"name":"Uncletopia | Dallas | 4 | Community","name_short":"dal-4","host":"dal-1.us.uncletopia.com","port":27045,"enabled":true,"region":"us-central","cc":"us","latitude":32.779167,"longitude":-96.80889,"reserved":0,"last_update":"0001-01-01T00:00:00Z","name_a2s":"Uncletopia | Dallas | 4 | Community","protocol":17,"map":"workshop/cp_sulfur_rc2.ugc619869471","folder":"tf","game":"Team Fortress","app_id":440,"player_count":13,"max_players":24,"Bots":0,"server_type":"Dedicated","server_os":"Linux","password":true,"vac":true,"version":"7961495","steam_id":85568392924515220,"keywords":["cp","nocrits","nodmgspread","uncletopia"],"game_id":440,"stv_port":27046,"stv_name":"Uncletopia | Dallas | 4 | Community | STV","players":[{"user_id":13,"name":"Risingtigerking","steam_id":76561199070704000,"connected_time":2538000000000,"state":"active","ping":111},{"user_id":21,"name":"bananagamr","steam_id":76561198984039258,"connected_time":1885000000000,"state":"active","ping":99},{"user_id":29,"name":"Brock Obama","steam_id":76561198094643755,"connected_time":836000000000,"state":"active","ping":64},{"user_id":40,"name":"David Hasseloof","steam_id":76561198070864553,"connected_time":555000000000,"state":"active","ping":88},{"user_id":28,"name":"maxamillion105","steam_id":76561198289539494,"connected_time":1336000000000,"state":"active","ping":65},{"user_id":42,"name":"Sailor Galaxy Planet Man","steam_id":76561198039569373,"connected_time":485000000000,"state":"active","ping":72},{"user_id":43,"name":"Silly Shark","steam_id":76561198130714378,"connected_time":333000000000,"state":"active","ping":115},{"user_id":44,"name":"Reznot","steam_id":76561198362357270,"connected_time":309000000000,"state":"active","ping":84},{"user_id":41,"name":"Tylorde","steam_id":76561198044086991,"connected_time":551000000000,"state":"active","ping":71},{"user_id":35,"name":"speedy756plane","steam_id":76561199010797609,"connected_time":742000000000,"state":"active","ping":86},{"user_id":36,"name":"Nemiel Zaharion","steam_id":76561197999234678,"connected_time":651000000000,"state":"active","ping":60},{"user_id":38,"name":"womthedom","steam_id":76561198088768287,"connected_time":592000000000,"state":"active","ping":66},{"user_id":39,"name":"Shisho","steam_id":76561198800199201,"connected_time":569000000000,"state":"active","ping":53}]},{"server_id":5,"name":"Uncletopia | Frankfurt | 1 | All Maps","name_short":"frk-1","host":"frk-1.de.uncletopia.com","port":27015,"enabled":true,"region":"eu","cc":"de","latitude":50.110924,"longitude":8.682127,"reserved":0,"last_update":"0001-01-01T00:00:00Z","name_a2s":"Uncletopia | Frankfurt | 1 | All Maps","protocol":17,"map":"pl_badwater","folder":"tf","game":"Team Fortress","app_id":440,"player_count":0,"max_players":24,"Bots":0,"server_type":"Dedicated","server_os":"Linux","password":true,"vac":true,"version":"7961495","steam_id":85568392924469989,"keywords":["nocrits","nodmgspread","payload","uncletopia"],"game_id":440,"stv_port":27016,"stv_name":"Uncletopia | Frankfurt | 1 | All Maps | STV","players":null},{"server_id":110,"name":"Uncletopia | Frankfurt | 2 | All Maps","name_short":"frk-2","host":"frk-1.de.uncletopia.com","port":27025,"enabled":true,"region":"eu","cc":"de","latitude":50.110924,"longitude":8.682127,"reserved":0,"last_update":"0001-01-01T00:00:00Z","name_a2s":"Uncletopia | Frankfurt | 2 | All Maps","protocol":17,"map":"cp_gorge","folder":"tf","game":"Team Fortress","app_id":440,"player_count":0,"max_players":24,"Bots":0,"server_type":"Dedicated","server_os":"Linux","password":true,"vac":true,"version":"7961495","steam_id":85568392924469990,"keywords":["cp","nocrits","nodmgspread","uncletopia"],"game_id":440,"stv_port":27026,"stv_name":"Uncletopia | Frankfurt | 2 | All Maps | STV","players":null},{"server_id":308,"name":"Uncletopia | Frankfurt | 3 | All Maps","name_short":"frk-3","host":"frk-1.de.uncletopia.com","port":27035,"enabled":true,"region":"eu","cc":"de","latitude":50.110924,"longitude":8.682127,"reserved":0,"last_update":"0001-01-01T00:00:00Z","name_a2s":"Uncletopia | Frankfurt | 3 | All Maps","protocol":17,"map":"koth_cascade","folder":"tf","game":"Team Fortress","app_id":440,"player_count":0,"max_players":24,"Bots":0,"server_type":"Dedicated","server_os":"Linux","password":true,"vac":true,"version":"7961495","steam_id":85568392924504274,"keywords":["cp","nocrits","nodmgspread","uncletopia"],"game_id":440,"stv_port":27036,"stv_name":"Uncletopia | Frankfurt | 3 | All Maps | STV","players":null},{"server_id":309,"name":"Uncletopia | Frankfurt | 4 | All Maps","name_short":"frk-4","host":"frk-1.de.uncletopia.com","port":27045,"enabled":true,"region":"eu","cc":"de","latitude":50.110924,"longitude":8.682127,"reserved":0,"last_update":"0001-01-01T00:00:00Z","name_a2s":"Uncletopia | Frankfurt | 4 | All Maps","protocol":17,"map":"ctf_2fort","folder":"tf","game":"Team Fortress","app_id":440,"player_count":0,"max_players":24,"Bots":0,"server_type":"Dedicated","server_os":"Linux","password":true,"vac":true,"version":"7961495","steam_id":85568392924504275,"keywords":["ctf","nocrits","nodmgspread","uncletopia"],"game_id":440,"stv_port":27046,"stv_name":"Uncletopia | Frankfurt | 4 | All Maps | STV","players":null},{"server_id":310,"name":"Uncletopia | Frankfurt | 5 | All Maps","name_short":"frk-5","host":"frk-1.de.uncletopia.com","port":27055,"enabled":true,"region":"eu","cc":"de","latitude":50.110924,"longitude":8.682127,"reserved":0,"last_update":"0001-01-01T00:00:00Z","name_a2s":"Uncletopia | Frankfurt | 5 | All Maps","protocol":17,"map":"cp_altitude","folder":"tf","game":"Team Fortress","app_id":440,"player_count":0,"max_players":24,"Bots":0,"server_type":"Dedicated","server_os":"Linux","password":true,"vac":true,"version":"7961495","steam_id":85568392924504277,"keywords":["cp","nocrits","nodmgspread","uncletopia"],"game_id":440,"stv_port":27056,"stv_name":"Uncletopia | Frankfurt | 5 | All Maps | STV","players":null},{"server_id":311,"name":"Uncletopia | Frankfurt | 6 | All Maps","name_short":"frk-6","host":"frk-1.de.uncletopia.com","port":27065,"enabled":true,"region":"eu","cc":"de","latitude":50.110924,"longitude":8.682127,"reserved":0,"last_update":"0001-01-01T00:00:00Z","name_a2s":"Uncletopia | Frankfurt | 6 | All Maps","protocol":17,"map":"plr_bananabay","folder":"tf","game":"Team Fortress","app_id":440,"player_count":0,"max_players":24,"Bots":0,"server_type":"Dedicated","server_os":"Linux","password":true,"vac":true,"version":"7961495","steam_id":85568392924504278,"keywords":["nocrits","nodmgspread","payload","uncletopia"],"game_id":440,"stv_port":27066,"stv_name":"Uncletopia | Frankfurt | 6 | All Maps | STV","players":null},{"server_id":23,"name":"Uncletopia | Frankfurt | 7 | Stopwatch","name_short":"frk-7","host":"frk-1.de.uncletopia.com","port":27075,"enabled":true,"region":"eu","cc":"de","latitude":50.110924,"longitude":8.682127,"reserved":0,"last_update":"0001-01-01T00:00:00Z","name_a2s":"Uncletopia | Frankfurt | 7 | Stopwatch","protocol":17,"map":"workshop/pl_barnblitz_pro7.ugc582280235","folder":"tf","game":"Team Fortress","app_id":440,"player_count":0,"max_players":24,"Bots":0,"server_type":"Dedicated","server_os":"Linux","password":true,"vac":true,"version":"7961495","steam_id":85568392924742827,"keywords":["nocrits","nodmgspread","payload","uncletopia"],"game_id":440,"stv_port":27076,"stv_name":"Uncletopia | Frankfurt | 7 | Stopwatch | STV","players":null},{"server_id":24,"name":"Uncletopia | Frankfurt | 8 | Community","name_short":"frk-8","host":"frk-1.de.uncletopia.com","port":27085,"enabled":true,"region":"eu","cc":"de","latitude":50.110924,"longitude":8.682127,"reserved":0,"last_update":"0001-01-01T00:00:00Z","name_a2s":"Uncletopia | Frankfurt | 8 | Community","protocol":17,"map":"workshop/koth_ramjam_rc1.ugc459778887","folder":"tf","game":"Team Fortress","app_id":440,"player_count":0,"max_players":24,"Bots":0,"server_type":"Dedicated","server_os":"Linux","password":true,"vac":true,"version":"7961495","steam_id":85568392924742828,"keywords":["cp","nocrits","nodmgspread","uncletopia"],"game_id":440,"stv_port":27086,"stv_name":"Uncletopia | Frankfurt | 8 | Community | STV","players":null},{"server_id":202,"name":"Uncletopia | Hong Kong | 1 | All Maps","name_short":"hgk-1","host":"hgk-1.hk.uncletopia.com","port":27015,"enabled":true,"region":"asia","cc":"hk","latitude":22.302711,"longitude":114.177216,"reserved":0,"last_update":"0001-01-01T00:00:00Z","name_a2s":"Uncletopia | Hong Kong | 1 | All Maps","protocol":17,"map":"pl_borneo","folder":"tf","game":"Team Fortress","app_id":440,"player_count":0,"max_players":24,"Bots":0,"server_type":"Dedicated","server_os":"Linux","password":true,"vac":true,"version":"7961495","steam_id":85568392924494504,"keywords":["nocrits","nodmgspread","payload","uncletopia"],"game_id":440,"stv_port":27016,"stv_name":"Uncletopia | Hong Kong | 1 | All Maps | STV","players":null},{"server_id":1,"name":"Uncletopia | Los Angeles | 1 | All Maps","name_short":"lax-1","host":"lax-1.us.uncletopia.com","port":27015,"enabled":true,"region":"us-west","cc":"us","latitude":33.94279,"longitude":-118.41004,"reserved":0,"last_update":"0001-01-01T00:00:00Z","name_a2s":"Uncletopia | Los Angeles | 1 | All Maps","protocol":17,"map":"pl_badwater","folder":"tf","game":"Team Fortress","app_id":440,"player_count":24,"max_players":24,"Bots":0,"server_type":"Dedicated","server_os":"Linux","password":true,"vac":true,"version":"7961495","steam_id":85568392924469991,"keywords":["nocrits","nodmgspread","payload","uncletopia"],"game_id":440,"stv_port":27016,"stv_name":"Uncletopia | Los Angeles | 1 | All Maps | STV","players":[{"user_id":144,"name":"bottom pride burger","steam_id":76561198322247602,"connected_time":143000000000,"state":"active","ping":59},{"user_id":142,"name":"DerpyNate","steam_id":76561198100249037,"connected_time":304000000000,"state":"active","ping":91},{"user_id":141,"name":"altpuppy","steam_id":76561198325643231,"connected_time":316000000000,"state":"active","ping":45},{"user_id":86,"name":"Specter the Unchained","steam_id":76561198348354629,"connected_time":4109000000000,"state":"active","ping":46},{"user_id":116,"name":"Captain Underbelly","steam_id":76561198811270935,"connected_time":757000000000,"state":"active","ping":128},{"user_id":143,"name":"moe","steam_id":76561198929586245,"connected_time":288000000000,"state":"active","ping":36},{"user_id":101,"name":"lament","steam_id":76561198408747483,"connected_time":2362000000000,"state":"active","ping":62},{"user_id":124,"name":"dirty30","steam_id":76561198021226566,"connected_time":647000000000,"state":"active","ping":71},{"user_id":96,"name":"Andreshatesmondays","steam_id":76561198889349797,"connected_time":2665000000000,"state":"active","ping":46},{"user_id":118,"name":"JSlashBoy","steam_id":76561199434135742,"connected_time":706000000000,"state":"active","ping":62},{"user_id":119,"name":"Snoop Loops","steam_id":76561198048055109,"connected_time":698000000000,"state":"active","ping":104},{"user_id":73,"name":"Drive-By-Fish-Guy","steam_id":76561198105513652,"connected_time":5535000000000,"state":"active","ping":65},{"user_id":140,"name":"Maximum Flame","steam_id":76561198073682529,"connected_time":413000000000,"state":"active","ping":100},{"user_id":121,"name":"Hazeyboi","steam_id":76561198130687838,"connected_time":684000000000,"state":"active","ping":90},{"user_id":79,"name":"Dingelsmurf the Orange","steam_id":76561198212489267,"connected_time":4805000000000,"state":"active","ping":117},{"user_id":91,"name":"Hugs","steam_id":76561198214584133,"connected_time":3416000000000,"state":"active","ping":64},{"user_id":122,"name":"jugo","steam_id":76561197995428542,"connected_time":681000000000,"state":"active","ping":74},{"user_id":110,"name":"sadlaxx","steam_id":76561198061354919,"connected_time":1810000000000,"state":"active","ping":82},{"user_id":104,"name":"w a o w","steam_id":76561198060769385,"connected_time":2277000000000,"state":"active","ping":62},{"user_id":82,"name":"Arenovas","steam_id":76561198042341811,"connected_time":4747000000000,"state":"active","ping":39},{"user_id":123,"name":"Shwal","steam_id":76561198138840448,"connected_time":681000000000,"state":"active","ping":106},{"user_id":45,"name":"Your Favorite Fearless Hero","steam_id":76561199127590316,"connected_time":7638000000000,"state":"active","ping":68},{"user_id":106,"name":"Patchy","steam_id":76561198008112883,"connected_time":2152000000000,"state":"active","ping":131},{"user_id":113,"name":"cloveprince","steam_id":76561198343820072,"connected_time":1678000000000,"state":"active","ping":127}]},{"server_id":112,"name":"Uncletopia | Los Angeles | 2 | All Maps","name_short":"lax-2","host":"lax-1.us.uncletopia.com","port":27025,"enabled":true,"region":"us-west","cc":"us","latitude":33.94279,"longitude":-118.41004,"reserved":0,"last_update":"0001-01-01T00:00:00Z","name_a2s":"Uncletopia | Los Angeles | 2 | All Maps","protocol":17,"map":"pl_barnblitz","folder":"tf","game":"Team Fortress","app_id":440,"player_count":24,"max_players":24,"Bots":0,"server_type":"Dedicated","server_os":"Linux","password":true,"vac":true,"version":"7961495","steam_id":85568392924469992,"keywords":["nocrits","nodmgspread","payload","uncletopia"],"game_id":440,"stv_port":27026,"stv_name":"Uncletopia | Los Angeles | 2 | All Maps | STV","players":[{"user_id":172,"name":"daveyf03","steam_id":76561198002970473,"connected_time":7660000000000,"state":"active","ping":48},{"user_id":276,"name":"GLXy","steam_id":76561198207551544,"connected_time":539000000000,"state":"active","ping":75},{"user_id":290,"name":"pissgrglr","steam_id":76561199077813764,"connected_time":43000000000,"state":"active","ping":140},{"user_id":203,"name":"One Confused Proton","steam_id":76561199372053610,"connected_time":5162000000000,"state":"active","ping":125},{"user_id":277,"name":"NOOB935","steam_id":76561199418458444,"connected_time":525000000000,"state":"active","ping":72},{"user_id":264,"name":"Captain Hotdog","steam_id":76561198059812666,"connected_time":1496000000000,"state":"active","ping":58},{"user_id":241,"name":"Dreamzapp","steam_id":76561199084936632,"connected_time":3343000000000,"state":"active","ping":62},{"user_id":270,"name":"Christian Bonnie","steam_id":76561199194702127,"connected_time":1308000000000,"state":"active","ping":109},{"user_id":278,"name":"H2OBourne","steam_id":76561198396293109,"connected_time":524000000000,"state":"active","ping":89},{"user_id":289,"name":"nav","steam_id":76561198872608266,"connected_time":67000000000,"state":"active","ping":117},{"user_id":243,"name":"Silvermace","steam_id":76561198090696843,"connected_time":3235000000000,"state":"active","ping":47},{"user_id":244,"name":"morbidly a beast","steam_id":76561198061653298,"connected_time":3228000000000,"state":"active","ping":111},{"user_id":275,"name":"Ralph Kramden (Slim Charles)","steam_id":76561197981687895,"connected_time":944000000000,"state":"active","ping":58},{"user_id":280,"name":"Stick","steam_id":76561198001509374,"connected_time":497000000000,"state":"active","ping":71},{"user_id":281,"name":"Germ Theory Denier","steam_id":76561198124380112,"connected_time":493000000000,"state":"active","ping":103},{"user_id":282,"name":"Dick Grimes","steam_id":76561198157414556,"connected_time":491000000000,"state":"active","ping":139},{"user_id":283,"name":"I GOT LAID AT SHEN YUN 2023","steam_id":76561198844003641,"connected_time":481000000000,"state":"active","ping":61},{"user_id":223,"name":"Ashanti Clan","steam_id":76561198032651105,"connected_time":4077000000000,"state":"active","ping":88},{"user_id":284,"name":"Axolotl Gaming","steam_id":76561198343988802,"connected_time":457000000000,"state":"active","ping":47},{"user_id":285,"name":"HAT-WEARING™ Maggot Gamer Cat","steam_id":76561197973992705,"connected_time":448000000000,"state":"active","ping":71},{"user_id":291,"name":"FlexTape","steam_id":76561198871834867,"connected_time":41000000000,"state":"active","ping":72},{"user_id":120,"name":"sobaka","steam_id":76561198116008934,"connected_time":12745000000000,"state":"active","ping":57},{"user_id":199,"name":"U ω U","steam_id":76561198118802562,"connected_time":5853000000000,"state":"active","ping":61},{"user_id":268,"name":"ElBentz","steam_id":76561199059582221,"connected_time":1450000000000,"state":"active","ping":106}]},{"server_id":324,"name":"Uncletopia | Los Angeles | 3 | All Maps","name_short":"lax-3","host":"lax-1.us.uncletopia.com","port":27035,"enabled":true,"region":"us-west","cc":"us","latitude":33.94279,"longitude":-118.41004,"reserved":0,"last_update":"0001-01-01T00:00:00Z","name_a2s":"Uncletopia | Los Angeles | 3 | All Maps","protocol":17,"map":"cp_dustbowl","folder":"tf","game":"Team Fortress","app_id":440,"player_count":23,"max_players":24,"Bots":0,"server_type":"Dedicated","server_os":"Linux","password":true,"vac":true,"version":"7961495","steam_id":85568392924510198,"keywords":["cp","nocrits","nodmgspread","uncletopia"],"game_id":440,"stv_port":27036,"stv_name":"Uncletopia | Los Angeles | 3 | All Maps | STV","players":[{"user_id":96,"name":"chicken on quack","steam_id":76561199235538552,"connected_time":1619000000000,"state":"active","ping":69},{"user_id":97,"name":"Keyboardbreaker","steam_id":76561198372836132,"connected_time":1410000000000,"state":"active","ping":69},{"user_id":84,"name":"KappinFappin","steam_id":76561198312075660,"connected_time":2197000000000,"state":"active","ping":107},{"user_id":85,"name":"Nutty McNuts","steam_id":76561199382747995,"connected_time":2196000000000,"state":"active","ping":87},{"user_id":98,"name":"Chica","steam_id":76561198381832158,"connected_time":968000000000,"state":"active","ping":62},{"user_id":76,"name":"Ashified21","steam_id":76561199357672686,"connected_time":2652000000000,"state":"active","ping":95},{"user_id":38,"name":"No.21 - Feral Scent","steam_id":76561198045844070,"connected_time":5101000000000,"state":"active","ping":89},{"user_id":64,"name":"Ethan :3","steam_id":76561199477901258,"connected_time":3761000000000,"state":"active","ping":81},{"user_id":86,"name":"Argon","steam_id":76561199254804349,"connected_time":2167000000000,"state":"active","ping":118},{"user_id":74,"name":"cielael","steam_id":76561198043971956,"connected_time":2761000000000,"state":"active","ping":45},{"user_id":39,"name":"BreakfastTacos","steam_id":76561198847620442,"connected_time":5069000000000,"state":"active","ping":103},{"user_id":99,"name":"Polygunner","steam_id":76561199165741650,"connected_time":859000000000,"state":"active","ping":116},{"user_id":67,"name":"JtsRes","steam_id":76561197994809241,"connected_time":3545000000000,"state":"active","ping":91},{"user_id":87,"name":"SomeRandomBetaFish","steam_id":76561198827731399,"connected_time":2157000000000,"state":"active","ping":106},{"user_id":48,"name":"Rodrick Knee","steam_id":76561198283021062,"connected_time":4352000000000,"state":"active","ping":130},{"user_id":88,"name":"Red 40","steam_id":76561198068113347,"connected_time":2104000000000,"state":"active","ping":45},{"user_id":78,"name":"Kazoo","steam_id":76561199229748300,"connected_time":2556000000000,"state":"active","ping":59},{"user_id":102,"name":"MrRojan","steam_id":76561197993760849,"connected_time":194000000000,"state":"active","ping":90},{"user_id":95,"name":"The Supreme Gentleman","steam_id":76561198037123203,"connected_time":1750000000000,"state":"active","ping":62},{"user_id":55,"name":"Tom","steam_id":76561198139202942,"connected_time":4130000000000,"state":"active","ping":121},{"user_id":89,"name":"KOI BOY","steam_id":76561198402739250,"connected_time":2060000000000,"state":"active","ping":113},{"user_id":60,"name":"Quaalude","steam_id":76561198100177449,"connected_time":3931000000000,"state":"active","ping":88},{"user_id":101,"name":"choi","steam_id":76561198053669887,"connected_time":679000000000,"state":"active","ping":58}]},{"server_id":25,"name":"Uncletopia | Los Angeles | 4 | Stopwatch","name_short":"lax-4","host":"lax-1.us.uncletopia.com","port":27045,"enabled":true,"region":"us-west","cc":"us","latitude":33.94279,"longitude":-118.41004,"reserved":0,"last_update":"0001-01-01T00:00:00Z","name_a2s":"Uncletopia | Los Angeles | 4 | Stopwatch","protocol":17,"map":"pl_borneo","folder":"tf","game":"Team Fortress","app_id":440,"player_count":2,"max_players":24,"Bots":0,"server_type":"Dedicated","server_os":"Linux","password":true,"vac":true,"version":"7961495","steam_id":85568392924510199,"keywords":["nocrits","nodmgspread","payload","uncletopia"],"game_id":440,"stv_port":27046,"stv_name":"Uncletopia | Los Angeles | 4 | Stopwatch | STV","players":[{"user_id":9,"name":"M.I.R.A.I.Drive","steam_id":76561198098018436,"connected_time":424000000000,"state":"active","ping":76},{"user_id":8,"name":"Noponz","steam_id":76561198176891054,"connected_time":437000000000,"state":"active","ping":99}]},{"server_id":11,"name":"Uncletopia | London | 1 | All Maps","name_short":"lon-1","host":"lon-1.uk.uncletopia.com","port":27015,"enabled":true,"region":"eu","cc":"gb","latitude":51.509865,"longitude":-0.118092,"reserved":0,"last_update":"0001-01-01T00:00:00Z","name_a2s":"Uncletopia | London | 1 | All Maps","protocol":17,"map":"cp_dustbowl","folder":"tf","game":"Team Fortress","app_id":440,"player_count":22,"max_players":24,"Bots":0,"server_type":"Dedicated","server_os":"Linux","password":true,"vac":true,"version":"7961495","steam_id":85568392924367362,"keywords":["cp","nocrits","nodmgspread","uncletopia"],"game_id":440,"stv_port":27016,"stv_name":"Uncletopia | London | 1 | All Maps | STV","players":[{"user_id":798,"name":"Dedu","steam_id":76561198132191324,"connected_time":5375000000000,"state":"active","ping":56},{"user_id":812,"name":"noseb","steam_id":76561199480942903,"connected_time":3627000000000,"state":"active","ping":74},{"user_id":855,"name":"dirty rascal","steam_id":76561198000871038,"connected_time":90000000000,"state":"active","ping":45},{"user_id":850,"name":"Alice","steam_id":76561198322365540,"connected_time":1133000000000,"state":"active","ping":97},{"user_id":844,"name":"Abska","steam_id":76561198118323803,"connected_time":1371000000000,"state":"active","ping":114},{"user_id":750,"name":"Notam","steam_id":76561198023420995,"connected_time":8186000000000,"state":"active","ping":59},{"user_id":828,"name":"Not Sussy Tanuki","steam_id":76561198137289375,"connected_time":2035000000000,"state":"active","ping":110},{"user_id":845,"name":"Limber","steam_id":76561198406320611,"connected_time":1358000000000,"state":"active","ping":48},{"user_id":835,"name":"kizyp","steam_id":76561199106138981,"connected_time":1445000000000,"state":"active","ping":159},{"user_id":847,"name":"Mimpy","steam_id":76561198040422830,"connected_time":1288000000000,"state":"active","ping":43},{"user_id":829,"name":"moeb","steam_id":76561197989281781,"connected_time":2000000000000,"state":"active","ping":59},{"user_id":836,"name":"Skiddy","steam_id":76561198125942665,"connected_time":1445000000000,"state":"active","ping":123},{"user_id":827,"name":"MATLAB R2021b","steam_id":76561198053440695,"connected_time":2237000000000,"state":"active","ping":43},{"user_id":811,"name":"❤Speedbump❤","steam_id":76561198388690313,"connected_time":4105000000000,"state":"active","ping":73},{"user_id":817,"name":"Bubsy 3D","steam_id":76561197988942314,"connected_time":3371000000000,"state":"active","ping":43},{"user_id":853,"name":"d","steam_id":76561198165550964,"connected_time":983000000000,"state":"active","ping":48},{"user_id":816,"name":"Sherlock Bond","steam_id":76561198042045955,"connected_time":3382000000000,"state":"active","ping":59},{"user_id":831,"name":"DogeEatMeat","steam_id":76561199051212534,"connected_time":1695000000000,"state":"active","ping":131},{"user_id":849,"name":"Qdarks","steam_id":76561198013391340,"connected_time":1241000000000,"state":"active","ping":142},{"user_id":851,"name":"that bozo","steam_id":76561198801207748,"connected_time":1089000000000,"state":"active","ping":130},{"user_id":834,"name":"☁ Lou1smeister ☁","steam_id":76561198004032968,"connected_time":1518000000000,"state":"active","ping":63},{"user_id":852,"name":"bRuh","steam_id":76561198053821770,"connected_time":1086000000000,"state":"active","ping":71}]},{"server_id":114,"name":"Uncletopia | London | 2 | All Maps","name_short":"lon-2","host":"lon-1.uk.uncletopia.com","port":27025,"enabled":true,"region":"eu","cc":"gb","latitude":51.509865,"longitude":-0.118092,"reserved":0,"last_update":"0001-01-01T00:00:00Z","name_a2s":"Uncletopia | London | 2 | All Maps","protocol":17,"map":"pl_swiftwater_final1","folder":"tf","game":"Team Fortress","app_id":440,"player_count":16,"max_players":24,"Bots":0,"server_type":"Dedicated","server_os":"Linux","password":true,"vac":true,"version":"7961495","steam_id":85568392924470941,"keywords":["nocrits","nodmgspread","payload","uncletopia"],"game_id":440,"stv_port":27026,"stv_name":"Uncletopia | London | 2 | All Maps | STV","players":[{"user_id":767,"name":"The Subway Scientist","steam_id":76561198193757646,"connected_time":3476000000000,"state":"active","ping":45},{"user_id":785,"name":"❥Soraka ღ","steam_id":76561198038779395,"connected_time":2448000000000,"state":"active","ping":60},{"user_id":796,"name":"frosty","steam_id":76561198094560834,"connected_time":626000000000,"state":"active","ping":51},{"user_id":797,"name":"pootis sentry","steam_id":76561199225363633,"connected_time":445000000000,"state":"active","ping":102},{"user_id":729,"name":"DUSTY_","steam_id":76561197971095392,"connected_time":7591000000000,"state":"active","ping":51},{"user_id":798,"name":"king k rool","steam_id":76561199179040672,"connected_time":268000000000,"state":"active","ping":51},{"user_id":753,"name":"TreatFly","steam_id":76561198069707362,"connected_time":5186000000000,"state":"active","ping":54},{"user_id":799,"name":"Borat","steam_id":76561198122226417,"connected_time":54000000000,"state":"active","ping":38},{"user_id":783,"name":"aless","steam_id":76561198941165698,"connected_time":2693000000000,"state":"active","ping":51},{"user_id":727,"name":"Har-V","steam_id":76561197988595276,"connected_time":7665000000000,"state":"active","ping":41},{"user_id":793,"name":"banzokajooie","steam_id":76561198039354625,"connected_time":937000000000,"state":"active","ping":153},{"user_id":794,"name":"Bert","steam_id":76561198070206096,"connected_time":846000000000,"state":"active","ping":55},{"user_id":750,"name":"lillunya ♡","steam_id":76561198330418866,"connected_time":5339000000000,"state":"active","ping":67},{"user_id":768,"name":"flick","steam_id":76561198083505031,"connected_time":3454000000000,"state":"active","ping":36},{"user_id":760,"name":"Nag","steam_id":76561197970488206,"connected_time":4452000000000,"state":"active","ping":65},{"user_id":800,"name":"Lord rei","steam_id":76561199257490283,"connected_time":38000000000,"state":"active","ping":104}]},{"server_id":320,"name":"Uncletopia | London | 3 | All Maps","name_short":"lon-3","host":"lon-1.uk.uncletopia.com","port":27035,"enabled":true,"region":"eu","cc":"gb","latitude":51.509865,"longitude":-0.118092,"reserved":0,"last_update":"0001-01-01T00:00:00Z","name_a2s":"Uncletopia | London | 3 | All Maps","protocol":17,"map":"pl_borneo","folder":"tf","game":"Team Fortress","app_id":440,"player_count":0,"max_players":24,"Bots":0,"server_type":"Dedicated","server_os":"Linux","password":true,"vac":true,"version":"7961495","steam_id":85568392924510192,"keywords":["nocrits","nodmgspread","payload","uncletopia"],"game_id":440,"stv_port":27036,"stv_name":"Uncletopia | London | 3 | All Maps | STV","players":null},{"server_id":321,"name":"Uncletopia | London | 4 | All Maps","name_short":"lon-4","host":"lon-1.uk.uncletopia.com","port":27045,"enabled":true,"region":"eu","cc":"gb","latitude":51.509865,"longitude":-0.118092,"reserved":0,"last_update":"0001-01-01T00:00:00Z","name_a2s":"Uncletopia | London | 4 | All Maps","protocol":17,"map":"pl_borneo","folder":"tf","game":"Team Fortress","app_id":440,"player_count":0,"max_players":24,"Bots":0,"server_type":"Dedicated","server_os":"Linux","password":true,"vac":true,"version":"7961495","steam_id":85568392924510193,"keywords":["nocrits","nodmgspread","payload","uncletopia"],"game_id":440,"stv_port":27046,"stv_name":"Uncletopia | London | 4 | All Maps | STV","players":null},{"server_id":21,"name":"Uncletopia | London | 5 | All Maps","name_short":"lon-5","host":"lon-1.uk.uncletopia.com","port":27055,"enabled":true,"region":"eu","cc":"gb","latitude":51.509865,"longitude":-0.118092,"reserved":0,"last_update":"0001-01-01T00:00:00Z","name_a2s":"Uncletopia | London | 5 | All Maps","protocol":17,"map":"pl_badwater","folder":"tf","game":"Team Fortress","app_id":440,"player_count":24,"max_players":24,"Bots":0,"server_type":"Dedicated","server_os":"Linux","password":true,"vac":true,"version":"7961495","steam_id":85568392924742829,"keywords":["nocrits","nodmgspread","payload","uncletopia"],"game_id":440,"stv_port":27056,"stv_name":"Uncletopia | London | 5 | All Maps | STV","players":[{"user_id":414,"name":"Jemes","steam_id":76561198055620906,"connected_time":3514000000000,"state":"active","ping":79},{"user_id":432,"name":"yuck","steam_id":76561197987249568,"connected_time":2235000000000,"state":"active","ping":106},{"user_id":441,"name":"Matayankis","steam_id":76561198024513380,"connected_time":1432000000000,"state":"active","ping":79},{"user_id":436,"name":"yavaş","steam_id":76561198170334258,"connected_time":1662000000000,"state":"active","ping":73},{"user_id":456,"name":"Big Sauce","steam_id":76561198046654750,"connected_time":596000000000,"state":"active","ping":127},{"user_id":420,"name":"『the_STINK』","steam_id":76561198145140572,"connected_time":3230000000000,"state":"active","ping":147},{"user_id":452,"name":"toilet drinker","steam_id":76561199403589748,"connected_time":1005000000000,"state":"active","ping":126},{"user_id":455,"name":"Turbo","steam_id":76561197973697756,"connected_time":725000000000,"state":"active","ping":45},{"user_id":350,"name":"kbourbery","steam_id":76561198109943492,"connected_time":7248000000000,"state":"active","ping":52},{"user_id":411,"name":"Dotkor Tommy","steam_id":76561199012441653,"connected_time":3761000000000,"state":"active","ping":86},{"user_id":454,"name":"ellby","steam_id":76561198304585963,"connected_time":856000000000,"state":"active","ping":124},{"user_id":439,"name":"sqomboashous snickerdoodle","steam_id":76561198346001637,"connected_time":1526000000000,"state":"active","ping":158},{"user_id":352,"name":"BoB443","steam_id":76561198031140356,"connected_time":7233000000000,"state":"active","ping":56},{"user_id":457,"name":"Luyn","steam_id":76561198043829667,"connected_time":586000000000,"state":"active","ping":60},{"user_id":421,"name":"Grayblood","steam_id":76561198162656579,"connected_time":3214000000000,"state":"active","ping":67},{"user_id":430,"name":"FoxHound","steam_id":76561198019029467,"connected_time":2408000000000,"state":"active","ping":48},{"user_id":423,"name":"Onbeheerde_Jongeheer","steam_id":76561198051685232,"connected_time":3176000000000,"state":"active","ping":45},{"user_id":424,"name":"Chicken Fillet","steam_id":76561198062267267,"connected_time":3173000000000,"state":"active","ping":109},{"user_id":357,"name":"Grey","steam_id":76561198187190267,"connected_time":7205000000000,"state":"active","ping":46},{"user_id":425,"name":"Avon","steam_id":76561199021652529,"connected_time":3169000000000,"state":"active","ping":106},{"user_id":426,"name":"Meow","steam_id":76561198062433153,"connected_time":3165000000000,"state":"active","ping":115},{"user_id":443,"name":"shadowness☆","steam_id":76561198176790002,"connected_time":1379000000000,"state":"active","ping":69},{"user_id":458,"name":"cold","steam_id":76561199017901552,"connected_time":467000000000,"state":"active","ping":157},{"user_id":442,"name":"Killbasa","steam_id":76561198064868400,"connected_time":1406000000000,"state":"active","ping":122}]},{"server_id":22,"name":"Uncletopia | London | 6 | All Maps","name_short":"lon-6","host":"lon-1.uk.uncletopia.com","port":27065,"enabled":true,"region":"eu","cc":"gb","latitude":51.509865,"longitude":-0.118092,"reserved":0,"last_update":"0001-01-01T00:00:00Z","name_a2s":"Uncletopia | London | 6 | All Maps","protocol":17,"map":"koth_highpass","folder":"tf","game":"Team Fortress","app_id":440,"player_count":0,"max_players":24,"Bots":0,"server_type":"Dedicated","server_os":"Linux","password":true,"vac":true,"version":"7961495","steam_id":85568392924742830,"keywords":["cp","nocrits","nodmgspread","uncletopia"],"game_id":440,"stv_port":27066,"stv_name":"Uncletopia | London | 6 | All Maps | STV","players":null},{"server_id":40,"name":"Uncletopia | London | 7 | Stopwatch","name_short":"lon-7","host":"lon-1.uk.uncletopia.com","port":27075,"enabled":true,"region":"eu","cc":"gb","latitude":51.509865,"longitude":-0.118092,"reserved":0,"last_update":"0001-01-01T00:00:00Z","name_a2s":"Uncletopia | London | 7 | Stopwatch","protocol":17,"map":"cp_gullywash_final1","folder":"tf","game":"Team Fortress","app_id":440,"player_count":0,"max_players":24,"Bots":0,"server_type":"Dedicated","server_os":"Linux","password":true,"vac":true,"version":"7961495","steam_id":85568392924964314,"keywords":["cp","nocrits","nodmgspread","uncletopia"],"game_id":440,"stv_port":27076,"stv_name":"Uncletopia | London | 7 | Stopwatch | STV","players":null},{"server_id":41,"name":"Uncletopia | London | 8 | Community","name_short":"lon-8","host":"lon-1.uk.uncletopia.com","port":27085,"enabled":true,"region":"eu","cc":"gb","latitude":51.509865,"longitude":-0.118092,"reserved":0,"last_update":"0001-01-01T00:00:00Z","name_a2s":"Uncletopia | London | 8 | Community","protocol":17,"map":"workshop/koth_ashville_final.ugc2130459942","folder":"tf","game":"Team Fortress","app_id":440,"player_count":0,"max_players":24,"Bots":0,"server_type":"Dedicated","server_os":"Linux","password":true,"vac":true,"version":"7961495","steam_id":85568392924964315,"keywords":["cp","nocrits","nodmgspread","uncletopia"],"game_id":440,"stv_port":27086,"stv_name":"Uncletopia | London | 8 | Community | STV","players":null},{"server_id":300,"name":"Uncletopia | Montréal | 1 | One Thousand Uncles","name_short":"mtl-1","host":"mtl-1.ca.uncletopia.com","port":27015,"enabled":true,"region":"us-east","cc":"ca","latitude":45.50889,"longitude":-73.56167,"reserved":0,"last_update":"0001-01-01T00:00:00Z","name_a2s":"","protocol":0,"map":"","folder":"","game":"","app_id":0,"player_count":3,"max_players":0,"Bots":0,"server_type":"","server_os":"","password":false,"vac":false,"version":"","steam_id":0,"keywords":null,"game_id":0,"stv_port":0,"stv_name":"","players":[{"user_id":463,"name":"concrete_car","steam_id":76561198388207363,"connected_time":1088000000000,"state":"active","ping":59},{"user_id":361,"name":"schnedwob","steam_id":76561197999146588,"connected_time":7922000000000,"state":"active","ping":88},{"user_id":378,"name":"PieSpie","steam_id":76561198054531169,"connected_time":6365000000000,"state":"active","ping":89}]},{"server_id":301,"name":"Uncletopia | Montréal | 2 | One Thousand Uncles","name_short":"mtl-2","host":"mtl-1.ca.uncletopia.com","port":27025,"enabled":true,"region":"us-east","cc":"ca","latitude":45.50889,"longitude":-73.56167,"reserved":0,"last_update":"0001-01-01T00:00:00Z","name_a2s":"","protocol":0,"map":"","folder":"","game":"","app_id":0,"player_count":0,"max_players":0,"Bots":0,"server_type":"","server_os":"","password":false,"vac":false,"version":"","steam_id":0,"keywords":null,"game_id":0,"stv_port":0,"stv_name":"","players":null},{"server_id":302,"name":"Uncletopia | Montréal | 3 | One Thousand Uncles","name_short":"mtl-3","host":"mtl-1.ca.uncletopia.com","port":27035,"enabled":true,"region":"us-east","cc":"ca","latitude":45.50889,"longitude":-73.56167,"reserved":0,"last_update":"0001-01-01T00:00:00Z","name_a2s":"","protocol":0,"map":"","folder":"","game":"","app_id":0,"player_count":12,"max_players":0,"Bots":0,"server_type":"","server_os":"","password":false,"vac":false,"version":"","steam_id":0,"keywords":null,"game_id":0,"stv_port":0,"stv_name":"","players":[{"user_id":109,"name":"Lia_Rein","steam_id":76561198151569597,"connected_time":1795000000000,"state":"active","ping":125},{"user_id":91,"name":"stormbreakerpug","steam_id":76561199487146825,"connected_time":3205000000000,"state":"active","ping":59},{"user_id":88,"name":"FilipeLuk","steam_id":76561198150675438,"connected_time":3853000000000,"state":"active","ping":149},{"user_id":58,"name":"Yorozuya with Odd Jobs","steam_id":76561198219473128,"connected_time":6584000000000,"state":"active","ping":59},{"user_id":63,"name":"Swash","steam_id":76561197969421355,"connected_time":5393000000000,"state":"active","ping":57},{"user_id":110,"name":"MechaZard","steam_id":76561198985919768,"connected_time":1636000000000,"state":"active","ping":90},{"user_id":117,"name":"Lots0","steam_id":76561198043143145,"connected_time":550000000000,"state":"active","ping":92},{"user_id":114,"name":"your fwiend","steam_id":76561198154773643,"connected_time":967000000000,"state":"active","ping":62},{"user_id":119,"name":"TheOneZoot","steam_id":76561198121944243,"connected_time":509000000000,"state":"active","ping":74},{"user_id":122,"name":"Dennis Reynolds","steam_id":76561197960371259,"connected_time":425000000000,"state":"active","ping":83},{"user_id":125,"name":"Gramma!","steam_id":76561198340989175,"connected_time":101000000000,"state":"active","ping":83},{"user_id":124,"name":"♥Bunny♥Slut♥","steam_id":76561198206376851,"connected_time":280000000000,"state":"active","ping":86}]},{"server_id":13,"name":"Uncletopia | New York City | 1 | All Maps","name_short":"nyc-1","host":"nyc-1.us.uncletopia.com","port":27015,"enabled":true,"region":"us-east","cc":"us","latitude":40.73061,"longitude":-73.93524,"reserved":0,"last_update":"0001-01-01T00:00:00Z","name_a2s":"Uncletopia | New York City | 1 | All Maps","protocol":17,"map":"cp_gorge","folder":"tf","game":"Team Fortress","app_id":440,"player_count":24,"max_players":24,"Bots":0,"server_type":"Dedicated","server_os":"Linux","password":true,"vac":true,"version":"7961495","steam_id":85568392924469993,"keywords":["cp","nocrits","nodmgspread","uncletopia"],"game_id":440,"stv_port":27016,"stv_name":"Uncletopia | New York City | 1 | All Maps | STV","players":[{"user_id":466,"name":"stormfoam","steam_id":76561198936871387,"connected_time":3000000000000,"state":"active","ping":85},{"user_id":492,"name":"Xx_Savage_Twerks_xX","steam_id":76561198011665915,"connected_time":1118000000000,"state":"active","ping":47},{"user_id":520,"name":"MondoDong","steam_id":76561197991400109,"connected_time":281000000000,"state":"active","ping":55},{"user_id":477,"name":"Yuzu","steam_id":76561198417913035,"connected_time":1779000000000,"state":"active","ping":66},{"user_id":468,"name":"roman","steam_id":76561198170066797,"connected_time":2955000000000,"state":"active","ping":60},{"user_id":494,"name":"Joshy","steam_id":76561198061405421,"connected_time":1079000000000,"state":"active","ping":71},{"user_id":512,"name":"Glitchy stick","steam_id":76561199013429386,"connected_time":451000000000,"state":"active","ping":57},{"user_id":515,"name":"The Wave","steam_id":76561198268225109,"connected_time":395000000000,"state":"active","ping":79},{"user_id":513,"name":"Mirelas","steam_id":76561198839360212,"connected_time":445000000000,"state":"active","ping":81},{"user_id":511,"name":"Bee","steam_id":76561198074681324,"connected_time":497000000000,"state":"active","ping":47},{"user_id":504,"name":"lfty","steam_id":76561198283841707,"connected_time":650000000000,"state":"active","ping":55},{"user_id":505,"name":"trees","steam_id":76561198140694544,"connected_time":632000000000,"state":"active","ping":48},{"user_id":470,"name":"Buck","steam_id":76561198064244796,"connected_time":2702000000000,"state":"active","ping":48},{"user_id":499,"name":"Loose and Goose","steam_id":76561198808610991,"connected_time":694000000000,"state":"active","ping":88},{"user_id":497,"name":"Herb","steam_id":76561198330311949,"connected_time":884000000000,"state":"active","ping":60},{"user_id":506,"name":"DeepDive","steam_id":76561198140542184,"connected_time":626000000000,"state":"active","ping":52},{"user_id":519,"name":"Rornir","steam_id":76561198081829615,"connected_time":349000000000,"state":"active","ping":60},{"user_id":508,"name":"Sky","steam_id":76561198043549371,"connected_time":607000000000,"state":"active","ping":50},{"user_id":509,"name":"cognitiveAfflatus","steam_id":76561198295181426,"connected_time":601000000000,"state":"active","ping":61},{"user_id":521,"name":"Kismet","steam_id":76561199140940650,"connected_time":53000000000,"state":"active","ping":74},{"user_id":493,"name":"The Colonel","steam_id":76561198081280583,"connected_time":1095000000000,"state":"active","ping":60},{"user_id":514,"name":"Piss Collector","steam_id":76561198157339070,"connected_time":416000000000,"state":"active","ping":69},{"user_id":476,"name":"Narh","steam_id":76561198025216294,"connected_time":2000000000000,"state":"active","ping":68},{"user_id":517,"name":"too deep for most to understand","steam_id":76561198022636144,"connected_time":362000000000,"state":"active","ping":40}]},{"server_id":14,"name":"Uncletopia | New York City | 2 | All Maps","name_short":"nyc-2","host":"nyc-1.us.uncletopia.com","port":27025,"enabled":true,"region":"us-east","cc":"us","latitude":40.73061,"longitude":-73.93524,"reserved":0,"last_update":"0001-01-01T00:00:00Z","name_a2s":"Uncletopia | New York City | 2 | All Maps","protocol":17,"map":"pl_pier","folder":"tf","game":"Team Fortress","app_id":440,"player_count":23,"max_players":24,"Bots":0,"server_type":"Dedicated","server_os":"Linux","password":true,"vac":true,"version":"7961495","steam_id":85568392924469994,"keywords":["nocrits","nodmgspread","payload","uncletopia"],"game_id":440,"stv_port":27026,"stv_name":"Uncletopia | New York City | 2 | All Maps | STV","players":[{"user_id":428,"name":"Nerrrd_","steam_id":76561198870129960,"connected_time":1245000000000,"state":"active","ping":45},{"user_id":425,"name":"Bored Barred Owl","steam_id":76561198263895597,"connected_time":1513000000000,"state":"active","ping":59},{"user_id":435,"name":"Coup de Grass","steam_id":76561198011643226,"connected_time":303000000000,"state":"active","ping":72},{"user_id":432,"name":"stampdawg","steam_id":76561198050500060,"connected_time":474000000000,"state":"active","ping":78},{"user_id":436,"name":"FiveOhForPlan","steam_id":76561198333012915,"connected_time":229000000000,"state":"active","ping":78},{"user_id":434,"name":"Punkin","steam_id":76561198334301755,"connected_time":340000000000,"state":"active","ping":70},{"user_id":437,"name":"ZBeth Best","steam_id":76561198101890770,"connected_time":158000000000,"state":"active","ping":52},{"user_id":438,"name":"Blade Racer","steam_id":76561198155896703,"connected_time":115000000000,"state":"active","ping":56},{"user_id":400,"name":"Il Piantissimo","steam_id":76561198107899101,"connected_time":3852000000000,"state":"active","ping":60},{"user_id":367,"name":"C.E.O. of pl_pier","steam_id":76561198085696816,"connected_time":7549000000000,"state":"active","ping":70},{"user_id":419,"name":"Sporp","steam_id":76561197987957133,"connected_time":1922000000000,"state":"active","ping":83},{"user_id":424,"name":"Oh, it's Zach","steam_id":76561198103309672,"connected_time":1565000000000,"state":"active","ping":63},{"user_id":430,"name":"FAKE TAXI PRANKS","steam_id":76561198136746987,"connected_time":566000000000,"state":"active","ping":83},{"user_id":418,"name":"Suck Her Dick Sunday","steam_id":76561198029274581,"connected_time":1940000000000,"state":"active","ping":74},{"user_id":439,"name":"Butters495","steam_id":76561197998689042,"connected_time":110000000000,"state":"active","ping":72},{"user_id":417,"name":"Hadani","steam_id":76561198185031575,"connected_time":2285000000000,"state":"active","ping":75},{"user_id":431,"name":"Synell","steam_id":76561198053232523,"connected_time":504000000000,"state":"active","ping":69},{"user_id":345,"name":"Shagbark","steam_id":76561198173447342,"connected_time":9973000000000,"state":"active","ping":62},{"user_id":391,"name":"Froyo Ding Dong","steam_id":76561198379421700,"connected_time":5044000000000,"state":"active","ping":55},{"user_id":413,"name":"Chimpo","steam_id":76561198066228209,"connected_time":2675000000000,"state":"active","ping":62},{"user_id":415,"name":"GlingGlop95","steam_id":76561198386865528,"connected_time":2562000000000,"state":"active","ping":88},{"user_id":440,"name":"amnyak","steam_id":76561198165831950,"connected_time":106000000000,"state":"active","ping":73},{"user_id":427,"name":"Gamer Girl Cocaine","steam_id":76561199276295259,"connected_time":1508000000000,"state":"active","ping":72}]},{"server_id":15,"name":"Uncletopia | New York City | 3 | Stopwatch","name_short":"nyc-3","host":"nyc-1.us.uncletopia.com","port":27035,"enabled":true,"region":"us-east","cc":"us","latitude":40.73061,"longitude":-73.93524,"reserved":0,"last_update":"0001-01-01T00:00:00Z","name_a2s":"Uncletopia | New York City | 3 | Stopwatch","protocol":17,"map":"workshop/koth_ramjam_rc1.ugc459778887","folder":"tf","game":"Team Fortress","app_id":440,"player_count":0,"max_players":24,"Bots":0,"server_type":"Dedicated","server_os":"Linux","password":true,"vac":true,"version":"7961495","steam_id":85568392924742820,"keywords":["cp","nocrits","nodmgspread","uncletopia"],"game_id":440,"stv_port":27036,"stv_name":"Uncletopia | New York City | 3 | Stopwatch | STV","players":null},{"server_id":16,"name":"Uncletopia | New York City | 4 | Community","name_short":"nyc-4","host":"nyc-1.us.uncletopia.com","port":27045,"enabled":true,"region":"us-east","cc":"us","latitude":40.73061,"longitude":-73.93524,"reserved":0,"last_update":"0001-01-01T00:00:00Z","name_a2s":"Uncletopia | New York City | 4 | Community","protocol":17,"map":"workshop/koth_trenchfoot_b1a.ugc731436616","folder":"tf","game":"Team Fortress","app_id":440,"player_count":0,"max_players":24,"Bots":0,"server_type":"Dedicated","server_os":"Linux","password":true,"vac":true,"version":"7961495","steam_id":85568392924742821,"keywords":["cp","nocrits","nodmgspread","uncletopia"],"game_id":440,"stv_port":27046,"stv_name":"Uncletopia | New York City | 4 | Community | STV","players":null},{"server_id":142,"name":"Uncletopia | São Paulo | 1 | All Maps","name_short":"sao-1","host":"sao-1.br.uncletopia.com","port":27015,"enabled":true,"region":"sa","cc":"br","latitude":-23.533773,"longitude":-46.62529,"reserved":0,"last_update":"0001-01-01T00:00:00Z","name_a2s":"Uncletopia | São Paulo | 1 | All Maps","protocol":17,"map":"pl_barnblitz","folder":"tf","game":"Team Fortress","app_id":440,"player_count":0,"max_players":24,"Bots":0,"server_type":"Dedicated","server_os":"Linux","password":true,"vac":true,"version":"7961495","steam_id":85568392924469996,"keywords":["nocrits","nodmgspread","payload","uncletopia"],"game_id":440,"stv_port":27016,"stv_name":"Uncletopia | São Paulo | 1 | All Maps | STV","players":null},{"server_id":143,"name":"Uncletopia | São Paulo | 2 | Community","name_short":"sao-2","host":"sao-2.br.uncletopia.com","port":27015,"enabled":true,"region":"sa","cc":"br","latitude":-23.533773,"longitude":-46.62529,"reserved":0,"last_update":"0001-01-01T00:00:00Z","name_a2s":"Uncletopia | São Paulo | 2 | Community","protocol":17,"map":"workshop/koth_ashville_final.ugc2130459942","folder":"tf","game":"Team Fortress","app_id":440,"player_count":3,"max_players":24,"Bots":0,"server_type":"Dedicated","server_os":"Linux","password":true,"vac":true,"version":"7961495","steam_id":85568392924485349,"keywords":["cp","nocrits","nodmgspread","uncletopia"],"game_id":440,"stv_port":27016,"stv_name":"Uncletopia | São Paulo | 2 | Community | STV","players":[{"user_id":7,"name":"Seleste","steam_id":76561199099945745,"connected_time":8446000000000,"state":"active","ping":95},{"user_id":26,"name":"omrboo061","steam_id":76561199443653759,"connected_time":1487000000000,"state":"active","ping":93},{"user_id":10,"name":"fernandohll59","steam_id":76561199120728007,"connected_time":6156000000000,"state":"active","ping":156}]},{"server_id":7,"name":"Uncletopia | Seattle | 1 | All Maps","name_short":"sea-1","host":"sea-1.us.uncletopia.com","port":27015,"enabled":true,"region":"us-west","cc":"us","latitude":47.608013,"longitude":-122.33517,"reserved":0,"last_update":"0001-01-01T00:00:00Z","name_a2s":"Uncletopia | Seattle | 1 | All Maps","protocol":17,"map":"pl_borneo","folder":"tf","game":"Team Fortress","app_id":440,"player_count":24,"max_players":24,"Bots":0,"server_type":"Dedicated","server_os":"Linux","password":true,"vac":true,"version":"7961495","steam_id":85568392924469997,"keywords":["nocrits","nodmgspread","payload","uncletopia"],"game_id":440,"stv_port":27016,"stv_name":"Uncletopia | Seattle | 1 | All Maps | STV","players":[{"user_id":476,"name":"Shrimps","steam_id":76561198983016709,"connected_time":150000000000,"state":"active","ping":62},{"user_id":467,"name":"ed","steam_id":76561198080475712,"connected_time":622000000000,"state":"active","ping":70},{"user_id":475,"name":"GRONT","steam_id":76561198040464533,"connected_time":348000000000,"state":"active","ping":119},{"user_id":439,"name":"Skeleop","steam_id":76561198981106464,"connected_time":4164000000000,"state":"active","ping":75},{"user_id":430,"name":"Legionnaire man","steam_id":76561199338313228,"connected_time":4833000000000,"state":"active","ping":66},{"user_id":469,"name":"Robert E.T.","steam_id":76561197986439371,"connected_time":586000000000,"state":"active","ping":39},{"user_id":387,"name":"Username","steam_id":76561199033122306,"connected_time":7990000000000,"state":"active","ping":146},{"user_id":459,"name":"PopcornBucketGames","steam_id":76561199089562026,"connected_time":1439000000000,"state":"active","ping":34},{"user_id":470,"name":"[Bandit]","steam_id":76561197986919852,"connected_time":585000000000,"state":"active","ping":45},{"user_id":433,"name":"Spectre","steam_id":76561198037535169,"connected_time":4272000000000,"state":"active","ping":71},{"user_id":364,"name":"ShiningForce","steam_id":76561198026039048,"connected_time":10503000000000,"state":"active","ping":73},{"user_id":446,"name":"DubiousDodo","steam_id":76561198828172686,"connected_time":3290000000000,"state":"active","ping":106},{"user_id":468,"name":"Dongus","steam_id":76561197979056451,"connected_time":610000000000,"state":"active","ping":55},{"user_id":473,"name":"MantisToboggan","steam_id":76561197969447887,"connected_time":451000000000,"state":"active","ping":77},{"user_id":447,"name":"Lili","steam_id":76561199488457138,"connected_time":3161000000000,"state":"active","ping":52},{"user_id":456,"name":"Cheezbeargur","steam_id":76561198164702899,"connected_time":1957000000000,"state":"active","ping":63},{"user_id":472,"name":"Johnnyboy503","steam_id":76561198127833187,"connected_time":468000000000,"state":"active","ping":53},{"user_id":464,"name":"a cat plushie","steam_id":76561198080046542,"connected_time":925000000000,"state":"active","ping":51},{"user_id":450,"name":"ilun","steam_id":76561198042913843,"connected_time":2747000000000,"state":"active","ping":60},{"user_id":474,"name":"2cats_2curious","steam_id":76561198027143149,"connected_time":419000000000,"state":"active","ping":76},{"user_id":477,"name":"2 much p00p","steam_id":76561198847372026,"connected_time":120000000000,"state":"spawning","ping":90},{"user_id":369,"name":"Synergy","steam_id":76561198098630198,"connected_time":10389000000000,"state":"active","ping":44},{"user_id":462,"name":"Oldengie","steam_id":76561199074712665,"connected_time":1108000000000,"state":"active","ping":118},{"user_id":466,"name":"sleePI","steam_id":76561198450073779,"connected_time":872000000000,"state":"active","ping":45}]},{"server_id":119,"name":"Uncletopia | Seattle | 2 | All Maps","name_short":"sea-2","host":"sea-1.us.uncletopia.com","port":27025,"enabled":true,"region":"us-west","cc":"us","latitude":47.608013,"longitude":-122.33517,"reserved":0,"last_update":"0001-01-01T00:00:00Z","name_a2s":"Uncletopia | Seattle | 2 | All Maps","protocol":17,"map":"koth_cascade","folder":"tf","game":"Team Fortress","app_id":440,"player_count":18,"max_players":24,"Bots":0,"server_type":"Dedicated","server_os":"Linux","password":true,"vac":true,"version":"7961495","steam_id":85568392924469998,"keywords":["cp","nocrits","nodmgspread","uncletopia"],"game_id":440,"stv_port":27026,"stv_name":"Uncletopia | Seattle | 2 | All Maps | STV","players":[{"user_id":537,"name":"CashGordon","steam_id":76561197975594096,"connected_time":99000000000,"state":"active","ping":43},{"user_id":538,"name":"weed lesbian","steam_id":76561198042263805,"connected_time":50000000000,"state":"active","ping":46},{"user_id":539,"name":"bbbbb","steam_id":76561198095480838,"connected_time":30000000000,"state":"active","ping":46},{"user_id":527,"name":"fish","steam_id":76561198303575607,"connected_time":897000000000,"state":"active","ping":120},{"user_id":504,"name":"Jshoe","steam_id":76561198128252048,"connected_time":2937000000000,"state":"active","ping":63},{"user_id":530,"name":"OneHighZergling","steam_id":76561198071345185,"connected_time":441000000000,"state":"active","ping":75},{"user_id":516,"name":"SadFapping","steam_id":76561198076651049,"connected_time":1818000000000,"state":"active","ping":46},{"user_id":489,"name":"Diesel","steam_id":76561198448815852,"connected_time":4409000000000,"state":"active","ping":56},{"user_id":481,"name":"DUNKS","steam_id":76561198130701643,"connected_time":4991000000000,"state":"active","ping":49},{"user_id":531,"name":"BIG HOG","steam_id":76561198079923652,"connected_time":413000000000,"state":"active","ping":105},{"user_id":533,"name":"Hoodied Dragon","steam_id":76561198211745761,"connected_time":387000000000,"state":"active","ping":74},{"user_id":521,"name":"Lucide","steam_id":76561197998530400,"connected_time":1171000000000,"state":"active","ping":53},{"user_id":529,"name":"Hovg9000","steam_id":76561199191556710,"connected_time":581000000000,"state":"active","ping":92},{"user_id":535,"name":"fried water","steam_id":76561198360311110,"connected_time":267000000000,"state":"active","ping":59},{"user_id":534,"name":"Penis Music","steam_id":76561198089647760,"connected_time":385000000000,"state":"active","ping":68},{"user_id":536,"name":"lil hog","steam_id":76561199230929836,"connected_time":211000000000,"state":"active","ping":131},{"user_id":515,"name":"Johner","steam_id":76561199126557063,"connected_time":2142000000000,"state":"active","ping":76},{"user_id":518,"name":"PoopieStank","steam_id":76561197977099076,"connected_time":1700000000000,"state":"active","ping":112}]},{"server_id":406,"name":"Uncletopia | Seattle | 3 | Stopwatch","name_short":"sea-3","host":"sea-1.us.uncletopia.com","port":27035,"enabled":true,"region":"us-west","cc":"us","latitude":47.608013,"longitude":-122.33517,"reserved":0,"last_update":"0001-01-01T00:00:00Z","name_a2s":"Uncletopia | Seattle | 3 | Stopwatch","protocol":17,"map":"workshop/koth_clearcut_b15.ugc2107050255","folder":"tf","game":"Team Fortress","app_id":440,"player_count":0,"max_players":24,"Bots":0,"server_type":"Dedicated","server_os":"Linux","password":true,"vac":true,"version":"7961495","steam_id":85568392924515217,"keywords":["cp","nocrits","nodmgspread","uncletopia"],"game_id":440,"stv_port":27036,"stv_name":"Uncletopia | Seattle | 3 | Stopwatch | STV","players":null},{"server_id":17,"name":"Uncletopia | San Francisco | 1 | All Maps","name_short":"sfo-1","host":"sfo-1.us.uncletopia.com","port":27015,"enabled":true,"region":"us-west","cc":"us","latitude":37.77397,"longitude":-122.4313,"reserved":0,"last_update":"0001-01-01T00:00:00Z","name_a2s":"Uncletopia | San Francisco | 1 | All Maps","protocol":17,"map":"koth_viaduct","folder":"tf","game":"Team Fortress","app_id":440,"player_count":0,"max_players":24,"Bots":0,"server_type":"Dedicated","server_os":"Linux","password":true,"vac":true,"version":"7961495","steam_id":85568392924469999,"keywords":["cp","nocrits","nodmgspread","uncletopia"],"game_id":440,"stv_port":27016,"stv_name":"Uncletopia | San Francisco | 1 | All Maps | STV","players":null},{"server_id":18,"name":"Uncletopia | San Francisco | 2 | All Maps","name_short":"sfo-2","host":"sfo-1.us.uncletopia.com","port":27025,"enabled":true,"region":"us-west","cc":"us","latitude":37.77397,"longitude":-122.4313,"reserved":0,"last_update":"0001-01-01T00:00:00Z","name_a2s":"Uncletopia | San Francisco | 2 | All Maps","protocol":17,"map":"cp_steel","folder":"tf","game":"Team Fortress","app_id":440,"player_count":24,"max_players":24,"Bots":0,"server_type":"Dedicated","server_os":"Linux","password":true,"vac":true,"version":"7961495","steam_id":85568392924470000,"keywords":["cp","nocrits","nodmgspread","uncletopia"],"game_id":440,"stv_port":27026,"stv_name":"Uncletopia | San Francisco | 2 | All Maps | STV","players":[{"user_id":130,"name":"Fitsy1011","steam_id":76561198128359385,"connected_time":1425000000000,"state":"active","ping":81},{"user_id":145,"name":"WaywardFinn","steam_id":76561198040391296,"connected_time":194000000000,"state":"active","ping":126},{"user_id":146,"name":"megaroboleg","steam_id":76561198844644993,"connected_time":180000000000,"state":"active","ping":61},{"user_id":138,"name":"Servitz","steam_id":76561198194446835,"connected_time":1061000000000,"state":"active","ping":119},{"user_id":113,"name":"billycop32","steam_id":76561198035702422,"connected_time":2759000000000,"state":"active","ping":77},{"user_id":91,"name":"Jovo","steam_id":76561197993265970,"connected_time":4305000000000,"state":"active","ping":60},{"user_id":142,"name":"Phos","steam_id":76561198122339506,"connected_time":408000000000,"state":"active","ping":74},{"user_id":147,"name":"Rock Kickass","steam_id":76561198450510841,"connected_time":167000000000,"state":"active","ping":97},{"user_id":126,"name":"LiMa","steam_id":76561198872798792,"connected_time":2148000000000,"state":"active","ping":91},{"user_id":148,"name":"fruity pebbles","steam_id":76561199165875631,"connected_time":64000000000,"state":"connecting","ping":0},{"user_id":117,"name":"Sterling Nano","steam_id":76561198048580088,"connected_time":2713000000000,"state":"active","ping":68},{"user_id":127,"name":"Mongoose","steam_id":76561198020361641,"connected_time":1465000000000,"state":"active","ping":84},{"user_id":139,"name":"Lambchop","steam_id":76561198043900363,"connected_time":968000000000,"state":"active","ping":60},{"user_id":144,"name":"chester","steam_id":76561198196562130,"connected_time":367000000000,"state":"active","ping":54},{"user_id":136,"name":"omnislime","steam_id":76561199382475668,"connected_time":1295000000000,"state":"active","ping":98},{"user_id":140,"name":"DeckofDragons","steam_id":76561198057398213,"connected_time":715000000000,"state":"active","ping":84},{"user_id":55,"name":"Closeted femboy enjoyer","steam_id":76561198217747041,"connected_time":7536000000000,"state":"active","ping":56},{"user_id":105,"name":"Artgrendadier","steam_id":76561198063305359,"connected_time":3605000000000,"state":"active","ping":103},{"user_id":149,"name":"penishaha","steam_id":76561198262856703,"connected_time":53000000000,"state":"active","ping":109},{"user_id":150,"name":"Harley [Ramiel]","steam_id":76561198079510840,"connected_time":21000000000,"state":"spawning","ping":78},{"user_id":79,"name":"XxDragon4321xX","steam_id":76561198046705735,"connected_time":5002000000000,"state":"active","ping":79},{"user_id":137,"name":"Hydroxianchaos","steam_id":76561198043786828,"connected_time":1226000000000,"state":"active","ping":112},{"user_id":80,"name":"chesterwnimitz","steam_id":76561198062664377,"connected_time":4959000000000,"state":"active","ping":87},{"user_id":125,"name":"laaghice","steam_id":76561198274021552,"connected_time":2237000000000,"state":"active","ping":87}]},{"server_id":19,"name":"Uncletopia | San Francisco | 3 | Stopwatch","name_short":"sfo-3","host":"sfo-1.us.uncletopia.com","port":27035,"enabled":true,"region":"us-west","cc":"us","latitude":37.77397,"longitude":-122.4313,"reserved":0,"last_update":"0001-01-01T00:00:00Z","name_a2s":"Uncletopia | San Francisco | 3 | Stopwatch","protocol":17,"map":"workshop/koth_clearcut_b15.ugc2107050255","folder":"tf","game":"Team Fortress","app_id":440,"player_count":0,"max_players":24,"Bots":0,"server_type":"Dedicated","server_os":"Linux","password":true,"vac":true,"version":"7961495","steam_id":85568392924742824,"keywords":["cp","nocrits","nodmgspread","uncletopia"],"game_id":440,"stv_port":27036,"stv_name":"Uncletopia | San Francisco | 3 | Stopwatch | STV","players":null},{"server_id":20,"name":"Uncletopia | San Francisco | 4 | Community","name_short":"sfo-4","host":"sfo-1.us.uncletopia.com","port":27045,"enabled":true,"region":"us-west","cc":"us","latitude":37.77397,"longitude":-122.4313,"reserved":0,"last_update":"0001-01-01T00:00:00Z","name_a2s":"Uncletopia | San Francisco | 4 | Community","protocol":17,"map":"workshop/pl_boundary_final1.ugc456799153","folder":"tf","game":"Team Fortress","app_id":440,"player_count":0,"max_players":24,"Bots":0,"server_type":"Dedicated","server_os":"Linux","password":true,"vac":true,"version":"7961495","steam_id":85568392924742826,"keywords":["nocrits","nodmgspread","payload","uncletopia"],"game_id":440,"stv_port":27046,"stv_name":"Uncletopia | San Francisco | 4 | Community | STV","players":null},{"server_id":141,"name":"Uncletopia | Sydney | 1 | All Maps","name_short":"syd-1","host":"syd-1.au.uncletopia.com","port":27015,"enabled":true,"region":"au","cc":"au","latitude":-33.865143,"longitude":151.2099,"reserved":0,"last_update":"0001-01-01T00:00:00Z","name_a2s":"Uncletopia | Sydney | 1 | All Maps","protocol":17,"map":"pl_pier","folder":"tf","game":"Team Fortress","app_id":440,"player_count":24,"max_players":24,"Bots":0,"server_type":"Dedicated","server_os":"Linux","password":true,"vac":true,"version":"7961495","steam_id":85568392924470001,"keywords":["nocrits","nodmgspread","payload","uncletopia"],"game_id":440,"stv_port":27016,"stv_name":"Uncletopia | Sydney | 1 | All Maps | STV","players":[{"user_id":159,"name":"wom","steam_id":76561199375834537,"connected_time":1401000000000,"state":"active","ping":124},{"user_id":170,"name":"Aweful","steam_id":76561199163884401,"connected_time":38000000000,"state":"active","ping":156},{"user_id":166,"name":"Mr ._. Phil","steam_id":76561198081187571,"connected_time":223000000000,"state":"active","ping":45},{"user_id":139,"name":"TACO.phox - Negev Edition","steam_id":76561198298500294,"connected_time":2808000000000,"state":"active","ping":120},{"user_id":136,"name":"Medieval Cucumber Sorcerer","steam_id":76561198972095766,"connected_time":2871000000000,"state":"active","ping":34},{"user_id":130,"name":"blonde by frank ocean","steam_id":76561198071907467,"connected_time":3135000000000,"state":"active","ping":58},{"user_id":148,"name":"braddles","steam_id":76561198153854876,"connected_time":2049000000000,"state":"active","ping":45},{"user_id":164,"name":"ljpaters","steam_id":76561198094354484,"connected_time":635000000000,"state":"active","ping":64},{"user_id":128,"name":"⚡WI-FI⚡ Ultrasnoop","steam_id":76561198360630520,"connected_time":3268000000000,"state":"active","ping":61},{"user_id":149,"name":"mankeey","steam_id":76561198179635443,"connected_time":2040000000000,"state":"active","ping":49},{"user_id":162,"name":"little raw meat boy","steam_id":76561199248254676,"connected_time":1082000000000,"state":"active","ping":153},{"user_id":105,"name":"Beangodhiann","steam_id":76561198189663681,"connected_time":4669000000000,"state":"active","ping":58},{"user_id":167,"name":"MAYHEM","steam_id":76561199323730865,"connected_time":219000000000,"state":"active","ping":33},{"user_id":113,"name":"meow :3","steam_id":76561198198491197,"connected_time":4368000000000,"state":"active","ping":59},{"user_id":161,"name":"Naturesshadow","steam_id":76561198011837590,"connected_time":1166000000000,"state":"active","ping":74},{"user_id":92,"name":"Dr Barry Mundy PhD","steam_id":76561198034512686,"connected_time":6027000000000,"state":"active","ping":42},{"user_id":165,"name":"Snuky","steam_id":76561198117902338,"connected_time":319000000000,"state":"active","ping":45},{"user_id":151,"name":"Muffin","steam_id":76561198075391119,"connected_time":1954000000000,"state":"active","ping":56},{"user_id":169,"name":"TF2oi","steam_id":76561199073820836,"connected_time":63000000000,"state":"active","ping":71},{"user_id":168,"name":"Sayapple","steam_id":76561198048809968,"connected_time":218000000000,"state":"active","ping":69},{"user_id":171,"name":"fun haver","steam_id":76561197996866578,"connected_time":38000000000,"state":"active","ping":55},{"user_id":158,"name":"KSCERHYU","steam_id":76561198341072593,"connected_time":1427000000000,"state":"active","ping":44},{"user_id":163,"name":"Pompadouraus","steam_id":76561198327530525,"connected_time":1000000000000,"state":"active","ping":75},{"user_id":160,"name":"Toki","steam_id":76561198818864521,"connected_time":1247000000000,"state":"active","ping":51}]},{"server_id":123,"name":"Uncletopia | Sydney | 2 | All Maps","name_short":"syd-2","host":"syd-1.au.uncletopia.com","port":27025,"enabled":true,"region":"au","cc":"au","latitude":-33.865143,"longitude":151.2099,"reserved":0,"last_update":"0001-01-01T00:00:00Z","name_a2s":"Uncletopia | Sydney | 2 | All Maps","protocol":17,"map":"koth_lakeside_final","folder":"tf","game":"Team Fortress","app_id":440,"player_count":0,"max_players":24,"Bots":0,"server_type":"Dedicated","server_os":"Linux","password":true,"vac":true,"version":"7961495","steam_id":85568392924470002,"keywords":["cp","nocrits","nodmgspread","uncletopia"],"game_id":440,"stv_port":27026,"stv_name":"Uncletopia | Sydney | 2 | All Maps | STV","players":null},{"server_id":395,"name":"Uncletopia | Sydney | 3 | All Maps","name_short":"syd-3","host":"syd-1.au.uncletopia.com","port":27035,"enabled":true,"region":"au","cc":"au","latitude":-33.865143,"longitude":151.2099,"reserved":0,"last_update":"0001-01-01T00:00:00Z","name_a2s":"Uncletopia | Sydney | 3 | All Maps","protocol":17,"map":"pl_frontier_final","folder":"tf","game":"Team Fortress","app_id":440,"player_count":0,"max_players":24,"Bots":0,"server_type":"Dedicated","server_os":"Linux","password":true,"vac":true,"version":"7961495","steam_id":85568392925194467,"keywords":["nocrits","nodmgspread","payload","uncletopia"],"game_id":440,"stv_port":27036,"stv_name":"Uncletopia | Sydney | 3 | All Maps | STV","players":null},{"server_id":396,"name":"Uncletopia | Sydney | 4 | All Maps","name_short":"syd-4","host":"syd-1.au.uncletopia.com","port":27045,"enabled":true,"region":"au","cc":"au","latitude":-33.865143,"longitude":151.2099,"reserved":0,"last_update":"0001-01-01T00:00:00Z","name_a2s":"Uncletopia | Sydney | 4 | All Maps","protocol":17,"map":"cp_process_final","folder":"tf","game":"Team Fortress","app_id":440,"player_count":0,"max_players":24,"Bots":0,"server_type":"Dedicated","server_os":"Linux","password":true,"vac":true,"version":"7961495","steam_id":85568392925397958,"keywords":["cp","nocrits","nodmgspread","uncletopia"],"game_id":440,"stv_port":27046,"stv_name":"Uncletopia | Sydney | 4 | All Maps | STV","players":null},{"server_id":58,"name":"Uncletopia | Sydney | 5 | Stopwatch","name_short":"syd-5","host":"syd-1.au.uncletopia.com","port":27055,"enabled":true,"region":"au","cc":"au","latitude":-33.865143,"longitude":151.2099,"reserved":0,"last_update":"0001-01-01T00:00:00Z","name_a2s":"Uncletopia | Sydney | 5 | Stopwatch","protocol":17,"map":"pl_frontier_final","folder":"tf","game":"Team Fortress","app_id":440,"player_count":0,"max_players":24,"Bots":0,"server_type":"Dedicated","server_os":"Linux","password":true,"vac":true,"version":"7961495","steam_id":85568392925397959,"keywords":["nocrits","nodmgspread","payload","uncletopia"],"game_id":440,"stv_port":27056,"stv_name":"Uncletopia | Sydney | 5 | Stopwatch | STV","players":null},{"server_id":59,"name":"Uncletopia | Sydney | 6 | Community","name_short":"syd-6","host":"syd-1.au.uncletopia.com","port":27065,"enabled":true,"region":"au","cc":"au","latitude":-33.865143,"longitude":151.2099,"reserved":0,"last_update":"0001-01-01T00:00:00Z","name_a2s":"Uncletopia | Sydney | 6 | Community","protocol":17,"map":"workshop/pl_eruption_b9a.ugc2807898013","folder":"tf","game":"Team Fortress","app_id":440,"player_count":0,"max_players":24,"Bots":0,"server_type":"Dedicated","server_os":"Linux","password":true,"vac":true,"version":"7961495","steam_id":85568392925397960,"keywords":["nocrits","nodmgspread","payload","uncletopia"],"game_id":440,"stv_port":27066,"stv_name":"Uncletopia | Sydney | 6 | Community | STV","players":null},{"server_id":49,"name":"Uncletopia | Warsaw | 1 | One Thousand Uncles","name_short":"waw-1","host":"waw-1.pl.uncletopia.com","port":27015,"enabled":true,"region":"eu","cc":"pl","latitude":52.2297,"longitude":21.017532,"reserved":0,"last_update":"0001-01-01T00:00:00Z","name_a2s":"Uncletopia | Warsaw | 1 | One Thousand Uncles","protocol":17,"map":"pl_badwater","folder":"tf","game":"Team Fortress","app_id":440,"player_count":0,"max_players":32,"Bots":0,"server_type":"Dedicated","server_os":"Linux","password":true,"vac":true,"version":"7961495","steam_id":85568392925397850,"keywords":["alltalk","danepve","increased_maxplayers","nocrits","norespawntime","payload","uncletopia"],"game_id":440,"stv_port":0,"stv_name":"","players":null},{"server_id":50,"name":"Uncletopia | Warsaw | 2 | One Thousand Uncles","name_short":"waw-2","host":"waw-1.pl.uncletopia.com","port":27025,"enabled":true,"region":"eu","cc":"pl","latitude":52.2297,"longitude":21.017532,"reserved":0,"last_update":"0001-01-01T00:00:00Z","name_a2s":"Uncletopia | Warsaw | 2 | One Thousand Uncles","protocol":17,"map":"pl_barnblitz","folder":"tf","game":"Team Fortress","app_id":440,"player_count":0,"max_players":32,"Bots":0,"server_type":"Dedicated","server_os":"Linux","password":true,"vac":true,"version":"7961495","steam_id":85568392925397851,"keywords":["alltalk","danepve","increased_maxplayers","nocrits","norespawntime","payload","uncletopia"],"game_id":440,"stv_port":0,"stv_name":"","players":null},{"server_id":51,"name":"Uncletopia | Warsaw | 3 | All Maps","name_short":"waw-3","host":"waw-1.pl.uncletopia.com","port":27035,"enabled":true,"region":"eu","cc":"pl","latitude":52.2297,"longitude":21.017532,"reserved":0,"last_update":"0001-01-01T00:00:00Z","name_a2s":"Uncletopia | Warsaw | 3 | All Maps","protocol":17,"map":"koth_cascade","folder":"tf","game":"Team Fortress","app_id":440,"player_count":0,"max_players":24,"Bots":0,"server_type":"Dedicated","server_os":"Linux","password":true,"vac":true,"version":"7961495","steam_id":85568392925397852,"keywords":["cp","nocrits","nodmgspread","uncletopia"],"game_id":440,"stv_port":27036,"stv_name":"Uncletopia | Warsaw | 3 | All Maps | STV","players":null},{"server_id":52,"name":"Uncletopia | Warsaw | 4 | All Maps","name_short":"waw-4","host":"waw-1.pl.uncletopia.com","port":27045,"enabled":true,"region":"eu","cc":"pl","latitude":52.2297,"longitude":21.017532,"reserved":0,"last_update":"0001-01-01T00:00:00Z","name_a2s":"Uncletopia | Warsaw | 4 | All Maps","protocol":17,"map":"pl_pier","folder":"tf","game":"Team Fortress","app_id":440,"player_count":0,"max_players":24,"Bots":0,"server_type":"Dedicated","server_os":"Linux","password":true,"vac":true,"version":"7961495","steam_id":85568392925397853,"keywords":["nocrits","nodmgspread","payload","uncletopia"],"game_id":440,"stv_port":27046,"stv_name":"Uncletopia | Warsaw | 4 | All Maps | STV","players":null},{"server_id":53,"name":"Uncletopia | Warsaw | 5 | Stopwatch","name_short":"waw-5","host":"waw-1.pl.uncletopia.com","port":27055,"enabled":true,"region":"eu","cc":"pl","latitude":52.2297,"longitude":21.017532,"reserved":0,"last_update":"0001-01-01T00:00:00Z","name_a2s":"Uncletopia | Warsaw | 5 | Stopwatch","protocol":17,"map":"koth_lakeside_final","folder":"tf","game":"Team Fortress","app_id":440,"player_count":0,"max_players":24,"Bots":0,"server_type":"Dedicated","server_os":"Linux","password":true,"vac":true,"version":"7961495","steam_id":85568392925397854,"keywords":["cp","nocrits","nodmgspread","uncletopia"],"game_id":440,"stv_port":27056,"stv_name":"Uncletopia | Warsaw | 5 | Stopwatch | STV","players":null},{"server_id":54,"name":"Uncletopia | Warsaw | 6 | Community","name_short":"waw-6","host":"waw-1.pl.uncletopia.com","port":27065,"enabled":true,"region":"eu","cc":"pl","latitude":52.2297,"longitude":21.017532,"reserved":0,"last_update":"0001-01-01T00:00:00Z","name_a2s":"Uncletopia | Warsaw | 6 | Community","protocol":17,"map":"workshop/cp_indulge.ugc528106646","folder":"tf","game":"Team Fortress","app_id":440,"player_count":0,"max_players":24,"Bots":0,"server_type":"Dedicated","server_os":"Linux","password":true,"vac":true,"version":"7961495","steam_id":85568392925397856,"keywords":["cp","nocrits","nodmgspread","uncletopia"],"game_id":440,"stv_port":27066,"stv_name":"Uncletopia | Warsaw | 6 | Community | STV","players":null}]}