{"status":true,"message":"","result":[{"server_id":9,"name":"Uncletopia | Atlanta | 1 | All Maps","name_short":"atl-1","host":"atl-1.us.uncletopia.com","port":27015,"enabled":true,"region":"us-east","cc":"us","latitude":33.753746,"longitude":-84.38633,"reserved":0,"last_update":"0001-01-01T00:00:00Z","name_a2s":"Uncletopia | Atlanta | 1 | All Maps","protocol":17,"map":"koth_cascade","folder":"tf","game":"Team Fortress","app_id":440,"player_count":0,"max_players":24,"Bots":0,"server_type":"Dedicated","server_os":"Linux","password":true,"vac":true,"version":"7882260","steam_id":85568392924469982,"keywords":["cp","nocrits","nodmgspread","uncletopia"],"game_id":440,"stv_port":27016,"stv_name":"Uncletopia | Atlanta | 1 | All Maps | STV","players":null},{"server_id":104,"name":"Uncletopia | Atlanta | 2 | All Maps","name_short":"atl-2","host":"atl-1.us.uncletopia.com","port":27025,"enabled":true,"region":"us-east","cc":"us","latitude":33.753746,"longitude":-84.38633,"reserved":0,"last_update":"0001-01-01T00:00:00Z","name_a2s":"Uncletopia | Atlanta | 2 | All Maps","protocol":17,"map":"cp_process_final","folder":"tf","game":"Team Fortress","app_id":440,"player_count":0,"max_players":24,"Bots":0,"server_type":"Dedicated","server_os":"Linux","password":true,"vac":true,"version":"7882260","steam_id":85568392924469983,"keywords":["cp","nocrits","nodmgspread","uncletopia"],"game_id":440,"stv_port":27026,"stv_name":"Uncletopia | Atlanta | 2 | All Maps | STV","players":null},{"server_id":400,"name":"Uncletopia | Atlanta | 3 | Community","name_short":"atl-3","host":"atl-1.us.uncletopia.com","port":27035,"enabled":true,"region":"us-east","cc":"us","latitude":33.753746,"longitude":-84.38633,"reserved":0,"last_update":"0001-01-01T00:00:00Z","name_a2s":"Uncletopia | Atlanta | 3 | Community","protocol":17,"map":"workshop/koth_synthetic_rc6a.ugc1549817316","folder":"tf","game":"Team Fortress","app_id":440,"player_count":0,"max_players":24,"Bots":0,"server_type":"Dedicated","server_os":"Linux","password":true,"vac":true,"version":"7882260","steam_id":85568392924515187,"keywords":["cp","nocrits","nodmgspread","uncletopia"],"game_id":440,"stv_port":27036,"stv_name":"Uncletopia | Atlanta | 3 | Community | STV","players":null},{"server_id":401,"name":"Uncletopia | Atlanta | 4 | No Payload","name_short":"atl-4","host":"atl-1.us.uncletopia.com","port":27045,"enabled":true,"region":"us-east","cc":"us","latitude":33.753746,"longitude":-84.38633,"reserved":0,"last_update":"0001-01-01T00:00:00Z","name_a2s":"","protocol":0,"map":"","folder":"","game":"","app_id":0,"player_count":0,"max_players":0,"Bots":0,"server_type":"","server_os":"","password":false,"vac":false,"version":"","steam_id":0,"keywords":null,"game_id":0,"stv_port":0,"stv_name":"","players":null},{"server_id":2,"name":"Uncletopia | Chicago | 1 | All Maps","name_short":"chi-1","host":"chi-1.us.uncletopia.com","port":27015,"enabled":true,"region":"us-central","cc":"us","latitude":41.881832,"longitude":-87.62318,"reserved":0,"last_update":"0001-01-01T00:00:00Z","name_a2s":"Uncletopia | Chicago | 1 | All Maps","protocol":17,"map":"pl_frontier_final","folder":"tf","game":"Team Fortress","app_id":440,"player_count":23,"max_players":24,"Bots":0,"server_type":"Dedicated","server_os":"Linux","password":true,"vac":true,"version":"7882260","steam_id":85568392924469984,"keywords":["nocrits","nodmgspread","payload","uncletopia"],"game_id":440,"stv_port":27016,"stv_name":"Uncletopia | Chicago | 1 | All Maps | STV","players":[{"user_id":752,"name":"c9","steam_id":76561198136642793,"connected_time":15318000000000,"state":"active","ping":62},{"user_id":885,"name":"High Medic","steam_id":76561198082405984,"connected_time":1526000000000,"state":"active","ping":63},{"user_id":889,"name":"Kedata","steam_id":76561198047750050,"connected_time":1209000000000,"state":"active","ping":29},{"user_id":874,"name":"LerN","steam_id":76561198083463877,"connected_time":2615000000000,"state":"active","ping":60},{"user_id":855,"name":"LVL","steam_id":76561198334403617,"connected_time":5055000000000,"state":"active","ping":52},{"user_id":833,"name":"Pongallow","steam_id":76561198146876078,"connected_time":6707000000000,"state":"active","ping":45},{"user_id":888,"name":"soupy","steam_id":76561197974283797,"connected_time":1250000000000,"state":"active","ping":38},{"user_id":901,"name":"kamussy","steam_id":76561198106706341,"connected_time":11000000000,"state":"active","ping":104},{"user_id":886,"name":"narcotics","steam_id":76561198152560062,"connected_time":1380000000000,"state":"active","ping":56},{"user_id":859,"name":"eveie0mlets","steam_id":76561198259172011,"connected_time":4965000000000,"state":"active","ping":83},{"user_id":875,"name":"playguy carter","steam_id":76561198080679337,"connected_time":2540000000000,"state":"active","ping":49},{"user_id":882,"name":"SpecialForce19","steam_id":76561198120974644,"connected_time":2160000000000,"state":"active","ping":77},{"user_id":877,"name":"Salda√±a","steam_id":76561198214473001,"connected_time":2474000000000,"state":"active","ping":78},{"user_id":754,"name":"SLICK PAPI #IMDADDYASF","steam_id":76561198144766439,"connected_time":15289000000000,"state":"active","ping":44},{"user_id":869,"name":"Mr. Owmew","steam_id":76561199032490400,"connected_time":3729000000000,"state":"spawning","ping":59},{"user_id":748,"name":"Melody","steam_id":76561198407789232,"connected_time":15407000000000,"state":"active","ping":125},{"user_id":870,"name":"Sparky","steam_id":76561198086845464,"connected_time":3684000000000,"state":"active","ping":55},{"user_id":849,"name":"JSlayz","steam_id":76561198853768655,"connected_time":5831000000000,"state":"active","ping":33},{"user_id":899,"name":"Alecto","steam_id":76561198042476864,"connected_time":34000000000,"state":"active","ping":48},{"user_id":900,"name":"0","steam_id":76561198046065237,"connected_time":31000000000,"state":"active","ping":74},{"user_id":891,"name":"salvation army buttless chaps","steam_id":76561198014326643,"connected_time":1187000000000,"state":"active","ping":71},{"user_id":871,"name":"Fairy WeedMother","steam_id":76561198831382303,"connected_time":3066000000000,"state":"active","ping":65},{"user_id":898,"name":"Joey Gonzales","steam_id":76561198215557329,"connected_time":481000000000,"state":"active","ping":167}]},{"server_id":106,"name":"Uncletopia | Chicago | 2 | All Maps","name_short":"chi-2","host":"chi-1.us.uncletopia.com","port":27025,"enabled":true,"region":"us-central","cc":"us","latitude":41.881832,"longitude":-87.62318,"reserved":0,"last_update":"0001-01-01T00:00:00Z","name_a2s":"Uncletopia | Chicago | 2 | All Maps","protocol":17,"map":"pl_badwater","folder":"tf","game":"Team Fortress","app_id":440,"player_count":23,"max_players":24,"Bots":0,"server_type":"Dedicated","server_os":"Linux","password":true,"vac":true,"version":"7882260","steam_id":85568392924469985,"keywords":["nocrits","nodmgspread","payload","uncletopia"],"game_id":440,"stv_port":27026,"stv_name":"Uncletopia | Chicago | 2 | All Maps | STV","players":[{"user_id":1030,"name":"Professionally Braindead „ÉÑ","steam_id":76561198276714220,"connected_time":2081000000000,"state":"active","ping":61},{"user_id":1031,"name":"the tf2 player of all time","steam_id":76561198881665250,"connected_time":2069000000000,"state":"active","ping":94},{"user_id":1040,"name":"Quietsharp","steam_id":76561198277968438,"connected_time":1254000000000,"state":"active","ping":105},{"user_id":1032,"name":"stock","steam_id":76561198849461209,"connected_time":2069000000000,"state":"active","ping":68},{"user_id":1042,"name":"Purplest","steam_id":76561198093523277,"connected_time":1129000000000,"state":"active","ping":58},{"user_id":1043,"name":"puppy :3","steam_id":76561198011196264,"connected_time":1088000000000,"state":"active","ping":45},{"user_id":1056,"name":"Gentoo Linux Gaming","steam_id":76561197999657118,"connected_time":178000000000,"state":"active","ping":81},{"user_id":1024,"name":"Jesse Bear","steam_id":76561198217075305,"connected_time":2563000000000,"state":"active","ping":95},{"user_id":1044,"name":"kree","steam_id":76561197979960008,"connected_time":1039000000000,"state":"active","ping":60},{"user_id":1053,"name":"Squilliam Fancyson","steam_id":76561198084195360,"connected_time":320000000000,"state":"active","ping":71},{"user_id":1047,"name":"Lol funny monke","steam_id":76561198017200146,"connected_time":848000000000,"state":"active","ping":71},{"user_id":1055,"name":"Detective Shad","steam_id":76561198282873682,"connected_time":224000000000,"state":"active","ping":192},{"user_id":1045,"name":"KrylonHeretic","steam_id":76561198139811459,"connected_time":1003000000000,"state":"active","ping":115},{"user_id":1051,"name":"CheeseCake488","steam_id":76561199407617942,"connected_time":416000000000,"state":"active","ping":153},{"user_id":1057,"name":"Mr.Phil","steam_id":76561198042801033,"connected_time":137000000000,"state":"active","ping":60},{"user_id":1046,"name":"Scorpianswag","steam_id":76561198260651036,"connected_time":981000000000,"state":"active","ping":91},{"user_id":1036,"name":"Cy4nideCutie","steam_id":76561198126686695,"connected_time":1872000000000,"state":"active","ping":72},{"user_id":997,"name":"[TKC] Robert","steam_id":76561198138796942,"connected_time":5058000000000,"state":"active","ping":46},{"user_id":1007,"name":"Ja","steam_id":76561198396340174,"connected_time":3357000000000,"state":"active","ping":70},{"user_id":1037,"name":"xd Clover","steam_id":76561198038905361,"connected_time":1823000000000,"state":"active","ping":55},{"user_id":1049,"name":"basmati jarate","steam_id":76561198319442494,"connected_time":723000000000,"state":"active","ping":112},{"user_id":1021,"name":"shittystripper","steam_id":76561198101012071,"connected_time":2816000000000,"state":"active","ping":105},{"user_id":1052,"name":"James","steam_id":76561198098325427,"connected_time":373000000000,"state":"active","ping":90}]},{"server_id":402,"name":"Uncletopia | Chicago | 3 | All Maps","name_short":"chi-3","host":"chi-1.us.uncletopia.com","port":27035,"enabled":true,"region":"us-central","cc":"us","latitude":41.881832,"longitude":-87.62318,"reserved":0,"last_update":"0001-01-01T00:00:00Z","name_a2s":"Uncletopia | Chicago | 3 | All Maps","protocol":17,"map":"cp_mountainlab","folder":"tf","game":"Team Fortress","app_id":440,"player_count":23,"max_players":24,"Bots":0,"server_type":"Dedicated","server_os":"Linux","password":true,"vac":true,"version":"7882260","steam_id":85568392924515191,"keywords":["cp","nocrits","nodmgspread","uncletopia"],"game_id":440,"stv_port":27036,"stv_name":"Uncletopia | Chicago | 3 | All Maps | STV","players":[{"user_id":1172,"name":"ScrockCat","steam_id":76561198012882208,"connected_time":2038000000000,"state":"active","ping":90},{"user_id":1198,"name":"YourSchoolsNext;]","steam_id":76561198078635684,"connected_time":277000000000,"state":"active","ping":109},{"user_id":1191,"name":"Retro Phoenix","steam_id":76561198077176271,"connected_time":750000000000,"state":"active","ping":60},{"user_id":1139,"name":"Airik","steam_id":76561198208249865,"connected_time":5050000000000,"state":"active","ping":84},{"user_id":1199,"name":"ShadowWasUhOh","steam_id":76561198400361935,"connected_time":121000000000,"state":"active","ping":84},{"user_id":1175,"name":"justapikmin","steam_id":76561199023650282,"connected_time":1742000000000,"state":"active","ping":83},{"user_id":1062,"name":"VidzCMC","steam_id":76561198848142973,"connected_time":11011000000000,"state":"active","ping":52},{"user_id":1163,"name":"Jin","steam_id":76561198119873148,"connected_time":3034000000000,"state":"active","ping":104},{"user_id":1185,"name":"creamer","steam_id":76561198144095056,"connected_time":1375000000000,"state":"active","ping":52},{"user_id":1131,"name":"June","steam_id":76561198211858204,"connected_time":5195000000000,"state":"active","ping":120},{"user_id":1140,"name":"frank","steam_id":76561198137777483,"connected_time":5000000000000,"state":"active","ping":65},{"user_id":1186,"name":"Dr. Chad Feelgood","steam_id":76561198454077219,"connected_time":1104000000000,"state":"active","ping":55},{"user_id":1177,"name":"Gay Cake","steam_id":76561198004388831,"connected_time":1505000000000,"state":"active","ping":63},{"user_id":1189,"name":"James","steam_id":76561198077251918,"connected_time":1048000000000,"state":"active","ping":91},{"user_id":1190,"name":"Mr.noob","steam_id":76561199200442395,"connected_time":1048000000000,"state":"active","ping":169},{"user_id":1181,"name":"|AG| Level","steam_id":76561198063633592,"connected_time":1467000000000,"state":"active","ping":101},{"user_id":1065,"name":"Grand","steam_id":76561198290143399,"connected_time":10894000000000,"state":"active","ping":61},{"user_id":1192,"name":"YOUNG UPGRADE","steam_id":76561198035474725,"connected_time":698000000000,"state":"active","ping":73},{"user_id":1196,"name":"PageBoiSkull","steam_id":76561198237353578,"connected_time":557000000000,"state":"active","ping":110},{"user_id":1187,"name":"Peppsy","steam_id":76561198074018528,"connected_time":1083000000000,"state":"active","ping":161},{"user_id":1194,"name":"Loxic","steam_id":76561198043617388,"connected_time":665000000000,"state":"active","ping":48},{"user_id":1066,"name":"Truffles","steam_id":76561198095868800,"connected_time":10855000000000,"state":"active","ping":84},{"user_id":1195,"name":"Cookie Dough | tf2pugs.com","steam_id":76561198882007496,"connected_time":610000000000,"state":"active","ping":51}]},{"server_id":403,"name":"Uncletopia | Chicago | 4 | All Maps","name_short":"chi-4","host":"chi-1.us.uncletopia.com","port":27045,"enabled":true,"region":"us-central","cc":"us","latitude":41.881832,"longitude":-87.62318,"reserved":0,"last_update":"0001-01-01T00:00:00Z","name_a2s":"Uncletopia | Chicago | 4 | All Maps","protocol":17,"map":"pl_snowycoast","folder":"tf","game":"Team Fortress","app_id":440,"player_count":0,"max_players":24,"Bots":0,"server_type":"Dedicated","server_os":"Linux","password":true,"vac":true,"version":"7882260","steam_id":85568392924515193,"keywords":["nocrits","nodmgspread","payload","uncletopia"],"game_id":440,"stv_port":27046,"stv_name":"Uncletopia | Chicago | 4 | All Maps | STV","players":null},{"server_id":36,"name":"Uncletopia | Chicago | 5 | All Maps","name_short":"chi-5","host":"chi-2.us.uncletopia.com","port":27015,"enabled":true,"region":"us-central","cc":"us","latitude":41.881832,"longitude":-87.62318,"reserved":0,"last_update":"0001-01-01T00:00:00Z","name_a2s":"Uncletopia | Chicago | 5 | All Maps","protocol":17,"map":"cp_mountainlab","folder":"tf","game":"Team Fortress","app_id":440,"player_count":0,"max_players":24,"Bots":0,"server_type":"Dedicated","server_os":"Linux","password":true,"vac":true,"version":"7882260","steam_id":85568392924866362,"keywords":["cp","nocrits","nodmgspread","uncletopia"],"game_id":440,"stv_port":27016,"stv_name":"Uncletopia | Chicago | 5 | All Maps | STV","players":null},{"server_id":37,"name":"Uncletopia | Chicago | 6 | All Maps","name_short":"chi-6","host":"chi-2.us.uncletopia.com","port":27025,"enabled":true,"region":"us-central","cc":"us","latitude":41.881832,"longitude":-87.62318,"reserved":0,"last_update":"0001-01-01T00:00:00Z","name_a2s":"Uncletopia | Chicago | 6 | All Maps","protocol":17,"map":"pl_snowycoast","folder":"tf","game":"Team Fortress","app_id":440,"player_count":0,"max_players":24,"Bots":0,"server_type":"Dedicated","server_os":"Linux","password":true,"vac":true,"version":"7882260","steam_id":85568392924866363,"keywords":["nocrits","nodmgspread","payload","uncletopia"],"game_id":440,"stv_port":27026,"stv_name":"Uncletopia | Chicago | 6 | All Maps | STV","players":null},{"server_id":38,"name":"Uncletopia | Chicago | 7 | Stopwatch Beta","name_short":"chi-7","host":"chi-2.us.uncletopia.com","port":27035,"enabled":true,"region":"us-central","cc":"us","latitude":41.881832,"longitude":-87.62318,"reserved":0,"last_update":"0001-01-01T00:00:00Z","name_a2s":"Uncletopia | Chicago | 7 | Stopwatch Beta","protocol":17,"map":"pl_swiftwater_final1","folder":"tf","game":"Team Fortress","app_id":440,"player_count":0,"max_players":24,"Bots":0,"server_type":"Dedicated","server_os":"Linux","password":true,"vac":true,"version":"7882260","steam_id":85568392924866364,"keywords":["nocrits","nodmgspread","payload","uncletopia"],"game_id":440,"stv_port":27036,"stv_name":"Uncletopia | Chicago | 7 | Stopwatch Beta | STV","players":null},{"server_id":39,"name":"Uncletopia | Chicago | 8 | Community","name_short":"chi-8","host":"chi-2.us.uncletopia.com","port":27045,"enabled":true,"region":"us-central","cc":"us","latitude":41.881832,"longitude":-87.62318,"reserved":0,"last_update":"0001-01-01T00:00:00Z","name_a2s":"Uncletopia | Chicago | 8 | Community","protocol":17,"map":"workshop/pl_divulgence_b4b.ugc2884808746","folder":"tf","game":"Team Fortress","app_id":440,"player_count":0,"max_players":24,"Bots":0,"server_type":"Dedicated","server_os":"Linux","password":true,"vac":true,"version":"7882260","steam_id":85568392924866365,"keywords":["nocrits","nodmgspread","payload","uncletopia"],"game_id":440,"stv_port":27046,"stv_name":"Uncletopia | Chicago | 8 | Community | STV","players":null},{"server_id":8,"name":"Uncletopia | Dallas | 1 | All Maps","name_short":"dal-1","host":"dal-1.us.uncletopia.com","port":27015,"enabled":true,"region":"us-central","cc":"us","latitude":32.779167,"longitude":-96.80889,"reserved":0,"last_update":"0001-01-01T00:00:00Z","name_a2s":"Uncletopia | Dallas | 1 | All Maps","protocol":17,"map":"koth_highpass","folder":"tf","game":"Team Fortress","app_id":440,"player_count":0,"max_players":24,"Bots":0,"server_type":"Dedicated","server_os":"Linux","password":true,"vac":true,"version":"7882260","steam_id":85568392924469986,"keywords":["cp","nocrits","nodmgspread","uncletopia"],"game_id":440,"stv_port":27016,"stv_name":"Uncletopia | Dallas | 1 | All Maps | STV","players":null},{"server_id":108,"name":"Uncletopia | Dallas | 2 | All Maps","name_short":"dal-2","host":"dal-1.us.uncletopia.com","port":27025,"enabled":true,"region":"us-central","cc":"us","latitude":32.779167,"longitude":-96.80889,"reserved":0,"last_update":"0001-01-01T00:00:00Z","name_a2s":"Uncletopia | Dallas | 2 | All Maps","protocol":17,"map":"pl_upward","folder":"tf","game":"Team Fortress","app_id":440,"player_count":23,"max_players":24,"Bots":0,"server_type":"Dedicated","server_os":"Linux","password":true,"vac":true,"version":"7882260","steam_id":85568392924469988,"keywords":["nocrits","nodmgspread","payload","uncletopia"],"game_id":440,"stv_port":27026,"stv_name":"Uncletopia | Dallas | 2 | All Maps | STV","players":[{"user_id":557,"name":"PirateJet","steam_id":76561198050858744,"connected_time":1822000000000,"state":"active","ping":81},{"user_id":558,"name":"seasoul","steam_id":76561198883302327,"connected_time":1678000000000,"state":"active","ping":94},{"user_id":573,"name":"sky walker","steam_id":76561198937717599,"connected_time":111000000000,"state":"active","ping":44},{"user_id":541,"name":"Rusted Cake","steam_id":76561198209755931,"connected_time":3089000000000,"state":"active","ping":87},{"user_id":549,"name":"Iron","steam_id":76561198247918478,"connected_time":2344000000000,"state":"active","ping":70},{"user_id":572,"name":"dr. silly goose","steam_id":76561198143187033,"connected_time":123000000000,"state":"active","ping":85},{"user_id":570,"name":"seats","steam_id":76561197998756039,"connected_time":1111000000000,"state":"active","ping":74},{"user_id":561,"name":"AudaCD","steam_id":76561198202775853,"connected_time":1590000000000,"state":"active","ping":60},{"user_id":491,"name":"piebluedog","steam_id":76561198141362745,"connected_time":7817000000000,"state":"active","ping":63},{"user_id":574,"name":"Shinies","steam_id":76561198169459631,"connected_time":103000000000,"state":"active","ping":42},{"user_id":575,"name":"JonBoy","steam_id":76561198082052480,"connected_time":71000000000,"state":"active","ping":96},{"user_id":576,"name":"CheeseLikeSubstance","steam_id":76561197977170646,"connected_time":70000000000,"state":"active","ping":61},{"user_id":543,"name":"‚ô° ironterrortrain ‚ô°","steam_id":76561198046460418,"connected_time":3034000000000,"state":"active","ping":95},{"user_id":544,"name":"Average Tunnel Vision Switcher","steam_id":76561198318189010,"connected_time":3027000000000,"state":"active","ping":74},{"user_id":577,"name":"rat","steam_id":76561199207696533,"connected_time":53000000000,"state":"active","ping":122},{"user_id":579,"name":"Quillz","steam_id":76561197996567754,"connected_time":19000000000,"state":"spawning","ping":74},{"user_id":571,"name":"Bork Bork","steam_id":76561198045081654,"connected_time":1006000000000,"state":"active","ping":91},{"user_id":580,"name":"BananaFana","steam_id":76561198008891875,"connected_time":14000000000,"state":"active","ping":150},{"user_id":565,"name":"chikin.sauce","steam_id":76561198042464635,"connected_time":1469000000000,"state":"active","ping":53},{"user_id":455,"name":"zpalmtree","steam_id":76561198134307620,"connected_time":11336000000000,"state":"active","ping":89},{"user_id":566,"name":"highschool drop-out","steam_id":76561198366299848,"connected_time":1431000000000,"state":"active","ping":61},{"user_id":536,"name":"Shamrock Shake Oct.10.2020 @8pm","steam_id":76561198833313201,"connected_time":3688000000000,"state":"active","ping":86},{"user_id":567,"name":"Icarus the legend","steam_id":76561199013250091,"connected_time":1406000000000,"state":"active","ping":47}]},{"server_id":5,"name":"Uncletopia | Frankfurt | 1 | All Maps","name_short":"frk-1","host":"frk-1.de.uncletopia.com","port":27015,"enabled":true,"region":"eu","cc":"de","latitude":50.110924,"longitude":8.682127,"reserved":0,"last_update":"0001-01-01T00:00:00Z","name_a2s":"Uncletopia | Frankfurt | 1 | All Maps","protocol":17,"map":"pl_frontier_final","folder":"tf","game":"Team Fortress","app_id":440,"player_count":1,"max_players":24,"Bots":0,"server_type":"Dedicated","server_os":"Linux","password":true,"vac":true,"version":"7882260","steam_id":85568392924469989,"keywords":["nocrits","nodmgspread","payload","uncletopia"],"game_id":440,"stv_port":27016,"stv_name":"Uncletopia | Frankfurt | 1 | All Maps | STV","players":[{"user_id":4,"name":"AxyzS | affenbr0t_6o4","steam_id":76561197981823456,"connected_time":122000000000,"state":"active","ping":55}]},{"server_id":110,"name":"Uncletopia | Frankfurt | 2 | All Maps","name_short":"frk-2","host":"frk-1.de.uncletopia.com","port":27025,"enabled":true,"region":"eu","cc":"de","latitude":50.110924,"longitude":8.682127,"reserved":0,"last_update":"0001-01-01T00:00:00Z","name_a2s":"Uncletopia | Frankfurt | 2 | All Maps","protocol":17,"map":"cp_mountainlab","folder":"tf","game":"Team Fortress","app_id":440,"player_count":0,"max_players":24,"Bots":0,"server_type":"Dedicated","server_os":"Linux","password":true,"vac":true,"version":"7882260","steam_id":85568392924469990,"keywords":["cp","nocrits","nodmgspread","uncletopia"],"game_id":440,"stv_port":27026,"stv_name":"Uncletopia | Frankfurt | 2 | All Maps | STV","players":null},{"server_id":308,"name":"Uncletopia | Frankfurt | 3 | All Maps","name_short":"frk-3","host":"frk-1.de.uncletopia.com","port":27035,"enabled":true,"region":"eu","cc":"de","latitude":50.110924,"longitude":8.682127,"reserved":0,"last_update":"0001-01-01T00:00:00Z","name_a2s":"Uncletopia | Frankfurt | 3 | All Maps","protocol":17,"map":"pl_snowycoast","folder":"tf","game":"Team Fortress","app_id":440,"player_count":0,"max_players":24,"Bots":0,"server_type":"Dedicated","server_os":"Linux","password":true,"vac":true,"version":"7882260","steam_id":85568392924504274,"keywords":["nocrits","nodmgspread","payload","uncletopia"],"game_id":440,"stv_port":27036,"stv_name":"Uncletopia | Frankfurt | 3 | All Maps | STV","players":null},{"server_id":309,"name":"Uncletopia | Frankfurt | 4 | All Maps","name_short":"frk-4","host":"frk-1.de.uncletopia.com","port":27045,"enabled":true,"region":"eu","cc":"de","latitude":50.110924,"longitude":8.682127,"reserved":0,"last_update":"0001-01-01T00:00:00Z","name_a2s":"Uncletopia | Frankfurt | 4 | All Maps","protocol":17,"map":"cp_mountainlab","folder":"tf","game":"Team Fortress","app_id":440,"player_count":0,"max_players":24,"Bots":0,"server_type":"Dedicated","server_os":"Linux","password":true,"vac":true,"version":"7882260","steam_id":85568392924504275,"keywords":["cp","nocrits","nodmgspread","uncletopia"],"game_id":440,"stv_port":27046,"stv_name":"Uncletopia | Frankfurt | 4 | All Maps | STV","players":null},{"server_id":310,"name":"Uncletopia | Frankfurt | 5 | All Maps","name_short":"frk-5","host":"frk-1.de.uncletopia.com","port":27055,"enabled":true,"region":"eu","cc":"de","latitude":50.110924,"longitude":8.682127,"reserved":0,"last_update":"0001-01-01T00:00:00Z","name_a2s":"Uncletopia | Frankfurt | 5 | All Maps","protocol":17,"map":"cp_mountainlab","folder":"tf","game":"Team Fortress","app_id":440,"player_count":0,"max_players":24,"Bots":0,"server_type":"Dedicated","server_os":"Linux","password":true,"vac":true,"version":"7882260","steam_id":85568392924504277,"keywords":["cp","nocrits","nodmgspread","uncletopia"],"game_id":440,"stv_port":27056,"stv_name":"Uncletopia | Frankfurt | 5 | All Maps | STV","players":null},{"server_id":311,"name":"Uncletopia | Frankfurt | 6 | All Maps","name_short":"frk-6","host":"frk-1.de.uncletopia.com","port":27065,"enabled":true,"region":"eu","cc":"de","latitude":50.110924,"longitude":8.682127,"reserved":0,"last_update":"0001-01-01T00:00:00Z","name_a2s":"Uncletopia | Frankfurt | 6 | All Maps","protocol":17,"map":"koth_cascade","folder":"tf","game":"Team Fortress","app_id":440,"player_count":0,"max_players":24,"Bots":0,"server_type":"Dedicated","server_os":"Linux","password":true,"vac":true,"version":"7882260","steam_id":85568392924504278,"keywords":["cp","nocrits","nodmgspread","uncletopia"],"game_id":440,"stv_port":27066,"stv_name":"Uncletopia | Frankfurt | 6 | All Maps | STV","players":null},{"server_id":23,"name":"Uncletopia | Frankfurt | 7 | Stopwatch Beta","name_short":"frk-7","host":"frk-1.de.uncletopia.com","port":27075,"enabled":true,"region":"eu","cc":"de","latitude":50.110924,"longitude":8.682127,"reserved":0,"last_update":"0001-01-01T00:00:00Z","name_a2s":"Uncletopia | Frankfurt | 7 | Stopwatch Beta","protocol":17,"map":"cp_dustbowl","folder":"tf","game":"Team Fortress","app_id":440,"player_count":0,"max_players":24,"Bots":0,"server_type":"Dedicated","server_os":"Linux","password":true,"vac":true,"version":"7882260","steam_id":85568392924742827,"keywords":["cp","nocrits","nodmgspread","uncletopia"],"game_id":440,"stv_port":27076,"stv_name":"Uncletopia | Frankfurt | 7 | Stopwatch Beta | STV","players":null},{"server_id":24,"name":"Uncletopia | Frankfurt | 8 | Community","name_short":"frk-8","host":"frk-1.de.uncletopia.com","port":27085,"enabled":true,"region":"eu","cc":"de","latitude":50.110924,"longitude":8.682127,"reserved":0,"last_update":"0001-01-01T00:00:00Z","name_a2s":"Uncletopia | Frankfurt | 8 | Community","protocol":17,"map":"koth_cascade","folder":"tf","game":"Team Fortress","app_id":440,"player_count":0,"max_players":24,"Bots":0,"server_type":"Dedicated","server_os":"Linux","password":true,"vac":true,"version":"7882260","steam_id":85568392924742828,"keywords":["cp","nocrits","nodmgspread","uncletopia"],"game_id":440,"stv_port":27086,"stv_name":"Uncletopia | Frankfurt | 8 | Community | STV","players":null},{"server_id":202,"name":"Uncletopia | Hong Kong | 1 | All Maps","name_short":"hgk-1","host":"hgk-1.hk.uncletopia.com","port":27015,"enabled":true,"region":"asia","cc":"hk","latitude":22.302711,"longitude":114.177216,"reserved":0,"last_update":"0001-01-01T00:00:00Z","name_a2s":"Uncletopia | Hong Kong | 1 | All Maps","protocol":17,"map":"pl_snowycoast","folder":"tf","game":"Team Fortress","app_id":440,"player_count":24,"max_players":24,"Bots":0,"server_type":"Dedicated","server_os":"Linux","password":true,"vac":true,"version":"7882260","steam_id":85568392924494504,"keywords":["nocrits","nodmgspread","payload","uncletopia"],"game_id":440,"stv_port":27016,"stv_name":"Uncletopia | Hong Kong | 1 | All Maps | STV","players":[{"user_id":245,"name":"im_0ff","steam_id":76561198339346695,"connected_time":3044000000000,"state":"active","ping":123},{"user_id":254,"name":"Mystery cheese üßÄ","steam_id":76561198304002409,"connected_time":2162000000000,"state":"active","ping":86},{"user_id":261,"name":"Â∏ï","steam_id":76561198439343999,"connected_time":1877000000000,"state":"active","ping":102},{"user_id":248,"name":"TomProPlayer","steam_id":76561199223292521,"connected_time":2713000000000,"state":"active","ping":76},{"user_id":265,"name":"Lelouch","steam_id":76561198828840546,"connected_time":932000000000,"state":"active","ping":72},{"user_id":264,"name":"H·∫±ng Ra ƒë∆°","steam_id":76561199373637717,"connected_time":1170000000000,"state":"active","ping":64},{"user_id":158,"name":"bodacious bogey","steam_id":76561198055553140,"connected_time":11867000000000,"state":"active","ping":76},{"user_id":262,"name":"Telekhine","steam_id":76561198387120618,"connected_time":1369000000000,"state":"active","ping":54},{"user_id":257,"name":"Kyo","steam_id":76561198088550274,"connected_time":2138000000000,"state":"active","ping":44},{"user_id":259,"name":"redheart","steam_id":76561198878176849,"connected_time":1984000000000,"state":"active","ping":90},{"user_id":239,"name":"UltraFat","steam_id":76561198253918132,"connected_time":4100000000000,"state":"active","ping":87},{"user_id":174,"name":"Stupid B","steam_id":76561198131423270,"connected_time":10020000000000,"state":"active","ping":120},{"user_id":214,"name":"Michael Scott","steam_id":76561198023082794,"connected_time":6357000000000,"state":"active","ping":57},{"user_id":256,"name":"Drutzhfer","steam_id":76561198299948446,"connected_time":2160000000000,"state":"active","ping":100},{"user_id":258,"name":"vintage","steam_id":76561198230213828,"connected_time":2136000000000,"state":"active","ping":124},{"user_id":250,"name":"MeetTeMedic99","steam_id":76561199208706868,"connected_time":2515000000000,"state":"active","ping":147},{"user_id":223,"name":"screaming sniper","steam_id":76561199085568674,"connected_time":5632000000000,"state":"active","ping":77},{"user_id":253,"name":"El Blanco","steam_id":76561198100044991,"connected_time":2176000000000,"state":"active","ping":142},{"user_id":236,"name":"ksvk","steam_id":76561198152588681,"connected_time":4201000000000,"state":"active","ping":85},{"user_id":199,"name":"‡πã","steam_id":76561198413116920,"connected_time":7760000000000,"state":"active","ping":75},{"user_id":268,"name":"mutwo","steam_id":76561198077043500,"connected_time":466000000000,"state":"active","ping":75},{"user_id":266,"name":"DoesColder","steam_id":76561198959978678,"connected_time":724000000000,"state":"active","ping":87},{"user_id":244,"name":"Milf (The fan O'Milk)","steam_id":76561198213031155,"connected_time":3057000000000,"state":"active","ping":103},{"user_id":208,"name":"silverhouse7","steam_id":76561198349634906,"connected_time":7703000000000,"state":"active","ping":90}]},{"server_id":1,"name":"Uncletopia | Los Angeles | 1 | All Maps","name_short":"lax-1","host":"lax-1.us.uncletopia.com","port":27015,"enabled":true,"region":"us-west","cc":"us","latitude":33.94279,"longitude":-118.41004,"reserved":0,"last_update":"0001-01-01T00:00:00Z","name_a2s":"Uncletopia | Los Angeles | 1 | All Maps","protocol":17,"map":"cp_mountainlab","folder":"tf","game":"Team Fortress","app_id":440,"player_count":0,"max_players":24,"Bots":0,"server_type":"Dedicated","server_os":"Linux","password":true,"vac":true,"version":"7882260","steam_id":85568392924469991,"keywords":["cp","nocrits","nodmgspread","uncletopia"],"game_id":440,"stv_port":27016,"stv_name":"Uncletopia | Los Angeles | 1 | All Maps | STV","players":null},{"server_id":112,"name":"Uncletopia | Los Angeles | 2 | All Maps","name_short":"lax-2","host":"lax-1.us.uncletopia.com","port":27025,"enabled":true,"region":"us-west","cc":"us","latitude":33.94279,"longitude":-118.41004,"reserved":0,"last_update":"0001-01-01T00:00:00Z","name_a2s":"Uncletopia | Los Angeles | 2 | All Maps","protocol":17,"map":"pl_snowycoast","folder":"tf","game":"Team Fortress","app_id":440,"player_count":20,"max_players":24,"Bots":0,"server_type":"Dedicated","server_os":"Linux","password":true,"vac":true,"version":"7882260","steam_id":85568392924469992,"keywords":["nocrits","nodmgspread","payload","uncletopia"],"game_id":440,"stv_port":27026,"stv_name":"Uncletopia | Los Angeles | 2 | All Maps | STV","players":[{"user_id":412,"name":"Jomdac","steam_id":76561198150447896,"connected_time":4679000000000,"state":"spawning","ping":72},{"user_id":494,"name":"WhoWantsACat","steam_id":76561198137880454,"connected_time":661000000000,"state":"connecting","ping":80},{"user_id":499,"name":"murph","steam_id":76561197973805634,"connected_time":34000000000,"state":"connecting","ping":90},{"user_id":417,"name":"LX-24","steam_id":76561198016168993,"connected_time":4067000000000,"state":"connecting","ping":118},{"user_id":475,"name":"DRFEELGOOD","steam_id":76561198114603745,"connected_time":2326000000000,"state":"connecting","ping":56},{"user_id":419,"name":"eau:","steam_id":76561198110020262,"connected_time":3935000000000,"state":"connecting","ping":56},{"user_id":485,"name":"Tomoscones","steam_id":76561198813586588,"connected_time":872000000000,"state":"connecting","ping":70},{"user_id":486,"name":"dog (WhiskeyH)","steam_id":76561198045261136,"connected_time":796000000000,"state":"connecting","ping":94},{"user_id":487,"name":"unlucky","steam_id":76561199204822104,"connected_time":774000000000,"state":"connecting","ping":75},{"user_id":473,"name":"big fish","steam_id":76561198186479818,"connected_time":2429000000000,"state":"connecting","ping":64},{"user_id":478,"name":"SNŒªRTLE","steam_id":76561198321853655,"connected_time":2152000000000,"state":"connecting","ping":73},{"user_id":488,"name":"An Alien Mango","steam_id":76561198864823970,"connected_time":762000000000,"state":"connecting","ping":94},{"user_id":490,"name":"[Colorbomb]","steam_id":76561198006316527,"connected_time":732000000000,"state":"spawning","ping":61},{"user_id":491,"name":"Pretzel","steam_id":76561198092856398,"connected_time":715000000000,"state":"connecting","ping":95},{"user_id":492,"name":"a cat plushie","steam_id":76561198080046542,"connected_time":715000000000,"state":"connecting","ping":86},{"user_id":493,"name":"happypurple","steam_id":76561198114782270,"connected_time":707000000000,"state":"connecting","ping":67},{"user_id":497,"name":"Juuichi11","steam_id":76561198141955085,"connected_time":329000000000,"state":"connecting","ping":88},{"user_id":453,"name":"Assassin","steam_id":76561198321410235,"connected_time":3115000000000,"state":"connecting","ping":56},{"user_id":383,"name":"rimble","steam_id":76561198150137369,"connected_time":6625000000000,"state":"connecting","ping":75}]},{"server_id":324,"name":"Uncletopia | Los Angeles | 3 | All Maps","name_short":"lax-3","host":"lax-1.us.uncletopia.com","port":27035,"enabled":true,"region":"us-west","cc":"us","latitude":33.94279,"longitude":-118.41004,"reserved":0,"last_update":"0001-01-01T00:00:00Z","name_a2s":"Uncletopia | Los Angeles | 3 | All Maps","protocol":17,"map":"pl_pier","folder":"tf","game":"Team Fortress","app_id":440,"player_count":0,"max_players":24,"Bots":0,"server_type":"Dedicated","server_os":"Linux","password":true,"vac":true,"version":"7882260","steam_id":85568392924510198,"keywords":["nocrits","nodmgspread","payload","uncletopia"],"game_id":440,"stv_port":27036,"stv_name":"Uncletopia | Los Angeles | 3 | All Maps | STV","players":null},{"server_id":25,"name":"Uncletopia | Los Angeles | 4 | Stopwatch Beta","name_short":"lax-4","host":"lax-1.us.uncletopia.com","port":27045,"enabled":true,"region":"us-west","cc":"us","latitude":33.94279,"longitude":-118.41004,"reserved":0,"last_update":"0001-01-01T00:00:00Z","name_a2s":"Uncletopia | Los Angeles | 4 | Stopwatch Beta","protocol":17,"map":"workshop/pl_badwater_pro_v12.ugc2142942074","folder":"tf","game":"Team Fortress","app_id":440,"player_count":0,"max_players":24,"Bots":0,"server_type":"Dedicated","server_os":"Linux","password":true,"vac":true,"version":"7882260","steam_id":85568392924510199,"keywords":["nocrits","nodmgspread","payload","uncletopia"],"game_id":440,"stv_port":27046,"stv_name":"Uncletopia | Los Angeles | 4 | Stopwatch Beta | STV","players":null},{"server_id":11,"name":"Uncletopia | London | 1 | All Maps","name_short":"lon-1","host":"lon-1.uk.uncletopia.com","port":27015,"enabled":true,"region":"eu","cc":"gb","latitude":51.509865,"longitude":-0.118092,"reserved":0,"last_update":"0001-01-01T00:00:00Z","name_a2s":"Uncletopia | London | 1 | All Maps","protocol":17,"map":"pl_pier","folder":"tf","game":"Team Fortress","app_id":440,"player_count":24,"max_players":24,"Bots":0,"server_type":"Dedicated","server_os":"Linux","password":true,"vac":true,"version":"7882260","steam_id":85568392924367362,"keywords":["nocrits","nodmgspread","payload","uncletopia"],"game_id":440,"stv_port":27016,"stv_name":"Uncletopia | London | 1 | All Maps | STV","players":[{"user_id":4,"name":"band-aid copyright infringement","steam_id":76561199027095451,"connected_time":5448000000000,"state":"active","ping":88},{"user_id":5,"name":"Xenometan","steam_id":76561198208408392,"connected_time":4276000000000,"state":"active","ping":117},{"user_id":7,"name":"Kolanciasty ‚ô•","steam_id":76561198020042179,"connected_time":2777000000000,"state":"active","ping":90},{"user_id":30,"name":"Uncle Terry","steam_id":76561198396415736,"connected_time":851000000000,"state":"active","ping":51},{"user_id":48,"name":"Flint","steam_id":76561197995920776,"connected_time":165000000000,"state":"active","ping":47},{"user_id":10,"name":"Mika","steam_id":76561199183780280,"connected_time":1988000000000,"state":"active","ping":59},{"user_id":14,"name":"pootis sentry","steam_id":76561199225363633,"connected_time":1266000000000,"state":"active","ping":100},{"user_id":24,"name":"GEP Gun","steam_id":76561197981821003,"connected_time":1003000000000,"state":"active","ping":52},{"user_id":13,"name":"Rare bulldog owner","steam_id":76561199407941086,"connected_time":1378000000000,"state":"active","ping":74},{"user_id":45,"name":"Panzerkampfwagen","steam_id":76561198078156944,"connected_time":577000000000,"state":"active","ping":82},{"user_id":18,"name":"nemelex","steam_id":76561198958005865,"connected_time":1187000000000,"state":"active","ping":60},{"user_id":29,"name":"autistic luigi","steam_id":76561199218285040,"connected_time":866000000000,"state":"active","ping":83},{"user_id":20,"name":"Intruder","steam_id":76561198156128173,"connected_time":1140000000000,"state":"active","ping":71},{"user_id":46,"name":"Sus Fring","steam_id":76561198821542489,"connected_time":446000000000,"state":"active","ping":102},{"user_id":38,"name":"Mirandaws","steam_id":76561198930890710,"connected_time":773000000000,"state":"active","ping":75},{"user_id":32,"name":"Random","steam_id":76561199116602799,"connected_time":843000000000,"state":"active","ping":47},{"user_id":33,"name":"Internet Explorer","steam_id":76561198109246960,"connected_time":836000000000,"state":"active","ping":46},{"user_id":47,"name":"walnuth","steam_id":76561199087006560,"connected_time":382000000000,"state":"active","ping":73},{"user_id":37,"name":"dabuttsniffer","steam_id":76561198369227367,"connected_time":784000000000,"state":"active","ping":94},{"user_id":39,"name":"marvs","steam_id":76561198851777617,"connected_time":731000000000,"state":"active","ping":39},{"user_id":40,"name":"mkwii","steam_id":76561198062507768,"connected_time":730000000000,"state":"active","ping":60},{"user_id":41,"name":"Saint","steam_id":76561198003296382,"connected_time":720000000000,"state":"active","ping":73},{"user_id":44,"name":"Testicular torsion","steam_id":76561198119547399,"connected_time":646000000000,"state":"active","ping":71},{"user_id":43,"name":"Neo Kojiro","steam_id":76561198000967076,"connected_time":668000000000,"state":"active","ping":130}]},{"server_id":114,"name":"Uncletopia | London | 2 | All Maps","name_short":"lon-2","host":"lon-1.uk.uncletopia.com","port":27025,"enabled":true,"region":"eu","cc":"gb","latitude":51.509865,"longitude":-0.118092,"reserved":0,"last_update":"0001-01-01T00:00:00Z","name_a2s":"Uncletopia | London | 2 | All Maps","protocol":17,"map":"pl_swiftwater_final1","folder":"tf","game":"Team Fortress","app_id":440,"player_count":0,"max_players":24,"Bots":0,"server_type":"Dedicated","server_os":"Linux","password":true,"vac":true,"version":"7882260","steam_id":85568392924470941,"keywords":["nocrits","nodmgspread","payload","uncletopia"],"game_id":440,"stv_port":27026,"stv_name":"Uncletopia | London | 2 | All Maps | STV","players":null},{"server_id":320,"name":"Uncletopia | London | 3 | All Maps","name_short":"lon-3","host":"lon-1.uk.uncletopia.com","port":27035,"enabled":true,"region":"eu","cc":"gb","latitude":51.509865,"longitude":-0.118092,"reserved":0,"last_update":"0001-01-01T00:00:00Z","name_a2s":"Uncletopia | London | 3 | All Maps","protocol":17,"map":"pl_pier","folder":"tf","game":"Team Fortress","app_id":440,"player_count":24,"max_players":24,"Bots":0,"server_type":"Dedicated","server_os":"Linux","password":true,"vac":true,"version":"7882260","steam_id":85568392924510192,"keywords":["nocrits","nodmgspread","payload","uncletopia"],"game_id":440,"stv_port":27036,"stv_name":"Uncletopia | London | 3 | All Maps | STV","players":[{"user_id":93,"name":"Wujek Cacek","steam_id":76561198010267943,"connected_time":1947000000000,"state":"active","ping":76},{"user_id":106,"name":"lieutenant meaw is down meming","steam_id":76561198054313942,"connected_time":647000000000,"state":"active","ping":169},{"user_id":96,"name":"Koli","steam_id":76561197992428783,"connected_time":1731000000000,"state":"active","ping":59},{"user_id":107,"name":"Asbestos Enjoyer","steam_id":76561197993137176,"connected_time":395000000000,"state":"active","ping":75},{"user_id":97,"name":"on1on (roughly chopped)","steam_id":76561197995304137,"connected_time":1726000000000,"state":"active","ping":71},{"user_id":68,"name":"Cars","steam_id":76561198173329977,"connected_time":3811000000000,"state":"active","ping":49},{"user_id":108,"name":"Captain Beefheart","steam_id":76561198031573426,"connected_time":389000000000,"state":"active","ping":75},{"user_id":43,"name":"Vany_I","steam_id":76561198821698134,"connected_time":5748000000000,"state":"active","ping":144},{"user_id":73,"name":"AmssoBador Spacelot","steam_id":76561197993444617,"connected_time":3356000000000,"state":"active","ping":75},{"user_id":99,"name":"J√∏rn","steam_id":76561199073257952,"connected_time":1541000000000,"state":"active","ping":72},{"user_id":67,"name":"Mr_Pulse_","steam_id":76561198095001602,"connected_time":3828000000000,"state":"active","ping":102},{"user_id":91,"name":"jerf(bored)","steam_id":76561199213901239,"connected_time":2114000000000,"state":"active","ping":45},{"user_id":84,"name":"Germanium_Ge","steam_id":76561198130561775,"connected_time":2862000000000,"state":"active","ping":59},{"user_id":109,"name":"b00m","steam_id":76561198095560087,"connected_time":330000000000,"state":"active","ping":78},{"user_id":105,"name":"Makasim:)","steam_id":76561198816061842,"connected_time":714000000000,"state":"active","ping":83},{"user_id":95,"name":"laser","steam_id":76561198036030697,"connected_time":1777000000000,"state":"active","ping":71},{"user_id":62,"name":"One-Face","steam_id":76561197999384826,"connected_time":4035000000000,"state":"active","ping":64},{"user_id":110,"name":"DOMAIN","steam_id":76561199095640319,"connected_time":319000000000,"state":"active","ping":90},{"user_id":100,"name":"YOUR MOM GAMING","steam_id":76561199429562693,"connected_time":1508000000000,"state":"active","ping":71},{"user_id":111,"name":"minitel","steam_id":76561198056336216,"connected_time":101000000000,"state":"active","ping":54},{"user_id":75,"name":"Hardy Rose","steam_id":76561197994099242,"connected_time":3283000000000,"state":"active","ping":89},{"user_id":86,"name":"crx3","steam_id":76561198064490510,"connected_time":2379000000000,"state":"active","ping":69},{"user_id":87,"name":"fmdi","steam_id":76561199433879329,"connected_time":2200000000000,"state":"active","ping":75},{"user_id":104,"name":"PashaVerti","steam_id":76561199013963024,"connected_time":839000000000,"state":"active","ping":95}]},{"server_id":321,"name":"Uncletopia | London | 4 | All Maps","name_short":"lon-4","host":"lon-1.uk.uncletopia.com","port":27045,"enabled":true,"region":"eu","cc":"gb","latitude":51.509865,"longitude":-0.118092,"reserved":0,"last_update":"0001-01-01T00:00:00Z","name_a2s":"Uncletopia | London | 4 | All Maps","protocol":17,"map":"pl_upward","folder":"tf","game":"Team Fortress","app_id":440,"player_count":0,"max_players":24,"Bots":0,"server_type":"Dedicated","server_os":"Linux","password":true,"vac":true,"version":"7882260","steam_id":85568392924510193,"keywords":["nocrits","nodmgspread","payload","uncletopia"],"game_id":440,"stv_port":27046,"stv_name":"Uncletopia | London | 4 | All Maps | STV","players":null},{"server_id":21,"name":"Uncletopia | London | 5 | All Maps","name_short":"lon-5","host":"lon-1.uk.uncletopia.com","port":27055,"enabled":true,"region":"eu","cc":"gb","latitude":51.509865,"longitude":-0.118092,"reserved":0,"last_update":"0001-01-01T00:00:00Z","name_a2s":"Uncletopia | London | 5 | All Maps","protocol":17,"map":"pl_frontier_final","folder":"tf","game":"Team Fortress","app_id":440,"player_count":0,"max_players":24,"Bots":0,"server_type":"Dedicated","server_os":"Linux","password":true,"vac":true,"version":"7882260","steam_id":85568392924742829,"keywords":["nocrits","nodmgspread","payload","uncletopia"],"game_id":440,"stv_port":27056,"stv_name":"Uncletopia | London | 5 | All Maps | STV","players":null},{"server_id":22,"name":"Uncletopia | London | 6 | All Maps","name_short":"lon-6","host":"lon-1.uk.uncletopia.com","port":27065,"enabled":true,"region":"eu","cc":"gb","latitude":51.509865,"longitude":-0.118092,"reserved":0,"last_update":"0001-01-01T00:00:00Z","name_a2s":"Uncletopia | London | 6 | All Maps","protocol":17,"map":"pl_frontier_final","folder":"tf","game":"Team Fortress","app_id":440,"player_count":24,"max_players":24,"Bots":0,"server_type":"Dedicated","server_os":"Linux","password":true,"vac":true,"version":"7882260","steam_id":85568392924742830,"keywords":["nocrits","nodmgspread","payload","uncletopia"],"game_id":440,"stv_port":27066,"stv_name":"Uncletopia | London | 6 | All Maps | STV","players":[{"user_id":149,"name":"Nicholas Angel","steam_id":76561198434652604,"connected_time":209000000000,"state":"active","ping":96},{"user_id":119,"name":"Marcus","steam_id":76561198205027963,"connected_time":1744000000000,"state":"active","ping":59},{"user_id":145,"name":"++Old_M@N++","steam_id":76561197994792094,"connected_time":395000000000,"state":"active","ping":74},{"user_id":127,"name":"I am the one who donks","steam_id":76561198419583460,"connected_time":1455000000000,"state":"active","ping":65},{"user_id":142,"name":"–ù—ñ–∫—ñ—Ç—Ä–æ–Ω","steam_id":76561198044401080,"connected_time":941000000000,"state":"active","ping":69},{"user_id":122,"name":"SpyCrab  Erik Twice","steam_id":76561198009710309,"connected_time":1539000000000,"state":"active","ping":62},{"user_id":93,"name":"askulap","steam_id":76561197992018795,"connected_time":4191000000000,"state":"active","ping":85},{"user_id":136,"name":"lulu","steam_id":76561199147764133,"connected_time":1225000000000,"state":"active","ping":68},{"user_id":147,"name":"Magic1L","steam_id":76561198831787182,"connected_time":295000000000,"state":"active","ping":75},{"user_id":111,"name":"Peigg","steam_id":76561198414749782,"connected_time":2827000000000,"state":"active","ping":98},{"user_id":125,"name":"Lessoz","steam_id":76561199211572036,"connected_time":1465000000000,"state":"active","ping":85},{"user_id":139,"name":"gardontar","steam_id":76561198169929053,"connected_time":1150000000000,"state":"active","ping":58},{"user_id":128,"name":"KAZAM | Tervez","steam_id":76561198045459068,"connected_time":1419000000000,"state":"active","ping":90},{"user_id":143,"name":"elliot","steam_id":76561198055010039,"connected_time":456000000000,"state":"active","ping":75},{"user_id":89,"name":"Guru","steam_id":76561198093853069,"connected_time":4719000000000,"state":"active","ping":67},{"user_id":131,"name":"Uriziel","steam_id":76561198046950794,"connected_time":1344000000000,"state":"active","ping":108},{"user_id":141,"name":"TrollFace","steam_id":76561198799317717,"connected_time":1096000000000,"state":"active","ping":116},{"user_id":148,"name":"Szeregowy LowiRyb","steam_id":76561198855967762,"connected_time":280000000000,"state":"active","ping":112},{"user_id":84,"name":"Penis Contortionist","steam_id":76561198073663784,"connected_time":5723000000000,"state":"active","ping":39},{"user_id":146,"name":"Just Sly","steam_id":76561198070137469,"connected_time":354000000000,"state":"active","ping":73},{"user_id":134,"name":"Kacperos12","steam_id":76561198044168268,"connected_time":1317000000000,"state":"active","ping":92},{"user_id":115,"name":"Dr. Feelgood","steam_id":76561199173885103,"connected_time":2241000000000,"state":"active","ping":154},{"user_id":135,"name":"Mr. Frog","steam_id":76561198016568920,"connected_time":1313000000000,"state":"active","ping":44},{"user_id":117,"name":"Yanniki","steam_id":76561197986058110,"connected_time":1923000000000,"state":"active","ping":65}]},{"server_id":40,"name":"Uncletopia | London | 7 | No Payload","name_short":"lon-7","host":"lon-1.uk.uncletopia.com","port":27075,"enabled":true,"region":"eu","cc":"gb","latitude":51.509865,"longitude":-0.118092,"reserved":0,"last_update":"0001-01-01T00:00:00Z","name_a2s":"Uncletopia | London | 7 | No Payload","protocol":17,"map":"plr_pipeline","folder":"tf","game":"Team Fortress","app_id":440,"player_count":24,"max_players":24,"Bots":0,"server_type":"Dedicated","server_os":"Linux","password":true,"vac":true,"version":"7882260","steam_id":85568392924964314,"keywords":["nocrits","nodmgspread","payload","uncletopia"],"game_id":440,"stv_port":27076,"stv_name":"Uncletopia | London | 7 | No Payload | STV","players":[{"user_id":3,"name":"Tx_madmash","steam_id":76561198924656512,"connected_time":6319000000000,"state":"active","ping":63},{"user_id":48,"name":"Paul B√§umer","steam_id":76561198308302932,"connected_time":2375000000000,"state":"active","ping":100},{"user_id":88,"name":"Zeyo","steam_id":76561198110198881,"connected_time":101000000000,"state":"active","ping":74},{"user_id":64,"name":"T - Bone","steam_id":76561198107005109,"connected_time":1523000000000,"state":"active","ping":99},{"user_id":79,"name":"C. Trebonius Pius","steam_id":76561198310327706,"connected_time":599000000000,"state":"active","ping":72},{"user_id":21,"name":"Nyhde","steam_id":76561198012771416,"connected_time":3938000000000,"state":"active","ping":104},{"user_id":15,"name":"Yeets3er","steam_id":76561199137127757,"connected_time":4374000000000,"state":"active","ping":55},{"user_id":89,"name":"Victoria NyaNya","steam_id":76561198386462300,"connected_time":26000000000,"state":"active","ping":98},{"user_id":47,"name":"Mephistopheles","steam_id":76561199033390312,"connected_time":2513000000000,"state":"active","ping":120},{"user_id":49,"name":"dorak","steam_id":76561198818037965,"connected_time":2360000000000,"state":"active","ping":105},{"user_id":81,"name":"hygalation","steam_id":76561198012503944,"connected_time":326000000000,"state":"active","ping":78},{"user_id":87,"name":"r","steam_id":76561199485138600,"connected_time":117000000000,"state":"active","ping":58},{"user_id":75,"name":"–¢—Ä—É–ø –í–æ–ª–æ–¥—è","steam_id":76561198035718457,"connected_time":980000000000,"state":"active","ping":87},{"user_id":85,"name":"Ghost","steam_id":76561198255430536,"connected_time":204000000000,"state":"active","ping":66},{"user_id":71,"name":"Kvadrat","steam_id":76561198022834916,"connected_time":1107000000000,"state":"active","ping":125},{"user_id":41,"name":"Fallen Dog","steam_id":76561198851387188,"connected_time":2840000000000,"state":"active","ping":60},{"user_id":66,"name":"Shark","steam_id":76561198205226501,"connected_time":1432000000000,"state":"active","ping":158},{"user_id":90,"name":"JeanCorben","steam_id":76561197965133561,"connected_time":19000000000,"state":"active","ping":46},{"user_id":57,"name":"Louis Armstrong Gaming","steam_id":76561199142022395,"connected_time":2146000000000,"state":"active","ping":77},{"user_id":73,"name":"Fat Pigeon","steam_id":76561198817940142,"connected_time":1020000000000,"state":"active","ping":46},{"user_id":37,"name":"Stuid","steam_id":76561199427506542,"connected_time":3060000000000,"state":"active","ping":80},{"user_id":86,"name":"BreadAcres","steam_id":76561198098217082,"connected_time":144000000000,"state":"active","ping":65},{"user_id":82,"name":"cherry coal","steam_id":76561198822725169,"connected_time":267000000000,"state":"active","ping":46},{"user_id":84,"name":"Paul Allen's Business Card","steam_id":76561198013959716,"connected_time":235000000000,"state":"active","ping":55}]},{"server_id":41,"name":"Uncletopia | London | 8 | Community","name_short":"lon-8","host":"lon-1.uk.uncletopia.com","port":27085,"enabled":true,"region":"eu","cc":"gb","latitude":51.509865,"longitude":-0.118092,"reserved":0,"last_update":"0001-01-01T00:00:00Z","name_a2s":"Uncletopia | London | 8 | Community","protocol":17,"map":"pl_swiftwater_final1","folder":"tf","game":"Team Fortress","app_id":440,"player_count":0,"max_players":24,"Bots":0,"server_type":"Dedicated","server_os":"Linux","password":true,"vac":true,"version":"7882260","steam_id":85568392924964315,"keywords":["nocrits","nodmgspread","payload","uncletopia"],"game_id":440,"stv_port":27086,"stv_name":"Uncletopia | London | 8 | Community | STV","players":null},{"server_id":300,"name":"Uncletopia | Montr√©al | 1 | All Maps","name_short":"mtl-1","host":"mtl-1.ca.uncletopia.com","port":27015,"enabled":true,"region":"us-east","cc":"ca","latitude":45.50889,"longitude":-73.56167,"reserved":0,"last_update":"0001-01-01T00:00:00Z","name_a2s":"Uncletopia | Montr√©al | 1 | All Maps","protocol":17,"map":"pl_barnblitz","folder":"tf","game":"Team Fortress","app_id":440,"player_count":0,"max_players":24,"Bots":0,"server_type":"Dedicated","server_os":"Linux","password":true,"vac":true,"version":"7882260","steam_id":85568392924500087,"keywords":["nocrits","nodmgspread","payload","uncletopia"],"game_id":440,"stv_port":27016,"stv_name":"Uncletopia | Montr√©al | 1 | All Maps | STV","players":null},{"server_id":301,"name":"Uncletopia | Montr√©al | 2 | All Maps","name_short":"mtl-2","host":"mtl-1.ca.uncletopia.com","port":27025,"enabled":true,"region":"us-east","cc":"ca","latitude":45.50889,"longitude":-73.56167,"reserved":0,"last_update":"0001-01-01T00:00:00Z","name_a2s":"Uncletopia | Montr√©al | 2 | All Maps","protocol":17,"map":"koth_highpass","folder":"tf","game":"Team Fortress","app_id":440,"player_count":0,"max_players":24,"Bots":0,"server_type":"Dedicated","server_os":"Linux","password":true,"vac":true,"version":"7882260","steam_id":85568392924500088,"keywords":["cp","nocrits","nodmgspread","uncletopia"],"game_id":440,"stv_port":27026,"stv_name":"Uncletopia | Montr√©al | 2 | All Maps | STV","players":null},{"server_id":302,"name":"Uncletopia | Montr√©al | 3 | All Maps","name_short":"mtl-3","host":"mtl-1.ca.uncletopia.com","port":27035,"enabled":true,"region":"us-east","cc":"ca","latitude":45.50889,"longitude":-73.56167,"reserved":0,"last_update":"0001-01-01T00:00:00Z","name_a2s":"Uncletopia | Montr√©al | 3 | All Maps","protocol":17,"map":"koth_cascade","folder":"tf","game":"Team Fortress","app_id":440,"player_count":0,"max_players":24,"Bots":0,"server_type":"Dedicated","server_os":"Linux","password":true,"vac":true,"version":"7882260","steam_id":85568392924500089,"keywords":["cp","nocrits","nodmgspread","uncletopia"],"game_id":440,"stv_port":27036,"stv_name":"Uncletopia | Montr√©al | 3 | All Maps | STV","players":null},{"server_id":303,"name":"Uncletopia | Montr√©al | 4 | No Payload","name_short":"mtl-4","host":"mtl-1.ca.uncletopia.com","port":27045,"enabled":true,"region":"us-east","cc":"ca","latitude":45.50889,"longitude":-73.56167,"reserved":0,"last_update":"0001-01-01T00:00:00Z","name_a2s":"Uncletopia | Montr√©al | 4 | No Payload","protocol":17,"map":"koth_nucleus","folder":"tf","game":"Team Fortress","app_id":440,"player_count":0,"max_players":24,"Bots":0,"server_type":"Dedicated","server_os":"Linux","password":true,"vac":true,"version":"7882260","steam_id":85568392924500090,"keywords":["cp","nocrits","nodmgspread","uncletopia"],"game_id":440,"stv_port":27046,"stv_name":"Uncletopia | Montr√©al | 4 | No Payload | STV","players":null},{"server_id":13,"name":"Uncletopia | New York City | 1 | All Maps","name_short":"nyc-1","host":"nyc-1.us.uncletopia.com","port":27015,"enabled":true,"region":"us-east","cc":"us","latitude":40.73061,"longitude":-73.93524,"reserved":0,"last_update":"0001-01-01T00:00:00Z","name_a2s":"Uncletopia | New York City | 1 | All Maps","protocol":17,"map":"cp_5gorge","folder":"tf","game":"Team Fortress","app_id":440,"player_count":0,"max_players":24,"Bots":0,"server_type":"Dedicated","server_os":"Linux","password":true,"vac":true,"version":"7882260","steam_id":85568392924469993,"keywords":["cp","nocrits","nodmgspread","uncletopia"],"game_id":440,"stv_port":27016,"stv_name":"Uncletopia | New York City | 1 | All Maps | STV","players":null},{"server_id":14,"name":"Uncletopia | New York City | 2 | All Maps","name_short":"nyc-2","host":"nyc-1.us.uncletopia.com","port":27025,"enabled":true,"region":"us-east","cc":"us","latitude":40.73061,"longitude":-73.93524,"reserved":0,"last_update":"0001-01-01T00:00:00Z","name_a2s":"Uncletopia | New York City | 2 | All Maps","protocol":17,"map":"koth_lakeside_final","folder":"tf","game":"Team Fortress","app_id":440,"player_count":0,"max_players":24,"Bots":0,"server_type":"Dedicated","server_os":"Linux","password":true,"vac":true,"version":"7882260","steam_id":85568392924469994,"keywords":["cp","nocrits","nodmgspread","uncletopia"],"game_id":440,"stv_port":27026,"stv_name":"Uncletopia | New York City | 2 | All Maps | STV","players":null},{"server_id":15,"name":"Uncletopia | New York City | 3 | Stopwatch Beta","name_short":"nyc-3","host":"nyc-1.us.uncletopia.com","port":27035,"enabled":true,"region":"us-east","cc":"us","latitude":40.73061,"longitude":-73.93524,"reserved":0,"last_update":"0001-01-01T00:00:00Z","name_a2s":"Uncletopia | New York City | 3 | Stopwatch Beta","protocol":17,"map":"pl_borneo","folder":"tf","game":"Team Fortress","app_id":440,"player_count":0,"max_players":24,"Bots":0,"server_type":"Dedicated","server_os":"Linux","password":true,"vac":true,"version":"7882260","steam_id":85568392924742820,"keywords":["nocrits","nodmgspread","payload","uncletopia"],"game_id":440,"stv_port":27036,"stv_name":"Uncletopia | New York City | 3 | Stopwatch Beta | STV","players":null},{"server_id":16,"name":"Uncletopia | New York City | 4 | Community","name_short":"nyc-4","host":"nyc-1.us.uncletopia.com","port":27045,"enabled":true,"region":"us-east","cc":"us","latitude":40.73061,"longitude":-73.93524,"reserved":0,"last_update":"0001-01-01T00:00:00Z","name_a2s":"Uncletopia | New York City | 4 | Community","protocol":17,"map":"workshop/koth_kemptown_rc1.ugc767410655","folder":"tf","game":"Team Fortress","app_id":440,"player_count":0,"max_players":24,"Bots":0,"server_type":"Dedicated","server_os":"Linux","password":true,"vac":true,"version":"7882260","steam_id":85568392924742821,"keywords":["cp","nocrits","nodmgspread","uncletopia"],"game_id":440,"stv_port":27046,"stv_name":"Uncletopia | New York City | 4 | Community | STV","players":null},{"server_id":142,"name":"Uncletopia | S√£o Paulo | 1 | All Maps","name_short":"sao-1","host":"sao-1.br.uncletopia.com","port":27015,"enabled":true,"region":"sa","cc":"br","latitude":-23.533773,"longitude":-46.62529,"reserved":0,"last_update":"0001-01-01T00:00:00Z","name_a2s":"Uncletopia | S√£o Paulo | 1 | All Maps","protocol":17,"map":"cp_process_final","folder":"tf","game":"Team Fortress","app_id":440,"player_count":0,"max_players":24,"Bots":0,"server_type":"Dedicated","server_os":"Linux","password":true,"vac":true,"version":"7882260","steam_id":85568392924469996,"keywords":["cp","nocrits","nodmgspread","uncletopia"],"game_id":440,"stv_port":27016,"stv_name":"Uncletopia | S√£o Paulo | 1 | All Maps | STV","players":null},{"server_id":143,"name":"Uncletopia | S√£o Paulo | 2 | All Maps","name_short":"sao-2","host":"sao-2.br.uncletopia.com","port":27015,"enabled":true,"region":"sa","cc":"br","latitude":-23.533773,"longitude":-46.62529,"reserved":0,"last_update":"0001-01-01T00:00:00Z","name_a2s":"Uncletopia | S√£o Paulo | 2 | All Maps","protocol":17,"map":"pl_pier","folder":"tf","game":"Team Fortress","app_id":440,"player_count":0,"max_players":24,"Bots":0,"server_type":"Dedicated","server_os":"Linux","password":true,"vac":true,"version":"7882260","steam_id":85568392924485349,"keywords":["nocrits","nodmgspread","payload","uncletopia"],"game_id":440,"stv_port":27016,"stv_name":"Uncletopia | S√£o Paulo | 2 | All Maps | STV","players":null},{"server_id":7,"name":"Uncletopia | Seattle | 1 | All Maps","name_short":"sea-1","host":"sea-1.us.uncletopia.com","port":27015,"enabled":true,"region":"us-west","cc":"us","latitude":47.608013,"longitude":-122.33517,"reserved":0,"last_update":"0001-01-01T00:00:00Z","name_a2s":"Uncletopia | Seattle | 1 | All Maps","protocol":17,"map":"pl_pier","folder":"tf","game":"Team Fortress","app_id":440,"player_count":24,"max_players":24,"Bots":0,"server_type":"Dedicated","server_os":"Linux","password":true,"vac":true,"version":"7882260","steam_id":85568392924469997,"keywords":["nocrits","nodmgspread","payload","uncletopia"],"game_id":440,"stv_port":27016,"stv_name":"Uncletopia | Seattle | 1 | All Maps | STV","players":[{"user_id":740,"name":"resh","steam_id":76561198239598834,"connected_time":5399000000000,"state":"active","ping":126},{"user_id":665,"name":"oil","steam_id":76561198099980149,"connected_time":12489000000000,"state":"active","ping":75},{"user_id":768,"name":"delight","steam_id":76561197980280272,"connected_time":1967000000000,"state":"active","ping":45},{"user_id":826,"name":"toilet thief","steam_id":76561198057486874,"connected_time":352000000000,"state":"active","ping":70},{"user_id":684,"name":"profile name","steam_id":76561198032625036,"connected_time":9717000000000,"state":"active","ping":60},{"user_id":775,"name":"„Åµ„Çè„Åµ„ÇèÊØõÂ∏É","steam_id":76561198088403016,"connected_time":1954000000000,"state":"active","ping":180},{"user_id":746,"name":"Sir Loincloth","steam_id":76561198033073991,"connected_time":4917000000000,"state":"active","ping":62},{"user_id":774,"name":"Dot...","steam_id":76561198169920115,"connected_time":1957000000000,"state":"active","ping":95},{"user_id":723,"name":"white muslim dane cook","steam_id":76561198000979872,"connected_time":7039000000000,"state":"active","ping":86},{"user_id":597,"name":"roryisonamobilehotspot","steam_id":76561198065825165,"connected_time":18842000000000,"state":"active","ping":94},{"user_id":771,"name":"never knows best","steam_id":76561197989933601,"connected_time":1959000000000,"state":"active","ping":51},{"user_id":777,"name":"JTuu","steam_id":76561198030606396,"connected_time":1827000000000,"state":"active","ping":39},{"user_id":762,"name":"Oh No! It's Twister!","steam_id":76561198016791916,"connected_time":3102000000000,"state":"active","ping":83},{"user_id":767,"name":"bota box burglar","steam_id":76561198134309750,"connected_time":1971000000000,"state":"active","ping":166},{"user_id":765,"name":"Ariel Tone","steam_id":76561198086475014,"connected_time":2659000000000,"state":"active","ping":59},{"user_id":670,"name":"smeasly got the dab pen","steam_id":76561198028718812,"connected_time":12166000000000,"state":"active","ping":40},{"user_id":722,"name":"Oakus Maximus","steam_id":76561198317179010,"connected_time":7090000000000,"state":"active","ping":65},{"user_id":827,"name":"Infuzion4","steam_id":76561198119664203,"connected_time":338000000000,"state":"active","ping":97},{"user_id":778,"name":"Rommel2007","steam_id":76561198041744631,"connected_time":1820000000000,"state":"active","ping":81},{"user_id":735,"name":"Inflight","steam_id":76561198920049475,"connected_time":6009000000000,"state":"active","ping":115},{"user_id":828,"name":"glock in my rawry :3","steam_id":76561198084885479,"connected_time":312000000000,"state":"active","ping":73},{"user_id":779,"name":"bullet man","steam_id":76561198080058079,"connected_time":1805000000000,"state":"active","ping":57},{"user_id":822,"name":"Dreamy Sweat from 2hu","steam_id":76561198094602446,"connected_time":451000000000,"state":"active","ping":60},{"user_id":787,"name":"jorts","steam_id":76561199041179985,"connected_time":1021000000000,"state":"active","ping":66}]},{"server_id":119,"name":"Uncletopia | Seattle | 2 | All Maps","name_short":"sea-2","host":"sea-1.us.uncletopia.com","port":27025,"enabled":true,"region":"us-west","cc":"us","latitude":47.608013,"longitude":-122.33517,"reserved":0,"last_update":"0001-01-01T00:00:00Z","name_a2s":"Uncletopia | Seattle | 2 | All Maps","protocol":17,"map":"pl_barnblitz","folder":"tf","game":"Team Fortress","app_id":440,"player_count":4,"max_players":24,"Bots":0,"server_type":"Dedicated","server_os":"Linux","password":true,"vac":true,"version":"7882260","steam_id":85568392924469998,"keywords":["nocrits","nodmgspread","payload","uncletopia"],"game_id":440,"stv_port":27026,"stv_name":"Uncletopia | Seattle | 2 | All Maps | STV","players":[{"user_id":809,"name":"Zeta-9","steam_id":76561199002170798,"connected_time":523000000000,"state":"active","ping":70},{"user_id":810,"name":"CATANDME2020","steam_id":76561199482506203,"connected_time":507000000000,"state":"active","ping":62},{"user_id":790,"name":"Bitter","steam_id":76561198047426244,"connected_time":2027000000000,"state":"active","ping":42},{"user_id":799,"name":"ImReallyFeelinIt","steam_id":76561198325006142,"connected_time":1239000000000,"state":"active","ping":54}]},{"server_id":406,"name":"Uncletopia | Seattle | 3 | Stopwatch Beta","name_short":"sea-3","host":"sea-1.us.uncletopia.com","port":27035,"enabled":true,"region":"us-west","cc":"us","latitude":47.608013,"longitude":-122.33517,"reserved":0,"last_update":"0001-01-01T00:00:00Z","name_a2s":"Uncletopia | Seattle | 3 | Stopwatch Beta","protocol":17,"map":"pl_swiftwater_final1","folder":"tf","game":"Team Fortress","app_id":440,"player_count":0,"max_players":24,"Bots":0,"server_type":"Dedicated","server_os":"Linux","password":true,"vac":true,"version":"7882260","steam_id":85568392924515217,"keywords":["nocrits","nodmgspread","payload","uncletopia"],"game_id":440,"stv_port":27036,"stv_name":"Uncletopia | Seattle | 3 | Stopwatch Beta | STV","players":null},{"server_id":17,"name":"Uncletopia | San Francisco | 1 | All Maps","name_short":"sfo-1","host":"sfo-1.us.uncletopia.com","port":27015,"enabled":true,"region":"us-west","cc":"us","latitude":37.77397,"longitude":-122.4313,"reserved":0,"last_update":"0001-01-01T00:00:00Z","name_a2s":"Uncletopia | San Francisco | 1 | All Maps","protocol":17,"map":"koth_lakeside_final","folder":"tf","game":"Team Fortress","app_id":440,"player_count":24,"max_players":24,"Bots":0,"server_type":"Dedicated","server_os":"Linux","password":true,"vac":true,"version":"7882260","steam_id":85568392924469999,"keywords":["cp","nocrits","nodmgspread","uncletopia"],"game_id":440,"stv_port":27016,"stv_name":"Uncletopia | San Francisco | 1 | All Maps | STV","players":[{"user_id":266,"name":"Sofa","steam_id":76561198066802620,"connected_time":3213000000000,"state":"active","ping":47},{"user_id":277,"name":"Tank","steam_id":76561198231513484,"connected_time":2103000000000,"state":"active","ping":54},{"user_id":246,"name":"SQbuilder","steam_id":76561198076473375,"connected_time":4258000000000,"state":"active","ping":44},{"user_id":278,"name":"R3n3gade","steam_id":76561198145984116,"connected_time":2069000000000,"state":"active","ping":60},{"user_id":254,"name":"Big Oz","steam_id":76561198970897660,"connected_time":3909000000000,"state":"active","ping":92},{"user_id":265,"name":"Timebomb2134","steam_id":76561199065629825,"connected_time":3321000000000,"state":"active","ping":66},{"user_id":302,"name":"huiei","steam_id":76561198073763735,"connected_time":670000000000,"state":"active","ping":57},{"user_id":280,"name":"Hog Rider","steam_id":76561198270106555,"connected_time":1801000000000,"state":"active","ping":56},{"user_id":281,"name":"Baggage","steam_id":76561198215128080,"connected_time":1782000000000,"state":"active","ping":49},{"user_id":258,"name":"Renon","steam_id":76561198023239819,"connected_time":3802000000000,"state":"active","ping":51},{"user_id":282,"name":"An Unhappy Clown","steam_id":76561198175516514,"connected_time":1781000000000,"state":"active","ping":88},{"user_id":250,"name":"Giorno Giovanna","steam_id":76561198044106874,"connected_time":4110000000000,"state":"active","ping":64},{"user_id":293,"name":"yogi","steam_id":76561198067986753,"connected_time":1466000000000,"state":"active","ping":53},{"user_id":283,"name":"NaxRat","steam_id":76561198992710128,"connected_time":1776000000000,"state":"active","ping":67},{"user_id":298,"name":"cringy","steam_id":76561198323000455,"connected_time":1144000000000,"state":"active","ping":69},{"user_id":294,"name":"Ruthless2467","steam_id":76561198124055298,"connected_time":1461000000000,"state":"active","ping":52},{"user_id":305,"name":"Portabello","steam_id":76561198092412930,"connected_time":222000000000,"state":"active","ping":46},{"user_id":287,"name":"Bagoool","steam_id":76561198065368286,"connected_time":1710000000000,"state":"active","ping":85},{"user_id":288,"name":"lite","steam_id":76561198041535914,"connected_time":1704000000000,"state":"active","ping":99},{"user_id":289,"name":"Prez Pineapple","steam_id":76561198253755258,"connected_time":1673000000000,"state":"active","ping":68},{"user_id":228,"name":"Raphael","steam_id":76561198101425586,"connected_time":5783000000000,"state":"active","ping":72},{"user_id":304,"name":"rippinthebon","steam_id":76561198306448569,"connected_time":231000000000,"state":"active","ping":110},{"user_id":303,"name":"THE PRODGIAL STUNNA","steam_id":76561198325613425,"connected_time":664000000000,"state":"active","ping":80},{"user_id":253,"name":"brucking","steam_id":76561198348213337,"connected_time":3956000000000,"state":"active","ping":59}]},{"server_id":18,"name":"Uncletopia | San Francisco | 2 | All Maps","name_short":"sfo-2","host":"sfo-1.us.uncletopia.com","port":27025,"enabled":true,"region":"us-west","cc":"us","latitude":37.77397,"longitude":-122.4313,"reserved":0,"last_update":"0001-01-01T00:00:00Z","name_a2s":"Uncletopia | San Francisco | 2 | All Maps","protocol":17,"map":"koth_highpass","folder":"tf","game":"Team Fortress","app_id":440,"player_count":2,"max_players":24,"Bots":0,"server_type":"Dedicated","server_os":"Linux","password":true,"vac":true,"version":"7882260","steam_id":85568392924470000,"keywords":["cp","nocrits","nodmgspread","uncletopia"],"game_id":440,"stv_port":27026,"stv_name":"Uncletopia | San Francisco | 2 | All Maps | STV","players":[{"user_id":211,"name":"MegaMott","steam_id":76561199172245274,"connected_time":3137000000000,"state":"active","ping":70},{"user_id":213,"name":"Picklefrits","steam_id":76561198067070390,"connected_time":2926000000000,"state":"active","ping":98}]},{"server_id":19,"name":"Uncletopia | San Francisco | 3 | Stopwatch Beta","name_short":"sfo-3","host":"sfo-1.us.uncletopia.com","port":27035,"enabled":true,"region":"us-west","cc":"us","latitude":37.77397,"longitude":-122.4313,"reserved":0,"last_update":"0001-01-01T00:00:00Z","name_a2s":"Uncletopia | San Francisco | 3 | Stopwatch Beta","protocol":17,"map":"pl_frontier_final","folder":"tf","game":"Team Fortress","app_id":440,"player_count":0,"max_players":24,"Bots":0,"server_type":"Dedicated","server_os":"Linux","password":true,"vac":true,"version":"7882260","steam_id":85568392924742824,"keywords":["nocrits","nodmgspread","payload","uncletopia"],"game_id":440,"stv_port":27036,"stv_name":"Uncletopia | San Francisco | 3 | Stopwatch Beta | STV","players":null},{"server_id":20,"name":"Uncletopia | San Francisco | 4 | Community","name_short":"sfo-4","host":"sfo-1.us.uncletopia.com","port":27045,"enabled":true,"region":"us-west","cc":"us","latitude":37.77397,"longitude":-122.4313,"reserved":0,"last_update":"0001-01-01T00:00:00Z","name_a2s":"Uncletopia | San Francisco | 4 | Community","protocol":17,"map":"workshop/koth_slaughter_rc1.ugc1712845210","folder":"tf","game":"Team Fortress","app_id":440,"player_count":0,"max_players":24,"Bots":0,"server_type":"Dedicated","server_os":"Linux","password":true,"vac":true,"version":"7882260","steam_id":85568392924742826,"keywords":["cp","nocrits","nodmgspread","uncletopia"],"game_id":440,"stv_port":27046,"stv_name":"Uncletopia | San Francisco | 4 | Community | STV","players":null},{"server_id":141,"name":"Uncletopia | Sydney | 1 | All Maps","name_short":"syd-1","host":"syd-1.au.uncletopia.com","port":27015,"enabled":true,"region":"au","cc":"au","latitude":-33.865143,"longitude":151.2099,"reserved":0,"last_update":"0001-01-01T00:00:00Z","name_a2s":"Uncletopia | Sydney | 1 | All Maps","protocol":17,"map":"koth_viaduct","folder":"tf","game":"Team Fortress","app_id":440,"player_count":15,"max_players":24,"Bots":0,"server_type":"Dedicated","server_os":"Linux","password":true,"vac":true,"version":"7882260","steam_id":85568392924470001,"keywords":["cp","nocrits","nodmgspread","uncletopia"],"game_id":440,"stv_port":27016,"stv_name":"Uncletopia | Sydney | 1 | All Maps | STV","players":[{"user_id":162,"name":"Shiki Eiki","steam_id":76561198095744048,"connected_time":1586000000000,"state":"active","ping":96},{"user_id":159,"name":"Komeji","steam_id":76561198125237921,"connected_time":1910000000000,"state":"active","ping":40},{"user_id":161,"name":"Powersurge The Protogen -BvM-","steam_id":76561198013117218,"connected_time":1840000000000,"state":"active","ping":56},{"user_id":186,"name":"ericacummins","steam_id":76561198946280912,"connected_time":121000000000,"state":"active","ping":98},{"user_id":165,"name":"CypressFluff (She/Her)","steam_id":76561198174667818,"connected_time":1335000000000,"state":"active","ping":64},{"user_id":167,"name":"stevenw","steam_id":76561198133041525,"connected_time":1099000000000,"state":"active","ping":88},{"user_id":179,"name":"Âòõ‰ªï‰ºçÁª¥","steam_id":76561198190171598,"connected_time":293000000000,"state":"active","ping":83},{"user_id":176,"name":"Crash","steam_id":76561198049431074,"connected_time":366000000000,"state":"active","ping":65},{"user_id":178,"name":"tuxy","steam_id":76561198996816684,"connected_time":300000000000,"state":"active","ping":71},{"user_id":173,"name":"Jxggs","steam_id":76561198987708584,"connected_time":495000000000,"state":"active","ping":59},{"user_id":182,"name":"Generic","steam_id":76561198832264022,"connected_time":243000000000,"state":"active","ping":67},{"user_id":180,"name":"Cyborgcupine","steam_id":76561198257389366,"connected_time":280000000000,"state":"active","ping":95},{"user_id":181,"name":"apache.oru","steam_id":76561199275926883,"connected_time":271000000000,"state":"active","ping":87},{"user_id":183,"name":"Bait Monkey","steam_id":76561198085392224,"connected_time":242000000000,"state":"active","ping":54},{"user_id":184,"name":"spicy","steam_id":76561198044881062,"connected_time":220000000000,"state":"active","ping":60}]},{"server_id":123,"name":"Uncletopia | Sydney | 2 | All Maps","name_short":"syd-2","host":"syd-1.au.uncletopia.com","port":27025,"enabled":true,"region":"au","cc":"au","latitude":-33.865143,"longitude":151.2099,"reserved":0,"last_update":"0001-01-01T00:00:00Z","name_a2s":"Uncletopia | Sydney | 2 | All Maps","protocol":17,"map":"cp_dustbowl","folder":"tf","game":"Team Fortress","app_id":440,"player_count":24,"max_players":24,"Bots":0,"server_type":"Dedicated","server_os":"Linux","password":true,"vac":true,"version":"7882260","steam_id":85568392924470002,"keywords":["cp","nocrits","nodmgspread","uncletopia"],"game_id":440,"stv_port":27026,"stv_name":"Uncletopia | Sydney | 2 | All Maps | STV","players":[{"user_id":348,"name":"mushroom","steam_id":76561197992336470,"connected_time":4057000000000,"state":"active","ping":94},{"user_id":405,"name":"Nackle","steam_id":76561198176111621,"connected_time":348000000000,"state":"active","ping":88},{"user_id":397,"name":"veteran","steam_id":76561199457046392,"connected_time":457000000000,"state":"active","ping":78},{"user_id":379,"name":"Comic Sans G","steam_id":76561198036184916,"connected_time":1786000000000,"state":"active","ping":82},{"user_id":408,"name":"ibus","steam_id":76561199026701614,"connected_time":46000000000,"state":"active","ping":59},{"user_id":393,"name":"weezer","steam_id":76561199439508788,"connected_time":925000000000,"state":"active","ping":64},{"user_id":376,"name":"Local Trash Expert","steam_id":76561198145598622,"connected_time":1799000000000,"state":"active","ping":85},{"user_id":388,"name":"Phobia¬≤","steam_id":76561198038833524,"connected_time":1105000000000,"state":"active","ping":62},{"user_id":396,"name":"floppinv2","steam_id":76561198213566569,"connected_time":478000000000,"state":"active","ping":103},{"user_id":401,"name":"Teflon","steam_id":76561198001224301,"connected_time":423000000000,"state":"active","ping":98},{"user_id":399,"name":"Ungstein","steam_id":76561197998374531,"connected_time":457000000000,"state":"active","ping":137},{"user_id":402,"name":"Sunny","steam_id":76561199253363005,"connected_time":410000000000,"state":"active","ping":102},{"user_id":394,"name":"yohkes","steam_id":76561198053942284,"connected_time":855000000000,"state":"active","ping":44},{"user_id":380,"name":"koyaa","steam_id":76561198047484772,"connected_time":1785000000000,"state":"active","ping":75},{"user_id":384,"name":"Jodelk√∂nig Franzl Lang","steam_id":76561198007667830,"connected_time":1289000000000,"state":"active","ping":50},{"user_id":375,"name":"R","steam_id":76561197996963023,"connected_time":1899000000000,"state":"active","ping":80},{"user_id":378,"name":"perturb (feed/seed)","steam_id":76561198085124297,"connected_time":1797000000000,"state":"active","ping":56},{"user_id":403,"name":"Lemmy","steam_id":76561198096213949,"connected_time":376000000000,"state":"active","ping":52},{"user_id":358,"name":"Minimindd","steam_id":76561199006274892,"connected_time":3408000000000,"state":"active","ping":54},{"user_id":377,"name":"Griffin","steam_id":76561198024926514,"connected_time":1798000000000,"state":"active","ping":90},{"user_id":404,"name":"Big ol' pool","steam_id":76561198214116428,"connected_time":374000000000,"state":"active","ping":80},{"user_id":389,"name":"HORIZ0N","steam_id":76561199006929134,"connected_time":1035000000000,"state":"active","ping":71},{"user_id":395,"name":"Bill Nye","steam_id":76561198312898168,"connected_time":845000000000,"state":"active","ping":57},{"user_id":410,"name":"CHOIB","steam_id":76561198387938667,"connected_time":38000000000,"state":"active","ping":47}]},{"server_id":395,"name":"Uncletopia | Sydney | 3 | All Maps","name_short":"syd-3","host":"syd-1.au.uncletopia.com","port":27035,"enabled":true,"region":"au","cc":"au","latitude":-33.865143,"longitude":151.2099,"reserved":0,"last_update":"0001-01-01T00:00:00Z","name_a2s":"Uncletopia | Sydney | 3 | All Maps","protocol":17,"map":"plr_hightower","folder":"tf","game":"Team Fortress","app_id":440,"player_count":4,"max_players":24,"Bots":0,"server_type":"Dedicated","server_os":"Linux","password":true,"vac":true,"version":"7882260","steam_id":85568392925194467,"keywords":["nocrits","nodmgspread","payload","uncletopia"],"game_id":440,"stv_port":27036,"stv_name":"Uncletopia | Sydney | 3 | All Maps | STV","players":[{"user_id":15,"name":"Soldier main(Really)","steam_id":76561198153397177,"connected_time":2144000000000,"state":"active","ping":46},{"user_id":16,"name":"the weed alien","steam_id":76561199205171109,"connected_time":2141000000000,"state":"active","ping":68},{"user_id":18,"name":"Cris.p bacon","steam_id":76561199230423491,"connected_time":1309000000000,"state":"active","ping":256},{"user_id":20,"name":"shroomjak","steam_id":76561198805154742,"connected_time":947000000000,"state":"active","ping":258}]},{"server_id":396,"name":"Uncletopia | Sydney | 4 | All Maps","name_short":"syd-4","host":"syd-1.au.uncletopia.com","port":27045,"enabled":true,"region":"au","cc":"au","latitude":-33.865143,"longitude":151.2099,"reserved":0,"last_update":"0001-01-01T00:00:00Z","name_a2s":"Uncletopia | Sydney | 4 | All Maps","protocol":17,"map":"koth_highpass","folder":"tf","game":"Team Fortress","app_id":440,"player_count":0,"max_players":24,"Bots":0,"server_type":"Dedicated","server_os":"Linux","password":true,"vac":true,"version":"7882260","steam_id":85568392925397958,"keywords":["cp","nocrits","nodmgspread","uncletopia"],"game_id":440,"stv_port":27046,"stv_name":"Uncletopia | Sydney | 4 | All Maps | STV","players":null},{"server_id":58,"name":"Uncletopia | Sydney | 5 | Stopwatch Beta","name_short":"syd-5","host":"syd-1.au.uncletopia.com","port":27055,"enabled":true,"region":"au","cc":"au","latitude":-33.865143,"longitude":151.2099,"reserved":0,"last_update":"0001-01-01T00:00:00Z","name_a2s":"Uncletopia | Sydney | 5 | Stopwatch Beta","protocol":17,"map":"koth_highpass","folder":"tf","game":"Team Fortress","app_id":440,"player_count":0,"max_players":24,"Bots":0,"server_type":"Dedicated","server_os":"Linux","password":true,"vac":true,"version":"7882260","steam_id":85568392925397959,"keywords":["cp","nocrits","nodmgspread","uncletopia"],"game_id":440,"stv_port":27056,"stv_name":"Uncletopia | Sydney | 5 | Stopwatch Beta | STV","players":null},{"server_id":59,"name":"Uncletopia | Sydney | 6 | Community","name_short":"syd-6","host":"syd-1.au.uncletopia.com","port":27065,"enabled":true,"region":"au","cc":"au","latitude":-33.865143,"longitude":151.2099,"reserved":0,"last_update":"0001-01-01T00:00:00Z","name_a2s":"Uncletopia | Sydney | 6 | Community","protocol":17,"map":"workshop/koth_product_final.ugc454272353","folder":"tf","game":"Team Fortress","app_id":440,"player_count":0,"max_players":24,"Bots":0,"server_type":"Dedicated","server_os":"Linux","password":true,"vac":true,"version":"7882260","steam_id":85568392925397960,"keywords":["cp","nocrits","nodmgspread","uncletopia"],"game_id":440,"stv_port":27066,"stv_name":"Uncletopia | Sydney | 6 | Community | STV","players":null},{"server_id":49,"name":"Uncletopia | Warsaw | 1 | All Maps","name_short":"waw-1","host":"waw-1.pl.uncletopia.com","port":27015,"enabled":true,"region":"eu","cc":"pl","latitude":52.2297,"longitude":21.017532,"reserved":0,"last_update":"0001-01-01T00:00:00Z","name_a2s":"","protocol":0,"map":"","folder":"","game":"","app_id":0,"player_count":0,"max_players":0,"Bots":0,"server_type":"","server_os":"","password":false,"vac":false,"version":"","steam_id":0,"keywords":null,"game_id":0,"stv_port":0,"stv_name":"","players":null},{"server_id":50,"name":"Uncletopia | Warsaw | 2 | All Maps","name_short":"waw-2","host":"waw-1.pl.uncletopia.com","port":27025,"enabled":true,"region":"eu","cc":"pl","latitude":52.2297,"longitude":21.017532,"reserved":0,"last_update":"0001-01-01T00:00:00Z","name_a2s":"Uncletopia | Warsaw | 2 | All Maps","protocol":17,"map":"pl_upward","folder":"tf","game":"Team Fortress","app_id":440,"player_count":0,"max_players":24,"Bots":0,"server_type":"Dedicated","server_os":"Linux","password":true,"vac":true,"version":"7882260","steam_id":85568392925397851,"keywords":["nocrits","nodmgspread","payload","uncletopia"],"game_id":440,"stv_port":27026,"stv_name":"Uncletopia | Warsaw | 2 | All Maps | STV","players":null},{"server_id":51,"name":"Uncletopia | Warsaw | 3 | All Maps","name_short":"waw-3","host":"waw-1.pl.uncletopia.com","port":27035,"enabled":true,"region":"eu","cc":"pl","latitude":52.2297,"longitude":21.017532,"reserved":0,"last_update":"0001-01-01T00:00:00Z","name_a2s":"Uncletopia | Warsaw | 3 | All Maps","protocol":17,"map":"koth_viaduct","folder":"tf","game":"Team Fortress","app_id":440,"player_count":0,"max_players":24,"Bots":0,"server_type":"Dedicated","server_os":"Linux","password":true,"vac":true,"version":"7882260","steam_id":85568392925397852,"keywords":["cp","nocrits","nodmgspread","uncletopia"],"game_id":440,"stv_port":27036,"stv_name":"Uncletopia | Warsaw | 3 | All Maps | STV","players":null},{"server_id":52,"name":"Uncletopia | Warsaw | 4 | All Maps","name_short":"waw-4","host":"waw-1.pl.uncletopia.com","port":27045,"enabled":true,"region":"eu","cc":"pl","latitude":52.2297,"longitude":21.017532,"reserved":0,"last_update":"0001-01-01T00:00:00Z","name_a2s":"Uncletopia | Warsaw | 4 | All Maps","protocol":17,"map":"koth_highpass","folder":"tf","game":"Team Fortress","app_id":440,"player_count":0,"max_players":24,"Bots":0,"server_type":"Dedicated","server_os":"Linux","password":true,"vac":true,"version":"7882260","steam_id":85568392925397853,"keywords":["cp","nocrits","nodmgspread","uncletopia"],"game_id":440,"stv_port":27046,"stv_name":"Uncletopia | Warsaw | 4 | All Maps | STV","players":null},{"server_id":53,"name":"Uncletopia | Warsaw | 5 | Stopwatch Beta","name_short":"waw-5","host":"waw-1.pl.uncletopia.com","port":27055,"enabled":true,"region":"eu","cc":"pl","latitude":52.2297,"longitude":21.017532,"reserved":0,"last_update":"0001-01-01T00:00:00Z","name_a2s":"Uncletopia | Warsaw | 5 | Stopwatch Beta","protocol":17,"map":"cp_mountainlab","folder":"tf","game":"Team Fortress","app_id":440,"player_count":0,"max_players":24,"Bots":0,"server_type":"Dedicated","server_os":"Linux","password":true,"vac":true,"version":"7882260","steam_id":85568392925397854,"keywords":["cp","nocrits","nodmgspread","uncletopia"],"game_id":440,"stv_port":27056,"stv_name":"Uncletopia | Warsaw | 5 | Stopwatch Beta | STV","players":null},{"server_id":54,"name":"Uncletopia | Warsaw | 6 | Community","name_short":"waw-6","host":"waw-1.pl.uncletopia.com","port":27065,"enabled":true,"region":"eu","cc":"pl","latitude":52.2297,"longitude":21.017532,"reserved":0,"last_update":"0001-01-01T00:00:00Z","name_a2s":"Uncletopia | Warsaw | 6 | Community","protocol":17,"map":"koth_viaduct","folder":"tf","game":"Team Fortress","app_id":440,"player_count":0,"max_players":24,"Bots":0,"server_type":"Dedicated","server_os":"Linux","password":true,"vac":true,"version":"7882260","steam_id":85568392925397856,"keywords":["cp","nocrits","nodmgspread","uncletopia"],"game_id":440,"stv_port":27066,"stv_name":"Uncletopia | Warsaw | 6 | Community | STV","players":null}]}