{"status":true,"message":"","result":[{"server_id":9,"name":"Uncletopia | Atlanta | 1 | All Maps","name_short":"atl-1","host":"atl-1.us.uncletopia.com","port":27015,"enabled":true,"region":"us-east","cc":"us","latitude":33.753746,"longitude":-84.38633,"reserved":0,"last_update":"0001-01-01T00:00:00Z","name_a2s":"Uncletopia | Atlanta | 1 | All Maps","protocol":17,"map":"pl_barnblitz","folder":"tf","game":"Team Fortress","app_id":440,"player_count":24,"max_players":24,"Bots":0,"server_type":"Dedicated","server_os":"Linux","password":true,"vac":true,"version":"7757534","steam_id":85568392924469982,"keywords":["nocrits","nodmgspread","payload","uncletopia"],"game_id":440,"stv_port":27016,"stv_name":"Uncletopia | Atlanta | 1 | All Maps | STV","players":[{"user_id":638,"name":"nky","steam_id":76561198086229832,"connected_time":786000000000,"state":"active","ping":135},{"user_id":629,"name":"chubbbo","steam_id":76561198943598378,"connected_time":1467000000000,"state":"active","ping":39},{"user_id":570,"name":"OrangeCrab","steam_id":76561198982248872,"connected_time":5990000000000,"state":"active","ping":62},{"user_id":631,"name":"floofy","steam_id":76561198389769098,"connected_time":1281000000000,"state":"active","ping":83},{"user_id":635,"name":"ash","steam_id":76561198127890645,"connected_time":1043000000000,"state":"active","ping":70},{"user_id":627,"name":"Dreszerg","steam_id":76561198838757422,"connected_time":1498000000000,"state":"active","ping":76},{"user_id":640,"name":"ATL1 | ma0re","steam_id":76561199231971506,"connected_time":769000000000,"state":"active","ping":57},{"user_id":644,"name":"Kingly","steam_id":76561199074303664,"connected_time":693000000000,"state":"active","ping":57},{"user_id":560,"name":"cheeks","steam_id":76561197993371179,"connected_time":7003000000000,"state":"active","ping":58},{"user_id":604,"name":"Daithi de Nogla","steam_id":76561198391995981,"connected_time":2059000000000,"state":"active","ping":68},{"user_id":606,"name":"Brown_Dream","steam_id":76561198975766145,"connected_time":2026000000000,"state":"active","ping":79},{"user_id":599,"name":"cola","steam_id":76561198374390458,"connected_time":2275000000000,"state":"active","ping":49},{"user_id":602,"name":"♥Bunny♥Slut♥","steam_id":76561198206376851,"connected_time":2204000000000,"state":"active","ping":99},{"user_id":589,"name":"kohlhagen","steam_id":76561198120440587,"connected_time":3266000000000,"state":"active","ping":49},{"user_id":642,"name":"com lag","steam_id":76561198019019392,"connected_time":748000000000,"state":"active","ping":72},{"user_id":554,"name":"Im High","steam_id":76561198049954886,"connected_time":7608000000000,"state":"active","ping":78},{"user_id":616,"name":"BLU1| Inky (Coolest)","steam_id":76561198968337022,"connected_time":1781000000000,"state":"active","ping":54},{"user_id":634,"name":"Onyx","steam_id":76561198275349640,"connected_time":1259000000000,"state":"active","ping":75},{"user_id":583,"name":"Emu","steam_id":76561197995789698,"connected_time":4351000000000,"state":"active","ping":54},{"user_id":523,"name":"Oddball","steam_id":76561198040440984,"connected_time":10278000000000,"state":"active","ping":87},{"user_id":593,"name":"sansa musa","steam_id":76561198163723555,"connected_time":2982000000000,"state":"active","ping":88},{"user_id":611,"name":"lil hog","steam_id":76561199230929836,"connected_time":1800000000000,"state":"active","ping":87},{"user_id":594,"name":"☙ Corrupt ❧","steam_id":76561197977631915,"connected_time":2981000000000,"state":"active","ping":59},{"user_id":637,"name":"ATL1 | Avo","steam_id":76561197993340494,"connected_time":1034000000000,"state":"active","ping":60}]},{"server_id":400,"name":"Uncletopia | Atlanta | 3 | Community","name_short":"atl-3","host":"atl-1.us.uncletopia.com","port":27035,"enabled":true,"region":"us-east","cc":"us","latitude":33.753746,"longitude":-84.38633,"reserved":0,"last_update":"0001-01-01T00:00:00Z","name_a2s":"Uncletopia | Atlanta | 3 | Community","protocol":17,"map":"workshop/pl_divulgence_b4b.ugc2884808746","folder":"tf","game":"Team Fortress","app_id":440,"player_count":1,"max_players":32,"Bots":0,"server_type":"Dedicated","server_os":"Linux","password":true,"vac":true,"version":"7757534","steam_id":85568392924515187,"keywords":["increased_maxplayers","nocrits","nodmgspread","payload","uncletopia"],"game_id":440,"stv_port":27036,"stv_name":"Uncletopia | Atlanta | 3 | Community | STV","players":[{"user_id":40,"name":"Just PYE","steam_id":76561199439622967,"connected_time":1000000000000,"state":"active","ping":69}]},{"server_id":401,"name":"Uncletopia | Atlanta | 4 | No Payload","name_short":"atl-4","host":"atl-1.us.uncletopia.com","port":27045,"enabled":true,"region":"us-east","cc":"us","latitude":33.753746,"longitude":-84.38633,"reserved":0,"last_update":"0001-01-01T00:00:00Z","name_a2s":"","protocol":0,"map":"","folder":"","game":"","app_id":0,"player_count":0,"max_players":0,"Bots":0,"server_type":"","server_os":"","password":false,"vac":false,"version":"","steam_id":0,"keywords":null,"game_id":0,"stv_port":0,"stv_name":"","players":null},{"server_id":2,"name":"Uncletopia | Chicago | 1 | All Maps","name_short":"chi-1","host":"chi-1.us.uncletopia.com","port":27015,"enabled":true,"region":"us-central","cc":"us","latitude":41.881832,"longitude":-87.62318,"reserved":0,"last_update":"0001-01-01T00:00:00Z","name_a2s":"Uncletopia | Chicago | 1 | All Maps","protocol":17,"map":"pl_barnblitz","folder":"tf","game":"Team Fortress","app_id":440,"player_count":24,"max_players":24,"Bots":0,"server_type":"Dedicated","server_os":"Linux","password":true,"vac":true,"version":"7757534","steam_id":85568392924469984,"keywords":["nocrits","nodmgspread","payload","uncletopia"],"game_id":440,"stv_port":27016,"stv_name":"Uncletopia | Chicago | 1 | All Maps | STV","players":[{"user_id":887,"name":"\u003c blank \u003e","steam_id":76561198012566503,"connected_time":956000000000,"state":"active","ping":102},{"user_id":873,"name":"tree","steam_id":76561198116885731,"connected_time":1269000000000,"state":"active","ping":50},{"user_id":868,"name":"Liquid Oxycodone","steam_id":76561198154162664,"connected_time":1365000000000,"state":"active","ping":82},{"user_id":871,"name":"Suspect3","steam_id":76561198063178963,"connected_time":1313000000000,"state":"active","ping":95},{"user_id":872,"name":"evan_is_sauce","steam_id":76561199086802383,"connected_time":1291000000000,"state":"active","ping":97},{"user_id":874,"name":"meg00se","steam_id":76561198246267144,"connected_time":1219000000000,"state":"active","ping":71},{"user_id":888,"name":"Volkan, Pervert Extraordinaire","steam_id":76561198004569575,"connected_time":945000000000,"state":"active","ping":73},{"user_id":875,"name":"Ok then","steam_id":76561198891914787,"connected_time":1214000000000,"state":"active","ping":112},{"user_id":866,"name":"chloe","steam_id":76561198369849908,"connected_time":1390000000000,"state":"active","ping":72},{"user_id":891,"name":"good_s1r","steam_id":76561199010842391,"connected_time":158000000000,"state":"active","ping":60},{"user_id":865,"name":"waluigi fortnite balls","steam_id":76561198083060760,"connected_time":1392000000000,"state":"active","ping":66},{"user_id":876,"name":"i am weed","steam_id":76561198419896433,"connected_time":1187000000000,"state":"active","ping":77},{"user_id":877,"name":"captaincaptain","steam_id":76561198135644587,"connected_time":1155000000000,"state":"active","ping":71},{"user_id":878,"name":"the sploogiest splooger","steam_id":76561199095126154,"connected_time":1152000000000,"state":"active","ping":101},{"user_id":879,"name":"jorjor wells","steam_id":76561199073429082,"connected_time":1126000000000,"state":"active","ping":64},{"user_id":880,"name":"wallbreaker","steam_id":76561199092789425,"connected_time":1120000000000,"state":"active","ping":61},{"user_id":881,"name":"grate_fiter-232","steam_id":76561198073424589,"connected_time":1108000000000,"state":"active","ping":65},{"user_id":882,"name":"2 DOGS 1 LEASH","steam_id":76561198083607304,"connected_time":1074000000000,"state":"active","ping":69},{"user_id":883,"name":"chilis baby back ribs","steam_id":76561198813516435,"connected_time":1055000000000,"state":"active","ping":98},{"user_id":889,"name":"shanghai","steam_id":76561197997961542,"connected_time":848000000000,"state":"active","ping":75},{"user_id":884,"name":"Frisk","steam_id":76561199074455949,"connected_time":1037000000000,"state":"active","ping":70},{"user_id":885,"name":"HeavyThunder","steam_id":76561198123016538,"connected_time":1020000000000,"state":"active","ping":117},{"user_id":890,"name":"B/S/SuperBoofOG","steam_id":76561197992030936,"connected_time":762000000000,"state":"active","ping":69},{"user_id":850,"name":"deadvelvet","steam_id":76561198829051922,"connected_time":2695000000000,"state":"active","ping":92}]},{"server_id":106,"name":"Uncletopia | Chicago | 2 | All Maps","name_short":"chi-2","host":"chi-1.us.uncletopia.com","port":27025,"enabled":true,"region":"us-central","cc":"us","latitude":41.881832,"longitude":-87.62318,"reserved":0,"last_update":"0001-01-01T00:00:00Z","name_a2s":"Uncletopia | Chicago | 2 | All Maps","protocol":17,"map":"pl_barnblitz","folder":"tf","game":"Team Fortress","app_id":440,"player_count":17,"max_players":24,"Bots":0,"server_type":"Dedicated","server_os":"Linux","password":true,"vac":true,"version":"7757534","steam_id":85568392924469985,"keywords":["nocrits","nodmgspread","payload","uncletopia"],"game_id":440,"stv_port":27026,"stv_name":"Uncletopia | Chicago | 2 | All Maps | STV","players":[{"user_id":396,"name":"daemon","steam_id":76561198001541433,"connected_time":72000000000,"state":"active","ping":56},{"user_id":394,"name":"Arnude","steam_id":76561198128553858,"connected_time":75000000000,"state":"active","ping":76},{"user_id":398,"name":"Congo","steam_id":76561198219267845,"connected_time":64000000000,"state":"connecting","ping":66},{"user_id":385,"name":"Spike Bones","steam_id":76561198234926120,"connected_time":1489000000000,"state":"active","ping":87},{"user_id":369,"name":"cotton candy thief","steam_id":76561198058998371,"connected_time":3479000000000,"state":"active","ping":71},{"user_id":392,"name":"Kapitan Bomba","steam_id":76561199102087660,"connected_time":255000000000,"state":"active","ping":108},{"user_id":358,"name":"Baka!⑨⑨⑨⑨","steam_id":76561198152948254,"connected_time":4246000000000,"state":"active","ping":67},{"user_id":395,"name":"Sage","steam_id":76561198143101697,"connected_time":74000000000,"state":"active","ping":98},{"user_id":390,"name":"Carbuncle","steam_id":76561198983852058,"connected_time":296000000000,"state":"active","ping":71},{"user_id":397,"name":"Biosock Infiknit","steam_id":76561198072693794,"connected_time":72000000000,"state":"active","ping":50},{"user_id":340,"name":"Viokik","steam_id":76561198408846602,"connected_time":5843000000000,"state":"active","ping":69},{"user_id":375,"name":"Max","steam_id":76561198029782094,"connected_time":1969000000000,"state":"active","ping":73},{"user_id":377,"name":"jibby","steam_id":76561198046872382,"connected_time":1955000000000,"state":"active","ping":51},{"user_id":393,"name":"hack fraud","steam_id":76561198015036066,"connected_time":83000000000,"state":"active","ping":94},{"user_id":365,"name":"ඞ","steam_id":76561198027779564,"connected_time":4144000000000,"state":"active","ping":49},{"user_id":366,"name":"trappy (showered)","steam_id":76561198402801140,"connected_time":4120000000000,"state":"active","ping":61},{"user_id":368,"name":"Chrisscar","steam_id":76561198086298130,"connected_time":3834000000000,"state":"active","ping":98}]},{"server_id":402,"name":"Uncletopia | Chicago | 3 | All Maps","name_short":"chi-3","host":"chi-1.us.uncletopia.com","port":27035,"enabled":true,"region":"us-central","cc":"us","latitude":41.881832,"longitude":-87.62318,"reserved":0,"last_update":"0001-01-01T00:00:00Z","name_a2s":"Uncletopia | Chicago | 3 | All Maps","protocol":17,"map":"pl_frontier_final","folder":"tf","game":"Team Fortress","app_id":440,"player_count":24,"max_players":24,"Bots":0,"server_type":"Dedicated","server_os":"Linux","password":true,"vac":true,"version":"7757534","steam_id":85568392924515191,"keywords":["nocrits","nodmgspread","payload","uncletopia"],"game_id":440,"stv_port":27036,"stv_name":"Uncletopia | Chicago | 3 | All Maps | STV","players":[{"user_id":414,"name":"putz","steam_id":76561198100601393,"connected_time":1180000000000,"state":"active","ping":62},{"user_id":431,"name":"hoodwink00❤","steam_id":76561198133869796,"connected_time":332000000000,"state":"active","ping":90},{"user_id":441,"name":"TheFallenFox","steam_id":76561199074190919,"connected_time":133000000000,"state":"active","ping":139},{"user_id":355,"name":"Marisad","steam_id":76561198843890616,"connected_time":6527000000000,"state":"active","ping":86},{"user_id":359,"name":"The strongest ⑨ ball","steam_id":76561198126760743,"connected_time":6265000000000,"state":"active","ping":74},{"user_id":442,"name":"IHave2000HoursButPlayLIkeIHave1","steam_id":76561198295280927,"connected_time":55000000000,"state":"active","ping":72},{"user_id":416,"name":"Thequirka","steam_id":76561198968058652,"connected_time":1116000000000,"state":"active","ping":93},{"user_id":435,"name":"CakeCadaver","steam_id":76561198080388883,"connected_time":283000000000,"state":"active","ping":91},{"user_id":419,"name":"object permanence","steam_id":76561198050393061,"connected_time":980000000000,"state":"active","ping":74},{"user_id":404,"name":"stoner catgirl","steam_id":76561198337705174,"connected_time":2457000000000,"state":"active","ping":73},{"user_id":433,"name":"Highway Gothic","steam_id":76561198118102935,"connected_time":316000000000,"state":"active","ping":63},{"user_id":394,"name":"Filthy Acts at Reasonable Price","steam_id":76561198354615890,"connected_time":3297000000000,"state":"active","ping":55},{"user_id":430,"name":"es","steam_id":76561198006892337,"connected_time":557000000000,"state":"active","ping":122},{"user_id":434,"name":"Turtlin'","steam_id":76561198885096042,"connected_time":304000000000,"state":"active","ping":64},{"user_id":436,"name":"ʕ•ᴥ•ʔ the bear","steam_id":76561197989591976,"connected_time":272000000000,"state":"active","ping":81},{"user_id":410,"name":"Codo Sapien","steam_id":76561198014206810,"connected_time":1635000000000,"state":"active","ping":41},{"user_id":424,"name":"shpill","steam_id":76561198099980981,"connected_time":910000000000,"state":"active","ping":74},{"user_id":438,"name":"ARegularJohnDoe","steam_id":76561198015020139,"connected_time":171000000000,"state":"active","ping":60},{"user_id":412,"name":"Poyo Boyo","steam_id":76561198010201227,"connected_time":1466000000000,"state":"active","ping":74},{"user_id":426,"name":"SneakySneak","steam_id":76561198064847921,"connected_time":898000000000,"state":"active","ping":107},{"user_id":437,"name":"caption cool","steam_id":76561197990612056,"connected_time":260000000000,"state":"active","ping":44},{"user_id":382,"name":"Lucon","steam_id":76561198067147724,"connected_time":5193000000000,"state":"active","ping":59},{"user_id":429,"name":"gock in my rawrie","steam_id":76561198185980055,"connected_time":668000000000,"state":"active","ping":61},{"user_id":440,"name":"Toa of Time","steam_id":76561198086867556,"connected_time":150000000000,"state":"active","ping":214}]},{"server_id":403,"name":"Uncletopia | Chicago | 4 | All Maps","name_short":"chi-4","host":"chi-1.us.uncletopia.com","port":27045,"enabled":true,"region":"us-central","cc":"us","latitude":41.881832,"longitude":-87.62318,"reserved":0,"last_update":"0001-01-01T00:00:00Z","name_a2s":"Uncletopia | Chicago | 4 | All Maps","protocol":17,"map":"pl_swiftwater_final1","folder":"tf","game":"Team Fortress","app_id":440,"player_count":24,"max_players":24,"Bots":0,"server_type":"Dedicated","server_os":"Linux","password":true,"vac":true,"version":"7757534","steam_id":85568392924515193,"keywords":["nocrits","nodmgspread","payload","uncletopia"],"game_id":440,"stv_port":27046,"stv_name":"Uncletopia | Chicago | 4 | All Maps | STV","players":[{"user_id":377,"name":"Mike Bean Burritos","steam_id":76561198173430607,"connected_time":1358000000000,"state":"active","ping":93},{"user_id":372,"name":"Piyono","steam_id":76561197962188504,"connected_time":1395000000000,"state":"active","ping":66},{"user_id":324,"name":"Mush","steam_id":76561198393461065,"connected_time":4103000000000,"state":"active","ping":79},{"user_id":302,"name":"solitude freak","steam_id":76561198066585785,"connected_time":6537000000000,"state":"active","ping":75},{"user_id":350,"name":"kametro4","steam_id":76561198835430429,"connected_time":3379000000000,"state":"active","ping":90},{"user_id":386,"name":"Poison Ivy","steam_id":76561198072384574,"connected_time":319000000000,"state":"active","ping":54},{"user_id":287,"name":"Feeshy","steam_id":76561198061103166,"connected_time":8338000000000,"state":"active","ping":59},{"user_id":368,"name":"Bheem","steam_id":76561198170453459,"connected_time":1690000000000,"state":"active","ping":99},{"user_id":323,"name":"Rockcrusher","steam_id":76561199012666353,"connected_time":4301000000000,"state":"active","ping":71},{"user_id":378,"name":"akirajimbo","steam_id":76561197979960008,"connected_time":1348000000000,"state":"active","ping":54},{"user_id":305,"name":"Riske","steam_id":76561198115840568,"connected_time":6383000000000,"state":"active","ping":72},{"user_id":330,"name":"Anderred","steam_id":76561198149983847,"connected_time":4047000000000,"state":"active","ping":84},{"user_id":312,"name":"Dr. Dick","steam_id":76561198138011922,"connected_time":5708000000000,"state":"active","ping":86},{"user_id":342,"name":"Camdo8745","steam_id":76561198038758531,"connected_time":3749000000000,"state":"active","ping":60},{"user_id":373,"name":"The local hobo","steam_id":76561198289650060,"connected_time":1385000000000,"state":"active","ping":85},{"user_id":382,"name":"self sufficient kitten","steam_id":76561197960592612,"connected_time":953000000000,"state":"active","ping":90},{"user_id":353,"name":"motherfucker 2.0","steam_id":76561198141189209,"connected_time":3354000000000,"state":"active","ping":66},{"user_id":375,"name":"❤ Ashley ❤","steam_id":76561198056428303,"connected_time":1383000000000,"state":"active","ping":99},{"user_id":299,"name":"Predicta","steam_id":76561198017630616,"connected_time":6931000000000,"state":"active","ping":48},{"user_id":376,"name":"a table","steam_id":76561198158461279,"connected_time":1380000000000,"state":"active","ping":81},{"user_id":364,"name":"RockMan","steam_id":76561199228684720,"connected_time":2662000000000,"state":"active","ping":82},{"user_id":379,"name":"rudy","steam_id":76561198088712799,"connected_time":1345000000000,"state":"active","ping":77},{"user_id":380,"name":"Sngreymann","steam_id":76561198072154365,"connected_time":1342000000000,"state":"active","ping":63},{"user_id":371,"name":"Ace","steam_id":76561198309637160,"connected_time":1530000000000,"state":"active","ping":45}]},{"server_id":36,"name":"Uncletopia | Chicago | 5 | All Maps","name_short":"chi-5","host":"chi-2.us.uncletopia.com","port":27015,"enabled":true,"region":"us-central","cc":"us","latitude":41.881832,"longitude":-87.62318,"reserved":0,"last_update":"0001-01-01T00:00:00Z","name_a2s":"Uncletopia | Chicago | 5 | All Maps","protocol":17,"map":"pl_swiftwater_final1","folder":"tf","game":"Team Fortress","app_id":440,"player_count":24,"max_players":24,"Bots":0,"server_type":"Dedicated","server_os":"Linux","password":true,"vac":true,"version":"7757534","steam_id":85568392924866362,"keywords":["nocrits","nodmgspread","payload","uncletopia"],"game_id":440,"stv_port":27016,"stv_name":"Uncletopia | Chicago | 5 | All Maps | STV","players":[{"user_id":409,"name":"Fumpo","steam_id":76561198206873365,"connected_time":4480000000000,"state":"active","ping":68},{"user_id":464,"name":"MC-ReN™","steam_id":76561197974243668,"connected_time":280000000000,"state":"active","ping":58},{"user_id":447,"name":"serynsa","steam_id":76561198066987189,"connected_time":715000000000,"state":"active","ping":44},{"user_id":445,"name":"iansav","steam_id":76561198346746454,"connected_time":869000000000,"state":"active","ping":82},{"user_id":467,"name":"deskmedic","steam_id":76561198295640486,"connected_time":196000000000,"state":"active","ping":100},{"user_id":417,"name":"ProfessorBadger","steam_id":76561198276916055,"connected_time":3568000000000,"state":"active","ping":116},{"user_id":466,"name":"drift.ag21","steam_id":76561198093781093,"connected_time":253000000000,"state":"active","ping":53},{"user_id":438,"name":"yeahelliot","steam_id":76561198167299951,"connected_time":2258000000000,"state":"active","ping":73},{"user_id":434,"name":"Animal Slices","steam_id":76561198137545511,"connected_time":2825000000000,"state":"active","ping":60},{"user_id":422,"name":"majorbobfunction","steam_id":76561198042464632,"connected_time":3423000000000,"state":"active","ping":60},{"user_id":468,"name":"Pixeation","steam_id":76561198146383614,"connected_time":174000000000,"state":"active","ping":66},{"user_id":440,"name":"Javaris Jamar Javarison-Lamar","steam_id":76561198146951387,"connected_time":2022000000000,"state":"active","ping":83},{"user_id":435,"name":"Spoilt Pudding","steam_id":76561198001195423,"connected_time":2658000000000,"state":"active","ping":83},{"user_id":469,"name":"gettysburg","steam_id":76561198016157051,"connected_time":145000000000,"state":"active","ping":74},{"user_id":439,"name":"nalezinik","steam_id":76561198030026119,"connected_time":2258000000000,"state":"active","ping":61},{"user_id":470,"name":"Toxic Skeleton","steam_id":76561198355612935,"connected_time":141000000000,"state":"active","ping":90},{"user_id":410,"name":"Action_Quacktion","steam_id":76561198407062426,"connected_time":3964000000000,"state":"active","ping":69},{"user_id":408,"name":"bergly","steam_id":76561198811650078,"connected_time":4579000000000,"state":"active","ping":88},{"user_id":411,"name":"Hairy Pear","steam_id":76561198087397457,"connected_time":3719000000000,"state":"active","ping":79},{"user_id":436,"name":"morbissey","steam_id":76561198072592880,"connected_time":2299000000000,"state":"active","ping":45},{"user_id":471,"name":"Dingolf","steam_id":76561198010127454,"connected_time":113000000000,"state":"active","ping":102},{"user_id":441,"name":"-W3E- grim10465","steam_id":76561198045698581,"connected_time":1764000000000,"state":"active","ping":54},{"user_id":442,"name":"ornithopter_02","steam_id":76561198267827977,"connected_time":1599000000000,"state":"active","ping":58},{"user_id":446,"name":"GlorbGuy","steam_id":76561199031873804,"connected_time":819000000000,"state":"active","ping":130}]},{"server_id":37,"name":"Uncletopia | Chicago | 6 | All Maps","name_short":"chi-6","host":"chi-2.us.uncletopia.com","port":27025,"enabled":true,"region":"us-central","cc":"us","latitude":41.881832,"longitude":-87.62318,"reserved":0,"last_update":"0001-01-01T00:00:00Z","name_a2s":"Uncletopia | Chicago | 6 | All Maps","protocol":17,"map":"pl_frontier_final","folder":"tf","game":"Team Fortress","app_id":440,"player_count":24,"max_players":24,"Bots":0,"server_type":"Dedicated","server_os":"Linux","password":true,"vac":true,"version":"7757534","steam_id":85568392924866363,"keywords":["nocrits","nodmgspread","payload","uncletopia"],"game_id":440,"stv_port":27026,"stv_name":"Uncletopia | Chicago | 6 | All Maps | STV","players":[{"user_id":347,"name":"feathers mcgraw","steam_id":76561198056971063,"connected_time":988000000000,"state":"active","ping":51},{"user_id":335,"name":"dawg","steam_id":76561198019444443,"connected_time":1710000000000,"state":"active","ping":89},{"user_id":268,"name":"Jesse Thinkman","steam_id":76561198061675475,"connected_time":4451000000000,"state":"active","ping":71},{"user_id":302,"name":"Mr_Frosty","steam_id":76561199380389079,"connected_time":3476000000000,"state":"active","ping":109},{"user_id":291,"name":"Yam Jazzy Jim","steam_id":76561198000788950,"connected_time":3820000000000,"state":"active","ping":69},{"user_id":350,"name":"mcdoubble","steam_id":76561198089126832,"connected_time":48000000000,"state":"active","ping":87},{"user_id":298,"name":"pete_the_cat_2014","steam_id":76561198199266047,"connected_time":3603000000000,"state":"active","ping":58},{"user_id":334,"name":"uhooter","steam_id":76561198007829078,"connected_time":1760000000000,"state":"active","ping":51},{"user_id":228,"name":"toadlet","steam_id":76561198125261443,"connected_time":6722000000000,"state":"active","ping":113},{"user_id":303,"name":"slothy","steam_id":76561198129871900,"connected_time":3457000000000,"state":"active","ping":73},{"user_id":348,"name":"Black Hole Sus (Amongus)","steam_id":76561198006261751,"connected_time":753000000000,"state":"active","ping":43},{"user_id":317,"name":"StarWither","steam_id":76561198383264295,"connected_time":2986000000000,"state":"active","ping":97},{"user_id":346,"name":"Lowkey Lopes","steam_id":76561198003181343,"connected_time":1120000000000,"state":"active","ping":62},{"user_id":342,"name":"Glass Joe","steam_id":76561198317365741,"connected_time":1371000000000,"state":"active","ping":63},{"user_id":339,"name":"META.exe","steam_id":76561199067098696,"connected_time":1473000000000,"state":"active","ping":83},{"user_id":324,"name":"psy","steam_id":76561198013195018,"connected_time":2705000000000,"state":"active","ping":78},{"user_id":308,"name":"NefariousNick","steam_id":76561198313348717,"connected_time":3384000000000,"state":"active","ping":91},{"user_id":330,"name":"Chucklin","steam_id":76561198010823579,"connected_time":2142000000000,"state":"active","ping":66},{"user_id":341,"name":"The Law","steam_id":76561198202209948,"connected_time":1395000000000,"state":"active","ping":48},{"user_id":345,"name":"DiscoTraveler","steam_id":76561199240168088,"connected_time":1218000000000,"state":"active","ping":63},{"user_id":259,"name":"Ace Chromatica","steam_id":76561198042211131,"connected_time":4637000000000,"state":"active","ping":66},{"user_id":309,"name":"SalamenceFury","steam_id":76561198054585848,"connected_time":3373000000000,"state":"active","ping":143},{"user_id":333,"name":"TheRealMud","steam_id":76561198138312993,"connected_time":1990000000000,"state":"active","ping":78},{"user_id":344,"name":"big ol' buford","steam_id":76561198290675957,"connected_time":1316000000000,"state":"active","ping":68}]},{"server_id":38,"name":"Uncletopia | Chicago | 7 | Stopwatch Beta","name_short":"chi-7","host":"chi-2.us.uncletopia.com","port":27035,"enabled":true,"region":"us-central","cc":"us","latitude":41.881832,"longitude":-87.62318,"reserved":0,"last_update":"0001-01-01T00:00:00Z","name_a2s":"Uncletopia | Chicago | 7 | Stopwatch Beta","protocol":17,"map":"pl_upward","folder":"tf","game":"Team Fortress","app_id":440,"player_count":0,"max_players":24,"Bots":0,"server_type":"Dedicated","server_os":"Linux","password":true,"vac":true,"version":"7757534","steam_id":85568392924866364,"keywords":["nocrits","nodmgspread","payload","uncletopia"],"game_id":440,"stv_port":27036,"stv_name":"Uncletopia | Chicago | 7 | Stopwatch Beta | STV","players":null},{"server_id":39,"name":"Uncletopia | Chicago | 8 | Community","name_short":"chi-8","host":"chi-2.us.uncletopia.com","port":27045,"enabled":true,"region":"us-central","cc":"us","latitude":41.881832,"longitude":-87.62318,"reserved":0,"last_update":"0001-01-01T00:00:00Z","name_a2s":"Uncletopia | Chicago | 8 | Community","protocol":17,"map":"workshop/pl_fifthcurve_rc1.ugc648227046","folder":"tf","game":"Team Fortress","app_id":440,"player_count":0,"max_players":24,"Bots":0,"server_type":"Dedicated","server_os":"Linux","password":true,"vac":true,"version":"7757534","steam_id":85568392924866365,"keywords":["nocrits","nodmgspread","payload","uncletopia"],"game_id":440,"stv_port":27046,"stv_name":"Uncletopia | Chicago | 8 | Community | STV","players":null},{"server_id":8,"name":"Uncletopia | Dallas | 1 | All Maps","name_short":"dal-1","host":"dal-1.us.uncletopia.com","port":27015,"enabled":true,"region":"us-central","cc":"us","latitude":32.779167,"longitude":-96.80889,"reserved":0,"last_update":"0001-01-01T00:00:00Z","name_a2s":"Uncletopia | Dallas | 1 | All Maps","protocol":17,"map":"koth_highpass","folder":"tf","game":"Team Fortress","app_id":440,"player_count":22,"max_players":24,"Bots":0,"server_type":"Dedicated","server_os":"Linux","password":true,"vac":true,"version":"7757534","steam_id":85568392924469986,"keywords":["cp","nocrits","nodmgspread","uncletopia"],"game_id":440,"stv_port":27016,"stv_name":"Uncletopia | Dallas | 1 | All Maps | STV","players":[{"user_id":500,"name":"Tingus Pingus","steam_id":76561198155412348,"connected_time":5657000000000,"state":"spawning","ping":66},{"user_id":551,"name":"ferby","steam_id":76561198028229594,"connected_time":845000000000,"state":"spawning","ping":86},{"user_id":538,"name":"lamadre07","steam_id":76561198067337453,"connected_time":2976000000000,"state":"spawning","ping":71},{"user_id":516,"name":"Donnie Blasto","steam_id":76561198043432005,"connected_time":4285000000000,"state":"spawning","ping":88},{"user_id":506,"name":"spartanbeast54","steam_id":76561198093870762,"connected_time":5095000000000,"state":"spawning","ping":95},{"user_id":558,"name":"Booker","steam_id":76561198065120639,"connected_time":378000000000,"state":"spawning","ping":62},{"user_id":517,"name":"chicken wit dah eggrow","steam_id":76561198115458307,"connected_time":4198000000000,"state":"spawning","ping":90},{"user_id":546,"name":"momb","steam_id":76561198142234038,"connected_time":2108000000000,"state":"spawning","ping":72},{"user_id":552,"name":"BoxBoy","steam_id":76561198389904009,"connected_time":792000000000,"state":"spawning","ping":104},{"user_id":518,"name":"Ansem","steam_id":76561198165199912,"connected_time":4187000000000,"state":"spawning","ping":84},{"user_id":509,"name":"nomandrake","steam_id":76561198407762407,"connected_time":5014000000000,"state":"spawning","ping":67},{"user_id":533,"name":"Lemon Demon Enthusiast","steam_id":76561199026721822,"connected_time":3313000000000,"state":"spawning","ping":104},{"user_id":541,"name":"OddSlaush","steam_id":76561198043898488,"connected_time":2579000000000,"state":"spawning","ping":68},{"user_id":557,"name":"blackwillow73@aol.com","steam_id":76561198035665009,"connected_time":386000000000,"state":"spawning","ping":111},{"user_id":555,"name":"An Erect Penis :)","steam_id":76561198086477485,"connected_time":694000000000,"state":"spawning","ping":65},{"user_id":524,"name":"perfect inCell","steam_id":76561198059182316,"connected_time":3677000000000,"state":"spawning","ping":91},{"user_id":548,"name":"swagcaptain","steam_id":76561198411245618,"connected_time":1031000000000,"state":"spawning","ping":100},{"user_id":513,"name":"MaximumAce","steam_id":76561198359596849,"connected_time":4969000000000,"state":"spawning","ping":90},{"user_id":560,"name":"ƐՌѴƳ","steam_id":76561198099470277,"connected_time":98000000000,"state":"spawning","ping":58},{"user_id":554,"name":"namey","steam_id":76561198018564445,"connected_time":710000000000,"state":"spawning","ping":71},{"user_id":547,"name":"Cad","steam_id":76561198312145232,"connected_time":2061000000000,"state":"spawning","ping":107},{"user_id":544,"name":"Ojen","steam_id":76561197998414482,"connected_time":2283000000000,"state":"spawning","ping":73}]},{"server_id":108,"name":"Uncletopia | Dallas | 2 | All Maps","name_short":"dal-2","host":"dal-1.us.uncletopia.com","port":27025,"enabled":true,"region":"us-central","cc":"us","latitude":32.779167,"longitude":-96.80889,"reserved":0,"last_update":"0001-01-01T00:00:00Z","name_a2s":"Uncletopia | Dallas | 2 | All Maps","protocol":17,"map":"cp_process_final","folder":"tf","game":"Team Fortress","app_id":440,"player_count":24,"max_players":24,"Bots":0,"server_type":"Dedicated","server_os":"Linux","password":true,"vac":true,"version":"7757534","steam_id":85568392924469988,"keywords":["cp","nocrits","nodmgspread","uncletopia"],"game_id":440,"stv_port":27026,"stv_name":"Uncletopia | Dallas | 2 | All Maps | STV","players":[{"user_id":217,"name":"heiny :3","steam_id":76561197992551013,"connected_time":7131000000000,"state":"active","ping":53},{"user_id":237,"name":"Moonflower ✦","steam_id":76561198191782483,"connected_time":3138000000000,"state":"active","ping":51},{"user_id":229,"name":"BigBubble42","steam_id":76561198136286123,"connected_time":4655000000000,"state":"active","ping":27},{"user_id":261,"name":"sexypringle","steam_id":76561198401282091,"connected_time":954000000000,"state":"active","ping":74},{"user_id":213,"name":"Doom Guy","steam_id":76561198035863569,"connected_time":7337000000000,"state":"active","ping":80},{"user_id":195,"name":"dan","steam_id":76561197984998426,"connected_time":8839000000000,"state":"active","ping":96},{"user_id":248,"name":"Pimastr","steam_id":76561198230996464,"connected_time":1375000000000,"state":"active","ping":89},{"user_id":196,"name":"Sammich","steam_id":76561198010543087,"connected_time":8799000000000,"state":"active","ping":60},{"user_id":246,"name":"Clip","steam_id":76561197970745727,"connected_time":1398000000000,"state":"active","ping":69},{"user_id":250,"name":"MatchMatch","steam_id":76561198048925904,"connected_time":1356000000000,"state":"active","ping":85},{"user_id":267,"name":"Spooky Gus","steam_id":76561198353285915,"connected_time":361000000000,"state":"active","ping":40},{"user_id":233,"name":"docstaph","steam_id":76561197985145935,"connected_time":3506000000000,"state":"active","ping":80},{"user_id":264,"name":"DragonHeart","steam_id":76561198013245625,"connected_time":474000000000,"state":"active","ping":73},{"user_id":274,"name":"Astro","steam_id":76561198035676106,"connected_time":182000000000,"state":"active","ping":69},{"user_id":253,"name":"ham bone","steam_id":76561198351143785,"connected_time":1256000000000,"state":"active","ping":78},{"user_id":271,"name":"Quietsharp","steam_id":76561198277968438,"connected_time":330000000000,"state":"active","ping":82},{"user_id":247,"name":"Yams","steam_id":76561198068084541,"connected_time":1398000000000,"state":"active","ping":54},{"user_id":268,"name":"white woman","steam_id":76561199116679777,"connected_time":353000000000,"state":"active","ping":70},{"user_id":272,"name":"Anthoneeee","steam_id":76561199209220671,"connected_time":326000000000,"state":"active","ping":98},{"user_id":269,"name":"ruvik","steam_id":76561198121050854,"connected_time":353000000000,"state":"active","ping":100},{"user_id":230,"name":"RokkitFrog","steam_id":76561198046465850,"connected_time":4339000000000,"state":"active","ping":49},{"user_id":231,"name":"dob","steam_id":76561198004385130,"connected_time":3964000000000,"state":"active","ping":74},{"user_id":266,"name":"Avantee","steam_id":76561198089159469,"connected_time":396000000000,"state":"active","ping":75},{"user_id":273,"name":"Junior_198X","steam_id":76561198158596794,"connected_time":251000000000,"state":"active","ping":86}]},{"server_id":5,"name":"Uncletopia | Frankfurt | 1 | All Maps","name_short":"frk-1","host":"frk-1.de.uncletopia.com","port":27015,"enabled":true,"region":"eu","cc":"de","latitude":50.110924,"longitude":8.682127,"reserved":0,"last_update":"0001-01-01T00:00:00Z","name_a2s":"Uncletopia | Frankfurt | 1 | All Maps","protocol":17,"map":"pl_snowycoast","folder":"tf","game":"Team Fortress","app_id":440,"player_count":0,"max_players":24,"Bots":0,"server_type":"Dedicated","server_os":"Linux","password":true,"vac":true,"version":"7757534","steam_id":85568392924469989,"keywords":["nocrits","nodmgspread","payload","uncletopia"],"game_id":440,"stv_port":27016,"stv_name":"Uncletopia | Frankfurt | 1 | All Maps | STV","players":null},{"server_id":110,"name":"Uncletopia | Frankfurt | 2 | All Maps","name_short":"frk-2","host":"frk-1.de.uncletopia.com","port":27025,"enabled":true,"region":"eu","cc":"de","latitude":50.110924,"longitude":8.682127,"reserved":0,"last_update":"0001-01-01T00:00:00Z","name_a2s":"Uncletopia | Frankfurt | 2 | All Maps","protocol":17,"map":"pl_snowycoast","folder":"tf","game":"Team Fortress","app_id":440,"player_count":0,"max_players":24,"Bots":0,"server_type":"Dedicated","server_os":"Linux","password":true,"vac":true,"version":"7757534","steam_id":85568392924469990,"keywords":["nocrits","nodmgspread","payload","uncletopia"],"game_id":440,"stv_port":27026,"stv_name":"Uncletopia | Frankfurt | 2 | All Maps | STV","players":null},{"server_id":308,"name":"Uncletopia | Frankfurt | 3 | All Maps","name_short":"frk-3","host":"frk-1.de.uncletopia.com","port":27035,"enabled":true,"region":"eu","cc":"de","latitude":50.110924,"longitude":8.682127,"reserved":0,"last_update":"0001-01-01T00:00:00Z","name_a2s":"Uncletopia | Frankfurt | 3 | All Maps","protocol":17,"map":"cp_altitude","folder":"tf","game":"Team Fortress","app_id":440,"player_count":0,"max_players":24,"Bots":0,"server_type":"Dedicated","server_os":"Linux","password":true,"vac":true,"version":"7757534","steam_id":85568392924504274,"keywords":["cp","nocrits","nodmgspread","uncletopia"],"game_id":440,"stv_port":27036,"stv_name":"Uncletopia | Frankfurt | 3 | All Maps | STV","players":null},{"server_id":309,"name":"Uncletopia | Frankfurt | 4 | All Maps","name_short":"frk-4","host":"frk-1.de.uncletopia.com","port":27045,"enabled":true,"region":"eu","cc":"de","latitude":50.110924,"longitude":8.682127,"reserved":0,"last_update":"0001-01-01T00:00:00Z","name_a2s":"Uncletopia | Frankfurt | 4 | All Maps","protocol":17,"map":"cp_altitude","folder":"tf","game":"Team Fortress","app_id":440,"player_count":0,"max_players":24,"Bots":0,"server_type":"Dedicated","server_os":"Linux","password":true,"vac":true,"version":"7757534","steam_id":85568392924504275,"keywords":["cp","nocrits","nodmgspread","uncletopia"],"game_id":440,"stv_port":27046,"stv_name":"Uncletopia | Frankfurt | 4 | All Maps | STV","players":null},{"server_id":310,"name":"Uncletopia | Frankfurt | 5 | All Maps","name_short":"frk-5","host":"frk-1.de.uncletopia.com","port":27055,"enabled":true,"region":"eu","cc":"de","latitude":50.110924,"longitude":8.682127,"reserved":0,"last_update":"0001-01-01T00:00:00Z","name_a2s":"Uncletopia | Frankfurt | 5 | All Maps","protocol":17,"map":"cp_altitude","folder":"tf","game":"Team Fortress","app_id":440,"player_count":0,"max_players":24,"Bots":0,"server_type":"Dedicated","server_os":"Linux","password":true,"vac":true,"version":"7757534","steam_id":85568392924504277,"keywords":["cp","nocrits","nodmgspread","uncletopia"],"game_id":440,"stv_port":27056,"stv_name":"Uncletopia | Frankfurt | 5 | All Maps | STV","players":null},{"server_id":311,"name":"Uncletopia | Frankfurt | 6 | All Maps","name_short":"frk-6","host":"frk-1.de.uncletopia.com","port":27065,"enabled":true,"region":"eu","cc":"de","latitude":50.110924,"longitude":8.682127,"reserved":0,"last_update":"0001-01-01T00:00:00Z","name_a2s":"Uncletopia | Frankfurt | 6 | All Maps","protocol":17,"map":"koth_highpass","folder":"tf","game":"Team Fortress","app_id":440,"player_count":0,"max_players":24,"Bots":0,"server_type":"Dedicated","server_os":"Linux","password":true,"vac":true,"version":"7757534","steam_id":85568392924504278,"keywords":["cp","nocrits","nodmgspread","uncletopia"],"game_id":440,"stv_port":27066,"stv_name":"Uncletopia | Frankfurt | 6 | All Maps | STV","players":null},{"server_id":23,"name":"Uncletopia | Frankfurt | 7 | Stopwatch Beta","name_short":"frk-7","host":"frk-1.de.uncletopia.com","port":27075,"enabled":true,"region":"eu","cc":"de","latitude":50.110924,"longitude":8.682127,"reserved":0,"last_update":"0001-01-01T00:00:00Z","name_a2s":"Uncletopia | Frankfurt | 7 | Stopwatch Beta","protocol":17,"map":"pl_frontier_final","folder":"tf","game":"Team Fortress","app_id":440,"player_count":0,"max_players":24,"Bots":0,"server_type":"Dedicated","server_os":"Linux","password":true,"vac":true,"version":"7757534","steam_id":85568392924742827,"keywords":["nocrits","nodmgspread","payload","uncletopia"],"game_id":440,"stv_port":27076,"stv_name":"Uncletopia | Frankfurt | 7 | Stopwatch Beta | STV","players":null},{"server_id":24,"name":"Uncletopia | Frankfurt | 8 | Community","name_short":"frk-8","host":"frk-1.de.uncletopia.com","port":27085,"enabled":true,"region":"eu","cc":"de","latitude":50.110924,"longitude":8.682127,"reserved":0,"last_update":"0001-01-01T00:00:00Z","name_a2s":"Uncletopia | Frankfurt | 8 | Community","protocol":17,"map":"pl_badwater","folder":"tf","game":"Team Fortress","app_id":440,"player_count":0,"max_players":24,"Bots":0,"server_type":"Dedicated","server_os":"Linux","password":true,"vac":true,"version":"7757534","steam_id":85568392924742828,"keywords":["nocrits","nodmgspread","payload","uncletopia"],"game_id":440,"stv_port":27086,"stv_name":"Uncletopia | Frankfurt | 8 | Community | STV","players":null},{"server_id":202,"name":"Uncletopia | Hong Kong | 1 | All Maps","name_short":"hgk-1","host":"hgk-1.hk.uncletopia.com","port":27015,"enabled":true,"region":"asia","cc":"hk","latitude":22.302711,"longitude":114.177216,"reserved":0,"last_update":"0001-01-01T00:00:00Z","name_a2s":"Uncletopia | Hong Kong | 1 | All Maps","protocol":17,"map":"pl_barnblitz","folder":"tf","game":"Team Fortress","app_id":440,"player_count":23,"max_players":24,"Bots":0,"server_type":"Dedicated","server_os":"Linux","password":true,"vac":true,"version":"7757534","steam_id":85568392924494504,"keywords":["nocrits","nodmgspread","payload","uncletopia"],"game_id":440,"stv_port":27016,"stv_name":"Uncletopia | Hong Kong | 1 | All Maps | STV","players":[{"user_id":70,"name":"Buttman","steam_id":76561198044693388,"connected_time":1050000000000,"state":"active","ping":49},{"user_id":60,"name":"cube","steam_id":76561198132354269,"connected_time":2692000000000,"state":"active","ping":113},{"user_id":47,"name":"linne","steam_id":76561198230213828,"connected_time":4315000000000,"state":"active","ping":60},{"user_id":76,"name":"Aug","steam_id":76561199212711900,"connected_time":338000000000,"state":"active","ping":116},{"user_id":68,"name":"niceguy6785","steam_id":76561199442589750,"connected_time":1386000000000,"state":"active","ping":48},{"user_id":18,"name":"David Keithson","steam_id":76561199279393636,"connected_time":6319000000000,"state":"active","ping":69},{"user_id":56,"name":"Milk❤ (UT Enjoyer)","steam_id":76561198163911560,"connected_time":3030000000000,"state":"active","ping":130},{"user_id":61,"name":"spinach (old mouse)","steam_id":76561198042539541,"connected_time":2270000000000,"state":"active","ping":84},{"user_id":64,"name":"Puddin","steam_id":76561198140052918,"connected_time":2158000000000,"state":"active","ping":100},{"user_id":73,"name":"jeff","steam_id":76561198327306842,"connected_time":707000000000,"state":"active","ping":81},{"user_id":25,"name":"sterzun","steam_id":76561198300004922,"connected_time":5584000000000,"state":"active","ping":117},{"user_id":48,"name":"MeetTeMedic99","steam_id":76561199208706868,"connected_time":3982000000000,"state":"active","ping":76},{"user_id":63,"name":"odyssey","steam_id":76561199443938682,"connected_time":2163000000000,"state":"active","ping":76},{"user_id":50,"name":"✧BaKa BAzooKA✧(◕▿◕ )","steam_id":76561198061628689,"connected_time":3510000000000,"state":"active","ping":58},{"user_id":67,"name":"yuh","steam_id":76561198442507642,"connected_time":2059000000000,"state":"active","ping":90},{"user_id":75,"name":"notreferenced","steam_id":76561198081549699,"connected_time":406000000000,"state":"active","ping":151},{"user_id":40,"name":"3wfFbdrjEze5d2G","steam_id":76561198435900451,"connected_time":4588000000000,"state":"active","ping":121},{"user_id":74,"name":"elite anarchest","steam_id":76561198411982822,"connected_time":478000000000,"state":"active","ping":99},{"user_id":57,"name":"im_0ff","steam_id":76561198339346695,"connected_time":3029000000000,"state":"active","ping":130},{"user_id":77,"name":"bravo","steam_id":76561199081419313,"connected_time":240000000000,"state":"active","ping":97},{"user_id":43,"name":"Prof Booster","steam_id":76561199148930929,"connected_time":4555000000000,"state":"active","ping":35},{"user_id":44,"name":"Urotsuki","steam_id":76561198074339034,"connected_time":4542000000000,"state":"active","ping":76},{"user_id":45,"name":"PawmKin","steam_id":76561198344175018,"connected_time":4526000000000,"state":"active","ping":124}]},{"server_id":1,"name":"Uncletopia | Los Angeles | 1 | All Maps","name_short":"lax-1","host":"lax-1.us.uncletopia.com","port":27015,"enabled":true,"region":"us-west","cc":"us","latitude":33.94279,"longitude":-118.41004,"reserved":0,"last_update":"0001-01-01T00:00:00Z","name_a2s":"Uncletopia | Los Angeles | 1 | All Maps","protocol":17,"map":"pl_borneo","folder":"tf","game":"Team Fortress","app_id":440,"player_count":22,"max_players":24,"Bots":0,"server_type":"Dedicated","server_os":"Linux","password":true,"vac":true,"version":"7757534","steam_id":85568392924469991,"keywords":["nocrits","nodmgspread","payload","uncletopia"],"game_id":440,"stv_port":27016,"stv_name":"Uncletopia | Los Angeles | 1 | All Maps | STV","players":[{"user_id":465,"name":"Wendall555","steam_id":76561198985637603,"connected_time":982000000000,"state":"active","ping":51},{"user_id":472,"name":"SparklePawz ♥","steam_id":76561198093703065,"connected_time":108000000000,"state":"active","ping":174},{"user_id":473,"name":"cream team","steam_id":76561198139043953,"connected_time":95000000000,"state":"active","ping":81},{"user_id":471,"name":"Gimmick","steam_id":76561198065873462,"connected_time":303000000000,"state":"active","ping":42},{"user_id":453,"name":"life","steam_id":76561198142254567,"connected_time":1386000000000,"state":"active","ping":75},{"user_id":466,"name":"cass","steam_id":76561198074502046,"connected_time":974000000000,"state":"active","ping":101},{"user_id":456,"name":"Isaac","steam_id":76561198015727013,"connected_time":1181000000000,"state":"active","ping":65},{"user_id":425,"name":"Mr. Pyromaniac","steam_id":76561198935259168,"connected_time":3866000000000,"state":"active","ping":47},{"user_id":405,"name":"Squatter1","steam_id":76561198078987734,"connected_time":4428000000000,"state":"active","ping":76},{"user_id":457,"name":"AlienPossibilities","steam_id":76561198044020123,"connected_time":1167000000000,"state":"active","ping":114},{"user_id":474,"name":"PearForceOne","steam_id":76561197999091748,"connected_time":22000000000,"state":"spawning","ping":115},{"user_id":458,"name":"Farseer Ulwithy","steam_id":76561197965179245,"connected_time":1156000000000,"state":"active","ping":87},{"user_id":475,"name":"Uprightmoss7528","steam_id":76561199200138486,"connected_time":12000000000,"state":"spawning","ping":50},{"user_id":382,"name":"Pangolin","steam_id":76561198318126190,"connected_time":6402000000000,"state":"active","ping":149},{"user_id":468,"name":"PythonTheMage","steam_id":76561198415455485,"connected_time":703000000000,"state":"active","ping":96},{"user_id":460,"name":"bballbhuddababyboy","steam_id":76561198079516052,"connected_time":1143000000000,"state":"active","ping":45},{"user_id":470,"name":"FourBeanSalad","steam_id":76561198117415145,"connected_time":640000000000,"state":"active","ping":77},{"user_id":432,"name":"YourWishes","steam_id":76561198154414336,"connected_time":3357000000000,"state":"active","ping":46},{"user_id":463,"name":"K.A.R.M.A.","steam_id":76561198240750142,"connected_time":1105000000000,"state":"active","ping":45},{"user_id":442,"name":"1000 Ping","steam_id":76561198098330939,"connected_time":2090000000000,"state":"active","ping":69},{"user_id":452,"name":"Rifter","steam_id":76561198077430698,"connected_time":1653000000000,"state":"active","ping":87},{"user_id":464,"name":"The Best Waifu","steam_id":76561198144937184,"connected_time":1057000000000,"state":"active","ping":50}]},{"server_id":112,"name":"Uncletopia | Los Angeles | 2 | All Maps","name_short":"lax-2","host":"lax-1.us.uncletopia.com","port":27025,"enabled":true,"region":"us-west","cc":"us","latitude":33.94279,"longitude":-118.41004,"reserved":0,"last_update":"0001-01-01T00:00:00Z","name_a2s":"Uncletopia | Los Angeles | 2 | All Maps","protocol":17,"map":"cp_steel","folder":"tf","game":"Team Fortress","app_id":440,"player_count":21,"max_players":24,"Bots":0,"server_type":"Dedicated","server_os":"Linux","password":true,"vac":true,"version":"7757534","steam_id":85568392924469992,"keywords":["cp","nocrits","nodmgspread","uncletopia"],"game_id":440,"stv_port":27026,"stv_name":"Uncletopia | Los Angeles | 2 | All Maps | STV","players":[{"user_id":251,"name":"squid","steam_id":76561198070236972,"connected_time":7230000000000,"state":"active","ping":56},{"user_id":279,"name":"Ranger Lugi","steam_id":76561198143611016,"connected_time":5360000000000,"state":"active","ping":81},{"user_id":315,"name":"Re:ZeroCultLeader","steam_id":76561198214899655,"connected_time":1862000000000,"state":"active","ping":73},{"user_id":254,"name":"Bada Bingus","steam_id":76561198046743307,"connected_time":7082000000000,"state":"active","ping":128},{"user_id":322,"name":"FROYO b4nny","steam_id":76561197970669109,"connected_time":118000000000,"state":"active","ping":45},{"user_id":314,"name":"Veritox","steam_id":76561198075778026,"connected_time":1876000000000,"state":"active","ping":70},{"user_id":316,"name":"NagitoTheLucky","steam_id":76561198065096327,"connected_time":1760000000000,"state":"active","ping":60},{"user_id":323,"name":"rock gaming","steam_id":76561199402868311,"connected_time":65000000000,"state":"active","ping":58},{"user_id":307,"name":"Alvityr","steam_id":76561197960552604,"connected_time":2650000000000,"state":"active","ping":112},{"user_id":324,"name":"street baller","steam_id":76561198918417253,"connected_time":63000000000,"state":"active","ping":107},{"user_id":276,"name":"Poopie Babie","steam_id":76561198047500494,"connected_time":5507000000000,"state":"active","ping":75},{"user_id":325,"name":"saladfish","steam_id":76561198453203619,"connected_time":16000000000,"state":"active","ping":45},{"user_id":299,"name":"Akkawi","steam_id":76561198203159952,"connected_time":3939000000000,"state":"active","ping":60},{"user_id":301,"name":"kr1tsurf3r","steam_id":76561198076402476,"connected_time":3660000000000,"state":"active","ping":65},{"user_id":272,"name":"EXPERIENCED INDIVIDUAL","steam_id":76561198140231083,"connected_time":5583000000000,"state":"active","ping":92},{"user_id":273,"name":"Magikarp_Gamer","steam_id":76561198143910511,"connected_time":5574000000000,"state":"active","ping":79},{"user_id":275,"name":"your mom calls me princess too","steam_id":76561198020400899,"connected_time":5522000000000,"state":"active","ping":75},{"user_id":309,"name":"Blue Protogen - 001198","steam_id":76561198145791867,"connected_time":2624000000000,"state":"active","ping":51},{"user_id":288,"name":"SDL","steam_id":76561198859719985,"connected_time":4866000000000,"state":"active","ping":98},{"user_id":278,"name":"Crustiest_Bill","steam_id":76561198842722858,"connected_time":5444000000000,"state":"active","ping":65},{"user_id":313,"name":"Cookies The Fox","steam_id":76561198200960402,"connected_time":2023000000000,"state":"active","ping":93}]},{"server_id":324,"name":"Uncletopia | Los Angeles | 3 | All Maps","name_short":"lax-3","host":"lax-1.us.uncletopia.com","port":27035,"enabled":true,"region":"us-west","cc":"us","latitude":33.94279,"longitude":-118.41004,"reserved":0,"last_update":"0001-01-01T00:00:00Z","name_a2s":"Uncletopia | Los Angeles | 3 | All Maps","protocol":17,"map":"cp_mercenarypark","folder":"tf","game":"Team Fortress","app_id":440,"player_count":22,"max_players":24,"Bots":0,"server_type":"Dedicated","server_os":"Linux","password":true,"vac":true,"version":"7757534","steam_id":85568392924510198,"keywords":["cp","nocrits","nodmgspread","uncletopia"],"game_id":440,"stv_port":27036,"stv_name":"Uncletopia | Los Angeles | 3 | All Maps | STV","players":[{"user_id":171,"name":"Type Three Dabeetus","steam_id":76561198062710038,"connected_time":386000000000,"state":"active","ping":59},{"user_id":116,"name":"bean drinker","steam_id":76561198044004639,"connected_time":6357000000000,"state":"active","ping":84},{"user_id":139,"name":"walrooos","steam_id":76561198024521839,"connected_time":4588000000000,"state":"active","ping":33},{"user_id":162,"name":"janas","steam_id":76561198039797596,"connected_time":2067000000000,"state":"active","ping":69},{"user_id":170,"name":"jungus","steam_id":76561198129862008,"connected_time":397000000000,"state":"active","ping":45},{"user_id":164,"name":"Ghoster","steam_id":76561198329367716,"connected_time":1346000000000,"state":"active","ping":57},{"user_id":128,"name":"Colepie","steam_id":76561198037853211,"connected_time":5218000000000,"state":"active","ping":79},{"user_id":107,"name":"Kopenich","steam_id":76561198066205245,"connected_time":6943000000000,"state":"active","ping":39},{"user_id":157,"name":"FireFighter_Jeffery","steam_id":76561198070823022,"connected_time":2938000000000,"state":"active","ping":72},{"user_id":49,"name":"werolat","steam_id":76561197960544784,"connected_time":8798000000000,"state":"active","ping":52},{"user_id":176,"name":"lyzth","steam_id":76561199328342891,"connected_time":314000000000,"state":"active","ping":96},{"user_id":168,"name":"[Bandit]","steam_id":76561197986919852,"connected_time":432000000000,"state":"active","ping":76},{"user_id":172,"name":"OrangeShoes","steam_id":76561197971249940,"connected_time":367000000000,"state":"active","ping":114},{"user_id":173,"name":"im using tilt controls!","steam_id":76561198295690725,"connected_time":355000000000,"state":"active","ping":90},{"user_id":174,"name":"emily","steam_id":76561198051872256,"connected_time":339000000000,"state":"active","ping":106},{"user_id":133,"name":"Heavy","steam_id":76561198437794740,"connected_time":4923000000000,"state":"active","ping":88},{"user_id":156,"name":"demomanfan2008","steam_id":76561198077030486,"connected_time":3151000000000,"state":"active","ping":77},{"user_id":177,"name":"Tybalt","steam_id":76561198142464684,"connected_time":309000000000,"state":"active","ping":75},{"user_id":178,"name":"intek","steam_id":76561198052705291,"connected_time":254000000000,"state":"active","ping":82},{"user_id":167,"name":"Antonpirulero10","steam_id":76561198253036781,"connected_time":928000000000,"state":"active","ping":67},{"user_id":158,"name":"Sleuth","steam_id":76561198418288939,"connected_time":2756000000000,"state":"active","ping":71},{"user_id":180,"name":"doobie the hutt","steam_id":76561198088873640,"connected_time":217000000000,"state":"active","ping":90}]},{"server_id":25,"name":"Uncletopia | Los Angeles | 4 | Stopwatch Beta","name_short":"lax-4","host":"lax-1.us.uncletopia.com","port":27045,"enabled":true,"region":"us-west","cc":"us","latitude":33.94279,"longitude":-118.41004,"reserved":0,"last_update":"0001-01-01T00:00:00Z","name_a2s":"Uncletopia | Los Angeles | 4 | Stopwatch Beta","protocol":17,"map":"pl_frontier_final","folder":"tf","game":"Team Fortress","app_id":440,"player_count":0,"max_players":24,"Bots":0,"server_type":"Dedicated","server_os":"Linux","password":true,"vac":true,"version":"7757534","steam_id":85568392924510199,"keywords":["nocrits","nodmgspread","payload","uncletopia"],"game_id":440,"stv_port":27046,"stv_name":"Uncletopia | Los Angeles | 4 | Stopwatch Beta | STV","players":null},{"server_id":11,"name":"Uncletopia | London | 1 | All Maps","name_short":"lon-1","host":"lon-1.uk.uncletopia.com","port":27015,"enabled":true,"region":"eu","cc":"gb","latitude":51.509865,"longitude":-0.118092,"reserved":0,"last_update":"0001-01-01T00:00:00Z","name_a2s":"Uncletopia | London | 1 | All Maps","protocol":17,"map":"pl_upward","folder":"tf","game":"Team Fortress","app_id":440,"player_count":18,"max_players":24,"Bots":0,"server_type":"Dedicated","server_os":"Linux","password":true,"vac":true,"version":"7757534","steam_id":85568392924367362,"keywords":["nocrits","nodmgspread","payload","uncletopia"],"game_id":440,"stv_port":27016,"stv_name":"Uncletopia | London | 1 | All Maps | STV","players":[{"user_id":621,"name":"zabloing","steam_id":76561198339480413,"connected_time":861000000000,"state":"active","ping":60},{"user_id":629,"name":"Tank","steam_id":76561199059174576,"connected_time":185000000000,"state":"active","ping":178},{"user_id":610,"name":"KAYDAN","steam_id":76561198817674900,"connected_time":2094000000000,"state":"active","ping":82},{"user_id":594,"name":"孤独","steam_id":76561198331329777,"connected_time":3805000000000,"state":"active","ping":61},{"user_id":623,"name":"PizzaPete123","steam_id":76561198089478290,"connected_time":752000000000,"state":"active","ping":44},{"user_id":627,"name":"Real Sbeve","steam_id":76561198037320160,"connected_time":438000000000,"state":"active","ping":59},{"user_id":625,"name":"Chica","steam_id":76561198381832158,"connected_time":507000000000,"state":"active","ping":136},{"user_id":595,"name":"Hoks","steam_id":76561198126442242,"connected_time":3541000000000,"state":"active","ping":123},{"user_id":599,"name":"dorak","steam_id":76561198818037965,"connected_time":3107000000000,"state":"active","ping":106},{"user_id":576,"name":"jones","steam_id":76561198044434971,"connected_time":6331000000000,"state":"active","ping":61},{"user_id":592,"name":"kiki","steam_id":76561198838277022,"connected_time":4266000000000,"state":"active","ping":76},{"user_id":626,"name":"xhouls","steam_id":76561198128809755,"connected_time":503000000000,"state":"active","ping":135},{"user_id":630,"name":"Bob.","steam_id":76561198330093822,"connected_time":112000000000,"state":"active","ping":85},{"user_id":596,"name":"nvs","steam_id":76561198120668070,"connected_time":3128000000000,"state":"active","ping":68},{"user_id":531,"name":"Slow Mode","steam_id":76561199414716848,"connected_time":10725000000000,"state":"active","ping":75},{"user_id":631,"name":"[T]aKer","steam_id":76561198001778013,"connected_time":72000000000,"state":"spawning","ping":52},{"user_id":602,"name":"Roloman11","steam_id":76561198308927283,"connected_time":2686000000000,"state":"active","ping":162},{"user_id":584,"name":"r0la","steam_id":76561198128315340,"connected_time":4952000000000,"state":"active","ping":79}]},{"server_id":114,"name":"Uncletopia | London | 2 | All Maps","name_short":"lon-2","host":"lon-1.uk.uncletopia.com","port":27025,"enabled":true,"region":"eu","cc":"gb","latitude":51.509865,"longitude":-0.118092,"reserved":0,"last_update":"0001-01-01T00:00:00Z","name_a2s":"Uncletopia | London | 2 | All Maps","protocol":17,"map":"koth_viaduct","folder":"tf","game":"Team Fortress","app_id":440,"player_count":0,"max_players":24,"Bots":0,"server_type":"Dedicated","server_os":"Linux","password":true,"vac":true,"version":"7757534","steam_id":85568392924470941,"keywords":["cp","nocrits","nodmgspread","uncletopia"],"game_id":440,"stv_port":27026,"stv_name":"Uncletopia | London | 2 | All Maps | STV","players":null},{"server_id":320,"name":"Uncletopia | London | 3 | All Maps","name_short":"lon-3","host":"lon-1.uk.uncletopia.com","port":27035,"enabled":true,"region":"eu","cc":"gb","latitude":51.509865,"longitude":-0.118092,"reserved":0,"last_update":"0001-01-01T00:00:00Z","name_a2s":"Uncletopia | London | 3 | All Maps","protocol":17,"map":"koth_cascade","folder":"tf","game":"Team Fortress","app_id":440,"player_count":0,"max_players":24,"Bots":0,"server_type":"Dedicated","server_os":"Linux","password":true,"vac":true,"version":"7757534","steam_id":85568392924510192,"keywords":["cp","nocrits","nodmgspread","uncletopia"],"game_id":440,"stv_port":27036,"stv_name":"Uncletopia | London | 3 | All Maps | STV","players":null},{"server_id":321,"name":"Uncletopia | London | 4 | All Maps","name_short":"lon-4","host":"lon-1.uk.uncletopia.com","port":27045,"enabled":true,"region":"eu","cc":"gb","latitude":51.509865,"longitude":-0.118092,"reserved":0,"last_update":"0001-01-01T00:00:00Z","name_a2s":"Uncletopia | London | 4 | All Maps","protocol":17,"map":"plr_hightower","folder":"tf","game":"Team Fortress","app_id":440,"player_count":0,"max_players":24,"Bots":0,"server_type":"Dedicated","server_os":"Linux","password":true,"vac":true,"version":"7757534","steam_id":85568392924510193,"keywords":["nocrits","nodmgspread","payload","uncletopia"],"game_id":440,"stv_port":27046,"stv_name":"Uncletopia | London | 4 | All Maps | STV","players":null},{"server_id":21,"name":"Uncletopia | London | 5 | All Maps","name_short":"lon-5","host":"lon-1.uk.uncletopia.com","port":27055,"enabled":true,"region":"eu","cc":"gb","latitude":51.509865,"longitude":-0.118092,"reserved":0,"last_update":"0001-01-01T00:00:00Z","name_a2s":"Uncletopia | London | 5 | All Maps","protocol":17,"map":"cp_mountainlab","folder":"tf","game":"Team Fortress","app_id":440,"player_count":0,"max_players":24,"Bots":0,"server_type":"Dedicated","server_os":"Linux","password":true,"vac":true,"version":"7757534","steam_id":85568392924742829,"keywords":["cp","nocrits","nodmgspread","uncletopia"],"game_id":440,"stv_port":27056,"stv_name":"Uncletopia | London | 5 | All Maps | STV","players":null},{"server_id":22,"name":"Uncletopia | London | 6 | All Maps","name_short":"lon-6","host":"lon-1.uk.uncletopia.com","port":27065,"enabled":true,"region":"eu","cc":"gb","latitude":51.509865,"longitude":-0.118092,"reserved":0,"last_update":"0001-01-01T00:00:00Z","name_a2s":"Uncletopia | London | 6 | All Maps","protocol":17,"map":"koth_lakeside_final","folder":"tf","game":"Team Fortress","app_id":440,"player_count":0,"max_players":24,"Bots":0,"server_type":"Dedicated","server_os":"Linux","password":true,"vac":true,"version":"7757534","steam_id":85568392924742830,"keywords":["cp","nocrits","nodmgspread","uncletopia"],"game_id":440,"stv_port":27066,"stv_name":"Uncletopia | London | 6 | All Maps | STV","players":null},{"server_id":40,"name":"Uncletopia | London | 7 | No Payload","name_short":"lon-7","host":"lon-1.uk.uncletopia.com","port":27075,"enabled":true,"region":"eu","cc":"gb","latitude":51.509865,"longitude":-0.118092,"reserved":0,"last_update":"0001-01-01T00:00:00Z","name_a2s":"Uncletopia | London | 7 | No Payload","protocol":17,"map":"koth_harvest_final","folder":"tf","game":"Team Fortress","app_id":440,"player_count":0,"max_players":24,"Bots":0,"server_type":"Dedicated","server_os":"Linux","password":true,"vac":true,"version":"7757534","steam_id":85568392924964314,"keywords":["cp","nocrits","nodmgspread","uncletopia"],"game_id":440,"stv_port":27076,"stv_name":"Uncletopia | London | 7 | No Payload | STV","players":null},{"server_id":41,"name":"Uncletopia | London | 8 | Community","name_short":"lon-8","host":"lon-1.uk.uncletopia.com","port":27085,"enabled":true,"region":"eu","cc":"gb","latitude":51.509865,"longitude":-0.118092,"reserved":0,"last_update":"0001-01-01T00:00:00Z","name_a2s":"Uncletopia | London | 8 | Community","protocol":17,"map":"workshop/pl_highwood_b13.ugc1769496557","folder":"tf","game":"Team Fortress","app_id":440,"player_count":0,"max_players":24,"Bots":0,"server_type":"Dedicated","server_os":"Linux","password":true,"vac":true,"version":"7757534","steam_id":85568392924964315,"keywords":["nocrits","nodmgspread","payload","uncletopia"],"game_id":440,"stv_port":27086,"stv_name":"Uncletopia | London | 8 | Community | STV","players":null},{"server_id":300,"name":"Uncletopia | Montréal | 1 | All Maps","name_short":"mtl-1","host":"mtl-1.ca.uncletopia.com","port":27015,"enabled":true,"region":"us-east","cc":"ca","latitude":45.50889,"longitude":-73.56167,"reserved":0,"last_update":"0001-01-01T00:00:00Z","name_a2s":"Uncletopia | Montréal | 1 | All Maps","protocol":17,"map":"cp_process_final","folder":"tf","game":"Team Fortress","app_id":440,"player_count":0,"max_players":24,"Bots":0,"server_type":"Dedicated","server_os":"Linux","password":true,"vac":true,"version":"7757534","steam_id":85568392924500087,"keywords":["cp","nocrits","nodmgspread","uncletopia"],"game_id":440,"stv_port":27016,"stv_name":"Uncletopia | Montréal | 1 | All Maps | STV","players":null},{"server_id":301,"name":"Uncletopia | Montréal | 2 | All Maps","name_short":"mtl-2","host":"mtl-1.ca.uncletopia.com","port":27025,"enabled":true,"region":"us-east","cc":"ca","latitude":45.50889,"longitude":-73.56167,"reserved":0,"last_update":"0001-01-01T00:00:00Z","name_a2s":"Uncletopia | Montréal | 2 | All Maps","protocol":17,"map":"koth_lakeside_final","folder":"tf","game":"Team Fortress","app_id":440,"player_count":0,"max_players":24,"Bots":0,"server_type":"Dedicated","server_os":"Linux","password":true,"vac":true,"version":"7757534","steam_id":85568392924500088,"keywords":["cp","nocrits","nodmgspread","uncletopia"],"game_id":440,"stv_port":27026,"stv_name":"Uncletopia | Montréal | 2 | All Maps | STV","players":null},{"server_id":302,"name":"Uncletopia | Montréal | 3 | All Maps","name_short":"mtl-3","host":"mtl-1.ca.uncletopia.com","port":27035,"enabled":true,"region":"us-east","cc":"ca","latitude":45.50889,"longitude":-73.56167,"reserved":0,"last_update":"0001-01-01T00:00:00Z","name_a2s":"Uncletopia | Montréal | 3 | All Maps","protocol":17,"map":"koth_lakeside_final","folder":"tf","game":"Team Fortress","app_id":440,"player_count":0,"max_players":24,"Bots":0,"server_type":"Dedicated","server_os":"Linux","password":true,"vac":true,"version":"7757534","steam_id":85568392924500089,"keywords":["cp","nocrits","nodmgspread","uncletopia"],"game_id":440,"stv_port":27036,"stv_name":"Uncletopia | Montréal | 3 | All Maps | STV","players":null},{"server_id":303,"name":"Uncletopia | Montréal | 4 | No Payload","name_short":"mtl-4","host":"mtl-1.ca.uncletopia.com","port":27045,"enabled":true,"region":"us-east","cc":"ca","latitude":45.50889,"longitude":-73.56167,"reserved":0,"last_update":"0001-01-01T00:00:00Z","name_a2s":"Uncletopia | Montréal | 4 | No Payload","protocol":17,"map":"pl_borneo","folder":"tf","game":"Team Fortress","app_id":440,"player_count":0,"max_players":24,"Bots":0,"server_type":"Dedicated","server_os":"Linux","password":true,"vac":true,"version":"7757534","steam_id":85568392924500090,"keywords":["nocrits","nodmgspread","payload","uncletopia"],"game_id":440,"stv_port":27046,"stv_name":"Uncletopia | Montréal | 4 | No Payload | STV","players":null},{"server_id":13,"name":"Uncletopia | New York City | 1 | All Maps","name_short":"nyc-1","host":"nyc-1.us.uncletopia.com","port":27015,"enabled":true,"region":"us-east","cc":"us","latitude":40.73061,"longitude":-73.93524,"reserved":0,"last_update":"0001-01-01T00:00:00Z","name_a2s":"Uncletopia | New York City | 1 | All Maps","protocol":17,"map":"koth_harvest_final","folder":"tf","game":"Team Fortress","app_id":440,"player_count":24,"max_players":24,"Bots":0,"server_type":"Dedicated","server_os":"Linux","password":true,"vac":true,"version":"7757534","steam_id":85568392924469993,"keywords":["cp","nocrits","nodmgspread","uncletopia"],"game_id":440,"stv_port":27016,"stv_name":"Uncletopia | New York City | 1 | All Maps | STV","players":[{"user_id":437,"name":"totally not a pile of beans","steam_id":76561198119851931,"connected_time":1131000000000,"state":"active","ping":67},{"user_id":445,"name":"LalitoTV","steam_id":76561198334302951,"connected_time":989000000000,"state":"active","ping":130},{"user_id":414,"name":"yeyoi","steam_id":76561198069821885,"connected_time":2244000000000,"state":"active","ping":54},{"user_id":416,"name":"I ate those food","steam_id":76561198084614149,"connected_time":2200000000000,"state":"active","ping":44},{"user_id":461,"name":"KentYardAssociate","steam_id":76561198290499758,"connected_time":325000000000,"state":"active","ping":87},{"user_id":450,"name":"yoshido","steam_id":76561198846313229,"connected_time":820000000000,"state":"active","ping":60},{"user_id":451,"name":"Bastard_Yanisaur","steam_id":76561199134114075,"connected_time":804000000000,"state":"active","ping":85},{"user_id":457,"name":"JacripspyVulcano","steam_id":76561198966980576,"connected_time":653000000000,"state":"active","ping":43},{"user_id":440,"name":"Frodo T Baggins","steam_id":76561198048090297,"connected_time":1116000000000,"state":"active","ping":75},{"user_id":443,"name":"Laura Palmer Gaming","steam_id":76561198282965733,"connected_time":1088000000000,"state":"active","ping":53},{"user_id":420,"name":"dysesthesia","steam_id":76561198027159018,"connected_time":2166000000000,"state":"active","ping":87},{"user_id":421,"name":"Nopendium","steam_id":76561198087712908,"connected_time":2151000000000,"state":"active","ping":52},{"user_id":429,"name":"I HATE SASUKE","steam_id":76561198083975056,"connected_time":2019000000000,"state":"active","ping":66},{"user_id":462,"name":"frank","steam_id":76561198045436159,"connected_time":162000000000,"state":"active","ping":61},{"user_id":384,"name":"magotago","steam_id":76561198013650292,"connected_time":5690000000000,"state":"active","ping":105},{"user_id":456,"name":"Arrythmia","steam_id":76561198093748123,"connected_time":671000000000,"state":"active","ping":118},{"user_id":463,"name":"Chechens Spotted","steam_id":76561199028910893,"connected_time":0,"state":"spawning","ping":34},{"user_id":452,"name":"ClericsRose","steam_id":76561198011013806,"connected_time":742000000000,"state":"active","ping":68},{"user_id":400,"name":"g00bur","steam_id":76561197993622520,"connected_time":3810000000000,"state":"active","ping":54},{"user_id":436,"name":"Cecil","steam_id":76561199309028776,"connected_time":1174000000000,"state":"active","ping":45},{"user_id":454,"name":"Wiggle Wiggle","steam_id":76561199053447896,"connected_time":695000000000,"state":"active","ping":75},{"user_id":402,"name":"Peepster","steam_id":76561198297854733,"connected_time":3780000000000,"state":"active","ping":85},{"user_id":453,"name":"PageBoiSkull","steam_id":76561198237353578,"connected_time":723000000000,"state":"active","ping":125},{"user_id":459,"name":"Tapita de Lapicera Inusual","steam_id":76561199292130035,"connected_time":563000000000,"state":"active","ping":58}]},{"server_id":14,"name":"Uncletopia | New York City | 2 | All Maps","name_short":"nyc-2","host":"nyc-1.us.uncletopia.com","port":27025,"enabled":true,"region":"us-east","cc":"us","latitude":40.73061,"longitude":-73.93524,"reserved":0,"last_update":"0001-01-01T00:00:00Z","name_a2s":"Uncletopia | New York City | 2 | All Maps","protocol":17,"map":"koth_harvest_final","folder":"tf","game":"Team Fortress","app_id":440,"player_count":23,"max_players":24,"Bots":0,"server_type":"Dedicated","server_os":"Linux","password":true,"vac":true,"version":"7757534","steam_id":85568392924469994,"keywords":["cp","nocrits","nodmgspread","uncletopia"],"game_id":440,"stv_port":27026,"stv_name":"Uncletopia | New York City | 2 | All Maps | STV","players":[{"user_id":681,"name":"Cricket","steam_id":76561198074541498,"connected_time":1895000000000,"state":"active","ping":77},{"user_id":653,"name":"Smiles","steam_id":76561198107197973,"connected_time":3558000000000,"state":"active","ping":89},{"user_id":706,"name":"HumFreY","steam_id":76561198076639682,"connected_time":983000000000,"state":"active","ping":56},{"user_id":705,"name":"rainingmudkips","steam_id":76561198018010854,"connected_time":1065000000000,"state":"active","ping":67},{"user_id":688,"name":"Voodo133","steam_id":76561198042670351,"connected_time":1582000000000,"state":"active","ping":70},{"user_id":712,"name":"EmeraldCola","steam_id":76561198066663687,"connected_time":777000000000,"state":"active","ping":50},{"user_id":707,"name":"requischerrysmack115","steam_id":76561199453841197,"connected_time":961000000000,"state":"active","ping":77},{"user_id":685,"name":"Magi","steam_id":76561198150790710,"connected_time":1740000000000,"state":"active","ping":45},{"user_id":634,"name":"flexer_2000","steam_id":76561198084422657,"connected_time":5575000000000,"state":"active","ping":102},{"user_id":537,"name":"M249 | Spectre","steam_id":76561198118334485,"connected_time":9351000000000,"state":"active","ping":84},{"user_id":717,"name":"hippo mode","steam_id":76561198073455521,"connected_time":651000000000,"state":"active","ping":44},{"user_id":671,"name":"Effie","steam_id":76561198261842068,"connected_time":2440000000000,"state":"active","ping":84},{"user_id":724,"name":"Sqiddwr","steam_id":76561197998071622,"connected_time":246000000000,"state":"active","ping":68},{"user_id":725,"name":"saucy jack","steam_id":76561198307012859,"connected_time":99000000000,"state":"active","ping":99},{"user_id":617,"name":"deech","steam_id":76561198066429444,"connected_time":5879000000000,"state":"active","ping":50},{"user_id":694,"name":"Barbarian","steam_id":76561198008063409,"connected_time":1533000000000,"state":"active","ping":72},{"user_id":692,"name":"Brain Tumor","steam_id":76561198805526881,"connected_time":1555000000000,"state":"active","ping":61},{"user_id":726,"name":"robot with human hair","steam_id":76561198018691308,"connected_time":90000000000,"state":"active","ping":62},{"user_id":714,"name":"unseld","steam_id":76561198052572890,"connected_time":704000000000,"state":"active","ping":44},{"user_id":718,"name":"Single Gun Tommy","steam_id":76561198272906289,"connected_time":649000000000,"state":"active","ping":78},{"user_id":667,"name":"Super D Duper","steam_id":76561198078203677,"connected_time":2712000000000,"state":"active","ping":54},{"user_id":691,"name":"yuki","steam_id":76561198028645098,"connected_time":1567000000000,"state":"active","ping":87},{"user_id":699,"name":"teddy268","steam_id":76561198027840467,"connected_time":1494000000000,"state":"active","ping":85}]},{"server_id":15,"name":"Uncletopia | New York City | 3 | Stopwatch Beta","name_short":"nyc-3","host":"nyc-1.us.uncletopia.com","port":27035,"enabled":true,"region":"us-east","cc":"us","latitude":40.73061,"longitude":-73.93524,"reserved":0,"last_update":"0001-01-01T00:00:00Z","name_a2s":"Uncletopia | New York City | 3 | Stopwatch Beta","protocol":17,"map":"workshop/koth_ashville_final.ugc2130459942","folder":"tf","game":"Team Fortress","app_id":440,"player_count":0,"max_players":24,"Bots":0,"server_type":"Dedicated","server_os":"Linux","password":true,"vac":true,"version":"7757534","steam_id":85568392924742820,"keywords":["cp","nocrits","nodmgspread","uncletopia"],"game_id":440,"stv_port":27036,"stv_name":"Uncletopia | New York City | 3 | Stopwatch Beta | STV","players":null},{"server_id":16,"name":"Uncletopia | New York City | 4 | Community","name_short":"nyc-4","host":"nyc-1.us.uncletopia.com","port":27045,"enabled":true,"region":"us-east","cc":"us","latitude":40.73061,"longitude":-73.93524,"reserved":0,"last_update":"0001-01-01T00:00:00Z","name_a2s":"Uncletopia | New York City | 4 | Community","protocol":17,"map":"workshop/pl_badwater_pro_v12.ugc2142942074","folder":"tf","game":"Team Fortress","app_id":440,"player_count":0,"max_players":24,"Bots":0,"server_type":"Dedicated","server_os":"Linux","password":true,"vac":true,"version":"7757534","steam_id":85568392924742821,"keywords":["nocrits","nodmgspread","payload","uncletopia"],"game_id":440,"stv_port":27046,"stv_name":"Uncletopia | New York City | 4 | Community | STV","players":null},{"server_id":142,"name":"Uncletopia | São Paulo | 1 | All Maps","name_short":"sao-1","host":"sao-1.br.uncletopia.com","port":27015,"enabled":true,"region":"sa","cc":"br","latitude":-23.533773,"longitude":-46.62529,"reserved":0,"last_update":"0001-01-01T00:00:00Z","name_a2s":"Uncletopia | São Paulo | 1 | All Maps","protocol":17,"map":"pl_pier","folder":"tf","game":"Team Fortress","app_id":440,"player_count":0,"max_players":24,"Bots":0,"server_type":"Dedicated","server_os":"Linux","password":true,"vac":true,"version":"7757534","steam_id":85568392924469996,"keywords":["nocrits","nodmgspread","payload","uncletopia"],"game_id":440,"stv_port":27016,"stv_name":"Uncletopia | São Paulo | 1 | All Maps | STV","players":null},{"server_id":143,"name":"Uncletopia | São Paulo | 2 | All Maps","name_short":"sao-2","host":"sao-2.br.uncletopia.com","port":27015,"enabled":true,"region":"sa","cc":"br","latitude":-23.533773,"longitude":-46.62529,"reserved":0,"last_update":"0001-01-01T00:00:00Z","name_a2s":"Uncletopia | São Paulo | 2 | All Maps","protocol":17,"map":"koth_viaduct","folder":"tf","game":"Team Fortress","app_id":440,"player_count":0,"max_players":24,"Bots":0,"server_type":"Dedicated","server_os":"Linux","password":true,"vac":true,"version":"7757534","steam_id":85568392924485349,"keywords":["cp","nocrits","nodmgspread","uncletopia"],"game_id":440,"stv_port":27016,"stv_name":"Uncletopia | São Paulo | 2 | All Maps | STV","players":null},{"server_id":7,"name":"Uncletopia | Seattle | 1 | All Maps","name_short":"sea-1","host":"sea-1.us.uncletopia.com","port":27015,"enabled":true,"region":"us-west","cc":"us","latitude":47.608013,"longitude":-122.33517,"reserved":0,"last_update":"0001-01-01T00:00:00Z","name_a2s":"Uncletopia | Seattle | 1 | All Maps","protocol":17,"map":"pl_borneo","folder":"tf","game":"Team Fortress","app_id":440,"player_count":24,"max_players":24,"Bots":0,"server_type":"Dedicated","server_os":"Linux","password":true,"vac":true,"version":"7757534","steam_id":85568392924469997,"keywords":["nocrits","nodmgspread","payload","uncletopia"],"game_id":440,"stv_port":27016,"stv_name":"Uncletopia | Seattle | 1 | All Maps | STV","players":[{"user_id":657,"name":"Jarryl97","steam_id":76561198055451373,"connected_time":3415000000000,"state":"active","ping":106},{"user_id":688,"name":"An Old Lady","steam_id":76561198047480318,"connected_time":632000000000,"state":"active","ping":69},{"user_id":691,"name":"quacked!","steam_id":76561198970819395,"connected_time":159000000000,"state":"active","ping":115},{"user_id":678,"name":"Artemisbin","steam_id":76561198089895817,"connected_time":1739000000000,"state":"active","ping":62},{"user_id":685,"name":"Reiidaya","steam_id":76561198325306660,"connected_time":916000000000,"state":"active","ping":140},{"user_id":665,"name":"William P. Ennis","steam_id":76561198073464877,"connected_time":2856000000000,"state":"active","ping":94},{"user_id":681,"name":"amoeba","steam_id":76561198970261784,"connected_time":1270000000000,"state":"active","ping":46},{"user_id":677,"name":"Cam(era)","steam_id":76561198285054047,"connected_time":1787000000000,"state":"active","ping":80},{"user_id":693,"name":"mhmyeah_yeahmhm","steam_id":76561198341190679,"connected_time":87000000000,"state":"active","ping":63},{"user_id":680,"name":"SwoopShoot","steam_id":76561199024079388,"connected_time":1624000000000,"state":"active","ping":46},{"user_id":639,"name":"Morse","steam_id":76561198039944542,"connected_time":4206000000000,"state":"active","ping":51},{"user_id":622,"name":"rat gets the cheese","steam_id":76561198031234032,"connected_time":5093000000000,"state":"active","ping":104},{"user_id":689,"name":"NEBULA","steam_id":76561198086878595,"connected_time":612000000000,"state":"active","ping":75},{"user_id":645,"name":"Sacrificial Wormy","steam_id":76561198054539200,"connected_time":4074000000000,"state":"active","ping":47},{"user_id":638,"name":"Cat","steam_id":76561198121342302,"connected_time":4243000000000,"state":"active","ping":159},{"user_id":676,"name":"Aardappel","steam_id":76561198030894676,"connected_time":1879000000000,"state":"active","ping":71},{"user_id":662,"name":"blinkerton city","steam_id":76561198054270410,"connected_time":2999000000000,"state":"active","ping":58},{"user_id":579,"name":"Ghee Buttersnaps","steam_id":76561199225708271,"connected_time":9574000000000,"state":"active","ping":61},{"user_id":690,"name":"5392vin","steam_id":76561198880493511,"connected_time":200000000000,"state":"active","ping":64},{"user_id":609,"name":"Bread","steam_id":76561198320293423,"connected_time":6816000000000,"state":"active","ping":51},{"user_id":694,"name":"Eaton Ass","steam_id":76561197991016724,"connected_time":84000000000,"state":"active","ping":75},{"user_id":695,"name":"hypeoftim","steam_id":76561199195639694,"connected_time":78000000000,"state":"active","ping":95},{"user_id":668,"name":"Ayayahuasca","steam_id":76561199002906056,"connected_time":2214000000000,"state":"active","ping":48},{"user_id":687,"name":"Luca","steam_id":76561198125087140,"connected_time":735000000000,"state":"active","ping":46}]},{"server_id":119,"name":"Uncletopia | Seattle | 2 | All Maps","name_short":"sea-2","host":"sea-1.us.uncletopia.com","port":27025,"enabled":true,"region":"us-west","cc":"us","latitude":47.608013,"longitude":-122.33517,"reserved":0,"last_update":"0001-01-01T00:00:00Z","name_a2s":"Uncletopia | Seattle | 2 | All Maps","protocol":17,"map":"cp_dustbowl","folder":"tf","game":"Team Fortress","app_id":440,"player_count":24,"max_players":24,"Bots":0,"server_type":"Dedicated","server_os":"Linux","password":true,"vac":true,"version":"7757534","steam_id":85568392924469998,"keywords":["cp","nocrits","nodmgspread","uncletopia"],"game_id":440,"stv_port":27026,"stv_name":"Uncletopia | Seattle | 2 | All Maps | STV","players":[{"user_id":677,"name":"PoshVagrant","steam_id":76561198110042040,"connected_time":6455000000000,"state":"active","ping":57},{"user_id":689,"name":"Cloud","steam_id":76561198272454184,"connected_time":5345000000000,"state":"active","ping":175},{"user_id":732,"name":"(Insert clever name)","steam_id":76561198000424082,"connected_time":1508000000000,"state":"active","ping":46},{"user_id":676,"name":"Hint of Sausage","steam_id":76561198098879664,"connected_time":6486000000000,"state":"active","ping":53},{"user_id":755,"name":"Ziggie Smalls","steam_id":76561198804592809,"connected_time":39000000000,"state":"active","ping":47},{"user_id":742,"name":"Jacquzzi_","steam_id":76561198114472117,"connected_time":967000000000,"state":"active","ping":74},{"user_id":733,"name":"Lots0","steam_id":76561198043143145,"connected_time":1440000000000,"state":"active","ping":114},{"user_id":714,"name":"Kanga Roo","steam_id":76561198073358867,"connected_time":3777000000000,"state":"active","ping":48},{"user_id":682,"name":"Badman","steam_id":76561198169881839,"connected_time":6301000000000,"state":"active","ping":58},{"user_id":697,"name":"Agent86","steam_id":76561198046794593,"connected_time":4360000000000,"state":"active","ping":128},{"user_id":720,"name":"trackpad gaming | f2p","steam_id":76561198840414371,"connected_time":2494000000000,"state":"active","ping":46},{"user_id":748,"name":"Tmiracle","steam_id":76561198052375275,"connected_time":432000000000,"state":"active","ping":80},{"user_id":703,"name":"Cinnifox","steam_id":76561198068773971,"connected_time":4043000000000,"state":"active","ping":69},{"user_id":750,"name":"El Gato Paranoico","steam_id":76561198116567116,"connected_time":315000000000,"state":"active","ping":120},{"user_id":707,"name":"Facepalm","steam_id":76561198001935226,"connected_time":3875000000000,"state":"active","ping":78},{"user_id":717,"name":"Villchip","steam_id":76561198198599982,"connected_time":3546000000000,"state":"active","ping":54},{"user_id":753,"name":"Nightlyy.","steam_id":76561198272069779,"connected_time":208000000000,"state":"active","ping":87},{"user_id":751,"name":"TheSquirrelofHuscurl","steam_id":76561198073379623,"connected_time":314000000000,"state":"active","ping":131},{"user_id":719,"name":"Iggledeebop","steam_id":76561198107095745,"connected_time":3252000000000,"state":"active","ping":52},{"user_id":722,"name":"the glizzard","steam_id":76561198121633820,"connected_time":2419000000000,"state":"active","ping":78},{"user_id":752,"name":"pmstr","steam_id":76561198039366409,"connected_time":311000000000,"state":"active","ping":50},{"user_id":730,"name":"eye see you","steam_id":76561198115242460,"connected_time":1648000000000,"state":"active","ping":61},{"user_id":731,"name":"Ślimak","steam_id":76561198296476784,"connected_time":1510000000000,"state":"active","ping":145},{"user_id":747,"name":"Alpharius","steam_id":76561197996284353,"connected_time":582000000000,"state":"active","ping":74}]},{"server_id":406,"name":"Uncletopia | Seattle | 3 | Stopwatch Beta","name_short":"sea-3","host":"sea-1.us.uncletopia.com","port":27035,"enabled":true,"region":"us-west","cc":"us","latitude":47.608013,"longitude":-122.33517,"reserved":0,"last_update":"0001-01-01T00:00:00Z","name_a2s":"Uncletopia | Seattle | 3 | Stopwatch Beta","protocol":17,"map":"workshop/pl_barnblitz_pro7.ugc582280235","folder":"tf","game":"Team Fortress","app_id":440,"player_count":2,"max_players":24,"Bots":0,"server_type":"Dedicated","server_os":"Linux","password":true,"vac":true,"version":"7757534","steam_id":85568392924515217,"keywords":["nocrits","nodmgspread","payload","uncletopia"],"game_id":440,"stv_port":27036,"stv_name":"Uncletopia | Seattle | 3 | Stopwatch Beta | STV","players":[{"user_id":35,"name":"Cure","steam_id":76561199133106588,"connected_time":154000000000,"state":"active","ping":52},{"user_id":36,"name":"J3al0us","steam_id":76561199098140237,"connected_time":127000000000,"state":"active","ping":77}]},{"server_id":17,"name":"Uncletopia | San Francisco | 1 | All Maps","name_short":"sfo-1","host":"sfo-1.us.uncletopia.com","port":27015,"enabled":true,"region":"us-west","cc":"us","latitude":37.77397,"longitude":-122.4313,"reserved":0,"last_update":"0001-01-01T00:00:00Z","name_a2s":"Uncletopia | San Francisco | 1 | All Maps","protocol":17,"map":"pl_swiftwater_final1","folder":"tf","game":"Team Fortress","app_id":440,"player_count":24,"max_players":24,"Bots":0,"server_type":"Dedicated","server_os":"Linux","password":true,"vac":true,"version":"7757534","steam_id":85568392924469999,"keywords":["nocrits","nodmgspread","payload","uncletopia"],"game_id":440,"stv_port":27016,"stv_name":"Uncletopia | San Francisco | 1 | All Maps | STV","players":[{"user_id":289,"name":"Maxwell (head is full of rice)","steam_id":76561198244676730,"connected_time":3661000000000,"state":"active","ping":89},{"user_id":334,"name":"BIG HOG","steam_id":76561198079923652,"connected_time":725000000000,"state":"active","ping":91},{"user_id":324,"name":"Murrdogg","steam_id":76561198210491188,"connected_time":1250000000000,"state":"active","ping":115},{"user_id":259,"name":"ROGUE-PLANET","steam_id":76561198116023052,"connected_time":5624000000000,"state":"active","ping":75},{"user_id":285,"name":"Chucklenuts Mcfucklebutts","steam_id":76561198103382044,"connected_time":3939000000000,"state":"active","ping":94},{"user_id":330,"name":"cuyler100","steam_id":76561198061880997,"connected_time":825000000000,"state":"active","ping":138},{"user_id":331,"name":"boopis","steam_id":76561198343502610,"connected_time":760000000000,"state":"active","ping":59},{"user_id":271,"name":"postgres","steam_id":76561198011204750,"connected_time":4924000000000,"state":"active","ping":88},{"user_id":293,"name":"Krazy","steam_id":76561198835502709,"connected_time":3318000000000,"state":"active","ping":58},{"user_id":319,"name":"Satori Komeiji","steam_id":76561198158211423,"connected_time":1554000000000,"state":"active","ping":50},{"user_id":274,"name":"Major Coom","steam_id":76561198038371512,"connected_time":4784000000000,"state":"active","ping":136},{"user_id":332,"name":"Box","steam_id":76561198880013848,"connected_time":754000000000,"state":"active","ping":67},{"user_id":320,"name":"L + Maidenless + Tarnished","steam_id":76561198978605490,"connected_time":1525000000000,"state":"active","ping":105},{"user_id":333,"name":"Engynier Gaimeang (F2P)","steam_id":76561199013888779,"connected_time":753000000000,"state":"active","ping":63},{"user_id":312,"name":"CulperRing","steam_id":76561198556615605,"connected_time":1835000000000,"state":"active","ping":98},{"user_id":304,"name":"xale","steam_id":76561198002209300,"connected_time":2503000000000,"state":"active","ping":57},{"user_id":302,"name":"Doctor Bad Dragon","steam_id":76561198058773212,"connected_time":2885000000000,"state":"active","ping":61},{"user_id":314,"name":"Ghostlysmith","steam_id":76561198998893929,"connected_time":1748000000000,"state":"active","ping":68},{"user_id":321,"name":"Maid 'n' China","steam_id":76561198423392976,"connected_time":1444000000000,"state":"active","ping":52},{"user_id":313,"name":"Jeremy","steam_id":76561198352333793,"connected_time":1801000000000,"state":"active","ping":133},{"user_id":322,"name":"FDR","steam_id":76561198300349976,"connected_time":1345000000000,"state":"active","ping":75},{"user_id":252,"name":"garry","steam_id":76561199091007559,"connected_time":6529000000000,"state":"active","ping":66},{"user_id":327,"name":"benjamoney","steam_id":76561199023027047,"connected_time":1140000000000,"state":"active","ping":79},{"user_id":329,"name":"Soft Fuzzy Horse","steam_id":76561198005777544,"connected_time":891000000000,"state":"active","ping":59}]},{"server_id":18,"name":"Uncletopia | San Francisco | 2 | All Maps","name_short":"sfo-2","host":"sfo-1.us.uncletopia.com","port":27025,"enabled":true,"region":"us-west","cc":"us","latitude":37.77397,"longitude":-122.4313,"reserved":0,"last_update":"0001-01-01T00:00:00Z","name_a2s":"Uncletopia | San Francisco | 2 | All Maps","protocol":17,"map":"pl_swiftwater_final1","folder":"tf","game":"Team Fortress","app_id":440,"player_count":24,"max_players":24,"Bots":0,"server_type":"Dedicated","server_os":"Linux","password":true,"vac":true,"version":"7757534","steam_id":85568392924470000,"keywords":["nocrits","nodmgspread","payload","uncletopia"],"game_id":440,"stv_port":27026,"stv_name":"Uncletopia | San Francisco | 2 | All Maps | STV","players":[{"user_id":131,"name":"Saddam","steam_id":76561197985725267,"connected_time":426000000000,"state":"active","ping":82},{"user_id":138,"name":"William Gaming_YT","steam_id":76561199436290235,"connected_time":155000000000,"state":"active","ping":353},{"user_id":135,"name":"Razor","steam_id":76561198008415797,"connected_time":202000000000,"state":"active","ping":70},{"user_id":130,"name":"Lamy","steam_id":76561198348354629,"connected_time":611000000000,"state":"active","ping":52},{"user_id":114,"name":"H.","steam_id":76561198074951179,"connected_time":2959000000000,"state":"active","ping":67},{"user_id":99,"name":"ContinuedBear","steam_id":76561198265176919,"connected_time":4393000000000,"state":"active","ping":116},{"user_id":136,"name":"[Colorbomb]","steam_id":76561198006316527,"connected_time":197000000000,"state":"active","ping":81},{"user_id":78,"name":"ManRat","steam_id":76561198056737951,"connected_time":6492000000000,"state":"active","ping":84},{"user_id":123,"name":"Trash Man","steam_id":76561198874518834,"connected_time":1288000000000,"state":"active","ping":89},{"user_id":101,"name":"SaucySandwichKid","steam_id":76561199372590934,"connected_time":4266000000000,"state":"active","ping":129},{"user_id":47,"name":"ಠ_ಠ","steam_id":76561198081836417,"connected_time":9044000000000,"state":"active","ping":84},{"user_id":117,"name":"NinjAssassin51","steam_id":76561198081387392,"connected_time":2768000000000,"state":"active","ping":76},{"user_id":137,"name":"Theory-ZaZa","steam_id":76561198116419931,"connected_time":191000000000,"state":"active","ping":80},{"user_id":134,"name":"Kim SEXler","steam_id":76561198811554257,"connected_time":277000000000,"state":"active","ping":118},{"user_id":110,"name":"MantisToboggan","steam_id":76561197969447887,"connected_time":3435000000000,"state":"active","ping":88},{"user_id":93,"name":"Pot Head Pixie","steam_id":76561198083024504,"connected_time":4708000000000,"state":"active","ping":100},{"user_id":71,"name":"rmbl","steam_id":76561198150137369,"connected_time":6984000000000,"state":"active","ping":49},{"user_id":108,"name":"Norbus","steam_id":76561198027865299,"connected_time":3721000000000,"state":"active","ping":83},{"user_id":49,"name":"nurseShark","steam_id":76561198050225459,"connected_time":8897000000000,"state":"active","ping":108},{"user_id":139,"name":"kn0n1894","steam_id":76561198249172818,"connected_time":108000000000,"state":"active","ping":88},{"user_id":116,"name":"Toxic Medic Main (he/they)","steam_id":76561198009314845,"connected_time":2903000000000,"state":"active","ping":66},{"user_id":98,"name":"The Cube","steam_id":76561199382565628,"connected_time":4516000000000,"state":"active","ping":66},{"user_id":120,"name":"Flyingcat9000","steam_id":76561198179561797,"connected_time":2182000000000,"state":"active","ping":38},{"user_id":127,"name":"GAME GAMING","steam_id":76561199222119901,"connected_time":1127000000000,"state":"active","ping":78}]},{"server_id":19,"name":"Uncletopia | San Francisco | 3 | Stopwatch Beta","name_short":"sfo-3","host":"sfo-1.us.uncletopia.com","port":27035,"enabled":true,"region":"us-west","cc":"us","latitude":37.77397,"longitude":-122.4313,"reserved":0,"last_update":"0001-01-01T00:00:00Z","name_a2s":"Uncletopia | San Francisco | 3 | Stopwatch Beta","protocol":17,"map":"pl_borneo","folder":"tf","game":"Team Fortress","app_id":440,"player_count":0,"max_players":24,"Bots":0,"server_type":"Dedicated","server_os":"Linux","password":true,"vac":true,"version":"7757534","steam_id":85568392924742824,"keywords":["nocrits","nodmgspread","payload","uncletopia"],"game_id":440,"stv_port":27036,"stv_name":"Uncletopia | San Francisco | 3 | Stopwatch Beta | STV","players":null},{"server_id":20,"name":"Uncletopia | San Francisco | 4 | Community","name_short":"sfo-4","host":"sfo-1.us.uncletopia.com","port":27045,"enabled":true,"region":"us-west","cc":"us","latitude":37.77397,"longitude":-122.4313,"reserved":0,"last_update":"0001-01-01T00:00:00Z","name_a2s":"Uncletopia | San Francisco | 4 | Community","protocol":17,"map":"koth_highpass","folder":"tf","game":"Team Fortress","app_id":440,"player_count":0,"max_players":24,"Bots":0,"server_type":"Dedicated","server_os":"Linux","password":true,"vac":true,"version":"7757534","steam_id":85568392924742826,"keywords":["cp","nocrits","nodmgspread","uncletopia"],"game_id":440,"stv_port":27046,"stv_name":"Uncletopia | San Francisco | 4 | Community | STV","players":null},{"server_id":141,"name":"Uncletopia | Sydney | 1 | All Maps","name_short":"syd-1","host":"syd-1.au.uncletopia.com","port":27015,"enabled":true,"region":"au","cc":"au","latitude":-33.865143,"longitude":151.2099,"reserved":0,"last_update":"0001-01-01T00:00:00Z","name_a2s":"Uncletopia | Sydney | 1 | All Maps","protocol":17,"map":"pl_barnblitz","folder":"tf","game":"Team Fortress","app_id":440,"player_count":24,"max_players":24,"Bots":0,"server_type":"Dedicated","server_os":"Linux","password":true,"vac":true,"version":"7757534","steam_id":85568392924470001,"keywords":["nocrits","nodmgspread","payload","uncletopia"],"game_id":440,"stv_port":27016,"stv_name":"Uncletopia | Sydney | 1 | All Maps | STV","players":[{"user_id":171,"name":"Twink-182","steam_id":76561198090088613,"connected_time":3439000000000,"state":"active","ping":104},{"user_id":120,"name":"Muffin™","steam_id":76561198819353439,"connected_time":8758000000000,"state":"active","ping":51},{"user_id":189,"name":"҂Storm","steam_id":76561198073213264,"connected_time":556000000000,"state":"active","ping":47},{"user_id":172,"name":"las","steam_id":76561198039162155,"connected_time":3333000000000,"state":"active","ping":54},{"user_id":192,"name":"kitkat","steam_id":76561198442601104,"connected_time":497000000000,"state":"active","ping":60},{"user_id":167,"name":"Lizrd-Wizrd","steam_id":76561198281156018,"connected_time":3885000000000,"state":"active","ping":57},{"user_id":193,"name":"Rat Pope","steam_id":76561199059450243,"connected_time":464000000000,"state":"active","ping":55},{"user_id":190,"name":"MikkyD","steam_id":76561198043452962,"connected_time":547000000000,"state":"active","ping":64},{"user_id":185,"name":"(◣_◢)","steam_id":76561199184547017,"connected_time":1206000000000,"state":"active","ping":41},{"user_id":196,"name":"Strausicle","steam_id":76561198983332062,"connected_time":346000000000,"state":"active","ping":72},{"user_id":183,"name":"Emanuel Augustus","steam_id":76561199081848498,"connected_time":1489000000000,"state":"active","ping":63},{"user_id":187,"name":"Griffin","steam_id":76561198024926514,"connected_time":1169000000000,"state":"active","ping":89},{"user_id":157,"name":"Fresh Produce Gaming","steam_id":76561198358483352,"connected_time":4985000000000,"state":"active","ping":58},{"user_id":180,"name":"Balsamic Vinegar","steam_id":76561198260148888,"connected_time":2208000000000,"state":"active","ping":66},{"user_id":144,"name":"Oysenberry","steam_id":76561198125443335,"connected_time":6793000000000,"state":"active","ping":44},{"user_id":198,"name":"HYPER","steam_id":76561198302487295,"connected_time":143000000000,"state":"active","ping":39},{"user_id":174,"name":"Stubborn Sheepcow","steam_id":76561198065334258,"connected_time":3163000000000,"state":"active","ping":80},{"user_id":184,"name":"Dabloon","steam_id":76561198115876475,"connected_time":1221000000000,"state":"active","ping":57},{"user_id":188,"name":"Rags","steam_id":76561198179481430,"connected_time":1094000000000,"state":"active","ping":103},{"user_id":197,"name":"Crab","steam_id":76561198121717806,"connected_time":246000000000,"state":"active","ping":67},{"user_id":107,"name":"FyreFeat","steam_id":76561198068428930,"connected_time":10163000000000,"state":"active","ping":55},{"user_id":163,"name":"Gasoline","steam_id":76561198879023728,"connected_time":4710000000000,"state":"active","ping":77},{"user_id":166,"name":"Empr","steam_id":76561198024387396,"connected_time":3915000000000,"state":"active","ping":67},{"user_id":176,"name":"Cofwee","steam_id":76561198072414195,"connected_time":3066000000000,"state":"active","ping":75}]},{"server_id":123,"name":"Uncletopia | Sydney | 2 | All Maps","name_short":"syd-2","host":"syd-1.au.uncletopia.com","port":27025,"enabled":true,"region":"au","cc":"au","latitude":-33.865143,"longitude":151.2099,"reserved":0,"last_update":"0001-01-01T00:00:00Z","name_a2s":"Uncletopia | Sydney | 2 | All Maps","protocol":17,"map":"pl_pier","folder":"tf","game":"Team Fortress","app_id":440,"player_count":2,"max_players":24,"Bots":0,"server_type":"Dedicated","server_os":"Linux","password":true,"vac":true,"version":"7757534","steam_id":85568392924470002,"keywords":["nocrits","nodmgspread","payload","uncletopia"],"game_id":440,"stv_port":27026,"stv_name":"Uncletopia | Sydney | 2 | All Maps | STV","players":[{"user_id":69,"name":"Pew pew pew!","steam_id":76561198004120277,"connected_time":672000000000,"state":"active","ping":38},{"user_id":37,"name":"Wrainbow","steam_id":76561199039385168,"connected_time":2480000000000,"state":"active","ping":84}]},{"server_id":395,"name":"Uncletopia | Sydney | 3 | All Maps","name_short":"syd-3","host":"syd-1.au.uncletopia.com","port":27035,"enabled":true,"region":"au","cc":"au","latitude":-33.865143,"longitude":151.2099,"reserved":0,"last_update":"0001-01-01T00:00:00Z","name_a2s":"Uncletopia | Sydney | 3 | All Maps","protocol":17,"map":"koth_nucleus","folder":"tf","game":"Team Fortress","app_id":440,"player_count":5,"max_players":24,"Bots":0,"server_type":"Dedicated","server_os":"Linux","password":true,"vac":true,"version":"7757534","steam_id":85568392925194467,"keywords":["cp","nocrits","nodmgspread","uncletopia"],"game_id":440,"stv_port":27036,"stv_name":"Uncletopia | Sydney | 3 | All Maps | STV","players":[{"user_id":24,"name":"asian.forty.seven","steam_id":76561199164513885,"connected_time":315000000000,"state":"active","ping":73},{"user_id":21,"name":"Fart_on_my_balls","steam_id":76561198893100814,"connected_time":991000000000,"state":"active","ping":91},{"user_id":12,"name":"maximind123","steam_id":76561199237473824,"connected_time":5725000000000,"state":"active","ping":54},{"user_id":22,"name":"Monke","steam_id":76561198353010829,"connected_time":928000000000,"state":"active","ping":66},{"user_id":16,"name":"ROMPEQK'S","steam_id":76561199100811090,"connected_time":4121000000000,"state":"active","ping":369}]},{"server_id":396,"name":"Uncletopia | Sydney | 4 | All Maps","name_short":"syd-4","host":"syd-1.au.uncletopia.com","port":27045,"enabled":true,"region":"au","cc":"au","latitude":-33.865143,"longitude":151.2099,"reserved":0,"last_update":"0001-01-01T00:00:00Z","name_a2s":"Uncletopia | Sydney | 4 | All Maps","protocol":17,"map":"cp_dustbowl","folder":"tf","game":"Team Fortress","app_id":440,"player_count":6,"max_players":24,"Bots":0,"server_type":"Dedicated","server_os":"Linux","password":true,"vac":true,"version":"7757534","steam_id":85568392925397958,"keywords":["cp","nocrits","nodmgspread","uncletopia"],"game_id":440,"stv_port":27046,"stv_name":"Uncletopia | Sydney | 4 | All Maps | STV","players":[{"user_id":77,"name":"jflow19","steam_id":76561199089378616,"connected_time":13000000000,"state":"spawning","ping":103},{"user_id":70,"name":"aesfg (an idiotic free to play)","steam_id":76561199177781991,"connected_time":1965000000000,"state":"active","ping":328},{"user_id":76,"name":"-⁧⁧ Rin リン","steam_id":76561198155841915,"connected_time":445000000000,"state":"active","ping":257},{"user_id":73,"name":"Averg","steam_id":76561199116359172,"connected_time":916000000000,"state":"active","ping":46},{"user_id":72,"name":"tourist from banan bay","steam_id":76561199446773766,"connected_time":1659000000000,"state":"active","ping":95},{"user_id":74,"name":"C0G1","steam_id":76561198165447826,"connected_time":793000000000,"state":"active","ping":101}]},{"server_id":58,"name":"Uncletopia | Sydney | 5 | Stopwatch Beta","name_short":"syd-5","host":"syd-1.au.uncletopia.com","port":27055,"enabled":true,"region":"au","cc":"au","latitude":-33.865143,"longitude":151.2099,"reserved":0,"last_update":"0001-01-01T00:00:00Z","name_a2s":"Uncletopia | Sydney | 5 | Stopwatch Beta","protocol":17,"map":"koth_highpass","folder":"tf","game":"Team Fortress","app_id":440,"player_count":0,"max_players":24,"Bots":0,"server_type":"Dedicated","server_os":"Linux","password":true,"vac":true,"version":"7757534","steam_id":85568392925397959,"keywords":["cp","nocrits","nodmgspread","uncletopia"],"game_id":440,"stv_port":27056,"stv_name":"Uncletopia | Sydney | 5 | Stopwatch Beta | STV","players":null},{"server_id":59,"name":"Uncletopia | Sydney | 6 | Community","name_short":"syd-6","host":"syd-1.au.uncletopia.com","port":27065,"enabled":true,"region":"au","cc":"au","latitude":-33.865143,"longitude":151.2099,"reserved":0,"last_update":"0001-01-01T00:00:00Z","name_a2s":"Uncletopia | Sydney | 6 | Community","protocol":17,"map":"workshop/koth_synthetic_rc6a.ugc1549817316","folder":"tf","game":"Team Fortress","app_id":440,"player_count":0,"max_players":24,"Bots":0,"server_type":"Dedicated","server_os":"Linux","password":true,"vac":true,"version":"7757534","steam_id":85568392925397960,"keywords":["cp","nocrits","nodmgspread","uncletopia"],"game_id":440,"stv_port":27066,"stv_name":"Uncletopia | Sydney | 6 | Community | STV","players":null},{"server_id":49,"name":"Uncletopia | Warsaw | 1 | All Maps","name_short":"waw-1","host":"waw-1.pl.uncletopia.com","port":27015,"enabled":true,"region":"eu","cc":"pl","latitude":52.2297,"longitude":21.017532,"reserved":0,"last_update":"0001-01-01T00:00:00Z","name_a2s":"","protocol":0,"map":"","folder":"","game":"","app_id":0,"player_count":0,"max_players":0,"Bots":0,"server_type":"","server_os":"","password":false,"vac":false,"version":"","steam_id":0,"keywords":null,"game_id":0,"stv_port":0,"stv_name":"","players":null},{"server_id":50,"name":"Uncletopia | Warsaw | 2 | All Maps","name_short":"waw-2","host":"waw-1.pl.uncletopia.com","port":27025,"enabled":true,"region":"eu","cc":"pl","latitude":52.2297,"longitude":21.017532,"reserved":0,"last_update":"0001-01-01T00:00:00Z","name_a2s":"Uncletopia | Warsaw | 2 | All Maps","protocol":17,"map":"cp_process_final","folder":"tf","game":"Team Fortress","app_id":440,"player_count":0,"max_players":24,"Bots":0,"server_type":"Dedicated","server_os":"Linux","password":true,"vac":true,"version":"7757534","steam_id":85568392925397851,"keywords":["cp","nocrits","nodmgspread","uncletopia"],"game_id":440,"stv_port":27026,"stv_name":"Uncletopia | Warsaw | 2 | All Maps | STV","players":null},{"server_id":51,"name":"Uncletopia | Warsaw | 3 | All Maps","name_short":"waw-3","host":"waw-1.pl.uncletopia.com","port":27035,"enabled":true,"region":"eu","cc":"pl","latitude":52.2297,"longitude":21.017532,"reserved":0,"last_update":"0001-01-01T00:00:00Z","name_a2s":"Uncletopia | Warsaw | 3 | All Maps","protocol":17,"map":"pl_barnblitz","folder":"tf","game":"Team Fortress","app_id":440,"player_count":0,"max_players":24,"Bots":0,"server_type":"Dedicated","server_os":"Linux","password":true,"vac":true,"version":"7757534","steam_id":85568392925397852,"keywords":["nocrits","nodmgspread","payload","uncletopia"],"game_id":440,"stv_port":27036,"stv_name":"Uncletopia | Warsaw | 3 | All Maps | STV","players":null},{"server_id":52,"name":"Uncletopia | Warsaw | 4 | All Maps","name_short":"waw-4","host":"waw-1.pl.uncletopia.com","port":27045,"enabled":true,"region":"eu","cc":"pl","latitude":52.2297,"longitude":21.017532,"reserved":0,"last_update":"0001-01-01T00:00:00Z","name_a2s":"Uncletopia | Warsaw | 4 | All Maps","protocol":17,"map":"pl_snowycoast","folder":"tf","game":"Team Fortress","app_id":440,"player_count":0,"max_players":24,"Bots":0,"server_type":"Dedicated","server_os":"Linux","password":true,"vac":true,"version":"7757534","steam_id":85568392925397853,"keywords":["nocrits","nodmgspread","payload","uncletopia"],"game_id":440,"stv_port":27046,"stv_name":"Uncletopia | Warsaw | 4 | All Maps | STV","players":null},{"server_id":53,"name":"Uncletopia | Warsaw | 5 | Stopwatch Beta","name_short":"waw-5","host":"waw-1.pl.uncletopia.com","port":27055,"enabled":true,"region":"eu","cc":"pl","latitude":52.2297,"longitude":21.017532,"reserved":0,"last_update":"0001-01-01T00:00:00Z","name_a2s":"Uncletopia | Warsaw | 5 | Stopwatch Beta","protocol":17,"map":"pl_barnblitz","folder":"tf","game":"Team Fortress","app_id":440,"player_count":0,"max_players":24,"Bots":0,"server_type":"Dedicated","server_os":"Linux","password":true,"vac":true,"version":"7757534","steam_id":85568392925397854,"keywords":["nocrits","nodmgspread","payload","uncletopia"],"game_id":440,"stv_port":27056,"stv_name":"Uncletopia | Warsaw | 5 | Stopwatch Beta | STV","players":null},{"server_id":54,"name":"Uncletopia | Warsaw | 6 | Community","name_short":"waw-6","host":"waw-1.pl.uncletopia.com","port":27065,"enabled":true,"region":"eu","cc":"pl","latitude":52.2297,"longitude":21.017532,"reserved":0,"last_update":"0001-01-01T00:00:00Z","name_a2s":"Uncletopia | Warsaw | 6 | Community","protocol":17,"map":"pl_swiftwater_final1","folder":"tf","game":"Team Fortress","app_id":440,"player_count":0,"max_players":24,"Bots":0,"server_type":"Dedicated","server_os":"Linux","password":true,"vac":true,"version":"7757534","steam_id":85568392925397856,"keywords":["nocrits","nodmgspread","payload","uncletopia"],"game_id":440,"stv_port":27066,"stv_name":"Uncletopia | Warsaw | 6 | Community | STV","players":null}]}