{"status":true,"message":"","result":[{"server_id":9,"name":"Uncletopia | Atlanta | 1 | All Maps","name_short":"atl-1","host":"atl-1.us.uncletopia.com","port":27015,"enabled":true,"region":"us-east","cc":"us","latitude":33.753746,"longitude":-84.38633,"reserved":0,"last_update":"0001-01-01T00:00:00Z","name_a2s":"Uncletopia | Atlanta | 1 | All Maps","protocol":17,"map":"cp_process_final","folder":"tf","game":"Team Fortress","app_id":440,"player_count":22,"max_players":24,"Bots":0,"server_type":"Dedicated","server_os":"Linux","password":true,"vac":true,"version":"7882260","steam_id":85568392924469982,"keywords":["cp","nocrits","nodmgspread","uncletopia"],"game_id":440,"stv_port":27016,"stv_name":"Uncletopia | Atlanta | 1 | All Maps | STV","players":[{"user_id":762,"name":"mel0n","steam_id":76561198034817244,"connected_time":398000000000,"state":"active","ping":61},{"user_id":659,"name":"FROYO cin","steam_id":76561198139802458,"connected_time":5443000000000,"state":"active","ping":88},{"user_id":753,"name":"TerryGonnaTustle1974","steam_id":76561198088758439,"connected_time":1266000000000,"state":"active","ping":46},{"user_id":749,"name":"In Flames","steam_id":76561198026186354,"connected_time":1289000000000,"state":"active","ping":99},{"user_id":778,"name":"Spare(8)Ball","steam_id":76561197982432995,"connected_time":40000000000,"state":"active","ping":113},{"user_id":721,"name":"Oddball","steam_id":76561198040440984,"connected_time":3375000000000,"state":"active","ping":87},{"user_id":744,"name":"pel","steam_id":76561198021224745,"connected_time":1784000000000,"state":"active","ping":59},{"user_id":746,"name":"Elena Manetta","steam_id":76561197998344054,"connected_time":1521000000000,"state":"active","ping":56},{"user_id":370,"name":"minty","steam_id":76561198096347625,"connected_time":14213000000000,"state":"active","ping":60},{"user_id":779,"name":"dementia gaming","steam_id":76561198432668439,"connected_time":40000000000,"state":"active","ping":81},{"user_id":769,"name":"Crystal Mongoose","steam_id":76561198001585325,"connected_time":288000000000,"state":"active","ping":45},{"user_id":763,"name":"KING KONG","steam_id":76561198927517471,"connected_time":395000000000,"state":"active","ping":54},{"user_id":772,"name":"Ludcmorais","steam_id":76561198359217809,"connected_time":155000000000,"state":"active","ping":185},{"user_id":771,"name":"Thomas Sowell","steam_id":76561198047168548,"connected_time":191000000000,"state":"active","ping":101},{"user_id":709,"name":"Monochrome | Cashmoney","steam_id":76561198377320040,"connected_time":4076000000000,"state":"active","ping":60},{"user_id":755,"name":"Muk__Tuk","steam_id":76561199122524457,"connected_time":1234000000000,"state":"active","ping":80},{"user_id":773,"name":"T Jit","steam_id":76561197993371179,"connected_time":125000000000,"state":"active","ping":45},{"user_id":660,"name":"Wheat Box","steam_id":76561198203443358,"connected_time":5298000000000,"state":"active","ping":81},{"user_id":754,"name":"jpuck","steam_id":76561198025018960,"connected_time":1261000000000,"state":"active","ping":51},{"user_id":775,"name":"NajÃº","steam_id":76561198195319259,"connected_time":85000000000,"state":"active","ping":165},{"user_id":759,"name":"DFR DeezNoodlez","steam_id":76561198246700372,"connected_time":840000000000,"state":"active","ping":59},{"user_id":777,"name":"a hedgehog","steam_id":76561198019010682,"connected_time":72000000000,"state":"active","ping":61}]},{"server_id":104,"name":"Uncletopia | Atlanta | 2 | All Maps","name_short":"atl-2","host":"atl-1.us.uncletopia.com","port":27025,"enabled":true,"region":"us-east","cc":"us","latitude":33.753746,"longitude":-84.38633,"reserved":0,"last_update":"0001-01-01T00:00:00Z","name_a2s":"Uncletopia | Atlanta | 2 | All Maps","protocol":17,"map":"pl_badwater","folder":"tf","game":"Team Fortress","app_id":440,"player_count":24,"max_players":24,"Bots":0,"server_type":"Dedicated","server_os":"Linux","password":true,"vac":true,"version":"7882260","steam_id":85568392924469983,"keywords":["nocrits","nodmgspread","payload","uncletopia"],"game_id":440,"stv_port":27026,"stv_name":"Uncletopia | Atlanta | 2 | All Maps | STV","players":[{"user_id":455,"name":"dp","steam_id":76561198072134223,"connected_time":186000000000,"state":"active","ping":101},{"user_id":437,"name":"Bob is Zack","steam_id":76561198315655301,"connected_time":1675000000000,"state":"active","ping":75},{"user_id":438,"name":"bikerkid207","steam_id":76561198390782783,"connected_time":1615000000000,"state":"active","ping":69},{"user_id":384,"name":"Sprinklze","steam_id":76561198163562681,"connected_time":5634000000000,"state":"active","ping":49},{"user_id":424,"name":"Dr Oshawott","steam_id":76561198042021629,"connected_time":2960000000000,"state":"active","ping":90},{"user_id":443,"name":"*","steam_id":76561198173047169,"connected_time":1002000000000,"state":"active","ping":59},{"user_id":450,"name":"THE MONARCH","steam_id":76561198144158938,"connected_time":585000000000,"state":"active","ping":57},{"user_id":434,"name":"nothing burger eater","steam_id":76561198046201690,"connected_time":2069000000000,"state":"active","ping":148},{"user_id":444,"name":"drevott74","steam_id":76561199262592779,"connected_time":989000000000,"state":"active","ping":110},{"user_id":452,"name":"highschool drop-out","steam_id":76561198366299848,"connected_time":451000000000,"state":"active","ping":51},{"user_id":417,"name":"Blue Eyes Ace Dragon.","steam_id":76561198048214237,"connected_time":3146000000000,"state":"active","ping":60},{"user_id":432,"name":"Sartupial","steam_id":76561198443169940,"connected_time":2538000000000,"state":"active","ping":65},{"user_id":418,"name":"Hey","steam_id":76561198447517893,"connected_time":3111000000000,"state":"active","ping":62},{"user_id":453,"name":"sagekiss","steam_id":76561198038831240,"connected_time":318000000000,"state":"active","ping":120},{"user_id":449,"name":"PracticalProblems","steam_id":76561198962655832,"connected_time":801000000000,"state":"active","ping":68},{"user_id":419,"name":"good soup guy","steam_id":76561199210237835,"connected_time":3107000000000,"state":"active","ping":92},{"user_id":451,"name":"Mobius","steam_id":76561199121973450,"connected_time":562000000000,"state":"active","ping":68},{"user_id":405,"name":"practice practice practice","steam_id":76561198083345384,"connected_time":3757000000000,"state":"active","ping":102},{"user_id":420,"name":"*loudly chewing on milk*","steam_id":76561198012539938,"connected_time":3075000000000,"state":"active","ping":72},{"user_id":429,"name":"seldom","steam_id":76561198166193756,"connected_time":2699000000000,"state":"active","ping":81},{"user_id":454,"name":"L U C I F E R","steam_id":76561198067341358,"connected_time":309000000000,"state":"active","ping":106},{"user_id":435,"name":"Notsocreative","steam_id":76561198236372202,"connected_time":2056000000000,"state":"active","ping":77},{"user_id":423,"name":"Sleepycap","steam_id":76561198044484011,"connected_time":3056000000000,"state":"active","ping":80},{"user_id":441,"name":"Big Dick Swinging","steam_id":76561198053819929,"connected_time":1544000000000,"state":"active","ping":92}]},{"server_id":400,"name":"Uncletopia | Atlanta | 3 | Community","name_short":"atl-3","host":"atl-1.us.uncletopia.com","port":27035,"enabled":true,"region":"us-east","cc":"us","latitude":33.753746,"longitude":-84.38633,"reserved":0,"last_update":"0001-01-01T00:00:00Z","name_a2s":"Uncletopia | Atlanta | 3 | Community","protocol":17,"map":"workshop/pl_cactuscanyon_redux_final2.ugc2579644293","folder":"tf","game":"Team Fortress","app_id":440,"player_count":24,"max_players":24,"Bots":0,"server_type":"Dedicated","server_os":"Linux","password":true,"vac":true,"version":"7882260","steam_id":85568392924515187,"keywords":["nocrits","nodmgspread","payload","uncletopia"],"game_id":440,"stv_port":27036,"stv_name":"Uncletopia | Atlanta | 3 | Community | STV","players":[{"user_id":140,"name":"Obama F. Kennedy","steam_id":76561198282499318,"connected_time":821000000000,"state":"active","ping":64},{"user_id":71,"name":"Mr.Silver","steam_id":76561198156382508,"connected_time":4512000000000,"state":"active","ping":68},{"user_id":137,"name":"THE ONE PIECE IS REAL","steam_id":76561198059686624,"connected_time":1055000000000,"state":"active","ping":65},{"user_id":139,"name":"Sunfly","steam_id":76561198034307439,"connected_time":972000000000,"state":"active","ping":66},{"user_id":142,"name":"400hoursonlegostarwars","steam_id":76561198749735412,"connected_time":800000000000,"state":"active","ping":57},{"user_id":145,"name":"Frost Paraselene","steam_id":76561198007332517,"connected_time":628000000000,"state":"active","ping":91},{"user_id":143,"name":"Wan Shi Tong","steam_id":76561198076441225,"connected_time":793000000000,"state":"active","ping":67},{"user_id":134,"name":"Jaximumpower","steam_id":76561198000761618,"connected_time":1165000000000,"state":"active","ping":69},{"user_id":78,"name":"boobs!","steam_id":76561198103496593,"connected_time":3832000000000,"state":"active","ping":46},{"user_id":129,"name":"ark","steam_id":76561198041066271,"connected_time":1518000000000,"state":"active","ping":91},{"user_id":118,"name":"Ekuseebia","steam_id":76561198037504112,"connected_time":2510000000000,"state":"active","ping":88},{"user_id":122,"name":"â†‘ EEBY DEEBY","steam_id":76561198392539722,"connected_time":1948000000000,"state":"active","ping":79},{"user_id":136,"name":"Phae","steam_id":76561198024763351,"connected_time":1121000000000,"state":"active","ping":83},{"user_id":47,"name":"Iampancake","steam_id":76561199044662029,"connected_time":6342000000000,"state":"active","ping":72},{"user_id":131,"name":"tux","steam_id":76561198167746330,"connected_time":1290000000000,"state":"active","ping":58},{"user_id":138,"name":"Dirachi","steam_id":76561198148186898,"connected_time":1048000000000,"state":"active","ping":64},{"user_id":97,"name":"Spyfall","steam_id":76561198081729993,"connected_time":3360000000000,"state":"active","ping":85},{"user_id":146,"name":"john_minecraft05","steam_id":76561198354026474,"connected_time":509000000000,"state":"active","ping":69},{"user_id":130,"name":"TF2C | fac -AA-","steam_id":76561198009818412,"connected_time":1382000000000,"state":"active","ping":66},{"user_id":119,"name":"Fragment Guy","steam_id":76561198178413086,"connected_time":2476000000000,"state":"active","ping":72},{"user_id":120,"name":"bartender named \"Doc\"","steam_id":76561198329087915,"connected_time":2438000000000,"state":"active","ping":103},{"user_id":135,"name":"canadian birds","steam_id":76561198059466588,"connected_time":1155000000000,"state":"active","ping":86},{"user_id":149,"name":"Engineer Gaming","steam_id":76561199045667258,"connected_time":342000000000,"state":"active","ping":111},{"user_id":128,"name":"Pimastr","steam_id":76561198230996464,"connected_time":1692000000000,"state":"active","ping":82}]},{"server_id":401,"name":"Uncletopia | Atlanta | 4 | No Payload","name_short":"atl-4","host":"atl-1.us.uncletopia.com","port":27045,"enabled":true,"region":"us-east","cc":"us","latitude":33.753746,"longitude":-84.38633,"reserved":0,"last_update":"0001-01-01T00:00:00Z","name_a2s":"","protocol":0,"map":"","folder":"","game":"","app_id":0,"player_count":0,"max_players":0,"Bots":0,"server_type":"","server_os":"","password":false,"vac":false,"version":"","steam_id":0,"keywords":null,"game_id":0,"stv_port":0,"stv_name":"","players":null},{"server_id":2,"name":"Uncletopia | Chicago | 1 | All Maps","name_short":"chi-1","host":"chi-1.us.uncletopia.com","port":27015,"enabled":true,"region":"us-central","cc":"us","latitude":41.881832,"longitude":-87.62318,"reserved":0,"last_update":"0001-01-01T00:00:00Z","name_a2s":"Uncletopia | Chicago | 1 | All Maps","protocol":17,"map":"cp_dustbowl","folder":"tf","game":"Team Fortress","app_id":440,"player_count":24,"max_players":24,"Bots":0,"server_type":"Dedicated","server_os":"Linux","password":true,"vac":true,"version":"7882260","steam_id":85568392924469984,"keywords":["cp","nocrits","nodmgspread","uncletopia"],"game_id":440,"stv_port":27016,"stv_name":"Uncletopia | Chicago | 1 | All Maps | STV","players":[{"user_id":673,"name":"AYAYA!!!","steam_id":76561198992102180,"connected_time":2708000000000,"state":"active","ping":47},{"user_id":668,"name":"vertical mouse head clicking","steam_id":76561198088384838,"connected_time":3723000000000,"state":"active","ping":69},{"user_id":712,"name":"Astoriae!","steam_id":76561199090168858,"connected_time":2122000000000,"state":"active","ping":64},{"user_id":726,"name":"TheGreyHatðŸ’€ðŸ’€ðŸ’€","steam_id":76561198235851604,"connected_time":768000000000,"state":"active","ping":137},{"user_id":591,"name":"Two-Ton Heavy Thing","steam_id":76561198201724274,"connected_time":9469000000000,"state":"active","ping":90},{"user_id":669,"name":"Ras","steam_id":76561198123546775,"connected_time":3717000000000,"state":"active","ping":59},{"user_id":718,"name":"Makina","steam_id":76561198057475567,"connected_time":1674000000000,"state":"active","ping":70},{"user_id":659,"name":"Hoop","steam_id":76561199124865843,"connected_time":4536000000000,"state":"active","ping":62},{"user_id":714,"name":"frank","steam_id":76561198137777483,"connected_time":2041000000000,"state":"active","ping":61},{"user_id":488,"name":"blob","steam_id":76561198122375328,"connected_time":15613000000000,"state":"active","ping":55},{"user_id":650,"name":"darkloor","steam_id":76561198098694784,"connected_time":5890000000000,"state":"active","ping":82},{"user_id":656,"name":"PKBEAST_7","steam_id":76561198177136537,"connected_time":5157000000000,"state":"active","ping":90},{"user_id":664,"name":"Adam (Cursed Confetti Creature)","steam_id":76561198317690197,"connected_time":3967000000000,"state":"active","ping":48},{"user_id":715,"name":"Toottoot","steam_id":76561197992404836,"connected_time":1979000000000,"state":"active","ping":47},{"user_id":722,"name":"Breadvin","steam_id":76561199077887401,"connected_time":1039000000000,"state":"active","ping":103},{"user_id":671,"name":"RADIO","steam_id":76561198044489449,"connected_time":3315000000000,"state":"active","ping":62},{"user_id":651,"name":"Iceman10a","steam_id":76561198171922098,"connected_time":5816000000000,"state":"active","ping":111},{"user_id":667,"name":"Gay Weed \u003c3","steam_id":76561198158240142,"connected_time":3730000000000,"state":"active","ping":61},{"user_id":602,"name":"Takyon","steam_id":76561198172075186,"connected_time":8034000000000,"state":"active","ping":166},{"user_id":672,"name":"Ryaâ˜º","steam_id":76561198370128860,"connected_time":3034000000000,"state":"active","ping":73},{"user_id":674,"name":"Galaxy","steam_id":76561198035134466,"connected_time":2591000000000,"state":"active","ping":83},{"user_id":676,"name":"Frozone","steam_id":76561198259380127,"connected_time":2428000000000,"state":"active","ping":69},{"user_id":670,"name":"Shakey","steam_id":76561198012340821,"connected_time":3716000000000,"state":"active","ping":148},{"user_id":724,"name":"WaywardFinn","steam_id":76561198040391296,"connected_time":793000000000,"state":"active","ping":81}]},{"server_id":106,"name":"Uncletopia | Chicago | 2 | All Maps","name_short":"chi-2","host":"chi-1.us.uncletopia.com","port":27025,"enabled":true,"region":"us-central","cc":"us","latitude":41.881832,"longitude":-87.62318,"reserved":0,"last_update":"0001-01-01T00:00:00Z","name_a2s":"Uncletopia | Chicago | 2 | All Maps","protocol":17,"map":"cp_sunshine","folder":"tf","game":"Team Fortress","app_id":440,"player_count":24,"max_players":24,"Bots":0,"server_type":"Dedicated","server_os":"Linux","password":true,"vac":true,"version":"7882260","steam_id":85568392924469985,"keywords":["cp","nocrits","nodmgspread","uncletopia"],"game_id":440,"stv_port":27026,"stv_name":"Uncletopia | Chicago | 2 | All Maps | STV","players":[{"user_id":687,"name":"Letters","steam_id":76561198035508148,"connected_time":7949000000000,"state":"active","ping":91},{"user_id":752,"name":"BB Lorexav","steam_id":76561198207565988,"connected_time":2667000000000,"state":"active","ping":75},{"user_id":761,"name":"TankDozer","steam_id":76561199073510041,"connected_time":2060000000000,"state":"active","ping":50},{"user_id":758,"name":"tf2 dad","steam_id":76561198086635699,"connected_time":2473000000000,"state":"active","ping":81},{"user_id":722,"name":"Noble","steam_id":76561199013705323,"connected_time":4694000000000,"state":"active","ping":62},{"user_id":741,"name":"â™¥ kiss me â™¥","steam_id":76561198014557455,"connected_time":3576000000000,"state":"active","ping":61},{"user_id":747,"name":"Floating Peasant","steam_id":76561198000183671,"connected_time":3340000000000,"state":"active","ping":62},{"user_id":775,"name":"styraxic","steam_id":76561198987579589,"connected_time":209000000000,"state":"active","ping":50},{"user_id":723,"name":"I pocket eboys *â™¥â€§â‚ŠËš","steam_id":76561198048925904,"connected_time":4690000000000,"state":"active","ping":114},{"user_id":678,"name":"MrrPamplemousse","steam_id":76561198072241333,"connected_time":8690000000000,"state":"active","ping":65},{"user_id":771,"name":"feliser","steam_id":76561198084336096,"connected_time":687000000000,"state":"active","ping":50},{"user_id":762,"name":"bench","steam_id":76561198055339968,"connected_time":2043000000000,"state":"active","ping":75},{"user_id":725,"name":"bobo ritzfield","steam_id":76561198123287268,"connected_time":4681000000000,"state":"active","ping":46},{"user_id":768,"name":"waterfowl","steam_id":76561198892086855,"connected_time":1676000000000,"state":"active","ping":66},{"user_id":748,"name":"Cheers! I'll drink to that","steam_id":76561198112705880,"connected_time":3257000000000,"state":"active","ping":92},{"user_id":766,"name":"D.E.O","steam_id":76561198096992957,"connected_time":1708000000000,"state":"active","ping":129},{"user_id":737,"name":"Person","steam_id":76561198093244204,"connected_time":3838000000000,"state":"active","ping":73},{"user_id":769,"name":"Poacher","steam_id":76561198867626964,"connected_time":1500000000000,"state":"active","ping":115},{"user_id":749,"name":"hashmap","steam_id":76561198043794014,"connected_time":3215000000000,"state":"active","ping":46},{"user_id":774,"name":"Frogsplat","steam_id":76561198093949233,"connected_time":528000000000,"state":"active","ping":127},{"user_id":751,"name":"AJTarcza","steam_id":76561198070800190,"connected_time":3167000000000,"state":"active","ping":85},{"user_id":773,"name":"checkswing","steam_id":76561198999816132,"connected_time":632000000000,"state":"active","ping":75},{"user_id":736,"name":"tim-","steam_id":76561199119101315,"connected_time":3846000000000,"state":"active","ping":70},{"user_id":760,"name":"Tying the knot","steam_id":76561198247794130,"connected_time":2413000000000,"state":"active","ping":59}]},{"server_id":402,"name":"Uncletopia | Chicago | 3 | All Maps","name_short":"chi-3","host":"chi-1.us.uncletopia.com","port":27035,"enabled":true,"region":"us-central","cc":"us","latitude":41.881832,"longitude":-87.62318,"reserved":0,"last_update":"0001-01-01T00:00:00Z","name_a2s":"Uncletopia | Chicago | 3 | All Maps","protocol":17,"map":"pl_borneo","folder":"tf","game":"Team Fortress","app_id":440,"player_count":24,"max_players":24,"Bots":0,"server_type":"Dedicated","server_os":"Linux","password":true,"vac":true,"version":"7882260","steam_id":85568392924515191,"keywords":["nocrits","nodmgspread","payload","uncletopia"],"game_id":440,"stv_port":27036,"stv_name":"Uncletopia | Chicago | 3 | All Maps | STV","players":[{"user_id":961,"name":"BloodAngelMutant","steam_id":76561199006378093,"connected_time":483000000000,"state":"active","ping":115},{"user_id":838,"name":"hej","steam_id":76561197996366940,"connected_time":8941000000000,"state":"active","ping":58},{"user_id":928,"name":"J.G. Klaus","steam_id":76561198001111196,"connected_time":1785000000000,"state":"active","ping":60},{"user_id":947,"name":"Magma","steam_id":76561198108261173,"connected_time":793000000000,"state":"active","ping":45},{"user_id":891,"name":"Prog Rug","steam_id":76561197998665860,"connected_time":4587000000000,"state":"active","ping":51},{"user_id":860,"name":"Nyne","steam_id":76561198046198449,"connected_time":6754000000000,"state":"active","ping":43},{"user_id":967,"name":"ArnoldGamingï¾ Ù´","steam_id":76561198040140247,"connected_time":246000000000,"state":"active","ping":94},{"user_id":896,"name":"Zoot","steam_id":76561198121944243,"connected_time":4039000000000,"state":"active","ping":76},{"user_id":939,"name":"MedRedâ„¢ #IATAH","steam_id":76561198002962970,"connected_time":1439000000000,"state":"active","ping":95},{"user_id":951,"name":"Surfing Garchomp","steam_id":76561199107236884,"connected_time":712000000000,"state":"active","ping":101},{"user_id":871,"name":"Galactamarx","steam_id":76561198028065755,"connected_time":6058000000000,"state":"active","ping":94},{"user_id":916,"name":"PoisonIvy","steam_id":76561198072384574,"connected_time":3139000000000,"state":"active","ping":54},{"user_id":889,"name":"JDM Street Cred","steam_id":76561198033035560,"connected_time":4670000000000,"state":"active","ping":62},{"user_id":937,"name":"Blobbyfish","steam_id":76561198822962650,"connected_time":1667000000000,"state":"active","ping":77},{"user_id":959,"name":"Starseeing Oracle","steam_id":76561198097720124,"connected_time":509000000000,"state":"active","ping":111},{"user_id":958,"name":"A Rope, for big pits","steam_id":76561198068044782,"connected_time":544000000000,"state":"active","ping":62},{"user_id":940,"name":"gss","steam_id":76561198017539604,"connected_time":1437000000000,"state":"active","ping":73},{"user_id":969,"name":"MoonWolf","steam_id":76561198095735033,"connected_time":100000000000,"state":"active","ping":73},{"user_id":963,"name":"Pyromania","steam_id":76561198106949905,"connected_time":469000000000,"state":"active","ping":60},{"user_id":904,"name":"Swshbcklr","steam_id":76561197969421355,"connected_time":3934000000000,"state":"active","ping":49},{"user_id":964,"name":"vacachimuela","steam_id":76561198297332421,"connected_time":406000000000,"state":"active","ping":105},{"user_id":971,"name":"Audiphon","steam_id":76561198051340300,"connected_time":75000000000,"state":"active","ping":133},{"user_id":955,"name":"a table","steam_id":76561198158461279,"connected_time":685000000000,"state":"active","ping":64},{"user_id":973,"name":"Grub","steam_id":76561199023448881,"connected_time":74000000000,"state":"active","ping":715}]},{"server_id":403,"name":"Uncletopia | Chicago | 4 | All Maps","name_short":"chi-4","host":"chi-1.us.uncletopia.com","port":27045,"enabled":true,"region":"us-central","cc":"us","latitude":41.881832,"longitude":-87.62318,"reserved":0,"last_update":"0001-01-01T00:00:00Z","name_a2s":"Uncletopia | Chicago | 4 | All Maps","protocol":17,"map":"pl_badwater","folder":"tf","game":"Team Fortress","app_id":440,"player_count":24,"max_players":24,"Bots":0,"server_type":"Dedicated","server_os":"Linux","password":true,"vac":true,"version":"7882260","steam_id":85568392924515193,"keywords":["nocrits","nodmgspread","payload","uncletopia"],"game_id":440,"stv_port":27046,"stv_name":"Uncletopia | Chicago | 4 | All Maps | STV","players":[{"user_id":755,"name":"Glar","steam_id":76561198341907150,"connected_time":651000000000,"state":"active","ping":77},{"user_id":754,"name":"Mitchu The Bidness Man","steam_id":76561198102494381,"connected_time":698000000000,"state":"active","ping":55},{"user_id":757,"name":"jaketropolis","steam_id":76561198044728812,"connected_time":632000000000,"state":"active","ping":55},{"user_id":774,"name":"Crimson Head","steam_id":76561198027108358,"connected_time":133000000000,"state":"active","ping":66},{"user_id":775,"name":"herb","steam_id":76561198185980055,"connected_time":98000000000,"state":"active","ping":61},{"user_id":724,"name":"pee pee poo poo","steam_id":76561198930017260,"connected_time":4715000000000,"state":"active","ping":53},{"user_id":758,"name":"Lilith","steam_id":76561198125102885,"connected_time":632000000000,"state":"active","ping":61},{"user_id":760,"name":"jizzreis","steam_id":76561198010019214,"connected_time":624000000000,"state":"active","ping":46},{"user_id":768,"name":"917-258-3609","steam_id":76561198174436329,"connected_time":592000000000,"state":"active","ping":72},{"user_id":698,"name":"zpalmtree","steam_id":76561198134307620,"connected_time":8531000000000,"state":"active","ping":63},{"user_id":779,"name":"chilis baby back ribs","steam_id":76561198813516435,"connected_time":0,"state":"spawning","ping":32},{"user_id":762,"name":"CZAR","steam_id":76561197996569553,"connected_time":618000000000,"state":"active","ping":135},{"user_id":749,"name":"dunkaroos 4 ogryns","steam_id":76561198000564263,"connected_time":2011000000000,"state":"active","ping":63},{"user_id":778,"name":"boneyard","steam_id":76561199080454140,"connected_time":53000000000,"state":"active","ping":62},{"user_id":750,"name":"java","steam_id":76561198030276792,"connected_time":2003000000000,"state":"active","ping":52},{"user_id":763,"name":"laurencegabe","steam_id":76561199229727508,"connected_time":617000000000,"state":"active","ping":72},{"user_id":769,"name":"Classic","steam_id":76561198215293509,"connected_time":580000000000,"state":"active","ping":62},{"user_id":742,"name":"claeb :)","steam_id":76561198028761580,"connected_time":2970000000000,"state":"active","ping":62},{"user_id":765,"name":"The local hobo","steam_id":76561198289650060,"connected_time":607000000000,"state":"active","ping":86},{"user_id":767,"name":"lanoc","steam_id":76561198055415367,"connected_time":601000000000,"state":"active","ping":59},{"user_id":770,"name":"[chef] iron","steam_id":76561197970888616,"connected_time":575000000000,"state":"active","ping":38},{"user_id":771,"name":"4903726023","steam_id":76561199384861214,"connected_time":572000000000,"state":"active","ping":63},{"user_id":772,"name":"MrMineHeads","steam_id":76561198129344936,"connected_time":551000000000,"state":"active","ping":84},{"user_id":701,"name":"Mufalito","steam_id":76561198951889482,"connected_time":8242000000000,"state":"active","ping":131}]},{"server_id":36,"name":"Uncletopia | Chicago | 5 | All Maps","name_short":"chi-5","host":"chi-2.us.uncletopia.com","port":27015,"enabled":true,"region":"us-central","cc":"us","latitude":41.881832,"longitude":-87.62318,"reserved":0,"last_update":"0001-01-01T00:00:00Z","name_a2s":"Uncletopia | Chicago | 5 | All Maps","protocol":17,"map":"pl_borneo","folder":"tf","game":"Team Fortress","app_id":440,"player_count":24,"max_players":24,"Bots":0,"server_type":"Dedicated","server_os":"Linux","password":true,"vac":true,"version":"7882260","steam_id":85568392924866362,"keywords":["nocrits","nodmgspread","payload","uncletopia"],"game_id":440,"stv_port":27016,"stv_name":"Uncletopia | Chicago | 5 | All Maps | STV","players":[{"user_id":524,"name":"jpuzza","steam_id":76561198035535731,"connected_time":4704000000000,"state":"active","ping":80},{"user_id":569,"name":"Nuwrox1","steam_id":76561198406951007,"connected_time":526000000000,"state":"active","ping":64},{"user_id":532,"name":"Treeckogeek","steam_id":76561198453328078,"connected_time":4163000000000,"state":"active","ping":60},{"user_id":552,"name":"NV","steam_id":76561198160335315,"connected_time":2258000000000,"state":"active","ping":41},{"user_id":538,"name":"starvin marvin","steam_id":76561198347286009,"connected_time":3648000000000,"state":"active","ping":82},{"user_id":562,"name":"Mehman","steam_id":76561199020244051,"connected_time":796000000000,"state":"active","ping":96},{"user_id":529,"name":"Anamm","steam_id":76561198328762510,"connected_time":4297000000000,"state":"active","ping":67},{"user_id":559,"name":"Ê•â€¢á´¥â€¢Ê” the bear","steam_id":76561197989591976,"connected_time":863000000000,"state":"active","ping":76},{"user_id":520,"name":"Stapler","steam_id":76561198099295077,"connected_time":5075000000000,"state":"active","ping":100},{"user_id":570,"name":"Asolator0","steam_id":76561198095809798,"connected_time":445000000000,"state":"active","ping":78},{"user_id":560,"name":"Cy4nideCutie","steam_id":76561198126686695,"connected_time":842000000000,"state":"active","ping":72},{"user_id":530,"name":"Whapper","steam_id":76561198044029606,"connected_time":4289000000000,"state":"active","ping":103},{"user_id":514,"name":"Cole Boye","steam_id":76561198282449106,"connected_time":5157000000000,"state":"active","ping":74},{"user_id":544,"name":"Ryno","steam_id":76561198078122294,"connected_time":2762000000000,"state":"active","ping":85},{"user_id":521,"name":"twitch.tv/rightclickprick","steam_id":76561199474825993,"connected_time":5035000000000,"state":"active","ping":85},{"user_id":545,"name":"Antifa Supersoldier","steam_id":76561198141816516,"connected_time":2706000000000,"state":"active","ping":68},{"user_id":557,"name":"gmaay","steam_id":76561199104911185,"connected_time":1165000000000,"state":"active","ping":72},{"user_id":568,"name":"DarkFalconDX","steam_id":76561199213908323,"connected_time":601000000000,"state":"active","ping":97},{"user_id":572,"name":"Captain Bug","steam_id":76561198137763878,"connected_time":60000000000,"state":"active","ping":85},{"user_id":554,"name":"DJ-Whatchya #rEtiReD","steam_id":76561198060355298,"connected_time":1808000000000,"state":"active","ping":94},{"user_id":540,"name":"4oh4","steam_id":76561198388047861,"connected_time":3638000000000,"state":"active","ping":75},{"user_id":555,"name":"GhostToast","steam_id":76561198988424451,"connected_time":1696000000000,"state":"active","ping":78},{"user_id":575,"name":"reagentzappy017","steam_id":76561198093718709,"connected_time":23000000000,"state":"active","ping":65},{"user_id":571,"name":"Meowcenary","steam_id":76561197998566857,"connected_time":259000000000,"state":"active","ping":90}]},{"server_id":37,"name":"Uncletopia | Chicago | 6 | All Maps","name_short":"chi-6","host":"chi-2.us.uncletopia.com","port":27025,"enabled":true,"region":"us-central","cc":"us","latitude":41.881832,"longitude":-87.62318,"reserved":0,"last_update":"0001-01-01T00:00:00Z","name_a2s":"Uncletopia | Chicago | 6 | All Maps","protocol":17,"map":"pl_frontier_final","folder":"tf","game":"Team Fortress","app_id":440,"player_count":24,"max_players":24,"Bots":0,"server_type":"Dedicated","server_os":"Linux","password":true,"vac":true,"version":"7882260","steam_id":85568392924866363,"keywords":["nocrits","nodmgspread","payload","uncletopia"],"game_id":440,"stv_port":27026,"stv_name":"Uncletopia | Chicago | 6 | All Maps | STV","players":[{"user_id":331,"name":"Butters495","steam_id":76561197998689042,"connected_time":3383000000000,"state":"active","ping":82},{"user_id":351,"name":"George Bossington","steam_id":76561197993127608,"connected_time":1529000000000,"state":"active","ping":81},{"user_id":205,"name":"Dennis","steam_id":76561198354131052,"connected_time":12063000000000,"state":"active","ping":74},{"user_id":345,"name":"El Portel","steam_id":76561198076108055,"connected_time":2271000000000,"state":"active","ping":76},{"user_id":362,"name":"only a spoonful","steam_id":76561198113180616,"connected_time":44000000000,"state":"active","ping":66},{"user_id":358,"name":"vanta","steam_id":76561198084317504,"connected_time":838000000000,"state":"active","ping":57},{"user_id":283,"name":"WALL-E","steam_id":76561198154701370,"connected_time":7390000000000,"state":"active","ping":86},{"user_id":363,"name":"Singular Rooster","steam_id":76561197983872657,"connected_time":38000000000,"state":"active","ping":70},{"user_id":237,"name":"GamingMonkey734","steam_id":76561198148362039,"connected_time":10401000000000,"state":"active","ping":88},{"user_id":348,"name":"Dr. Pl0x","steam_id":76561198040785401,"connected_time":2066000000000,"state":"active","ping":112},{"user_id":364,"name":"Punished \"Venom\" Snick","steam_id":76561198066566813,"connected_time":27000000000,"state":"active","ping":137},{"user_id":360,"name":"Zin","steam_id":76561199041369507,"connected_time":67000000000,"state":"active","ping":64},{"user_id":357,"name":"strangified aluminum pile","steam_id":76561197975540289,"connected_time":867000000000,"state":"active","ping":51},{"user_id":336,"name":"gyozaking","steam_id":76561197972312696,"connected_time":3213000000000,"state":"active","ping":29},{"user_id":339,"name":"Sean Bae","steam_id":76561198036909521,"connected_time":3183000000000,"state":"active","ping":84},{"user_id":353,"name":"dunce","steam_id":76561198042600523,"connected_time":1276000000000,"state":"active","ping":58},{"user_id":321,"name":"HollowMan","steam_id":76561198967266827,"connected_time":3850000000000,"state":"active","ping":74},{"user_id":322,"name":"tmbshark","steam_id":76561198184072185,"connected_time":3850000000000,"state":"active","ping":76},{"user_id":332,"name":"Borat Voice My Wife","steam_id":76561198020474727,"connected_time":3374000000000,"state":"active","ping":68},{"user_id":329,"name":"Milo","steam_id":76561198870491380,"connected_time":3792000000000,"state":"active","ping":74},{"user_id":347,"name":"zen","steam_id":76561198066485047,"connected_time":2239000000000,"state":"active","ping":59},{"user_id":356,"name":"LWebb","steam_id":76561199162936929,"connected_time":1006000000000,"state":"active","ping":83},{"user_id":350,"name":"HolyHitbox","steam_id":76561198071723763,"connected_time":1713000000000,"state":"active","ping":53},{"user_id":366,"name":"SomeRandomCat","steam_id":76561199107044061,"connected_time":11000000000,"state":"spawning","ping":60}]},{"server_id":38,"name":"Uncletopia | Chicago | 7 | Stopwatch Beta","name_short":"chi-7","host":"chi-2.us.uncletopia.com","port":27035,"enabled":true,"region":"us-central","cc":"us","latitude":41.881832,"longitude":-87.62318,"reserved":0,"last_update":"0001-01-01T00:00:00Z","name_a2s":"Uncletopia | Chicago | 7 | Stopwatch Beta","protocol":17,"map":"pl_swiftwater_final1","folder":"tf","game":"Team Fortress","app_id":440,"player_count":0,"max_players":24,"Bots":0,"server_type":"Dedicated","server_os":"Linux","password":true,"vac":true,"version":"7882260","steam_id":85568392924866364,"keywords":["nocrits","nodmgspread","payload","uncletopia"],"game_id":440,"stv_port":27036,"stv_name":"Uncletopia | Chicago | 7 | Stopwatch Beta | STV","players":null},{"server_id":39,"name":"Uncletopia | Chicago | 8 | Community","name_short":"chi-8","host":"chi-2.us.uncletopia.com","port":27045,"enabled":true,"region":"us-central","cc":"us","latitude":41.881832,"longitude":-87.62318,"reserved":0,"last_update":"0001-01-01T00:00:00Z","name_a2s":"Uncletopia | Chicago | 8 | Community","protocol":17,"map":"workshop/koth_trenchfoot_b1a.ugc731436616","folder":"tf","game":"Team Fortress","app_id":440,"player_count":23,"max_players":24,"Bots":0,"server_type":"Dedicated","server_os":"Linux","password":true,"vac":true,"version":"7882260","steam_id":85568392924866365,"keywords":["cp","nocrits","nodmgspread","uncletopia"],"game_id":440,"stv_port":27046,"stv_name":"Uncletopia | Chicago | 8 | Community | STV","players":[{"user_id":398,"name":"Goose24","steam_id":76561199218911535,"connected_time":6011000000000,"state":"active","ping":79},{"user_id":455,"name":"Neo Kabuto","steam_id":76561197998339185,"connected_time":521000000000,"state":"active","ping":65},{"user_id":442,"name":"Shadow master michael","steam_id":76561198070770369,"connected_time":1619000000000,"state":"active","ping":68},{"user_id":461,"name":"fapasaurusrex","steam_id":76561197994951255,"connected_time":91000000000,"state":"active","ping":34},{"user_id":456,"name":"Kasodani Kyouko","steam_id":76561198023178589,"connected_time":366000000000,"state":"active","ping":84},{"user_id":423,"name":"damo160","steam_id":76561199368132589,"connected_time":3191000000000,"state":"active","ping":75},{"user_id":463,"name":"the_bassmann3","steam_id":76561199214008710,"connected_time":0,"state":"spawning","ping":0},{"user_id":425,"name":"Craf227","steam_id":76561198196211121,"connected_time":3086000000000,"state":"active","ping":83},{"user_id":426,"name":"Wolf Hat","steam_id":76561198099996051,"connected_time":3048000000000,"state":"active","ping":70},{"user_id":457,"name":"6NYR BrassCBC","steam_id":76561198170057597,"connected_time":322000000000,"state":"active","ping":62},{"user_id":421,"name":"minish","steam_id":76561198086618284,"connected_time":3430000000000,"state":"active","ping":101},{"user_id":451,"name":"Sam","steam_id":76561198043918040,"connected_time":831000000000,"state":"active","ping":85},{"user_id":454,"name":"Osu Aim Trainer","steam_id":76561198828562719,"connected_time":571000000000,"state":"active","ping":57},{"user_id":458,"name":"NoodlePup :D","steam_id":76561198184510919,"connected_time":309000000000,"state":"active","ping":81},{"user_id":444,"name":"Drew","steam_id":76561198042864345,"connected_time":1530000000000,"state":"active","ping":85},{"user_id":445,"name":"fac_73","steam_id":76561198064692697,"connected_time":1477000000000,"state":"active","ping":71},{"user_id":446,"name":"speedo!!!!!","steam_id":76561198047105710,"connected_time":1476000000000,"state":"active","ping":83},{"user_id":448,"name":"toastman","steam_id":76561198207073088,"connected_time":1442000000000,"state":"active","ping":75},{"user_id":428,"name":"Glass Joe","steam_id":76561198317365741,"connected_time":3028000000000,"state":"active","ping":58},{"user_id":407,"name":"Architect","steam_id":76561198015242016,"connected_time":5375000000000,"state":"active","ping":38},{"user_id":433,"name":"Winter (she/her)","steam_id":76561199317584594,"connected_time":2283000000000,"state":"active","ping":59},{"user_id":452,"name":"Cluwn","steam_id":76561198001336085,"connected_time":658000000000,"state":"active","ping":93},{"user_id":436,"name":"Cuttle's Fish","steam_id":76561198280483257,"connected_time":2107000000000,"state":"active","ping":49}]},{"server_id":8,"name":"Uncletopia | Dallas | 1 | All Maps","name_short":"dal-1","host":"dal-1.us.uncletopia.com","port":27015,"enabled":true,"region":"us-central","cc":"us","latitude":32.779167,"longitude":-96.80889,"reserved":0,"last_update":"0001-01-01T00:00:00Z","name_a2s":"Uncletopia | Dallas | 1 | All Maps","protocol":17,"map":"pl_swiftwater_final1","folder":"tf","game":"Team Fortress","app_id":440,"player_count":24,"max_players":24,"Bots":0,"server_type":"Dedicated","server_os":"Linux","password":true,"vac":true,"version":"7882260","steam_id":85568392924469986,"keywords":["nocrits","nodmgspread","payload","uncletopia"],"game_id":440,"stv_port":27016,"stv_name":"Uncletopia | Dallas | 1 | All Maps | STV","players":[{"user_id":473,"name":"Pixeled","steam_id":76561198088917077,"connected_time":1646000000000,"state":"active","ping":89},{"user_id":423,"name":"Apollo","steam_id":76561198162364702,"connected_time":5743000000000,"state":"active","ping":90},{"user_id":487,"name":"SKW14","steam_id":76561198215425735,"connected_time":443000000000,"state":"active","ping":101},{"user_id":482,"name":"Dr. Wario","steam_id":76561198901238861,"connected_time":715000000000,"state":"active","ping":73},{"user_id":481,"name":"Champion of Fugloy","steam_id":76561198056622157,"connected_time":1043000000000,"state":"active","ping":79},{"user_id":455,"name":"wavlog0124","steam_id":76561199079614516,"connected_time":2782000000000,"state":"active","ping":61},{"user_id":472,"name":"WinteR","steam_id":76561198042242154,"connected_time":1713000000000,"state":"active","ping":84},{"user_id":486,"name":"Stillkill","steam_id":76561198065069057,"connected_time":699000000000,"state":"active","ping":41},{"user_id":447,"name":"PlugFromBehind","steam_id":76561198143283800,"connected_time":3045000000000,"state":"active","ping":48},{"user_id":474,"name":"Blue","steam_id":76561199093604072,"connected_time":1635000000000,"state":"active","ping":76},{"user_id":479,"name":"Wigl","steam_id":76561198019324464,"connected_time":1178000000000,"state":"active","ping":86},{"user_id":450,"name":"Tanuki in your attic.","steam_id":76561198027487285,"connected_time":2875000000000,"state":"active","ping":90},{"user_id":444,"name":"kritik","steam_id":76561198075216115,"connected_time":3846000000000,"state":"active","ping":150},{"user_id":477,"name":"gloob","steam_id":76561198042183624,"connected_time":1546000000000,"state":"active","ping":70},{"user_id":449,"name":"SaldaÃ±a","steam_id":76561198214473001,"connected_time":2887000000000,"state":"active","ping":74},{"user_id":417,"name":"iaPK","steam_id":76561198056618642,"connected_time":7388000000000,"state":"active","ping":40},{"user_id":460,"name":"Dake","steam_id":76561199139182003,"connected_time":2691000000000,"state":"active","ping":75},{"user_id":461,"name":"Alejandro","steam_id":76561197970051493,"connected_time":2627000000000,"state":"active","ping":106},{"user_id":485,"name":"SubZeroDestruction","steam_id":76561198145082209,"connected_time":703000000000,"state":"active","ping":76},{"user_id":458,"name":"tank","steam_id":76561199146161006,"connected_time":2769000000000,"state":"active","ping":72},{"user_id":491,"name":"Bunchie","steam_id":76561198011549808,"connected_time":92000000000,"state":"active","ping":37},{"user_id":478,"name":"[JICKcell] Kyle Jixel","steam_id":76561198055820772,"connected_time":1502000000000,"state":"active","ping":98},{"user_id":470,"name":"lifted tater","steam_id":76561198404564240,"connected_time":1911000000000,"state":"active","ping":83},{"user_id":489,"name":"Greg Boberton 2012","steam_id":76561198983566026,"connected_time":147000000000,"state":"active","ping":81}]},{"server_id":108,"name":"Uncletopia | Dallas | 2 | All Maps","name_short":"dal-2","host":"dal-1.us.uncletopia.com","port":27025,"enabled":true,"region":"us-central","cc":"us","latitude":32.779167,"longitude":-96.80889,"reserved":0,"last_update":"0001-01-01T00:00:00Z","name_a2s":"Uncletopia | Dallas | 2 | All Maps","protocol":17,"map":"koth_lakeside_final","folder":"tf","game":"Team Fortress","app_id":440,"player_count":23,"max_players":24,"Bots":0,"server_type":"Dedicated","server_os":"Linux","password":true,"vac":true,"version":"7882260","steam_id":85568392924469988,"keywords":["cp","nocrits","nodmgspread","uncletopia"],"game_id":440,"stv_port":27026,"stv_name":"Uncletopia | Dallas | 2 | All Maps | STV","players":[{"user_id":336,"name":"Xanveil","steam_id":76561198370304125,"connected_time":519000000000,"state":"active","ping":60},{"user_id":331,"name":"Nuclear Inquisition","steam_id":76561198093142257,"connected_time":578000000000,"state":"active","ping":76},{"user_id":313,"name":"skegeton","steam_id":76561198095581099,"connected_time":2185000000000,"state":"active","ping":83},{"user_id":343,"name":"pizza","steam_id":76561198415907231,"connected_time":135000000000,"state":"active","ping":146},{"user_id":232,"name":"SpecialForce19","steam_id":76561198120974644,"connected_time":10781000000000,"state":"active","ping":92},{"user_id":329,"name":"cheeto dealer","steam_id":76561199243489976,"connected_time":611000000000,"state":"active","ping":108},{"user_id":321,"name":"ryghehn","steam_id":76561198195359229,"connected_time":1615000000000,"state":"active","ping":104},{"user_id":332,"name":"The IRS","steam_id":76561198057895643,"connected_time":577000000000,"state":"active","ping":47},{"user_id":338,"name":"TheSource","steam_id":76561199140867319,"connected_time":361000000000,"state":"active","ping":79},{"user_id":346,"name":"Bonus Oceans","steam_id":76561198066820572,"connected_time":15000000000,"state":"spawning","ping":76},{"user_id":293,"name":"[FOFS]billyburl","steam_id":76561198079535159,"connected_time":4968000000000,"state":"active","ping":82},{"user_id":275,"name":"Toucher of Grass","steam_id":76561199475829930,"connected_time":6372000000000,"state":"active","ping":64},{"user_id":311,"name":"ShapedSilver","steam_id":76561199073305310,"connected_time":2434000000000,"state":"active","ping":50},{"user_id":334,"name":"ThugSlug","steam_id":76561198086098047,"connected_time":545000000000,"state":"active","ping":74},{"user_id":318,"name":"PerliousFalcon","steam_id":76561198124801907,"connected_time":1910000000000,"state":"active","ping":100},{"user_id":337,"name":"Op banana","steam_id":76561198303231451,"connected_time":494000000000,"state":"active","ping":44},{"user_id":340,"name":"Mudd","steam_id":76561199220612917,"connected_time":298000000000,"state":"active","ping":146},{"user_id":345,"name":"Fostrel","steam_id":76561198152160601,"connected_time":109000000000,"state":"active","ping":56},{"user_id":335,"name":"Kuudere","steam_id":76561198075028016,"connected_time":540000000000,"state":"active","ping":110},{"user_id":319,"name":"Apricot","steam_id":76561198355699935,"connected_time":1877000000000,"state":"active","ping":84},{"user_id":320,"name":"Sup m8","steam_id":76561198081659121,"connected_time":1660000000000,"state":"active","ping":36},{"user_id":326,"name":"faka","steam_id":76561199093280815,"connected_time":949000000000,"state":"active","ping":114},{"user_id":328,"name":"Artemy","steam_id":76561198095712179,"connected_time":838000000000,"state":"active","ping":90}]},{"server_id":5,"name":"Uncletopia | Frankfurt | 1 | All Maps","name_short":"frk-1","host":"frk-1.de.uncletopia.com","port":27015,"enabled":true,"region":"eu","cc":"de","latitude":50.110924,"longitude":8.682127,"reserved":0,"last_update":"0001-01-01T00:00:00Z","name_a2s":"Uncletopia | Frankfurt | 1 | All Maps","protocol":17,"map":"koth_king","folder":"tf","game":"Team Fortress","app_id":440,"player_count":0,"max_players":24,"Bots":0,"server_type":"Dedicated","server_os":"Linux","password":true,"vac":true,"version":"7882260","steam_id":85568392924469989,"keywords":["cp","nocrits","nodmgspread","uncletopia"],"game_id":440,"stv_port":27016,"stv_name":"Uncletopia | Frankfurt | 1 | All Maps | STV","players":null},{"server_id":110,"name":"Uncletopia | Frankfurt | 2 | All Maps","name_short":"frk-2","host":"frk-1.de.uncletopia.com","port":27025,"enabled":true,"region":"eu","cc":"de","latitude":50.110924,"longitude":8.682127,"reserved":0,"last_update":"0001-01-01T00:00:00Z","name_a2s":"Uncletopia | Frankfurt | 2 | All Maps","protocol":17,"map":"cp_process_final","folder":"tf","game":"Team Fortress","app_id":440,"player_count":0,"max_players":24,"Bots":0,"server_type":"Dedicated","server_os":"Linux","password":true,"vac":true,"version":"7882260","steam_id":85568392924469990,"keywords":["cp","nocrits","nodmgspread","uncletopia"],"game_id":440,"stv_port":27026,"stv_name":"Uncletopia | Frankfurt | 2 | All Maps | STV","players":null},{"server_id":308,"name":"Uncletopia | Frankfurt | 3 | All Maps","name_short":"frk-3","host":"frk-1.de.uncletopia.com","port":27035,"enabled":true,"region":"eu","cc":"de","latitude":50.110924,"longitude":8.682127,"reserved":0,"last_update":"0001-01-01T00:00:00Z","name_a2s":"Uncletopia | Frankfurt | 3 | All Maps","protocol":17,"map":"pl_badwater","folder":"tf","game":"Team Fortress","app_id":440,"player_count":0,"max_players":24,"Bots":0,"server_type":"Dedicated","server_os":"Linux","password":true,"vac":true,"version":"7882260","steam_id":85568392924504274,"keywords":["nocrits","nodmgspread","payload","uncletopia"],"game_id":440,"stv_port":27036,"stv_name":"Uncletopia | Frankfurt | 3 | All Maps | STV","players":null},{"server_id":309,"name":"Uncletopia | Frankfurt | 4 | All Maps","name_short":"frk-4","host":"frk-1.de.uncletopia.com","port":27045,"enabled":true,"region":"eu","cc":"de","latitude":50.110924,"longitude":8.682127,"reserved":0,"last_update":"0001-01-01T00:00:00Z","name_a2s":"Uncletopia | Frankfurt | 4 | All Maps","protocol":17,"map":"cp_sunshine","folder":"tf","game":"Team Fortress","app_id":440,"player_count":0,"max_players":24,"Bots":0,"server_type":"Dedicated","server_os":"Linux","password":true,"vac":true,"version":"7882260","steam_id":85568392924504275,"keywords":["cp","nocrits","nodmgspread","uncletopia"],"game_id":440,"stv_port":27046,"stv_name":"Uncletopia | Frankfurt | 4 | All Maps | STV","players":null},{"server_id":310,"name":"Uncletopia | Frankfurt | 5 | All Maps","name_short":"frk-5","host":"frk-1.de.uncletopia.com","port":27055,"enabled":true,"region":"eu","cc":"de","latitude":50.110924,"longitude":8.682127,"reserved":0,"last_update":"0001-01-01T00:00:00Z","name_a2s":"Uncletopia | Frankfurt | 5 | All Maps","protocol":17,"map":"pl_snowycoast","folder":"tf","game":"Team Fortress","app_id":440,"player_count":0,"max_players":24,"Bots":0,"server_type":"Dedicated","server_os":"Linux","password":true,"vac":true,"version":"7882260","steam_id":85568392924504277,"keywords":["nocrits","nodmgspread","payload","uncletopia"],"game_id":440,"stv_port":27056,"stv_name":"Uncletopia | Frankfurt | 5 | All Maps | STV","players":null},{"server_id":311,"name":"Uncletopia | Frankfurt | 6 | All Maps","name_short":"frk-6","host":"frk-1.de.uncletopia.com","port":27065,"enabled":true,"region":"eu","cc":"de","latitude":50.110924,"longitude":8.682127,"reserved":0,"last_update":"0001-01-01T00:00:00Z","name_a2s":"Uncletopia | Frankfurt | 6 | All Maps","protocol":17,"map":"cp_sunshine","folder":"tf","game":"Team Fortress","app_id":440,"player_count":0,"max_players":24,"Bots":0,"server_type":"Dedicated","server_os":"Linux","password":true,"vac":true,"version":"7882260","steam_id":85568392924504278,"keywords":["cp","nocrits","nodmgspread","uncletopia"],"game_id":440,"stv_port":27066,"stv_name":"Uncletopia | Frankfurt | 6 | All Maps | STV","players":null},{"server_id":23,"name":"Uncletopia | Frankfurt | 7 | Stopwatch Beta","name_short":"frk-7","host":"frk-1.de.uncletopia.com","port":27075,"enabled":true,"region":"eu","cc":"de","latitude":50.110924,"longitude":8.682127,"reserved":0,"last_update":"0001-01-01T00:00:00Z","name_a2s":"Uncletopia | Frankfurt | 7 | Stopwatch Beta","protocol":17,"map":"workshop/koth_clearcut_b15.ugc2107050255","folder":"tf","game":"Team Fortress","app_id":440,"player_count":0,"max_players":24,"Bots":0,"server_type":"Dedicated","server_os":"Linux","password":true,"vac":true,"version":"7882260","steam_id":85568392924742827,"keywords":["cp","nocrits","nodmgspread","uncletopia"],"game_id":440,"stv_port":27076,"stv_name":"Uncletopia | Frankfurt | 7 | Stopwatch Beta | STV","players":null},{"server_id":24,"name":"Uncletopia | Frankfurt | 8 | Community","name_short":"frk-8","host":"frk-1.de.uncletopia.com","port":27085,"enabled":true,"region":"eu","cc":"de","latitude":50.110924,"longitude":8.682127,"reserved":0,"last_update":"0001-01-01T00:00:00Z","name_a2s":"Uncletopia | Frankfurt | 8 | Community","protocol":17,"map":"workshop/koth_bagel_rc6.ugc2514036946","folder":"tf","game":"Team Fortress","app_id":440,"player_count":0,"max_players":24,"Bots":0,"server_type":"Dedicated","server_os":"Linux","password":true,"vac":true,"version":"7882260","steam_id":85568392924742828,"keywords":["cp","nocrits","nodmgspread","uncletopia"],"game_id":440,"stv_port":27086,"stv_name":"Uncletopia | Frankfurt | 8 | Community | STV","players":null},{"server_id":202,"name":"Uncletopia | Hong Kong | 1 | All Maps","name_short":"hgk-1","host":"hgk-1.hk.uncletopia.com","port":27015,"enabled":true,"region":"asia","cc":"hk","latitude":22.302711,"longitude":114.177216,"reserved":0,"last_update":"0001-01-01T00:00:00Z","name_a2s":"Uncletopia | Hong Kong | 1 | All Maps","protocol":17,"map":"koth_viaduct","folder":"tf","game":"Team Fortress","app_id":440,"player_count":3,"max_players":24,"Bots":0,"server_type":"Dedicated","server_os":"Linux","password":true,"vac":true,"version":"7882260","steam_id":85568392924494504,"keywords":["cp","nocrits","nodmgspread","uncletopia"],"game_id":440,"stv_port":27016,"stv_name":"Uncletopia | Hong Kong | 1 | All Maps | STV","players":[{"user_id":85,"name":"4th Wall \"Breaker\"","steam_id":76561199328855877,"connected_time":26000000000,"state":"spawning","ping":88},{"user_id":83,"name":"Submarine","steam_id":76561198415207497,"connected_time":274000000000,"state":"active","ping":87},{"user_id":84,"name":"finger","steam_id":76561198928524070,"connected_time":176000000000,"state":"active","ping":141}]},{"server_id":1,"name":"Uncletopia | Los Angeles | 1 | All Maps","name_short":"lax-1","host":"lax-1.us.uncletopia.com","port":27015,"enabled":true,"region":"us-west","cc":"us","latitude":33.94279,"longitude":-118.41004,"reserved":0,"last_update":"0001-01-01T00:00:00Z","name_a2s":"Uncletopia | Los Angeles | 1 | All Maps","protocol":17,"map":"cp_coldfront","folder":"tf","game":"Team Fortress","app_id":440,"player_count":24,"max_players":24,"Bots":0,"server_type":"Dedicated","server_os":"Linux","password":true,"vac":true,"version":"7882260","steam_id":85568392924469991,"keywords":["cp","nocrits","nodmgspread","uncletopia"],"game_id":440,"stv_port":27016,"stv_name":"Uncletopia | Los Angeles | 1 | All Maps | STV","players":[{"user_id":373,"name":"Jorjor Wel","steam_id":76561198059689125,"connected_time":7832000000000,"state":"active","ping":75},{"user_id":387,"name":"Cinderace","steam_id":76561198132899671,"connected_time":5770000000000,"state":"active","ping":118},{"user_id":419,"name":"HappyGamer1105","steam_id":76561198423400418,"connected_time":2561000000000,"state":"active","ping":57},{"user_id":426,"name":"Blueghost555","steam_id":76561198379198065,"connected_time":1523000000000,"state":"active","ping":64},{"user_id":430,"name":"r/politicsuser","steam_id":76561198808224331,"connected_time":1230000000000,"state":"active","ping":123},{"user_id":408,"name":"Nolan","steam_id":76561198169648081,"connected_time":3196000000000,"state":"active","ping":96},{"user_id":421,"name":"Jax","steam_id":76561198251160282,"connected_time":2320000000000,"state":"active","ping":64},{"user_id":396,"name":"ToastNT3","steam_id":76561199387350519,"connected_time":4869000000000,"state":"active","ping":84},{"user_id":433,"name":"posting fail","steam_id":76561198066619792,"connected_time":1006000000000,"state":"active","ping":75},{"user_id":435,"name":"LogicalFurret","steam_id":76561198350604657,"connected_time":847000000000,"state":"active","ping":74},{"user_id":431,"name":"Serene Salamander","steam_id":76561198001094770,"connected_time":1189000000000,"state":"active","ping":61},{"user_id":403,"name":"Sammy!","steam_id":76561198184171743,"connected_time":4162000000000,"state":"active","ping":65},{"user_id":425,"name":"elephant thumb","steam_id":76561198118859752,"connected_time":1558000000000,"state":"active","ping":51},{"user_id":404,"name":"Shamrock Shake Oct.10.2020 @8pm","steam_id":76561198833313201,"connected_time":3806000000000,"state":"active","ping":56},{"user_id":427,"name":"bigninji","steam_id":76561199479630499,"connected_time":1304000000000,"state":"active","ping":70},{"user_id":429,"name":"Grim","steam_id":76561198016978310,"connected_time":1283000000000,"state":"active","ping":70},{"user_id":369,"name":"Hernandez$","steam_id":76561198019324588,"connected_time":8202000000000,"state":"active","ping":47},{"user_id":437,"name":"thegreatsawyer","steam_id":76561198393604826,"connected_time":614000000000,"state":"active","ping":79},{"user_id":438,"name":"Ice cream sandwich","steam_id":76561198172748357,"connected_time":610000000000,"state":"active","ping":55},{"user_id":381,"name":"Taunter of Snipers","steam_id":76561198202254225,"connected_time":6668000000000,"state":"active","ping":77},{"user_id":383,"name":"big car","steam_id":76561198067082350,"connected_time":6479000000000,"state":"active","ping":61},{"user_id":417,"name":"MILF-Hunting Wizard","steam_id":76561198113748347,"connected_time":2713000000000,"state":"active","ping":92},{"user_id":371,"name":"tkeati","steam_id":76561198056356574,"connected_time":8124000000000,"state":"active","ping":75},{"user_id":353,"name":"liftin'","steam_id":76561199089515791,"connected_time":9511000000000,"state":"active","ping":57}]},{"server_id":112,"name":"Uncletopia | Los Angeles | 2 | All Maps","name_short":"lax-2","host":"lax-1.us.uncletopia.com","port":27025,"enabled":true,"region":"us-west","cc":"us","latitude":33.94279,"longitude":-118.41004,"reserved":0,"last_update":"0001-01-01T00:00:00Z","name_a2s":"Uncletopia | Los Angeles | 2 | All Maps","protocol":17,"map":"pl_snowycoast","folder":"tf","game":"Team Fortress","app_id":440,"player_count":19,"max_players":24,"Bots":0,"server_type":"Dedicated","server_os":"Linux","password":true,"vac":true,"version":"7882260","steam_id":85568392924469992,"keywords":["nocrits","nodmgspread","payload","uncletopia"],"game_id":440,"stv_port":27026,"stv_name":"Uncletopia | Los Angeles | 2 | All Maps | STV","players":[{"user_id":231,"name":"mac_cheese","steam_id":76561198071334162,"connected_time":1651000000000,"state":"active","ping":67},{"user_id":250,"name":"emusaurus rex","steam_id":76561198991938829,"connected_time":80000000000,"state":"active","ping":54},{"user_id":251,"name":"kr1tsurf3r","steam_id":76561198076402476,"connected_time":3000000000,"state":"spawning","ping":47},{"user_id":148,"name":"Myrmidon","steam_id":76561198028276596,"connected_time":6154000000000,"state":"active","ping":57},{"user_id":220,"name":"Sahalanthro","steam_id":76561199073298722,"connected_time":2371000000000,"state":"active","ping":48},{"user_id":249,"name":"Drake from State Farm","steam_id":76561199069029812,"connected_time":183000000000,"state":"active","ping":74},{"user_id":248,"name":"thumb","steam_id":76561198353762582,"connected_time":233000000000,"state":"active","ping":71},{"user_id":242,"name":"canakblasteran","steam_id":76561199472518822,"connected_time":407000000000,"state":"active","ping":60},{"user_id":223,"name":"cobala nomala dd24","steam_id":76561198213385439,"connected_time":2245000000000,"state":"active","ping":101},{"user_id":186,"name":"Thunder","steam_id":76561198097721532,"connected_time":3627000000000,"state":"active","ping":46},{"user_id":224,"name":"SafetyInstructor","steam_id":76561199195205705,"connected_time":2167000000000,"state":"active","ping":87},{"user_id":244,"name":"â˜†world emo bossâ˜†","steam_id":76561198103598619,"connected_time":353000000000,"state":"active","ping":103},{"user_id":245,"name":"Jebediah Kerman","steam_id":76561199215798445,"connected_time":353000000000,"state":"active","ping":104},{"user_id":197,"name":"Elias","steam_id":76561198106431732,"connected_time":3515000000000,"state":"active","ping":78},{"user_id":198,"name":"hempurr :3","steam_id":76561198159477619,"connected_time":3507000000000,"state":"active","ping":46},{"user_id":236,"name":"bad vibrations","steam_id":76561198036283992,"connected_time":1382000000000,"state":"active","ping":71},{"user_id":147,"name":"Pah-Wraith Gul Dukat","steam_id":76561198033918106,"connected_time":6772000000000,"state":"active","ping":46},{"user_id":177,"name":"John Wick's puppy","steam_id":76561198064662875,"connected_time":4331000000000,"state":"active","ping":52},{"user_id":240,"name":"Spazz","steam_id":76561198036167494,"connected_time":661000000000,"state":"active","ping":75}]},{"server_id":324,"name":"Uncletopia | Los Angeles | 3 | All Maps","name_short":"lax-3","host":"lax-1.us.uncletopia.com","port":27035,"enabled":true,"region":"us-west","cc":"us","latitude":33.94279,"longitude":-118.41004,"reserved":0,"last_update":"0001-01-01T00:00:00Z","name_a2s":"Uncletopia | Los Angeles | 3 | All Maps","protocol":17,"map":"pl_upward","folder":"tf","game":"Team Fortress","app_id":440,"player_count":24,"max_players":24,"Bots":0,"server_type":"Dedicated","server_os":"Linux","password":true,"vac":true,"version":"7882260","steam_id":85568392924510198,"keywords":["nocrits","nodmgspread","payload","uncletopia"],"game_id":440,"stv_port":27036,"stv_name":"Uncletopia | Los Angeles | 3 | All Maps | STV","players":[{"user_id":244,"name":"Slim Charles","steam_id":76561197981687895,"connected_time":6705000000000,"state":"active","ping":60},{"user_id":272,"name":"Freyja","steam_id":76561198207412177,"connected_time":4100000000000,"state":"active","ping":84},{"user_id":337,"name":"[ G R * T T Y ]","steam_id":76561198048986218,"connected_time":362000000000,"state":"active","ping":59},{"user_id":307,"name":"KingOmegaVolt","steam_id":76561199187481231,"connected_time":2061000000000,"state":"active","ping":111},{"user_id":311,"name":"Hashslinging Slasher","steam_id":76561198099015430,"connected_time":1896000000000,"state":"active","ping":101},{"user_id":338,"name":"A Good Name (she/her)","steam_id":76561198858190691,"connected_time":354000000000,"state":"active","ping":62},{"user_id":334,"name":"Bandana Bullet","steam_id":76561198397347120,"connected_time":588000000000,"state":"active","ping":94},{"user_id":336,"name":"I throw a lot","steam_id":76561198209650964,"connected_time":365000000000,"state":"active","ping":58},{"user_id":339,"name":"BOOTZ","steam_id":76561198042750746,"connected_time":313000000000,"state":"active","ping":66},{"user_id":305,"name":"KennytheHedgehog","steam_id":76561198094607721,"connected_time":2144000000000,"state":"active","ping":75},{"user_id":340,"name":"Sheev Palpatine","steam_id":76561198252332430,"connected_time":261000000000,"state":"active","ping":97},{"user_id":335,"name":"ðŸŒ¸MelWormðŸŒ¸","steam_id":76561198084145814,"connected_time":467000000000,"state":"active","ping":81},{"user_id":310,"name":"ghostglitch","steam_id":76561197991608573,"connected_time":1916000000000,"state":"active","ping":53},{"user_id":344,"name":"stiiizy pod","steam_id":76561199093733603,"connected_time":0,"state":"spawning","ping":10},{"user_id":314,"name":"H-keyLF","steam_id":76561198376014891,"connected_time":1845000000000,"state":"active","ping":59},{"user_id":331,"name":"Mom","steam_id":76561198207936000,"connected_time":1273000000000,"state":"active","ping":44},{"user_id":273,"name":"cringy","steam_id":76561198323000455,"connected_time":3826000000000,"state":"active","ping":64},{"user_id":324,"name":"TOCOOL","steam_id":76561199215602012,"connected_time":1660000000000,"state":"active","ping":64},{"user_id":297,"name":"Taco+Taco=Burrito","steam_id":76561198063128663,"connected_time":2364000000000,"state":"active","ping":39},{"user_id":343,"name":"Â°Creamy Gilligan","steam_id":76561198001569384,"connected_time":51000000000,"state":"active","ping":109},{"user_id":341,"name":"The Map","steam_id":76561198138812108,"connected_time":253000000000,"state":"active","ping":115},{"user_id":342,"name":"HeavenHearst","steam_id":76561198066083947,"connected_time":250000000000,"state":"active","ping":100},{"user_id":321,"name":"MonkeyNobody","steam_id":76561199451266605,"connected_time":1751000000000,"state":"active","ping":54},{"user_id":291,"name":"Rose","steam_id":76561198955581861,"connected_time":2946000000000,"state":"active","ping":53}]},{"server_id":25,"name":"Uncletopia | Los Angeles | 4 | Stopwatch Beta","name_short":"lax-4","host":"lax-1.us.uncletopia.com","port":27045,"enabled":true,"region":"us-west","cc":"us","latitude":33.94279,"longitude":-118.41004,"reserved":0,"last_update":"0001-01-01T00:00:00Z","name_a2s":"Uncletopia | Los Angeles | 4 | Stopwatch Beta","protocol":17,"map":"cp_snakewater_final1","folder":"tf","game":"Team Fortress","app_id":440,"player_count":24,"max_players":24,"Bots":0,"server_type":"Dedicated","server_os":"Linux","password":true,"vac":true,"version":"7882260","steam_id":85568392924510199,"keywords":["cp","nocrits","nodmgspread","uncletopia"],"game_id":440,"stv_port":27046,"stv_name":"Uncletopia | Los Angeles | 4 | Stopwatch Beta | STV","players":[{"user_id":48,"name":"talu","steam_id":76561198140994786,"connected_time":5259000000000,"state":"active","ping":63},{"user_id":84,"name":"Power Jake","steam_id":76561198051510260,"connected_time":3282000000000,"state":"active","ping":60},{"user_id":107,"name":"[S]Mr. X [No Monitor]","steam_id":76561197963746035,"connected_time":1657000000000,"state":"active","ping":127},{"user_id":126,"name":"KOJAKK","steam_id":76561199060841878,"connected_time":12000000000,"state":"spawning","ping":68},{"user_id":120,"name":"guy with no plan","steam_id":76561198856016840,"connected_time":789000000000,"state":"active","ping":108},{"user_id":83,"name":"fire","steam_id":76561198044354279,"connected_time":3484000000000,"state":"active","ping":49},{"user_id":105,"name":"2","steam_id":76561198037332418,"connected_time":1763000000000,"state":"active","ping":72},{"user_id":123,"name":"pr1me","steam_id":76561197998103691,"connected_time":303000000000,"state":"active","ping":84},{"user_id":111,"name":"Suez","steam_id":76561198034642980,"connected_time":1452000000000,"state":"active","ping":45},{"user_id":93,"name":"Dorso","steam_id":76561198380590080,"connected_time":2587000000000,"state":"active","ping":42},{"user_id":86,"name":"Baron Bears","steam_id":76561198118654996,"connected_time":3139000000000,"state":"active","ping":86},{"user_id":112,"name":"garry, ceo of hell","steam_id":76561199416694935,"connected_time":1446000000000,"state":"active","ping":118},{"user_id":63,"name":"Dongus","steam_id":76561197979056451,"connected_time":4636000000000,"state":"active","ping":68},{"user_id":85,"name":"nav","steam_id":76561198872608266,"connected_time":3213000000000,"state":"active","ping":111},{"user_id":95,"name":"Fajita Master","steam_id":76561198329150962,"connected_time":2517000000000,"state":"active","ping":101},{"user_id":118,"name":"xxa","steam_id":76561197984735021,"connected_time":1066000000000,"state":"active","ping":45},{"user_id":114,"name":"[DATSâž¡] Sugar Meowth","steam_id":76561197995251793,"connected_time":1303000000000,"state":"active","ping":75},{"user_id":88,"name":"Peter, what are you doing?","steam_id":76561198066452726,"connected_time":3063000000000,"state":"active","ping":51},{"user_id":125,"name":"bonelyloner","steam_id":76561197968198640,"connected_time":85000000000,"state":"active","ping":80},{"user_id":69,"name":"precious","steam_id":76561198224614084,"connected_time":4460000000000,"state":"active","ping":91},{"user_id":101,"name":"dansal","steam_id":76561197997042510,"connected_time":2282000000000,"state":"active","ping":86},{"user_id":116,"name":"Poltergeist","steam_id":76561198080353122,"connected_time":1226000000000,"state":"active","ping":98},{"user_id":124,"name":"abel_jr09","steam_id":76561199057301675,"connected_time":249000000000,"state":"active","ping":56},{"user_id":108,"name":"GUINNESS ANYONE?","steam_id":76561197985970131,"connected_time":1644000000000,"state":"active","ping":109}]},{"server_id":11,"name":"Uncletopia | London | 1 | All Maps","name_short":"lon-1","host":"lon-1.uk.uncletopia.com","port":27015,"enabled":true,"region":"eu","cc":"gb","latitude":51.509865,"longitude":-0.118092,"reserved":0,"last_update":"0001-01-01T00:00:00Z","name_a2s":"Uncletopia | London | 1 | All Maps","protocol":17,"map":"koth_lakeside_final","folder":"tf","game":"Team Fortress","app_id":440,"player_count":0,"max_players":24,"Bots":0,"server_type":"Dedicated","server_os":"Linux","password":true,"vac":true,"version":"7882260","steam_id":85568392924367362,"keywords":["cp","nocrits","nodmgspread","uncletopia"],"game_id":440,"stv_port":27016,"stv_name":"Uncletopia | London | 1 | All Maps | STV","players":null},{"server_id":114,"name":"Uncletopia | London | 2 | All Maps","name_short":"lon-2","host":"lon-1.uk.uncletopia.com","port":27025,"enabled":true,"region":"eu","cc":"gb","latitude":51.509865,"longitude":-0.118092,"reserved":0,"last_update":"0001-01-01T00:00:00Z","name_a2s":"Uncletopia | London | 2 | All Maps","protocol":17,"map":"koth_highpass","folder":"tf","game":"Team Fortress","app_id":440,"player_count":0,"max_players":24,"Bots":0,"server_type":"Dedicated","server_os":"Linux","password":true,"vac":true,"version":"7882260","steam_id":85568392924470941,"keywords":["cp","nocrits","nodmgspread","uncletopia"],"game_id":440,"stv_port":27026,"stv_name":"Uncletopia | London | 2 | All Maps | STV","players":null},{"server_id":320,"name":"Uncletopia | London | 3 | All Maps","name_short":"lon-3","host":"lon-1.uk.uncletopia.com","port":27035,"enabled":true,"region":"eu","cc":"gb","latitude":51.509865,"longitude":-0.118092,"reserved":0,"last_update":"0001-01-01T00:00:00Z","name_a2s":"Uncletopia | London | 3 | All Maps","protocol":17,"map":"koth_highpass","folder":"tf","game":"Team Fortress","app_id":440,"player_count":0,"max_players":24,"Bots":0,"server_type":"Dedicated","server_os":"Linux","password":true,"vac":true,"version":"7882260","steam_id":85568392924510192,"keywords":["cp","nocrits","nodmgspread","uncletopia"],"game_id":440,"stv_port":27036,"stv_name":"Uncletopia | London | 3 | All Maps | STV","players":null},{"server_id":321,"name":"Uncletopia | London | 4 | All Maps","name_short":"lon-4","host":"lon-1.uk.uncletopia.com","port":27045,"enabled":true,"region":"eu","cc":"gb","latitude":51.509865,"longitude":-0.118092,"reserved":0,"last_update":"0001-01-01T00:00:00Z","name_a2s":"Uncletopia | London | 4 | All Maps","protocol":17,"map":"pl_barnblitz","folder":"tf","game":"Team Fortress","app_id":440,"player_count":0,"max_players":24,"Bots":0,"server_type":"Dedicated","server_os":"Linux","password":true,"vac":true,"version":"7882260","steam_id":85568392924510193,"keywords":["nocrits","nodmgspread","payload","uncletopia"],"game_id":440,"stv_port":27046,"stv_name":"Uncletopia | London | 4 | All Maps | STV","players":null},{"server_id":21,"name":"Uncletopia | London | 5 | All Maps","name_short":"lon-5","host":"lon-1.uk.uncletopia.com","port":27055,"enabled":true,"region":"eu","cc":"gb","latitude":51.509865,"longitude":-0.118092,"reserved":0,"last_update":"0001-01-01T00:00:00Z","name_a2s":"Uncletopia | London | 5 | All Maps","protocol":17,"map":"pl_upward","folder":"tf","game":"Team Fortress","app_id":440,"player_count":0,"max_players":24,"Bots":0,"server_type":"Dedicated","server_os":"Linux","password":true,"vac":true,"version":"7882260","steam_id":85568392924742829,"keywords":["nocrits","nodmgspread","payload","uncletopia"],"game_id":440,"stv_port":27056,"stv_name":"Uncletopia | London | 5 | All Maps | STV","players":null},{"server_id":22,"name":"Uncletopia | London | 6 | All Maps","name_short":"lon-6","host":"lon-1.uk.uncletopia.com","port":27065,"enabled":true,"region":"eu","cc":"gb","latitude":51.509865,"longitude":-0.118092,"reserved":0,"last_update":"0001-01-01T00:00:00Z","name_a2s":"Uncletopia | London | 6 | All Maps","protocol":17,"map":"pl_upward","folder":"tf","game":"Team Fortress","app_id":440,"player_count":2,"max_players":24,"Bots":0,"server_type":"Dedicated","server_os":"Linux","password":true,"vac":true,"version":"7882260","steam_id":85568392924742830,"keywords":["nocrits","nodmgspread","payload","uncletopia"],"game_id":440,"stv_port":27066,"stv_name":"Uncletopia | London | 6 | All Maps | STV","players":[{"user_id":454,"name":"RedTea","steam_id":76561198223622708,"connected_time":97000000000,"state":"active","ping":124},{"user_id":455,"name":"Dmitri Mendeleev","steam_id":76561198116168271,"connected_time":16000000000,"state":"active","ping":86}]},{"server_id":40,"name":"Uncletopia | London | 7 | No Payload","name_short":"lon-7","host":"lon-1.uk.uncletopia.com","port":27075,"enabled":true,"region":"eu","cc":"gb","latitude":51.509865,"longitude":-0.118092,"reserved":0,"last_update":"0001-01-01T00:00:00Z","name_a2s":"Uncletopia | London | 7 | No Payload","protocol":17,"map":"cp_5gorge","folder":"tf","game":"Team Fortress","app_id":440,"player_count":0,"max_players":24,"Bots":0,"server_type":"Dedicated","server_os":"Linux","password":true,"vac":true,"version":"7882260","steam_id":85568392924964314,"keywords":["cp","nocrits","nodmgspread","uncletopia"],"game_id":440,"stv_port":27076,"stv_name":"Uncletopia | London | 7 | No Payload | STV","players":null},{"server_id":41,"name":"Uncletopia | London | 8 | Community","name_short":"lon-8","host":"lon-1.uk.uncletopia.com","port":27085,"enabled":true,"region":"eu","cc":"gb","latitude":51.509865,"longitude":-0.118092,"reserved":0,"last_update":"0001-01-01T00:00:00Z","name_a2s":"Uncletopia | London | 8 | Community","protocol":17,"map":"workshop/koth_synthetic_rc6a.ugc1549817316","folder":"tf","game":"Team Fortress","app_id":440,"player_count":0,"max_players":24,"Bots":0,"server_type":"Dedicated","server_os":"Linux","password":true,"vac":true,"version":"7882260","steam_id":85568392924964315,"keywords":["cp","nocrits","nodmgspread","uncletopia"],"game_id":440,"stv_port":27086,"stv_name":"Uncletopia | London | 8 | Community | STV","players":null},{"server_id":300,"name":"Uncletopia | MontrÃ©al | 1 | All Maps","name_short":"mtl-1","host":"mtl-1.ca.uncletopia.com","port":27015,"enabled":true,"region":"us-east","cc":"ca","latitude":45.50889,"longitude":-73.56167,"reserved":0,"last_update":"0001-01-01T00:00:00Z","name_a2s":"Uncletopia | MontrÃ©al | 1 | All Maps","protocol":17,"map":"pl_snowycoast","folder":"tf","game":"Team Fortress","app_id":440,"player_count":23,"max_players":24,"Bots":0,"server_type":"Dedicated","server_os":"Linux","password":true,"vac":true,"version":"7882260","steam_id":85568392924500087,"keywords":["nocrits","nodmgspread","payload","uncletopia"],"game_id":440,"stv_port":27016,"stv_name":"Uncletopia | MontrÃ©al | 1 | All Maps | STV","players":[{"user_id":269,"name":"mel gibson's first born","steam_id":76561198115458307,"connected_time":1165000000000,"state":"active","ping":122},{"user_id":273,"name":"Bee","steam_id":76561198074681324,"connected_time":51000000000,"state":"active","ping":54},{"user_id":257,"name":"MAXIMUS","steam_id":76561198085809453,"connected_time":1771000000000,"state":"active","ping":83},{"user_id":272,"name":"let me cook","steam_id":76561198075858067,"connected_time":315000000000,"state":"active","ping":54},{"user_id":248,"name":"ultralisk52","steam_id":76561198051666604,"connected_time":2244000000000,"state":"active","ping":82},{"user_id":274,"name":"Stoopnagle","steam_id":76561198011942560,"connected_time":36000000000,"state":"active","ping":96},{"user_id":255,"name":"he munch","steam_id":76561198339644583,"connected_time":1891000000000,"state":"active","ping":69},{"user_id":223,"name":"God (real)","steam_id":76561198131089513,"connected_time":3818000000000,"state":"active","ping":41},{"user_id":258,"name":"kree","steam_id":76561197979960008,"connected_time":1714000000000,"state":"active","ping":37},{"user_id":265,"name":"Slimer","steam_id":76561198094913841,"connected_time":1629000000000,"state":"active","ping":83},{"user_id":217,"name":"Sableye","steam_id":76561198061247147,"connected_time":4256000000000,"state":"active","ping":105},{"user_id":238,"name":"c9","steam_id":76561198136642793,"connected_time":2887000000000,"state":"active","ping":94},{"user_id":268,"name":"Joey Diaz","steam_id":76561198194796010,"connected_time":1295000000000,"state":"active","ping":85},{"user_id":242,"name":"SLICK PAPI #IMDADDYASF","steam_id":76561198144766439,"connected_time":2818000000000,"state":"active","ping":81},{"user_id":243,"name":"suckercockle","steam_id":76561197972601902,"connected_time":2787000000000,"state":"active","ping":90},{"user_id":264,"name":"lip locked and loaded","steam_id":76561198140116087,"connected_time":1656000000000,"state":"active","ping":74},{"user_id":232,"name":"cactus eater","steam_id":76561199107499844,"connected_time":3274000000000,"state":"active","ping":132},{"user_id":261,"name":"ottoman","steam_id":76561198407056645,"connected_time":1703000000000,"state":"active","ping":74},{"user_id":266,"name":"BrownMemeSter","steam_id":76561198113745020,"connected_time":1598000000000,"state":"active","ping":89},{"user_id":262,"name":"Naegleria","steam_id":76561197965633183,"connected_time":1691000000000,"state":"active","ping":102},{"user_id":275,"name":"lfty","steam_id":76561198283841707,"connected_time":29000000000,"state":"active","ping":74},{"user_id":181,"name":"Bee_Pirate","steam_id":76561199000599111,"connected_time":8203000000000,"state":"active","ping":58},{"user_id":254,"name":"Gogo","steam_id":76561198172430633,"connected_time":2009000000000,"state":"active","ping":71}]},{"server_id":301,"name":"Uncletopia | MontrÃ©al | 2 | All Maps","name_short":"mtl-2","host":"mtl-1.ca.uncletopia.com","port":27025,"enabled":true,"region":"us-east","cc":"ca","latitude":45.50889,"longitude":-73.56167,"reserved":0,"last_update":"0001-01-01T00:00:00Z","name_a2s":"Uncletopia | MontrÃ©al | 2 | All Maps","protocol":17,"map":"pl_badwater","folder":"tf","game":"Team Fortress","app_id":440,"player_count":0,"max_players":24,"Bots":0,"server_type":"Dedicated","server_os":"Linux","password":true,"vac":true,"version":"7882260","steam_id":85568392924500088,"keywords":["nocrits","nodmgspread","payload","uncletopia"],"game_id":440,"stv_port":27026,"stv_name":"Uncletopia | MontrÃ©al | 2 | All Maps | STV","players":null},{"server_id":302,"name":"Uncletopia | MontrÃ©al | 3 | All Maps","name_short":"mtl-3","host":"mtl-1.ca.uncletopia.com","port":27035,"enabled":true,"region":"us-east","cc":"ca","latitude":45.50889,"longitude":-73.56167,"reserved":0,"last_update":"0001-01-01T00:00:00Z","name_a2s":"Uncletopia | MontrÃ©al | 3 | All Maps","protocol":17,"map":"koth_cascade","folder":"tf","game":"Team Fortress","app_id":440,"player_count":0,"max_players":24,"Bots":0,"server_type":"Dedicated","server_os":"Linux","password":true,"vac":true,"version":"7882260","steam_id":85568392924500089,"keywords":["cp","nocrits","nodmgspread","uncletopia"],"game_id":440,"stv_port":27036,"stv_name":"Uncletopia | MontrÃ©al | 3 | All Maps | STV","players":null},{"server_id":303,"name":"Uncletopia | MontrÃ©al | 4 | No Payload","name_short":"mtl-4","host":"mtl-1.ca.uncletopia.com","port":27045,"enabled":true,"region":"us-east","cc":"ca","latitude":45.50889,"longitude":-73.56167,"reserved":0,"last_update":"0001-01-01T00:00:00Z","name_a2s":"Uncletopia | MontrÃ©al | 4 | No Payload","protocol":17,"map":"koth_nucleus","folder":"tf","game":"Team Fortress","app_id":440,"player_count":0,"max_players":24,"Bots":0,"server_type":"Dedicated","server_os":"Linux","password":true,"vac":true,"version":"7882260","steam_id":85568392924500090,"keywords":["cp","nocrits","nodmgspread","uncletopia"],"game_id":440,"stv_port":27046,"stv_name":"Uncletopia | MontrÃ©al | 4 | No Payload | STV","players":null},{"server_id":13,"name":"Uncletopia | New York City | 1 | All Maps","name_short":"nyc-1","host":"nyc-1.us.uncletopia.com","port":27015,"enabled":true,"region":"us-east","cc":"us","latitude":40.73061,"longitude":-73.93524,"reserved":0,"last_update":"0001-01-01T00:00:00Z","name_a2s":"Uncletopia | New York City | 1 | All Maps","protocol":17,"map":"ctf_2fort","folder":"tf","game":"Team Fortress","app_id":440,"player_count":19,"max_players":24,"Bots":0,"server_type":"Dedicated","server_os":"Linux","password":true,"vac":true,"version":"7882260","steam_id":85568392924469993,"keywords":["ctf","nocrits","nodmgspread","uncletopia"],"game_id":440,"stv_port":27016,"stv_name":"Uncletopia | New York City | 1 | All Maps | STV","players":[{"user_id":627,"name":"Goldfire","steam_id":76561198061999410,"connected_time":5158000000000,"state":"active","ping":91},{"user_id":660,"name":"Sire Salty","steam_id":76561198079639072,"connected_time":368000000000,"state":"active","ping":49},{"user_id":666,"name":"Omni-S","steam_id":76561198082396372,"connected_time":129000000000,"state":"active","ping":89},{"user_id":667,"name":"MayheM","steam_id":76561198104506954,"connected_time":91000000000,"state":"active","ping":87},{"user_id":659,"name":"bong.io","steam_id":76561198133360797,"connected_time":398000000000,"state":"active","ping":111},{"user_id":662,"name":"Vit","steam_id":76561198044101991,"connected_time":294000000000,"state":"active","ping":49},{"user_id":663,"name":"jorjor wells","steam_id":76561199073429082,"connected_time":273000000000,"state":"active","ping":55},{"user_id":664,"name":"Rerum","steam_id":76561198177903950,"connected_time":195000000000,"state":"active","ping":70},{"user_id":670,"name":"msay","steam_id":76561198170888029,"connected_time":26000000000,"state":"active","ping":69},{"user_id":602,"name":"Periculosum PhD in Funny","steam_id":76561198123370914,"connected_time":6862000000000,"state":"active","ping":85},{"user_id":641,"name":"gertchy","steam_id":76561199111932529,"connected_time":4176000000000,"state":"active","ping":31},{"user_id":668,"name":"Lone Rider","steam_id":76561198091978968,"connected_time":88000000000,"state":"active","ping":91},{"user_id":669,"name":"Spiffo Raccoon","steam_id":76561198035667824,"connected_time":80000000000,"state":"active","ping":67},{"user_id":671,"name":"BopGnollEbon","steam_id":76561199013359318,"connected_time":0,"state":"spawning","ping":0},{"user_id":655,"name":"carmelosius","steam_id":76561198211303800,"connected_time":1016000000000,"state":"active","ping":100},{"user_id":649,"name":"Nerrrd_","steam_id":76561198870129960,"connected_time":2256000000000,"state":"active","ping":32},{"user_id":626,"name":"Dr.Barber","steam_id":76561198053164815,"connected_time":5190000000000,"state":"active","ping":84},{"user_id":657,"name":"Queso2469","steam_id":76561197993024580,"connected_time":573000000000,"state":"active","ping":48},{"user_id":633,"name":"Waltuh Whitte","steam_id":76561198372798868,"connected_time":5009000000000,"state":"active","ping":101}]},{"server_id":14,"name":"Uncletopia | New York City | 2 | All Maps","name_short":"nyc-2","host":"nyc-1.us.uncletopia.com","port":27025,"enabled":true,"region":"us-east","cc":"us","latitude":40.73061,"longitude":-73.93524,"reserved":0,"last_update":"0001-01-01T00:00:00Z","name_a2s":"Uncletopia | New York City | 2 | All Maps","protocol":17,"map":"pl_borneo","folder":"tf","game":"Team Fortress","app_id":440,"player_count":24,"max_players":24,"Bots":0,"server_type":"Dedicated","server_os":"Linux","password":true,"vac":true,"version":"7882260","steam_id":85568392924469994,"keywords":["nocrits","nodmgspread","payload","uncletopia"],"game_id":440,"stv_port":27026,"stv_name":"Uncletopia | New York City | 2 | All Maps | STV","players":[{"user_id":454,"name":"The Big","steam_id":76561198078572184,"connected_time":521000000000,"state":"active","ping":86},{"user_id":435,"name":"Idiot Princess","steam_id":76561198048205270,"connected_time":1601000000000,"state":"active","ping":79},{"user_id":436,"name":"t.tv/stabslive","steam_id":76561198293116584,"connected_time":1552000000000,"state":"active","ping":60},{"user_id":438,"name":"Toaster_wafflez","steam_id":76561199403708629,"connected_time":1533000000000,"state":"active","ping":68},{"user_id":439,"name":"jarmston","steam_id":76561199465987063,"connected_time":1531000000000,"state":"active","ping":114},{"user_id":451,"name":"Okpar","steam_id":76561199221067945,"connected_time":851000000000,"state":"active","ping":92},{"user_id":456,"name":"Big Iron","steam_id":76561198798937656,"connected_time":285000000000,"state":"active","ping":80},{"user_id":440,"name":"B]","steam_id":76561198296073840,"connected_time":1527000000000,"state":"active","ping":70},{"user_id":403,"name":"basil smoking weed","steam_id":76561198119590214,"connected_time":4661000000000,"state":"active","ping":74},{"user_id":382,"name":"JimGrimm","steam_id":76561198044573050,"connected_time":7348000000000,"state":"active","ping":61},{"user_id":460,"name":"Sim","steam_id":76561198119227922,"connected_time":242000000000,"state":"active","ping":49},{"user_id":457,"name":"Icekong","steam_id":76561198017218224,"connected_time":280000000000,"state":"active","ping":128},{"user_id":410,"name":"SpectraUnseen","steam_id":76561198073501022,"connected_time":4370000000000,"state":"active","ping":69},{"user_id":461,"name":"Smiles","steam_id":76561198107197973,"connected_time":238000000000,"state":"active","ping":83},{"user_id":409,"name":"yellow ball guy","steam_id":76561199013676125,"connected_time":4440000000000,"state":"active","ping":77},{"user_id":458,"name":"-W3E- grim10465","steam_id":76561198045698581,"connected_time":276000000000,"state":"active","ping":37},{"user_id":453,"name":"YouCanTrustMe","steam_id":76561198151682213,"connected_time":619000000000,"state":"active","ping":57},{"user_id":415,"name":"balls","steam_id":76561198143694438,"connected_time":3809000000000,"state":"active","ping":59},{"user_id":444,"name":"JaredTheReal","steam_id":76561198372449718,"connected_time":1465000000000,"state":"active","ping":89},{"user_id":459,"name":"Generic_Soda","steam_id":76561197993528721,"connected_time":272000000000,"state":"active","ping":46},{"user_id":407,"name":"Mrs.Frizzle","steam_id":76561198117157085,"connected_time":4569000000000,"state":"active","ping":58},{"user_id":462,"name":"ED","steam_id":76561198043316859,"connected_time":231000000000,"state":"active","ping":45},{"user_id":414,"name":"Faefanger","steam_id":76561198201871002,"connected_time":3812000000000,"state":"active","ping":128}]},{"server_id":15,"name":"Uncletopia | New York City | 3 | Stopwatch Beta","name_short":"nyc-3","host":"nyc-1.us.uncletopia.com","port":27035,"enabled":true,"region":"us-east","cc":"us","latitude":40.73061,"longitude":-73.93524,"reserved":0,"last_update":"0001-01-01T00:00:00Z","name_a2s":"Uncletopia | New York City | 3 | Stopwatch Beta","protocol":17,"map":"pl_borneo","folder":"tf","game":"Team Fortress","app_id":440,"player_count":0,"max_players":24,"Bots":0,"server_type":"Dedicated","server_os":"Linux","password":true,"vac":true,"version":"7882260","steam_id":85568392924742820,"keywords":["nocrits","nodmgspread","payload","uncletopia"],"game_id":440,"stv_port":27036,"stv_name":"Uncletopia | New York City | 3 | Stopwatch Beta | STV","players":null},{"server_id":16,"name":"Uncletopia | New York City | 4 | Community","name_short":"nyc-4","host":"nyc-1.us.uncletopia.com","port":27045,"enabled":true,"region":"us-east","cc":"us","latitude":40.73061,"longitude":-73.93524,"reserved":0,"last_update":"0001-01-01T00:00:00Z","name_a2s":"Uncletopia | New York City | 4 | Community","protocol":17,"map":"workshop/koth_trenchfoot_b1a.ugc731436616","folder":"tf","game":"Team Fortress","app_id":440,"player_count":24,"max_players":24,"Bots":0,"server_type":"Dedicated","server_os":"Linux","password":true,"vac":true,"version":"7882260","steam_id":85568392924742821,"keywords":["cp","nocrits","nodmgspread","uncletopia"],"game_id":440,"stv_port":27046,"stv_name":"Uncletopia | New York City | 4 | Community | STV","players":[{"user_id":293,"name":"StickyWicket","steam_id":76561198000155177,"connected_time":1800000000000,"state":"active","ping":78},{"user_id":278,"name":"garbo","steam_id":76561198149280150,"connected_time":3407000000000,"state":"active","ping":117},{"user_id":301,"name":"OldWhiteGuy227799","steam_id":76561199056292794,"connected_time":860000000000,"state":"active","ping":83},{"user_id":282,"name":"OldWhiteWoman227799","steam_id":76561199155537590,"connected_time":2844000000000,"state":"active","ping":64},{"user_id":304,"name":"Gonkly","steam_id":76561198046512828,"connected_time":812000000000,"state":"active","ping":61},{"user_id":302,"name":"badasscoolboy57","steam_id":76561198795412055,"connected_time":853000000000,"state":"active","ping":55},{"user_id":266,"name":"bojack from the show bojack hor","steam_id":76561198053006712,"connected_time":5220000000000,"state":"active","ping":42},{"user_id":309,"name":"Engiqueer","steam_id":76561198214080773,"connected_time":553000000000,"state":"active","ping":68},{"user_id":287,"name":"yee haw","steam_id":76561198398638164,"connected_time":2132000000000,"state":"active","ping":70},{"user_id":288,"name":"Theta_Line","steam_id":76561198194764277,"connected_time":2055000000000,"state":"active","ping":149},{"user_id":310,"name":"jazztree14","steam_id":76561199239395356,"connected_time":507000000000,"state":"active","ping":90},{"user_id":292,"name":"Julius Caesar","steam_id":76561198360004673,"connected_time":1945000000000,"state":"active","ping":69},{"user_id":299,"name":"Rekt_kiD_1","steam_id":76561199028244971,"connected_time":1115000000000,"state":"active","ping":140},{"user_id":298,"name":"looseteeeth","steam_id":76561198978612893,"connected_time":1193000000000,"state":"active","ping":117},{"user_id":308,"name":"Le Crabe","steam_id":76561198075333342,"connected_time":627000000000,"state":"active","ping":60},{"user_id":307,"name":"blythe","steam_id":76561198254999149,"connected_time":698000000000,"state":"active","ping":59},{"user_id":305,"name":"HeroOfTime1435","steam_id":76561198414622966,"connected_time":782000000000,"state":"active","ping":57},{"user_id":295,"name":"Bnuuy","steam_id":76561198119427576,"connected_time":1784000000000,"state":"active","ping":44},{"user_id":311,"name":"alhaul01","steam_id":76561198976414436,"connected_time":433000000000,"state":"active","ping":98},{"user_id":296,"name":"Your Sheepish Lover","steam_id":76561198103370268,"connected_time":1779000000000,"state":"active","ping":98},{"user_id":312,"name":"DolphiN | RGL.gg","steam_id":76561198048614515,"connected_time":113000000000,"state":"active","ping":45},{"user_id":274,"name":"Veigar Enjoyer","steam_id":76561198065060429,"connected_time":3784000000000,"state":"active","ping":91},{"user_id":228,"name":"marge","steam_id":76561198064823861,"connected_time":7782000000000,"state":"active","ping":59},{"user_id":297,"name":"BetoelAff es","steam_id":76561198377842585,"connected_time":1760000000000,"state":"active","ping":134}]},{"server_id":142,"name":"Uncletopia | SÃ£o Paulo | 1 | All Maps","name_short":"sao-1","host":"sao-1.br.uncletopia.com","port":27015,"enabled":true,"region":"sa","cc":"br","latitude":-23.533773,"longitude":-46.62529,"reserved":0,"last_update":"0001-01-01T00:00:00Z","name_a2s":"Uncletopia | SÃ£o Paulo | 1 | All Maps","protocol":17,"map":"koth_highpass","folder":"tf","game":"Team Fortress","app_id":440,"player_count":0,"max_players":24,"Bots":0,"server_type":"Dedicated","server_os":"Linux","password":true,"vac":true,"version":"7882260","steam_id":85568392924469996,"keywords":["cp","nocrits","nodmgspread","uncletopia"],"game_id":440,"stv_port":27016,"stv_name":"Uncletopia | SÃ£o Paulo | 1 | All Maps | STV","players":null},{"server_id":143,"name":"Uncletopia | SÃ£o Paulo | 2 | All Maps","name_short":"sao-2","host":"sao-2.br.uncletopia.com","port":27015,"enabled":true,"region":"sa","cc":"br","latitude":-23.533773,"longitude":-46.62529,"reserved":0,"last_update":"0001-01-01T00:00:00Z","name_a2s":"Uncletopia | SÃ£o Paulo | 2 | All Maps","protocol":17,"map":"koth_viaduct","folder":"tf","game":"Team Fortress","app_id":440,"player_count":0,"max_players":24,"Bots":0,"server_type":"Dedicated","server_os":"Linux","password":true,"vac":true,"version":"7882260","steam_id":85568392924485349,"keywords":["cp","nocrits","nodmgspread","uncletopia"],"game_id":440,"stv_port":27016,"stv_name":"Uncletopia | SÃ£o Paulo | 2 | All Maps | STV","players":null},{"server_id":7,"name":"Uncletopia | Seattle | 1 | All Maps","name_short":"sea-1","host":"sea-1.us.uncletopia.com","port":27015,"enabled":true,"region":"us-west","cc":"us","latitude":47.608013,"longitude":-122.33517,"reserved":0,"last_update":"0001-01-01T00:00:00Z","name_a2s":"Uncletopia | Seattle | 1 | All Maps","protocol":17,"map":"pl_snowycoast","folder":"tf","game":"Team Fortress","app_id":440,"player_count":24,"max_players":24,"Bots":0,"server_type":"Dedicated","server_os":"Linux","password":true,"vac":true,"version":"7882260","steam_id":85568392924469997,"keywords":["nocrits","nodmgspread","payload","uncletopia"],"game_id":440,"stv_port":27016,"stv_name":"Uncletopia | Seattle | 1 | All Maps | STV","players":[{"user_id":580,"name":"Yack Skag","steam_id":76561198068251493,"connected_time":2366000000000,"state":"active","ping":68},{"user_id":607,"name":"[TrC] Nosy","steam_id":76561197978859310,"connected_time":543000000000,"state":"active","ping":60},{"user_id":552,"name":"John16Mark","steam_id":76561198119445407,"connected_time":5330000000000,"state":"active","ping":115},{"user_id":599,"name":"pyrotechnic","steam_id":76561198043558709,"connected_time":965000000000,"state":"active","ping":45},{"user_id":592,"name":"veryscaryreaper","steam_id":76561198380018244,"connected_time":1379000000000,"state":"active","ping":66},{"user_id":601,"name":"jorts","steam_id":76561199041179985,"connected_time":949000000000,"state":"active","ping":60},{"user_id":605,"name":"bbbbb","steam_id":76561198095480838,"connected_time":604000000000,"state":"active","ping":56},{"user_id":603,"name":"Florist","steam_id":76561198009121060,"connected_time":927000000000,"state":"active","ping":47},{"user_id":597,"name":"roryisonamobilehotspot","steam_id":76561198065825165,"connected_time":1024000000000,"state":"active","ping":99},{"user_id":584,"name":"Player!","steam_id":76561198239859610,"connected_time":2006000000000,"state":"active","ping":74},{"user_id":611,"name":"dougrocks421","steam_id":76561198165063918,"connected_time":459000000000,"state":"active","ping":47},{"user_id":586,"name":"Fraggers","steam_id":76561198029396836,"connected_time":1486000000000,"state":"active","ping":44},{"user_id":587,"name":"bota box burglar","steam_id":76561198134309750,"connected_time":1483000000000,"state":"active","ping":112},{"user_id":573,"name":"O","steam_id":76561198450073779,"connected_time":3557000000000,"state":"active","ping":45},{"user_id":608,"name":"Tea","steam_id":76561198004133638,"connected_time":542000000000,"state":"active","ping":84},{"user_id":604,"name":"â€º Noir","steam_id":76561197977418994,"connected_time":920000000000,"state":"active","ping":73},{"user_id":609,"name":"[TrC] Dackstrus","steam_id":76561197973518509,"connected_time":539000000000,"state":"active","ping":62},{"user_id":585,"name":"soup","steam_id":76561198043209046,"connected_time":1495000000000,"state":"active","ping":81},{"user_id":572,"name":"imtoofadedicantevendapuup","steam_id":76561198180372310,"connected_time":3950000000000,"state":"active","ping":62},{"user_id":612,"name":"Anthid","steam_id":76561198074493797,"connected_time":300000000000,"state":"active","ping":75},{"user_id":525,"name":"Sloth â¦","steam_id":76561197998378462,"connected_time":7376000000000,"state":"active","ping":57},{"user_id":591,"name":"It's Over!","steam_id":76561198104086771,"connected_time":1399000000000,"state":"active","ping":82},{"user_id":595,"name":"smeasly","steam_id":76561198028718812,"connected_time":1210000000000,"state":"active","ping":44},{"user_id":555,"name":"Battery Acid Slurper","steam_id":76561198439793697,"connected_time":5040000000000,"state":"active","ping":113}]},{"server_id":119,"name":"Uncletopia | Seattle | 2 | All Maps","name_short":"sea-2","host":"sea-1.us.uncletopia.com","port":27025,"enabled":true,"region":"us-west","cc":"us","latitude":47.608013,"longitude":-122.33517,"reserved":0,"last_update":"0001-01-01T00:00:00Z","name_a2s":"Uncletopia | Seattle | 2 | All Maps","protocol":17,"map":"ctf_turbine","folder":"tf","game":"Team Fortress","app_id":440,"player_count":24,"max_players":24,"Bots":0,"server_type":"Dedicated","server_os":"Linux","password":true,"vac":true,"version":"7882260","steam_id":85568392924469998,"keywords":["ctf","nocrits","nodmgspread","uncletopia"],"game_id":440,"stv_port":27026,"stv_name":"Uncletopia | Seattle | 2 | All Maps | STV","players":[{"user_id":625,"name":"à¶žâ§â§OÍ­nÍªeÍ¤TrueDev","steam_id":76561198107400823,"connected_time":574000000000,"state":"active","ping":101},{"user_id":588,"name":"SkaÃ°i","steam_id":76561198063949642,"connected_time":2867000000000,"state":"active","ping":35},{"user_id":524,"name":"lil uzi vert","steam_id":76561198326466375,"connected_time":5416000000000,"state":"active","ping":88},{"user_id":624,"name":"St. Baddie d'Arc","steam_id":76561198206752128,"connected_time":598000000000,"state":"active","ping":146},{"user_id":615,"name":"jBracko","steam_id":76561198019261602,"connected_time":1366000000000,"state":"active","ping":69},{"user_id":595,"name":"General Fisticuffs","steam_id":76561198255721392,"connected_time":2480000000000,"state":"active","ping":106},{"user_id":504,"name":"arsenic","steam_id":76561198176391550,"connected_time":6006000000000,"state":"active","ping":62},{"user_id":616,"name":"Thanks Ants","steam_id":76561197966221018,"connected_time":1132000000000,"state":"active","ping":53},{"user_id":633,"name":"marty","steam_id":76561199193121115,"connected_time":191000000000,"state":"active","ping":54},{"user_id":627,"name":"intek","steam_id":76561198052705291,"connected_time":552000000000,"state":"active","ping":90},{"user_id":600,"name":"Finkly","steam_id":76561198049828110,"connected_time":2425000000000,"state":"active","ping":34},{"user_id":628,"name":"https://en.wikipedia.org/","steam_id":76561198261326806,"connected_time":544000000000,"state":"active","ping":59},{"user_id":599,"name":"Coowil","steam_id":76561198070985437,"connected_time":2451000000000,"state":"active","ping":44},{"user_id":631,"name":"TheCowledWiz","steam_id":76561198016735868,"connected_time":342000000000,"state":"active","ping":47},{"user_id":610,"name":"selling rice","steam_id":76561198063357023,"connected_time":1788000000000,"state":"active","ping":63},{"user_id":621,"name":"CamWtheDestroyer","steam_id":76561198950777742,"connected_time":942000000000,"state":"active","ping":97},{"user_id":606,"name":"Feldspaten","steam_id":76561199122059102,"connected_time":2168000000000,"state":"active","ping":90},{"user_id":620,"name":"Mr.Frundles","steam_id":76561198134559026,"connected_time":994000000000,"state":"active","ping":60},{"user_id":623,"name":"Strikerbolt","steam_id":76561199095622897,"connected_time":603000000000,"state":"active","ping":78},{"user_id":612,"name":"chloÃ©","steam_id":76561198858926895,"connected_time":1683000000000,"state":"active","ping":31},{"user_id":635,"name":"LalitoTV","steam_id":76561198334302951,"connected_time":73000000000,"state":"active","ping":118},{"user_id":636,"name":"Master_kotu","steam_id":76561199437959320,"connected_time":41000000000,"state":"active","ping":71},{"user_id":630,"name":"Bloom","steam_id":76561199065581662,"connected_time":535000000000,"state":"active","ping":113},{"user_id":614,"name":"Training Arc","steam_id":76561198038832034,"connected_time":1602000000000,"state":"active","ping":60}]},{"server_id":406,"name":"Uncletopia | Seattle | 3 | Stopwatch Beta","name_short":"sea-3","host":"sea-1.us.uncletopia.com","port":27035,"enabled":true,"region":"us-west","cc":"us","latitude":47.608013,"longitude":-122.33517,"reserved":0,"last_update":"0001-01-01T00:00:00Z","name_a2s":"Uncletopia | Seattle | 3 | Stopwatch Beta","protocol":17,"map":"pl_swiftwater_final1","folder":"tf","game":"Team Fortress","app_id":440,"player_count":0,"max_players":24,"Bots":0,"server_type":"Dedicated","server_os":"Linux","password":true,"vac":true,"version":"7882260","steam_id":85568392924515217,"keywords":["nocrits","nodmgspread","payload","uncletopia"],"game_id":440,"stv_port":27036,"stv_name":"Uncletopia | Seattle | 3 | Stopwatch Beta | STV","players":null},{"server_id":17,"name":"Uncletopia | San Francisco | 1 | All Maps","name_short":"sfo-1","host":"sfo-1.us.uncletopia.com","port":27015,"enabled":true,"region":"us-west","cc":"us","latitude":37.77397,"longitude":-122.4313,"reserved":0,"last_update":"0001-01-01T00:00:00Z","name_a2s":"Uncletopia | San Francisco | 1 | All Maps","protocol":17,"map":"pl_borneo","folder":"tf","game":"Team Fortress","app_id":440,"player_count":24,"max_players":24,"Bots":0,"server_type":"Dedicated","server_os":"Linux","password":true,"vac":true,"version":"7882260","steam_id":85568392924469999,"keywords":["nocrits","nodmgspread","payload","uncletopia"],"game_id":440,"stv_port":27016,"stv_name":"Uncletopia | San Francisco | 1 | All Maps | STV","players":[{"user_id":13,"name":"LeNoobe","steam_id":76561199092079229,"connected_time":2598000000000,"state":"active","ping":64},{"user_id":14,"name":"rusty165cat","steam_id":76561199142525541,"connected_time":2594000000000,"state":"active","ping":45},{"user_id":50,"name":"a homeless cat","steam_id":76561198058388903,"connected_time":599000000000,"state":"active","ping":63},{"user_id":53,"name":"CollDragon","steam_id":76561198067534450,"connected_time":520000000000,"state":"active","ping":108},{"user_id":64,"name":"i cry .","steam_id":76561199193020423,"connected_time":75000000000,"state":"active","ping":57},{"user_id":46,"name":"lo","steam_id":76561199011185438,"connected_time":861000000000,"state":"active","ping":99},{"user_id":28,"name":"I'm a easy kill","steam_id":76561199092023746,"connected_time":1409000000000,"state":"active","ping":75},{"user_id":51,"name":"Yoinkinator","steam_id":76561198011366624,"connected_time":587000000000,"state":"active","ping":46},{"user_id":49,"name":"Shiny new meat bicycle","steam_id":76561198208996573,"connected_time":644000000000,"state":"active","ping":67},{"user_id":63,"name":"Caterpillar Friend","steam_id":76561198044298346,"connected_time":100000000000,"state":"active","ping":77},{"user_id":60,"name":"Tougher-Z-Man","steam_id":76561198145676228,"connected_time":260000000000,"state":"active","ping":99},{"user_id":56,"name":"A Bloody Meat Bicycle","steam_id":76561198358757709,"connected_time":497000000000,"state":"active","ping":127},{"user_id":61,"name":"Player Zero","steam_id":76561198208312849,"connected_time":214000000000,"state":"active","ping":62},{"user_id":62,"name":"croissantcrusader","steam_id":76561198813533235,"connected_time":190000000000,"state":"active","ping":96},{"user_id":34,"name":"MerkyWaters","steam_id":76561197998853063,"connected_time":1227000000000,"state":"active","ping":79},{"user_id":35,"name":"Dunkaccino","steam_id":76561198050228531,"connected_time":1220000000000,"state":"active","ping":64},{"user_id":45,"name":"sammy","steam_id":76561199001307670,"connected_time":870000000000,"state":"active","ping":74},{"user_id":37,"name":"ROOT #Eggs4Bort","steam_id":76561197995085829,"connected_time":1181000000000,"state":"active","ping":118},{"user_id":65,"name":"FI LO","steam_id":76561198976530881,"connected_time":61000000000,"state":"active","ping":45},{"user_id":57,"name":"yaoipilled","steam_id":76561198055486814,"connected_time":496000000000,"state":"active","ping":72},{"user_id":40,"name":"SeriousPuTTY","steam_id":76561198027435782,"connected_time":1149000000000,"state":"active","ping":58},{"user_id":41,"name":"Practicold","steam_id":76561198179447541,"connected_time":1071000000000,"state":"active","ping":48},{"user_id":43,"name":"Chilihuahua","steam_id":76561198004929152,"connected_time":1030000000000,"state":"active","ping":69},{"user_id":48,"name":"Sharkbyte","steam_id":76561198279701377,"connected_time":802000000000,"state":"active","ping":81}]},{"server_id":18,"name":"Uncletopia | San Francisco | 2 | All Maps","name_short":"sfo-2","host":"sfo-1.us.uncletopia.com","port":27025,"enabled":true,"region":"us-west","cc":"us","latitude":37.77397,"longitude":-122.4313,"reserved":0,"last_update":"0001-01-01T00:00:00Z","name_a2s":"Uncletopia | San Francisco | 2 | All Maps","protocol":17,"map":"pl_badwater","folder":"tf","game":"Team Fortress","app_id":440,"player_count":24,"max_players":24,"Bots":0,"server_type":"Dedicated","server_os":"Linux","password":true,"vac":true,"version":"7882260","steam_id":85568392924470000,"keywords":["nocrits","nodmgspread","payload","uncletopia"],"game_id":440,"stv_port":27026,"stv_name":"Uncletopia | San Francisco | 2 | All Maps | STV","players":[{"user_id":64,"name":"Squiliam","steam_id":76561198025278006,"connected_time":1244000000000,"state":"active","ping":82},{"user_id":61,"name":"ForAPessimistImPrettyOptimistic","steam_id":76561198170128009,"connected_time":1742000000000,"state":"active","ping":56},{"user_id":43,"name":"Official Ton a'Pup","steam_id":76561198023110308,"connected_time":2397000000000,"state":"active","ping":104},{"user_id":22,"name":"OminousNoises","steam_id":76561198263320321,"connected_time":2888000000000,"state":"active","ping":100},{"user_id":48,"name":"dahperson","steam_id":76561198067207467,"connected_time":2366000000000,"state":"active","ping":106},{"user_id":15,"name":"dairy delinquent","steam_id":76561198971552734,"connected_time":3969000000000,"state":"active","ping":74},{"user_id":69,"name":"Demoman","steam_id":76561198101850500,"connected_time":91000000000,"state":"active","ping":60},{"user_id":39,"name":"the giggle monkey","steam_id":76561199085304592,"connected_time":2451000000000,"state":"active","ping":71},{"user_id":25,"name":"Windfall","steam_id":76561198046500859,"connected_time":2742000000000,"state":"active","ping":59},{"user_id":26,"name":"NagitoTheLucky","steam_id":76561198065096327,"connected_time":2740000000000,"state":"active","ping":69},{"user_id":27,"name":"squid","steam_id":76561198070236972,"connected_time":2734000000000,"state":"active","ping":72},{"user_id":60,"name":"Salad","steam_id":76561198055361752,"connected_time":1887000000000,"state":"active","ping":104},{"user_id":29,"name":"SAP","steam_id":76561198005186905,"connected_time":2641000000000,"state":"active","ping":83},{"user_id":52,"name":"perc 10","steam_id":76561198116471653,"connected_time":2276000000000,"state":"active","ping":50},{"user_id":70,"name":"s4lmon","steam_id":76561198055882807,"connected_time":57000000000,"state":"active","ping":65},{"user_id":58,"name":"WillieMakit","steam_id":76561197985391684,"connected_time":1904000000000,"state":"active","ping":77},{"user_id":41,"name":"M.T. [IT/ITS]","steam_id":76561198001371063,"connected_time":2426000000000,"state":"active","ping":81},{"user_id":36,"name":"Tuba","steam_id":76561198209166329,"connected_time":2535000000000,"state":"active","ping":65},{"user_id":65,"name":"Woman Prime","steam_id":76561198152596102,"connected_time":352000000000,"state":"active","ping":54},{"user_id":42,"name":"hacivad","steam_id":76561198205981316,"connected_time":2425000000000,"state":"active","ping":114},{"user_id":44,"name":"Sir Axel VI","steam_id":76561198066016272,"connected_time":2393000000000,"state":"active","ping":116},{"user_id":45,"name":"Regoradin","steam_id":76561198059440961,"connected_time":2385000000000,"state":"active","ping":69},{"user_id":47,"name":"CreativeName","steam_id":76561198853344895,"connected_time":2370000000000,"state":"active","ping":59},{"user_id":49,"name":"Zerda","steam_id":76561198014300429,"connected_time":2361000000000,"state":"active","ping":137}]},{"server_id":19,"name":"Uncletopia | San Francisco | 3 | Stopwatch Beta","name_short":"sfo-3","host":"sfo-1.us.uncletopia.com","port":27035,"enabled":true,"region":"us-west","cc":"us","latitude":37.77397,"longitude":-122.4313,"reserved":0,"last_update":"0001-01-01T00:00:00Z","name_a2s":"Uncletopia | San Francisco | 3 | Stopwatch Beta","protocol":17,"map":"pl_frontier_final","folder":"tf","game":"Team Fortress","app_id":440,"player_count":0,"max_players":24,"Bots":0,"server_type":"Dedicated","server_os":"Linux","password":true,"vac":true,"version":"7882260","steam_id":85568392924742824,"keywords":["nocrits","nodmgspread","payload","uncletopia"],"game_id":440,"stv_port":27036,"stv_name":"Uncletopia | San Francisco | 3 | Stopwatch Beta | STV","players":null},{"server_id":20,"name":"Uncletopia | San Francisco | 4 | Community","name_short":"sfo-4","host":"sfo-1.us.uncletopia.com","port":27045,"enabled":true,"region":"us-west","cc":"us","latitude":37.77397,"longitude":-122.4313,"reserved":0,"last_update":"0001-01-01T00:00:00Z","name_a2s":"Uncletopia | San Francisco | 4 | Community","protocol":17,"map":"workshop/koth_ramjam_rc1.ugc459778887","folder":"tf","game":"Team Fortress","app_id":440,"player_count":24,"max_players":24,"Bots":0,"server_type":"Dedicated","server_os":"Linux","password":true,"vac":true,"version":"7882260","steam_id":85568392924742826,"keywords":["cp","nocrits","nodmgspread","uncletopia"],"game_id":440,"stv_port":27046,"stv_name":"Uncletopia | San Francisco | 4 | Community | STV","players":[{"user_id":213,"name":"NÃ¼Ã¾","steam_id":76561198043956703,"connected_time":1538000000000,"state":"active","ping":60},{"user_id":171,"name":"A UsedNom","steam_id":76561198402832756,"connected_time":3723000000000,"state":"active","ping":47},{"user_id":194,"name":"McLovin","steam_id":76561198114934503,"connected_time":2838000000000,"state":"active","ping":72},{"user_id":172,"name":"Benis Gonzalez","steam_id":76561198799391259,"connected_time":3524000000000,"state":"active","ping":74},{"user_id":241,"name":"Chad Mcfly","steam_id":76561198207785195,"connected_time":50000000000,"state":"active","ping":63},{"user_id":229,"name":"devils nightmare","steam_id":76561198068136765,"connected_time":483000000000,"state":"active","ping":58},{"user_id":195,"name":"Ricardo Chavez","steam_id":76561198129389124,"connected_time":2835000000000,"state":"active","ping":96},{"user_id":199,"name":"adrymarker","steam_id":76561198316948699,"connected_time":2513000000000,"state":"active","ping":111},{"user_id":230,"name":"Griffin Potato","steam_id":76561198957533080,"connected_time":459000000000,"state":"active","ping":90},{"user_id":176,"name":"Sgt. Satire","steam_id":76561198104193483,"connected_time":3438000000000,"state":"active","ping":70},{"user_id":226,"name":"selarom | trade.tf |","steam_id":76561199069219350,"connected_time":622000000000,"state":"active","ping":99},{"user_id":219,"name":"Goblin Mode","steam_id":76561198064870076,"connected_time":1177000000000,"state":"active","ping":115},{"user_id":239,"name":"THEQUIRKA (ALL CAPS ARC)","steam_id":76561198968058652,"connected_time":90000000000,"state":"active","ping":68},{"user_id":243,"name":"El Intruso","steam_id":76561198045873987,"connected_time":37000000000,"state":"spawning","ping":169},{"user_id":196,"name":"schrÃ¶dinger","steam_id":76561198123475433,"connected_time":2798000000000,"state":"active","ping":82},{"user_id":234,"name":"Longravity","steam_id":76561198877575943,"connected_time":420000000000,"state":"active","ping":79},{"user_id":216,"name":"Tax Evasion Wario","steam_id":76561198049563704,"connected_time":1421000000000,"state":"active","ping":100},{"user_id":206,"name":"The 64th Gamer","steam_id":76561198191188271,"connected_time":1968000000000,"state":"active","ping":107},{"user_id":227,"name":"Cynicalrage #TF2center","steam_id":76561198085805532,"connected_time":614000000000,"state":"active","ping":91},{"user_id":209,"name":"Sudo","steam_id":76561198123714026,"connected_time":1826000000000,"state":"active","ping":63},{"user_id":235,"name":"Nova Academy of Salmon Action","steam_id":76561198021842526,"connected_time":392000000000,"state":"active","ping":58},{"user_id":240,"name":"spy sex â˜¾ï¸Žâ™šï¸Žâ˜½","steam_id":76561199138738952,"connected_time":71000000000,"state":"active","ping":105},{"user_id":236,"name":"Robby","steam_id":76561199152605617,"connected_time":377000000000,"state":"active","ping":118},{"user_id":242,"name":"troqla","steam_id":76561198840630396,"connected_time":49000000000,"state":"active","ping":64}]},{"server_id":141,"name":"Uncletopia | Sydney | 1 | All Maps","name_short":"syd-1","host":"syd-1.au.uncletopia.com","port":27015,"enabled":true,"region":"au","cc":"au","latitude":-33.865143,"longitude":151.2099,"reserved":0,"last_update":"0001-01-01T00:00:00Z","name_a2s":"Uncletopia | Sydney | 1 | All Maps","protocol":17,"map":"koth_cascade","folder":"tf","game":"Team Fortress","app_id":440,"player_count":0,"max_players":24,"Bots":0,"server_type":"Dedicated","server_os":"Linux","password":true,"vac":true,"version":"7882260","steam_id":85568392924470001,"keywords":["cp","nocrits","nodmgspread","uncletopia"],"game_id":440,"stv_port":27016,"stv_name":"Uncletopia | Sydney | 1 | All Maps | STV","players":null},{"server_id":123,"name":"Uncletopia | Sydney | 2 | All Maps","name_short":"syd-2","host":"syd-1.au.uncletopia.com","port":27025,"enabled":true,"region":"au","cc":"au","latitude":-33.865143,"longitude":151.2099,"reserved":0,"last_update":"0001-01-01T00:00:00Z","name_a2s":"Uncletopia | Sydney | 2 | All Maps","protocol":17,"map":"koth_viaduct","folder":"tf","game":"Team Fortress","app_id":440,"player_count":0,"max_players":24,"Bots":0,"server_type":"Dedicated","server_os":"Linux","password":true,"vac":true,"version":"7882260","steam_id":85568392924470002,"keywords":["cp","nocrits","nodmgspread","uncletopia"],"game_id":440,"stv_port":27026,"stv_name":"Uncletopia | Sydney | 2 | All Maps | STV","players":null},{"server_id":395,"name":"Uncletopia | Sydney | 3 | All Maps","name_short":"syd-3","host":"syd-1.au.uncletopia.com","port":27035,"enabled":true,"region":"au","cc":"au","latitude":-33.865143,"longitude":151.2099,"reserved":0,"last_update":"0001-01-01T00:00:00Z","name_a2s":"Uncletopia | Sydney | 3 | All Maps","protocol":17,"map":"cp_altitude","folder":"tf","game":"Team Fortress","app_id":440,"player_count":0,"max_players":24,"Bots":0,"server_type":"Dedicated","server_os":"Linux","password":true,"vac":true,"version":"7882260","steam_id":85568392925194467,"keywords":["cp","nocrits","nodmgspread","uncletopia"],"game_id":440,"stv_port":27036,"stv_name":"Uncletopia | Sydney | 3 | All Maps | STV","players":null},{"server_id":396,"name":"Uncletopia | Sydney | 4 | All Maps","name_short":"syd-4","host":"syd-1.au.uncletopia.com","port":27045,"enabled":true,"region":"au","cc":"au","latitude":-33.865143,"longitude":151.2099,"reserved":0,"last_update":"0001-01-01T00:00:00Z","name_a2s":"Uncletopia | Sydney | 4 | All Maps","protocol":17,"map":"cp_dustbowl","folder":"tf","game":"Team Fortress","app_id":440,"player_count":22,"max_players":24,"Bots":0,"server_type":"Dedicated","server_os":"Linux","password":true,"vac":true,"version":"7882260","steam_id":85568392925397958,"keywords":["cp","nocrits","nodmgspread","uncletopia"],"game_id":440,"stv_port":27046,"stv_name":"Uncletopia | Sydney | 4 | All Maps | STV","players":[{"user_id":133,"name":"TuaMater","steam_id":76561198021019008,"connected_time":1827000000000,"state":"active","ping":66},{"user_id":132,"name":"Fumpig","steam_id":76561197995176045,"connected_time":1951000000000,"state":"active","ping":54},{"user_id":145,"name":"Shadow Puppeteer","steam_id":76561198151121997,"connected_time":1353000000000,"state":"active","ping":77},{"user_id":146,"name":"BoxingRoo","steam_id":76561198089647685,"connected_time":1303000000000,"state":"active","ping":66},{"user_id":113,"name":"Sover blw.tf","steam_id":76561198136347837,"connected_time":2737000000000,"state":"active","ping":134},{"user_id":33,"name":"nulwoyde","steam_id":76561198260357417,"connected_time":7544000000000,"state":"active","ping":47},{"user_id":92,"name":"thrax","steam_id":76561197992385270,"connected_time":3980000000000,"state":"active","ping":51},{"user_id":118,"name":"ivoangelozocca","steam_id":76561199419790359,"connected_time":2416000000000,"state":"active","ping":162},{"user_id":122,"name":"Bigrichard","steam_id":76561198032092945,"connected_time":2239000000000,"state":"active","ping":79},{"user_id":115,"name":"Psalm 118:10-17","steam_id":76561198305904806,"connected_time":2606000000000,"state":"active","ping":56},{"user_id":106,"name":"_MAFKEES","steam_id":76561198233733104,"connected_time":3673000000000,"state":"active","ping":65},{"user_id":137,"name":"Lunarmoon","steam_id":76561199092046551,"connected_time":1536000000000,"state":"active","ping":168},{"user_id":166,"name":"trash","steam_id":76561198110764631,"connected_time":12000000000,"state":"spawning","ping":63},{"user_id":148,"name":"RAINY","steam_id":76561198009848533,"connected_time":1105000000000,"state":"active","ping":110},{"user_id":142,"name":"Your Bosniak Uncle","steam_id":76561199257116847,"connected_time":1457000000000,"state":"active","ping":56},{"user_id":150,"name":"Herr Doktor","steam_id":76561198080981482,"connected_time":989000000000,"state":"active","ping":31},{"user_id":152,"name":"Flex of Funk","steam_id":76561198035899262,"connected_time":915000000000,"state":"active","ping":46},{"user_id":154,"name":"The Heavynatorâ„¢","steam_id":76561198030045769,"connected_time":768000000000,"state":"active","ping":70},{"user_id":155,"name":"the weed alien","steam_id":76561199205171109,"connected_time":754000000000,"state":"active","ping":66},{"user_id":164,"name":"JodelkÃ¶nig Franzl Lang","steam_id":76561198007667830,"connected_time":54000000000,"state":"active","ping":44},{"user_id":165,"name":"armCHAMP Billie Eilish feet mmm","steam_id":76561198044752424,"connected_time":38000000000,"state":"active","ping":51}]},{"server_id":58,"name":"Uncletopia | Sydney | 5 | Stopwatch Beta","name_short":"syd-5","host":"syd-1.au.uncletopia.com","port":27055,"enabled":true,"region":"au","cc":"au","latitude":-33.865143,"longitude":151.2099,"reserved":0,"last_update":"0001-01-01T00:00:00Z","name_a2s":"Uncletopia | Sydney | 5 | Stopwatch Beta","protocol":17,"map":"koth_highpass","folder":"tf","game":"Team Fortress","app_id":440,"player_count":0,"max_players":24,"Bots":0,"server_type":"Dedicated","server_os":"Linux","password":true,"vac":true,"version":"7882260","steam_id":85568392925397959,"keywords":["cp","nocrits","nodmgspread","uncletopia"],"game_id":440,"stv_port":27056,"stv_name":"Uncletopia | Sydney | 5 | Stopwatch Beta | STV","players":null},{"server_id":59,"name":"Uncletopia | Sydney | 6 | Community","name_short":"syd-6","host":"syd-1.au.uncletopia.com","port":27065,"enabled":true,"region":"au","cc":"au","latitude":-33.865143,"longitude":151.2099,"reserved":0,"last_update":"0001-01-01T00:00:00Z","name_a2s":"Uncletopia | Sydney | 6 | Community","protocol":17,"map":"workshop/koth_product_final.ugc454272353","folder":"tf","game":"Team Fortress","app_id":440,"player_count":0,"max_players":24,"Bots":0,"server_type":"Dedicated","server_os":"Linux","password":true,"vac":true,"version":"7882260","steam_id":85568392925397960,"keywords":["cp","nocrits","nodmgspread","uncletopia"],"game_id":440,"stv_port":27066,"stv_name":"Uncletopia | Sydney | 6 | Community | STV","players":null},{"server_id":49,"name":"Uncletopia | Warsaw | 1 | All Maps","name_short":"waw-1","host":"waw-1.pl.uncletopia.com","port":27015,"enabled":true,"region":"eu","cc":"pl","latitude":52.2297,"longitude":21.017532,"reserved":0,"last_update":"0001-01-01T00:00:00Z","name_a2s":"","protocol":0,"map":"","folder":"","game":"","app_id":0,"player_count":0,"max_players":0,"Bots":0,"server_type":"","server_os":"","password":false,"vac":false,"version":"","steam_id":0,"keywords":null,"game_id":0,"stv_port":0,"stv_name":"","players":null},{"server_id":50,"name":"Uncletopia | Warsaw | 2 | All Maps","name_short":"waw-2","host":"waw-1.pl.uncletopia.com","port":27025,"enabled":true,"region":"eu","cc":"pl","latitude":52.2297,"longitude":21.017532,"reserved":0,"last_update":"0001-01-01T00:00:00Z","name_a2s":"Uncletopia | Warsaw | 2 | All Maps","protocol":17,"map":"pl_snowycoast","folder":"tf","game":"Team Fortress","app_id":440,"player_count":0,"max_players":24,"Bots":0,"server_type":"Dedicated","server_os":"Linux","password":true,"vac":true,"version":"7882260","steam_id":85568392925397851,"keywords":["nocrits","nodmgspread","payload","uncletopia"],"game_id":440,"stv_port":27026,"stv_name":"Uncletopia | Warsaw | 2 | All Maps | STV","players":null},{"server_id":51,"name":"Uncletopia | Warsaw | 3 | All Maps","name_short":"waw-3","host":"waw-1.pl.uncletopia.com","port":27035,"enabled":true,"region":"eu","cc":"pl","latitude":52.2297,"longitude":21.017532,"reserved":0,"last_update":"0001-01-01T00:00:00Z","name_a2s":"Uncletopia | Warsaw | 3 | All Maps","protocol":17,"map":"pl_borneo","folder":"tf","game":"Team Fortress","app_id":440,"player_count":0,"max_players":24,"Bots":0,"server_type":"Dedicated","server_os":"Linux","password":true,"vac":true,"version":"7882260","steam_id":85568392925397852,"keywords":["nocrits","nodmgspread","payload","uncletopia"],"game_id":440,"stv_port":27036,"stv_name":"Uncletopia | Warsaw | 3 | All Maps | STV","players":null},{"server_id":52,"name":"Uncletopia | Warsaw | 4 | All Maps","name_short":"waw-4","host":"waw-1.pl.uncletopia.com","port":27045,"enabled":true,"region":"eu","cc":"pl","latitude":52.2297,"longitude":21.017532,"reserved":0,"last_update":"0001-01-01T00:00:00Z","name_a2s":"Uncletopia | Warsaw | 4 | All Maps","protocol":17,"map":"cp_sunshine","folder":"tf","game":"Team Fortress","app_id":440,"player_count":0,"max_players":24,"Bots":0,"server_type":"Dedicated","server_os":"Linux","password":true,"vac":true,"version":"7882260","steam_id":85568392925397853,"keywords":["cp","nocrits","nodmgspread","uncletopia"],"game_id":440,"stv_port":27046,"stv_name":"Uncletopia | Warsaw | 4 | All Maps | STV","players":null},{"server_id":53,"name":"Uncletopia | Warsaw | 5 | Stopwatch Beta","name_short":"waw-5","host":"waw-1.pl.uncletopia.com","port":27055,"enabled":true,"region":"eu","cc":"pl","latitude":52.2297,"longitude":21.017532,"reserved":0,"last_update":"0001-01-01T00:00:00Z","name_a2s":"Uncletopia | Warsaw | 5 | Stopwatch Beta","protocol":17,"map":"cp_mountainlab","folder":"tf","game":"Team Fortress","app_id":440,"player_count":0,"max_players":24,"Bots":0,"server_type":"Dedicated","server_os":"Linux","password":true,"vac":true,"version":"7882260","steam_id":85568392925397854,"keywords":["cp","nocrits","nodmgspread","uncletopia"],"game_id":440,"stv_port":27056,"stv_name":"Uncletopia | Warsaw | 5 | Stopwatch Beta | STV","players":null},{"server_id":54,"name":"Uncletopia | Warsaw | 6 | Community","name_short":"waw-6","host":"waw-1.pl.uncletopia.com","port":27065,"enabled":true,"region":"eu","cc":"pl","latitude":52.2297,"longitude":21.017532,"reserved":0,"last_update":"0001-01-01T00:00:00Z","name_a2s":"Uncletopia | Warsaw | 6 | Community","protocol":17,"map":"workshop/cp_overgrown_rc7b.ugc503939302","folder":"tf","game":"Team Fortress","app_id":440,"player_count":0,"max_players":24,"Bots":0,"server_type":"Dedicated","server_os":"Linux","password":true,"vac":true,"version":"7882260","steam_id":85568392925397856,"keywords":["cp","nocrits","nodmgspread","uncletopia"],"game_id":440,"stv_port":27066,"stv_name":"Uncletopia | Warsaw | 6 | Community | STV","players":null}]}