{"status":true,"message":"","result":[{"server_id":9,"name":"Uncletopia | Atlanta | 1 | All Maps","name_short":"atl-1","host":"atl-1.us.uncletopia.com","port":27015,"enabled":true,"region":"us-east","cc":"us","latitude":33.753746,"longitude":-84.38633,"reserved":0,"last_update":"0001-01-01T00:00:00Z","name_a2s":"Uncletopia | Atlanta | 1 | All Maps","protocol":17,"map":"pl_upward","folder":"tf","game":"Team Fortress","app_id":440,"player_count":24,"max_players":24,"Bots":0,"server_type":"Dedicated","server_os":"Linux","password":true,"vac":true,"version":"7961495","steam_id":85568392924469982,"keywords":["nocrits","nodmgspread","payload","uncletopia"],"game_id":440,"stv_port":27016,"stv_name":"Uncletopia | Atlanta | 1 | All Maps | STV","players":[{"user_id":699,"name":"profile name","steam_id":76561198044192979,"connected_time":1311000000000,"state":"active","ping":90},{"user_id":700,"name":"cajun thotsauce","steam_id":76561198101636066,"connected_time":1237000000000,"state":"active","ping":82},{"user_id":681,"name":"DuckMann","steam_id":76561198197058638,"connected_time":2686000000000,"state":"active","ping":45},{"user_id":715,"name":"Cat Liker ™ Trans thing :3c","steam_id":76561198964321336,"connected_time":617000000000,"state":"active","ping":51},{"user_id":687,"name":"0","steam_id":76561198046065237,"connected_time":2255000000000,"state":"active","ping":74},{"user_id":702,"name":"Lumi The ✧Lesbian✧","steam_id":76561198089978036,"connected_time":1053000000000,"state":"active","ping":55},{"user_id":714,"name":"twitch.tv/Yoshi21 | TF2Pugs.com","steam_id":76561198002516729,"connected_time":666000000000,"state":"active","ping":56},{"user_id":677,"name":"sat","steam_id":76561198084311006,"connected_time":3239000000000,"state":"active","ping":68},{"user_id":703,"name":"LeTonzy","steam_id":76561198005806699,"connected_time":1024000000000,"state":"active","ping":114},{"user_id":704,"name":"the cock","steam_id":76561198065153674,"connected_time":949000000000,"state":"active","ping":118},{"user_id":717,"name":"wabba doo","steam_id":76561198867130576,"connected_time":261000000000,"state":"active","ping":98},{"user_id":705,"name":"poon","steam_id":76561198049740395,"connected_time":907000000000,"state":"active","ping":82},{"user_id":713,"name":"TheBrocklobster","steam_id":76561198039682984,"connected_time":682000000000,"state":"active","ping":100},{"user_id":695,"name":"Xanber","steam_id":76561198310491763,"connected_time":1705000000000,"state":"active","ping":73},{"user_id":706,"name":"mynamajeff","steam_id":76561198202151516,"connected_time":896000000000,"state":"active","ping":43},{"user_id":707,"name":"Baka Laura","steam_id":76561198985086709,"connected_time":885000000000,"state":"active","ping":110},{"user_id":718,"name":"1000 Ping","steam_id":76561198098330939,"connected_time":257000000000,"state":"active","ping":191},{"user_id":719,"name":"Tue","steam_id":76561198181668501,"connected_time":192000000000,"state":"active","ping":53},{"user_id":708,"name":"Game Broke No Fix","steam_id":76561198028271650,"connected_time":864000000000,"state":"active","ping":96},{"user_id":709,"name":"Moon the Boom","steam_id":76561198100625361,"connected_time":831000000000,"state":"active","ping":63},{"user_id":720,"name":"ᵐᵉᵒʷ","steam_id":76561199200969139,"connected_time":52000000000,"state":"active","ping":122},{"user_id":711,"name":"Lieutenant Letdown","steam_id":76561198036848238,"connected_time":797000000000,"state":"active","ping":108},{"user_id":712,"name":"R0B0T115","steam_id":76561198058907429,"connected_time":794000000000,"state":"active","ping":68},{"user_id":627,"name":"ATF - Dog Squad","steam_id":76561198154395780,"connected_time":8301000000000,"state":"active","ping":68}]},{"server_id":104,"name":"Uncletopia | Atlanta | 2 | All Maps","name_short":"atl-2","host":"atl-1.us.uncletopia.com","port":27025,"enabled":true,"region":"us-east","cc":"us","latitude":33.753746,"longitude":-84.38633,"reserved":0,"last_update":"0001-01-01T00:00:00Z","name_a2s":"Uncletopia | Atlanta | 2 | All Maps","protocol":17,"map":"cp_process_final","folder":"tf","game":"Team Fortress","app_id":440,"player_count":0,"max_players":24,"Bots":0,"server_type":"Dedicated","server_os":"Linux","password":true,"vac":true,"version":"7961495","steam_id":85568392924469983,"keywords":["cp","nocrits","nodmgspread","uncletopia"],"game_id":440,"stv_port":27026,"stv_name":"Uncletopia | Atlanta | 2 | All Maps | STV","players":null},{"server_id":400,"name":"Uncletopia | Atlanta | 3 | Stopwatch","name_short":"atl-3","host":"atl-1.us.uncletopia.com","port":27035,"enabled":true,"region":"us-east","cc":"us","latitude":33.753746,"longitude":-84.38633,"reserved":0,"last_update":"0001-01-01T00:00:00Z","name_a2s":"Uncletopia | Atlanta | 3 | Stopwatch","protocol":17,"map":"workshop/koth_bagel_rc6.ugc2514036946","folder":"tf","game":"Team Fortress","app_id":440,"player_count":0,"max_players":24,"Bots":0,"server_type":"Dedicated","server_os":"Linux","password":true,"vac":true,"version":"7961495","steam_id":85568392924515187,"keywords":["cp","nocrits","nodmgspread","uncletopia"],"game_id":440,"stv_port":27036,"stv_name":"Uncletopia | Atlanta | 3 | Stopwatch | STV","players":null},{"server_id":401,"name":"Uncletopia | Atlanta | 4 | Community","name_short":"atl-4","host":"atl-1.us.uncletopia.com","port":27045,"enabled":true,"region":"us-east","cc":"us","latitude":33.753746,"longitude":-84.38633,"reserved":0,"last_update":"0001-01-01T00:00:00Z","name_a2s":"Uncletopia | Atlanta | 4 | Community","protocol":17,"map":"workshop/koth_bagel_rc6.ugc2514036946","folder":"tf","game":"Team Fortress","app_id":440,"player_count":0,"max_players":24,"Bots":0,"server_type":"Dedicated","server_os":"Linux","password":true,"vac":true,"version":"7961495","steam_id":85568392924515188,"keywords":["cp","nocrits","nodmgspread","uncletopia"],"game_id":440,"stv_port":27046,"stv_name":"Uncletopia | Atlanta | 4 | Community | STV","players":null},{"server_id":2,"name":"Uncletopia | Chicago | 1 | All Maps","name_short":"chi-1","host":"chi-1.us.uncletopia.com","port":27015,"enabled":true,"region":"us-central","cc":"us","latitude":41.881832,"longitude":-87.62318,"reserved":0,"last_update":"0001-01-01T00:00:00Z","name_a2s":"Uncletopia | Chicago | 1 | All Maps","protocol":17,"map":"pl_barnblitz","folder":"tf","game":"Team Fortress","app_id":440,"player_count":18,"max_players":24,"Bots":0,"server_type":"Dedicated","server_os":"Linux","password":true,"vac":true,"version":"7961495","steam_id":85568392924469984,"keywords":["nocrits","nodmgspread","payload","uncletopia"],"game_id":440,"stv_port":27016,"stv_name":"Uncletopia | Chicago | 1 | All Maps | STV","players":[{"user_id":926,"name":"MD","steam_id":76561197976300679,"connected_time":10909000000000,"state":"active","ping":74},{"user_id":1041,"name":"giogg155","steam_id":76561198963892339,"connected_time":11000000000,"state":"spawning","ping":203},{"user_id":1032,"name":"1st place love live fan","steam_id":76561198037951506,"connected_time":1062000000000,"state":"active","ping":59},{"user_id":1035,"name":"Pocky","steam_id":76561199096774182,"connected_time":672000000000,"state":"active","ping":96},{"user_id":1040,"name":"Thingy","steam_id":76561198140161202,"connected_time":222000000000,"state":"active","ping":72},{"user_id":1033,"name":"poo doc","steam_id":76561198116512732,"connected_time":1003000000000,"state":"active","ping":63},{"user_id":935,"name":"Vin Diesel","steam_id":76561197969386201,"connected_time":10503000000000,"state":"active","ping":45},{"user_id":939,"name":"off the bennies x)!!!","steam_id":76561198144766439,"connected_time":9722000000000,"state":"active","ping":43},{"user_id":1001,"name":"RollingCow","steam_id":76561198067114237,"connected_time":4361000000000,"state":"active","ping":75},{"user_id":981,"name":"Saucy Boy","steam_id":76561198178332031,"connected_time":5780000000000,"state":"active","ping":69},{"user_id":992,"name":"Mr. Belcher","steam_id":76561198170679462,"connected_time":4431000000000,"state":"active","ping":51},{"user_id":1034,"name":"frank","steam_id":76561198137777483,"connected_time":799000000000,"state":"active","ping":62},{"user_id":1024,"name":"Grenade_Addict","steam_id":76561199212037850,"connected_time":1647000000000,"state":"active","ping":90},{"user_id":1016,"name":"jim bob","steam_id":76561197992464368,"connected_time":2860000000000,"state":"active","ping":90},{"user_id":1018,"name":"hannah1","steam_id":76561198094801861,"connected_time":2818000000000,"state":"active","ping":60},{"user_id":1009,"name":"The Pootis'd Berd","steam_id":76561198141903490,"connected_time":3341000000000,"state":"active","ping":94},{"user_id":1036,"name":"en","steam_id":76561199129590802,"connected_time":652000000000,"state":"active","ping":105},{"user_id":1027,"name":"Pongallow","steam_id":76561198146876078,"connected_time":1214000000000,"state":"active","ping":44}]},{"server_id":106,"name":"Uncletopia | Chicago | 2 | All Maps","name_short":"chi-2","host":"chi-1.us.uncletopia.com","port":27025,"enabled":true,"region":"us-central","cc":"us","latitude":41.881832,"longitude":-87.62318,"reserved":0,"last_update":"0001-01-01T00:00:00Z","name_a2s":"Uncletopia | Chicago | 2 | All Maps","protocol":17,"map":"pl_borneo","folder":"tf","game":"Team Fortress","app_id":440,"player_count":24,"max_players":24,"Bots":0,"server_type":"Dedicated","server_os":"Linux","password":true,"vac":true,"version":"7961495","steam_id":85568392924469985,"keywords":["nocrits","nodmgspread","payload","uncletopia"],"game_id":440,"stv_port":27026,"stv_name":"Uncletopia | Chicago | 2 | All Maps | STV","players":[{"user_id":1028,"name":"Scarf","steam_id":76561198095706832,"connected_time":3004000000000,"state":"active","ping":61},{"user_id":986,"name":"♡Ame♡","steam_id":76561198071217748,"connected_time":6032000000000,"state":"active","ping":45},{"user_id":1064,"name":"Nestor","steam_id":76561198070782619,"connected_time":36000000000,"state":"active","ping":49},{"user_id":1058,"name":"anakin skywalker in the hood","steam_id":76561198209267577,"connected_time":1141000000000,"state":"active","ping":69},{"user_id":1048,"name":"Temujin","steam_id":76561198030936583,"connected_time":1605000000000,"state":"active","ping":45},{"user_id":1034,"name":"ShadowBolt","steam_id":76561198061610985,"connected_time":2584000000000,"state":"active","ping":86},{"user_id":1051,"name":"Baron von Floof","steam_id":76561198354013696,"connected_time":1342000000000,"state":"active","ping":60},{"user_id":1060,"name":"Talented","steam_id":76561198800259660,"connected_time":856000000000,"state":"active","ping":60},{"user_id":1062,"name":"Aero","steam_id":76561198856462128,"connected_time":388000000000,"state":"active","ping":109},{"user_id":1043,"name":"Big Cat","steam_id":76561198115695203,"connected_time":2194000000000,"state":"active","ping":47},{"user_id":1063,"name":"Julien","steam_id":76561198065393150,"connected_time":324000000000,"state":"active","ping":63},{"user_id":1052,"name":"de_pandora","steam_id":76561198075490385,"connected_time":1317000000000,"state":"active","ping":104},{"user_id":1059,"name":"Alshor","steam_id":76561198048112884,"connected_time":1079000000000,"state":"active","ping":55},{"user_id":1023,"name":"Boot Scootin Boogie","steam_id":76561198059171120,"connected_time":3873000000000,"state":"active","ping":70},{"user_id":1055,"name":"\u003c=Itachi uchiha=\u003e","steam_id":76561199162355715,"connected_time":1261000000000,"state":"active","ping":63},{"user_id":1037,"name":"Sammy","steam_id":76561198870902116,"connected_time":2517000000000,"state":"active","ping":60},{"user_id":1045,"name":"CupFruit","steam_id":76561198983993193,"connected_time":1838000000000,"state":"active","ping":60},{"user_id":1057,"name":"fnord","steam_id":76561199508468914,"connected_time":1222000000000,"state":"active","ping":76},{"user_id":1061,"name":"Bungus","steam_id":76561197984426574,"connected_time":827000000000,"state":"active","ping":75},{"user_id":1039,"name":"Grungus","steam_id":76561198149206391,"connected_time":2435000000000,"state":"active","ping":60},{"user_id":1047,"name":"AzuriousAlex","steam_id":76561198158026405,"connected_time":1622000000000,"state":"active","ping":67},{"user_id":1027,"name":"Admiral Crumbs","steam_id":76561198108791583,"connected_time":3272000000000,"state":"active","ping":70},{"user_id":1049,"name":"★Witfo★","steam_id":76561198058013898,"connected_time":1597000000000,"state":"active","ping":97},{"user_id":1050,"name":"WorldsWorstGamer","steam_id":76561199126634917,"connected_time":1385000000000,"state":"active","ping":45}]},{"server_id":402,"name":"Uncletopia | Chicago | 3 | All Maps","name_short":"chi-3","host":"chi-1.us.uncletopia.com","port":27035,"enabled":true,"region":"us-central","cc":"us","latitude":41.881832,"longitude":-87.62318,"reserved":0,"last_update":"0001-01-01T00:00:00Z","name_a2s":"Uncletopia | Chicago | 3 | All Maps","protocol":17,"map":"cp_snakewater_final1","folder":"tf","game":"Team Fortress","app_id":440,"player_count":0,"max_players":24,"Bots":0,"server_type":"Dedicated","server_os":"Linux","password":true,"vac":true,"version":"7961495","steam_id":85568392924515191,"keywords":["cp","nocrits","nodmgspread","uncletopia"],"game_id":440,"stv_port":27036,"stv_name":"Uncletopia | Chicago | 3 | All Maps | STV","players":null},{"server_id":403,"name":"Uncletopia | Chicago | 4 | All Maps","name_short":"chi-4","host":"chi-1.us.uncletopia.com","port":27045,"enabled":true,"region":"us-central","cc":"us","latitude":41.881832,"longitude":-87.62318,"reserved":0,"last_update":"0001-01-01T00:00:00Z","name_a2s":"Uncletopia | Chicago | 4 | All Maps","protocol":17,"map":"plr_hightower","folder":"tf","game":"Team Fortress","app_id":440,"player_count":0,"max_players":24,"Bots":0,"server_type":"Dedicated","server_os":"Linux","password":true,"vac":true,"version":"7961495","steam_id":85568392924515193,"keywords":["nocrits","nodmgspread","payload","uncletopia"],"game_id":440,"stv_port":27046,"stv_name":"Uncletopia | Chicago | 4 | All Maps | STV","players":null},{"server_id":36,"name":"Uncletopia | Chicago | 5 | All Maps","name_short":"chi-5","host":"chi-2.us.uncletopia.com","port":27015,"enabled":true,"region":"us-central","cc":"us","latitude":41.881832,"longitude":-87.62318,"reserved":0,"last_update":"0001-01-01T00:00:00Z","name_a2s":"Uncletopia | Chicago | 5 | All Maps","protocol":17,"map":"pl_snowycoast","folder":"tf","game":"Team Fortress","app_id":440,"player_count":21,"max_players":24,"Bots":0,"server_type":"Dedicated","server_os":"Linux","password":true,"vac":true,"version":"7961495","steam_id":85568392924866362,"keywords":["nocrits","nodmgspread","payload","uncletopia"],"game_id":440,"stv_port":27016,"stv_name":"Uncletopia | Chicago | 5 | All Maps | STV","players":[{"user_id":479,"name":"...","steam_id":76561198054390505,"connected_time":1062000000000,"state":"active","ping":51},{"user_id":477,"name":"JustGavan","steam_id":76561198042260171,"connected_time":1452000000000,"state":"active","ping":91},{"user_id":473,"name":"ryann","steam_id":76561198042996639,"connected_time":1583000000000,"state":"active","ping":94},{"user_id":474,"name":"Richard","steam_id":76561198044115685,"connected_time":1581000000000,"state":"active","ping":57},{"user_id":487,"name":"Jackx232","steam_id":76561198055126332,"connected_time":602000000000,"state":"active","ping":59},{"user_id":481,"name":"motherfucker 2.0","steam_id":76561198141189209,"connected_time":965000000000,"state":"active","ping":65},{"user_id":452,"name":"Castroy","steam_id":76561198108160099,"connected_time":4054000000000,"state":"active","ping":51},{"user_id":483,"name":"the pizza he-man","steam_id":76561199166474769,"connected_time":880000000000,"state":"active","ping":98},{"user_id":484,"name":"⸸ gaige ⛧","steam_id":76561198090576796,"connected_time":801000000000,"state":"active","ping":55},{"user_id":485,"name":"dabsol","steam_id":76561198272096751,"connected_time":786000000000,"state":"active","ping":60},{"user_id":460,"name":"OiledAssShaker","steam_id":76561198132068284,"connected_time":3283000000000,"state":"active","ping":66},{"user_id":486,"name":"Creature","steam_id":76561198194585781,"connected_time":771000000000,"state":"active","ping":91},{"user_id":488,"name":"yo","steam_id":76561198044856349,"connected_time":565000000000,"state":"active","ping":59},{"user_id":461,"name":"MMC Train","steam_id":76561198087472085,"connected_time":3270000000000,"state":"active","ping":90},{"user_id":462,"name":"grind (✓), social climb (✗)","steam_id":76561198118776341,"connected_time":3252000000000,"state":"active","ping":69},{"user_id":494,"name":"paws :3","steam_id":76561199371694361,"connected_time":107000000000,"state":"active","ping":110},{"user_id":490,"name":"KnightWith_Mug","steam_id":76561198325350546,"connected_time":479000000000,"state":"active","ping":66},{"user_id":469,"name":"Loxic","steam_id":76561198043617388,"connected_time":3061000000000,"state":"active","ping":60},{"user_id":464,"name":"Saddam \"Jak\" Hussein","steam_id":76561198096366496,"connected_time":3105000000000,"state":"active","ping":51},{"user_id":457,"name":"Dog Goggles","steam_id":76561197995233692,"connected_time":3486000000000,"state":"active","ping":75},{"user_id":491,"name":"SpeedrunnerNick#SaveTF2","steam_id":76561199251809758,"connected_time":473000000000,"state":"active","ping":62}]},{"server_id":37,"name":"Uncletopia | Chicago | 6 | All Maps","name_short":"chi-6","host":"chi-2.us.uncletopia.com","port":27025,"enabled":true,"region":"us-central","cc":"us","latitude":41.881832,"longitude":-87.62318,"reserved":0,"last_update":"0001-01-01T00:00:00Z","name_a2s":"Uncletopia | Chicago | 6 | All Maps","protocol":17,"map":"pl_badwater","folder":"tf","game":"Team Fortress","app_id":440,"player_count":0,"max_players":24,"Bots":0,"server_type":"Dedicated","server_os":"Linux","password":true,"vac":true,"version":"7961495","steam_id":85568392924866363,"keywords":["nocrits","nodmgspread","payload","uncletopia"],"game_id":440,"stv_port":27026,"stv_name":"Uncletopia | Chicago | 6 | All Maps | STV","players":null},{"server_id":38,"name":"Uncletopia | Chicago | 7 | Stopwatch","name_short":"chi-7","host":"chi-2.us.uncletopia.com","port":27035,"enabled":true,"region":"us-central","cc":"us","latitude":41.881832,"longitude":-87.62318,"reserved":0,"last_update":"0001-01-01T00:00:00Z","name_a2s":"Uncletopia | Chicago | 7 | Stopwatch","protocol":17,"map":"workshop/pl_barnblitz_pro7.ugc582280235","folder":"tf","game":"Team Fortress","app_id":440,"player_count":0,"max_players":24,"Bots":0,"server_type":"Dedicated","server_os":"Linux","password":true,"vac":true,"version":"7961495","steam_id":85568392924866364,"keywords":["nocrits","nodmgspread","payload","uncletopia"],"game_id":440,"stv_port":27036,"stv_name":"Uncletopia | Chicago | 7 | Stopwatch | STV","players":null},{"server_id":39,"name":"Uncletopia | Chicago | 8 | Community","name_short":"chi-8","host":"chi-2.us.uncletopia.com","port":27045,"enabled":true,"region":"us-central","cc":"us","latitude":41.881832,"longitude":-87.62318,"reserved":0,"last_update":"0001-01-01T00:00:00Z","name_a2s":"Uncletopia | Chicago | 8 | Community","protocol":17,"map":"workshop/koth_slaughter_rc1.ugc1712845210","folder":"tf","game":"Team Fortress","app_id":440,"player_count":0,"max_players":24,"Bots":0,"server_type":"Dedicated","server_os":"Linux","password":true,"vac":true,"version":"7961495","steam_id":85568392924866365,"keywords":["cp","nocrits","nodmgspread","uncletopia"],"game_id":440,"stv_port":27046,"stv_name":"Uncletopia | Chicago | 8 | Community | STV","players":null},{"server_id":8,"name":"Uncletopia | Dallas | 1 | All Maps","name_short":"dal-1","host":"dal-1.us.uncletopia.com","port":27015,"enabled":true,"region":"us-central","cc":"us","latitude":32.779167,"longitude":-96.80889,"reserved":0,"last_update":"0001-01-01T00:00:00Z","name_a2s":"Uncletopia | Dallas | 1 | All Maps","protocol":17,"map":"koth_cascade","folder":"tf","game":"Team Fortress","app_id":440,"player_count":2,"max_players":24,"Bots":0,"server_type":"Dedicated","server_os":"Linux","password":true,"vac":true,"version":"7961495","steam_id":85568392924469986,"keywords":["cp","nocrits","nodmgspread","uncletopia"],"game_id":440,"stv_port":27016,"stv_name":"Uncletopia | Dallas | 1 | All Maps | STV","players":[{"user_id":923,"name":"da.whizz","steam_id":76561199085020605,"connected_time":232000000000,"state":"active","ping":239},{"user_id":924,"name":"xbdgerxferyfne","steam_id":76561199217980387,"connected_time":189000000000,"state":"active","ping":228}]},{"server_id":108,"name":"Uncletopia | Dallas | 2 | All Maps","name_short":"dal-2","host":"dal-1.us.uncletopia.com","port":27025,"enabled":true,"region":"us-central","cc":"us","latitude":32.779167,"longitude":-96.80889,"reserved":0,"last_update":"0001-01-01T00:00:00Z","name_a2s":"Uncletopia | Dallas | 2 | All Maps","protocol":17,"map":"koth_lakeside_final","folder":"tf","game":"Team Fortress","app_id":440,"player_count":0,"max_players":24,"Bots":0,"server_type":"Dedicated","server_os":"Linux","password":true,"vac":true,"version":"7961495","steam_id":85568392924469988,"keywords":["cp","nocrits","nodmgspread","uncletopia"],"game_id":440,"stv_port":27026,"stv_name":"Uncletopia | Dallas | 2 | All Maps | STV","players":null},{"server_id":404,"name":"Uncletopia | Dallas | 3 | All Maps","name_short":"dal-3","host":"dal-1.us.uncletopia.com","port":27035,"enabled":true,"region":"us-central","cc":"us","latitude":32.779167,"longitude":-96.80889,"reserved":0,"last_update":"0001-01-01T00:00:00Z","name_a2s":"Uncletopia | Dallas | 3 | All Maps","protocol":17,"map":"koth_nucleus","folder":"tf","game":"Team Fortress","app_id":440,"player_count":14,"max_players":24,"Bots":0,"server_type":"Dedicated","server_os":"Linux","password":true,"vac":true,"version":"7961495","steam_id":85568392924515219,"keywords":["cp","nocrits","nodmgspread","uncletopia"],"game_id":440,"stv_port":27036,"stv_name":"Uncletopia | Dallas | 3 | All Maps | STV","players":[{"user_id":504,"name":"UltShuip","steam_id":76561198074339262,"connected_time":886000000000,"state":"active","ping":76},{"user_id":505,"name":"randomprimary","steam_id":76561199118304154,"connected_time":528000000000,"state":"active","ping":96},{"user_id":498,"name":"Spaceman","steam_id":76561198098025074,"connected_time":1300000000000,"state":"active","ping":37},{"user_id":506,"name":"Zaxen","steam_id":76561198451018457,"connected_time":459000000000,"state":"active","ping":103},{"user_id":507,"name":"jasus","steam_id":76561198088035919,"connected_time":366000000000,"state":"active","ping":103},{"user_id":472,"name":"hexedronin","steam_id":76561198304746267,"connected_time":3135000000000,"state":"active","ping":44},{"user_id":493,"name":"Levi","steam_id":76561198089832776,"connected_time":1504000000000,"state":"active","ping":51},{"user_id":473,"name":"SloppySulking","steam_id":76561198866538571,"connected_time":3132000000000,"state":"active","ping":45},{"user_id":509,"name":"jellyjiggler45","steam_id":76561198144451401,"connected_time":176000000000,"state":"active","ping":74},{"user_id":511,"name":"transfem atsuko kagari","steam_id":76561198217402847,"connected_time":141000000000,"state":"active","ping":90},{"user_id":503,"name":"Reisen Udongein Inaba","steam_id":76561198051082314,"connected_time":979000000000,"state":"active","ping":87},{"user_id":460,"name":"Junko","steam_id":76561198146089003,"connected_time":4398000000000,"state":"active","ping":72},{"user_id":462,"name":"Squiggle","steam_id":76561198257197535,"connected_time":4066000000000,"state":"active","ping":67},{"user_id":465,"name":"Wander","steam_id":76561198073362336,"connected_time":3513000000000,"state":"active","ping":39}]},{"server_id":405,"name":"Uncletopia | Dallas | 4 | Community","name_short":"dal-4","host":"dal-1.us.uncletopia.com","port":27045,"enabled":true,"region":"us-central","cc":"us","latitude":32.779167,"longitude":-96.80889,"reserved":0,"last_update":"0001-01-01T00:00:00Z","name_a2s":"Uncletopia | Dallas | 4 | Community","protocol":17,"map":"workshop/koth_synthetic_rc6a.ugc1549817316","folder":"tf","game":"Team Fortress","app_id":440,"player_count":0,"max_players":24,"Bots":0,"server_type":"Dedicated","server_os":"Linux","password":true,"vac":true,"version":"7961495","steam_id":85568392924515220,"keywords":["cp","nocrits","nodmgspread","uncletopia"],"game_id":440,"stv_port":27046,"stv_name":"Uncletopia | Dallas | 4 | Community | STV","players":null},{"server_id":5,"name":"Uncletopia | Frankfurt | 1 | All Maps","name_short":"frk-1","host":"frk-1.de.uncletopia.com","port":27015,"enabled":true,"region":"eu","cc":"de","latitude":50.110924,"longitude":8.682127,"reserved":0,"last_update":"0001-01-01T00:00:00Z","name_a2s":"Uncletopia | Frankfurt | 1 | All Maps","protocol":17,"map":"koth_suijin","folder":"tf","game":"Team Fortress","app_id":440,"player_count":24,"max_players":24,"Bots":0,"server_type":"Dedicated","server_os":"Linux","password":true,"vac":true,"version":"7961495","steam_id":85568392924469989,"keywords":["cp","nocrits","nodmgspread","uncletopia"],"game_id":440,"stv_port":27016,"stv_name":"Uncletopia | Frankfurt | 1 | All Maps | STV","players":[{"user_id":145,"name":"Loona my beloved","steam_id":76561198067182918,"connected_time":3177000000000,"state":"active","ping":122},{"user_id":182,"name":"[Thrall891]","steam_id":76561198136402128,"connected_time":947000000000,"state":"active","ping":72},{"user_id":184,"name":"Fugl'o","steam_id":76561198252630844,"connected_time":839000000000,"state":"active","ping":90},{"user_id":146,"name":"Neon","steam_id":76561198069049007,"connected_time":3174000000000,"state":"active","ping":113},{"user_id":189,"name":"Saint","steam_id":76561198003296382,"connected_time":639000000000,"state":"active","ping":59},{"user_id":161,"name":"number 1 weezer enjoyer","steam_id":76561198074464755,"connected_time":2518000000000,"state":"active","ping":67},{"user_id":18,"name":"Enigmus","steam_id":76561197994063627,"connected_time":11983000000000,"state":"active","ping":76},{"user_id":196,"name":"Proud Owner of a Sittable Face","steam_id":76561198060735383,"connected_time":401000000000,"state":"active","ping":85},{"user_id":191,"name":"Several geollos screaming","steam_id":76561198291326102,"connected_time":600000000000,"state":"active","ping":57},{"user_id":180,"name":"Lyon","steam_id":76561197998096172,"connected_time":1024000000000,"state":"active","ping":75},{"user_id":174,"name":"t.tv/Montreetor","steam_id":76561198088729562,"connected_time":1484000000000,"state":"active","ping":44},{"user_id":97,"name":"Walle","steam_id":76561197995148937,"connected_time":5759000000000,"state":"active","ping":63},{"user_id":173,"name":"Шапка #TF2Center","steam_id":76561198368792603,"connected_time":1721000000000,"state":"active","ping":65},{"user_id":192,"name":"yes she's 11 but... she's turni","steam_id":76561199160117086,"connected_time":501000000000,"state":"active","ping":164},{"user_id":107,"name":"George W Bush","steam_id":76561198846784757,"connected_time":5083000000000,"state":"active","ping":56},{"user_id":31,"name":"Zerfesh","steam_id":76561198117534358,"connected_time":10895000000000,"state":"active","ping":83},{"user_id":183,"name":"Homestarmy","steam_id":76561198002599434,"connected_time":917000000000,"state":"active","ping":164},{"user_id":159,"name":"1ggy","steam_id":76561199051285912,"connected_time":2640000000000,"state":"active","ping":76},{"user_id":200,"name":"yeldad","steam_id":76561198447264153,"connected_time":170000000000,"state":"active","ping":95},{"user_id":198,"name":"alice","steam_id":76561198269200388,"connected_time":340000000000,"state":"active","ping":75},{"user_id":194,"name":"dwarf man","steam_id":76561199501952182,"connected_time":474000000000,"state":"active","ping":75},{"user_id":197,"name":"Dardemai","steam_id":76561199231958959,"connected_time":389000000000,"state":"active","ping":76},{"user_id":199,"name":"Lyra","steam_id":76561198043601838,"connected_time":331000000000,"state":"active","ping":60},{"user_id":122,"name":"tim","steam_id":76561198801490317,"connected_time":4494000000000,"state":"active","ping":113}]},{"server_id":110,"name":"Uncletopia | Frankfurt | 2 | All Maps","name_short":"frk-2","host":"frk-1.de.uncletopia.com","port":27025,"enabled":true,"region":"eu","cc":"de","latitude":50.110924,"longitude":8.682127,"reserved":0,"last_update":"0001-01-01T00:00:00Z","name_a2s":"Uncletopia | Frankfurt | 2 | All Maps","protocol":17,"map":"plr_hightower","folder":"tf","game":"Team Fortress","app_id":440,"player_count":0,"max_players":24,"Bots":0,"server_type":"Dedicated","server_os":"Linux","password":true,"vac":true,"version":"7961495","steam_id":85568392924469990,"keywords":["nocrits","nodmgspread","payload","uncletopia"],"game_id":440,"stv_port":27026,"stv_name":"Uncletopia | Frankfurt | 2 | All Maps | STV","players":null},{"server_id":308,"name":"Uncletopia | Frankfurt | 3 | All Maps","name_short":"frk-3","host":"frk-1.de.uncletopia.com","port":27035,"enabled":true,"region":"eu","cc":"de","latitude":50.110924,"longitude":8.682127,"reserved":0,"last_update":"0001-01-01T00:00:00Z","name_a2s":"Uncletopia | Frankfurt | 3 | All Maps","protocol":17,"map":"pl_upward","folder":"tf","game":"Team Fortress","app_id":440,"player_count":0,"max_players":24,"Bots":0,"server_type":"Dedicated","server_os":"Linux","password":true,"vac":true,"version":"7961495","steam_id":85568392924504274,"keywords":["nocrits","nodmgspread","payload","uncletopia"],"game_id":440,"stv_port":27036,"stv_name":"Uncletopia | Frankfurt | 3 | All Maps | STV","players":null},{"server_id":309,"name":"Uncletopia | Frankfurt | 4 | All Maps","name_short":"frk-4","host":"frk-1.de.uncletopia.com","port":27045,"enabled":true,"region":"eu","cc":"de","latitude":50.110924,"longitude":8.682127,"reserved":0,"last_update":"0001-01-01T00:00:00Z","name_a2s":"Uncletopia | Frankfurt | 4 | All Maps","protocol":17,"map":"cp_dustbowl","folder":"tf","game":"Team Fortress","app_id":440,"player_count":1,"max_players":24,"Bots":0,"server_type":"Dedicated","server_os":"Linux","password":true,"vac":true,"version":"7961495","steam_id":85568392924504275,"keywords":["cp","nocrits","nodmgspread","uncletopia"],"game_id":440,"stv_port":27046,"stv_name":"Uncletopia | Frankfurt | 4 | All Maps | STV","players":[{"user_id":4,"name":"Denialman (Muted)","steam_id":76561198309182092,"connected_time":251000000000,"state":"active","ping":57}]},{"server_id":310,"name":"Uncletopia | Frankfurt | 5 | All Maps","name_short":"frk-5","host":"frk-1.de.uncletopia.com","port":27055,"enabled":true,"region":"eu","cc":"de","latitude":50.110924,"longitude":8.682127,"reserved":0,"last_update":"0001-01-01T00:00:00Z","name_a2s":"Uncletopia | Frankfurt | 5 | All Maps","protocol":17,"map":"pl_frontier_final","folder":"tf","game":"Team Fortress","app_id":440,"player_count":0,"max_players":24,"Bots":0,"server_type":"Dedicated","server_os":"Linux","password":true,"vac":true,"version":"7961495","steam_id":85568392924504277,"keywords":["nocrits","nodmgspread","payload","uncletopia"],"game_id":440,"stv_port":27056,"stv_name":"Uncletopia | Frankfurt | 5 | All Maps | STV","players":null},{"server_id":311,"name":"Uncletopia | Frankfurt | 6 | All Maps","name_short":"frk-6","host":"frk-1.de.uncletopia.com","port":27065,"enabled":true,"region":"eu","cc":"de","latitude":50.110924,"longitude":8.682127,"reserved":0,"last_update":"0001-01-01T00:00:00Z","name_a2s":"Uncletopia | Frankfurt | 6 | All Maps","protocol":17,"map":"cp_coldfront","folder":"tf","game":"Team Fortress","app_id":440,"player_count":0,"max_players":24,"Bots":0,"server_type":"Dedicated","server_os":"Linux","password":true,"vac":true,"version":"7961495","steam_id":85568392924504278,"keywords":["cp","nocrits","nodmgspread","uncletopia"],"game_id":440,"stv_port":27066,"stv_name":"Uncletopia | Frankfurt | 6 | All Maps | STV","players":null},{"server_id":23,"name":"Uncletopia | Frankfurt | 7 | Stopwatch","name_short":"frk-7","host":"frk-1.de.uncletopia.com","port":27075,"enabled":true,"region":"eu","cc":"de","latitude":50.110924,"longitude":8.682127,"reserved":0,"last_update":"0001-01-01T00:00:00Z","name_a2s":"Uncletopia | Frankfurt | 7 | Stopwatch","protocol":17,"map":"cp_sunshine","folder":"tf","game":"Team Fortress","app_id":440,"player_count":0,"max_players":24,"Bots":0,"server_type":"Dedicated","server_os":"Linux","password":true,"vac":true,"version":"7961495","steam_id":85568392924742827,"keywords":["cp","nocrits","nodmgspread","uncletopia"],"game_id":440,"stv_port":27076,"stv_name":"Uncletopia | Frankfurt | 7 | Stopwatch | STV","players":null},{"server_id":24,"name":"Uncletopia | Frankfurt | 8 | Community","name_short":"frk-8","host":"frk-1.de.uncletopia.com","port":27085,"enabled":true,"region":"eu","cc":"de","latitude":50.110924,"longitude":8.682127,"reserved":0,"last_update":"0001-01-01T00:00:00Z","name_a2s":"Uncletopia | Frankfurt | 8 | Community","protocol":17,"map":"workshop/pl_boundary_final1.ugc456799153","folder":"tf","game":"Team Fortress","app_id":440,"player_count":0,"max_players":24,"Bots":0,"server_type":"Dedicated","server_os":"Linux","password":true,"vac":true,"version":"7961495","steam_id":85568392924742828,"keywords":["nocrits","nodmgspread","payload","uncletopia"],"game_id":440,"stv_port":27086,"stv_name":"Uncletopia | Frankfurt | 8 | Community | STV","players":null},{"server_id":202,"name":"Uncletopia | Hong Kong | 1 | All Maps","name_short":"hgk-1","host":"hgk-1.hk.uncletopia.com","port":27015,"enabled":true,"region":"asia","cc":"hk","latitude":22.302711,"longitude":114.177216,"reserved":0,"last_update":"0001-01-01T00:00:00Z","name_a2s":"Uncletopia | Hong Kong | 1 | All Maps","protocol":17,"map":"pl_frontier_final","folder":"tf","game":"Team Fortress","app_id":440,"player_count":24,"max_players":24,"Bots":0,"server_type":"Dedicated","server_os":"Linux","password":true,"vac":true,"version":"7961495","steam_id":85568392924494504,"keywords":["nocrits","nodmgspread","payload","uncletopia"],"game_id":440,"stv_port":27016,"stv_name":"Uncletopia | Hong Kong | 1 | All Maps | STV","players":[{"user_id":102,"name":"Vesha","steam_id":76561199208233146,"connected_time":985000000000,"state":"active","ping":84},{"user_id":40,"name":"izdihargaurim.r","steam_id":76561199508260958,"connected_time":5137000000000,"state":"active","ping":88},{"user_id":85,"name":"Corn_Archer","steam_id":76561199185044554,"connected_time":2519000000000,"state":"active","ping":49},{"user_id":63,"name":"kazaba","steam_id":76561199052251739,"connected_time":3315000000000,"state":"active","ping":119},{"user_id":86,"name":"brizzard","steam_id":76561198048438653,"connected_time":2503000000000,"state":"active","ping":39},{"user_id":47,"name":"Skyler White yo","steam_id":76561198895193247,"connected_time":4076000000000,"state":"active","ping":64},{"user_id":49,"name":"Dell Conagher","steam_id":76561198853001370,"connected_time":3986000000000,"state":"active","ping":57},{"user_id":101,"name":"MTM","steam_id":76561198276815829,"connected_time":1179000000000,"state":"active","ping":105},{"user_id":54,"name":"pablo.gaming_2014","steam_id":76561198965473654,"connected_time":3656000000000,"state":"active","ping":74},{"user_id":106,"name":"cheese5451212","steam_id":76561199146131556,"connected_time":409000000000,"state":"active","ping":112},{"user_id":81,"name":"SunShine","steam_id":76561198323642446,"connected_time":2643000000000,"state":"active","ping":86},{"user_id":103,"name":"Averblu","steam_id":76561199480939609,"connected_time":958000000000,"state":"active","ping":75},{"user_id":70,"name":"Bill","steam_id":76561198044762968,"connected_time":3006000000000,"state":"active","ping":86},{"user_id":59,"name":"Mahoxen","steam_id":76561199121861959,"connected_time":3465000000000,"state":"active","ping":95},{"user_id":108,"name":"True Wish","steam_id":76561198206718084,"connected_time":279000000000,"state":"active","ping":84},{"user_id":109,"name":"humanbot","steam_id":76561199077602424,"connected_time":51000000000,"state":"active","ping":40},{"user_id":104,"name":"左 辙","steam_id":76561198202460529,"connected_time":837000000000,"state":"active","ping":83},{"user_id":71,"name":"water tastes good","steam_id":76561199375947670,"connected_time":3002000000000,"state":"active","ping":71},{"user_id":105,"name":"tomato","steam_id":76561198378829574,"connected_time":550000000000,"state":"active","ping":59},{"user_id":92,"name":"I Play(ed) Golf","steam_id":76561198150238170,"connected_time":2025000000000,"state":"active","ping":69},{"user_id":80,"name":"Minos Prime Reaction","steam_id":76561199475974790,"connected_time":2674000000000,"state":"active","ping":60},{"user_id":82,"name":"2746","steam_id":76561199390507975,"connected_time":2628000000000,"state":"active","ping":43},{"user_id":97,"name":"Piggy","steam_id":76561199293416159,"connected_time":1474000000000,"state":"active","ping":73},{"user_id":89,"name":"BURN PYGMALION!!!","steam_id":76561198074339034,"connected_time":2184000000000,"state":"active","ping":78}]},{"server_id":1,"name":"Uncletopia | Los Angeles | 1 | All Maps","name_short":"lax-1","host":"lax-1.us.uncletopia.com","port":27015,"enabled":true,"region":"us-west","cc":"us","latitude":33.94279,"longitude":-118.41004,"reserved":0,"last_update":"0001-01-01T00:00:00Z","name_a2s":"Uncletopia | Los Angeles | 1 | All Maps","protocol":17,"map":"cp_dustbowl","folder":"tf","game":"Team Fortress","app_id":440,"player_count":0,"max_players":24,"Bots":0,"server_type":"Dedicated","server_os":"Linux","password":true,"vac":true,"version":"7961495","steam_id":85568392924469991,"keywords":["cp","nocrits","nodmgspread","uncletopia"],"game_id":440,"stv_port":27016,"stv_name":"Uncletopia | Los Angeles | 1 | All Maps | STV","players":null},{"server_id":112,"name":"Uncletopia | Los Angeles | 2 | All Maps","name_short":"lax-2","host":"lax-1.us.uncletopia.com","port":27025,"enabled":true,"region":"us-west","cc":"us","latitude":33.94279,"longitude":-118.41004,"reserved":0,"last_update":"0001-01-01T00:00:00Z","name_a2s":"Uncletopia | Los Angeles | 2 | All Maps","protocol":17,"map":"cp_mountainlab","folder":"tf","game":"Team Fortress","app_id":440,"player_count":0,"max_players":24,"Bots":0,"server_type":"Dedicated","server_os":"Linux","password":true,"vac":true,"version":"7961495","steam_id":85568392924469992,"keywords":["cp","nocrits","nodmgspread","uncletopia"],"game_id":440,"stv_port":27026,"stv_name":"Uncletopia | Los Angeles | 2 | All Maps | STV","players":null},{"server_id":324,"name":"Uncletopia | Los Angeles | 3 | All Maps","name_short":"lax-3","host":"lax-1.us.uncletopia.com","port":27035,"enabled":true,"region":"us-west","cc":"us","latitude":33.94279,"longitude":-118.41004,"reserved":0,"last_update":"0001-01-01T00:00:00Z","name_a2s":"Uncletopia | Los Angeles | 3 | All Maps","protocol":17,"map":"pl_borneo","folder":"tf","game":"Team Fortress","app_id":440,"player_count":0,"max_players":24,"Bots":0,"server_type":"Dedicated","server_os":"Linux","password":true,"vac":true,"version":"7961495","steam_id":85568392924510198,"keywords":["nocrits","nodmgspread","payload","uncletopia"],"game_id":440,"stv_port":27036,"stv_name":"Uncletopia | Los Angeles | 3 | All Maps | STV","players":null},{"server_id":25,"name":"Uncletopia | Los Angeles | 4 | Stopwatch","name_short":"lax-4","host":"lax-1.us.uncletopia.com","port":27045,"enabled":true,"region":"us-west","cc":"us","latitude":33.94279,"longitude":-118.41004,"reserved":0,"last_update":"0001-01-01T00:00:00Z","name_a2s":"Uncletopia | Los Angeles | 4 | Stopwatch","protocol":17,"map":"workshop/koth_clearcut_b15.ugc2107050255","folder":"tf","game":"Team Fortress","app_id":440,"player_count":0,"max_players":24,"Bots":0,"server_type":"Dedicated","server_os":"Linux","password":true,"vac":true,"version":"7961495","steam_id":85568392924510199,"keywords":["cp","nocrits","nodmgspread","uncletopia"],"game_id":440,"stv_port":27046,"stv_name":"Uncletopia | Los Angeles | 4 | Stopwatch | STV","players":null},{"server_id":11,"name":"Uncletopia | London | 1 | All Maps","name_short":"lon-1","host":"lon-1.uk.uncletopia.com","port":27015,"enabled":true,"region":"eu","cc":"gb","latitude":51.509865,"longitude":-0.118092,"reserved":0,"last_update":"0001-01-01T00:00:00Z","name_a2s":"Uncletopia | London | 1 | All Maps","protocol":17,"map":"cp_process_final","folder":"tf","game":"Team Fortress","app_id":440,"player_count":11,"max_players":24,"Bots":0,"server_type":"Dedicated","server_os":"Linux","password":true,"vac":true,"version":"7961495","steam_id":85568392924367362,"keywords":["cp","nocrits","nodmgspread","uncletopia"],"game_id":440,"stv_port":27016,"stv_name":"Uncletopia | London | 1 | All Maps | STV","players":[{"user_id":24,"name":"Rin-Nakaret","steam_id":76561197971051188,"connected_time":455000000000,"state":"active","ping":49},{"user_id":10,"name":"lark","steam_id":76561198091724522,"connected_time":2130000000000,"state":"active","ping":61},{"user_id":11,"name":"MrXtr","steam_id":76561198966247397,"connected_time":1745000000000,"state":"active","ping":56},{"user_id":25,"name":"❤ Sparx ❤","steam_id":76561198095009261,"connected_time":285000000000,"state":"active","ping":64},{"user_id":19,"name":"panama papers","steam_id":76561198181368101,"connected_time":948000000000,"state":"active","ping":59},{"user_id":22,"name":"thog","steam_id":76561198219901556,"connected_time":703000000000,"state":"active","ping":108},{"user_id":15,"name":"quack","steam_id":76561198121003465,"connected_time":1368000000000,"state":"active","ping":47},{"user_id":26,"name":"Neko","steam_id":76561198075690128,"connected_time":124000000000,"state":"active","ping":65},{"user_id":27,"name":"Shaved Foreskin","steam_id":76561199216762939,"connected_time":84000000000,"state":"active","ping":76},{"user_id":28,"name":"Finn.","steam_id":76561199041640689,"connected_time":24000000000,"state":"active","ping":79},{"user_id":29,"name":"vedatbora35 (f2p)","steam_id":76561199242623968,"connected_time":4000000000,"state":"spawning","ping":242}]},{"server_id":114,"name":"Uncletopia | London | 2 | All Maps","name_short":"lon-2","host":"lon-1.uk.uncletopia.com","port":27025,"enabled":true,"region":"eu","cc":"gb","latitude":51.509865,"longitude":-0.118092,"reserved":0,"last_update":"0001-01-01T00:00:00Z","name_a2s":"Uncletopia | London | 2 | All Maps","protocol":17,"map":"pl_snowycoast","folder":"tf","game":"Team Fortress","app_id":440,"player_count":0,"max_players":24,"Bots":0,"server_type":"Dedicated","server_os":"Linux","password":true,"vac":true,"version":"7961495","steam_id":85568392924470941,"keywords":["nocrits","nodmgspread","payload","uncletopia"],"game_id":440,"stv_port":27026,"stv_name":"Uncletopia | London | 2 | All Maps | STV","players":null},{"server_id":320,"name":"Uncletopia | London | 3 | All Maps","name_short":"lon-3","host":"lon-1.uk.uncletopia.com","port":27035,"enabled":true,"region":"eu","cc":"gb","latitude":51.509865,"longitude":-0.118092,"reserved":0,"last_update":"0001-01-01T00:00:00Z","name_a2s":"Uncletopia | London | 3 | All Maps","protocol":17,"map":"koth_lakeside_final","folder":"tf","game":"Team Fortress","app_id":440,"player_count":0,"max_players":24,"Bots":0,"server_type":"Dedicated","server_os":"Linux","password":true,"vac":true,"version":"7961495","steam_id":85568392924510192,"keywords":["cp","nocrits","nodmgspread","uncletopia"],"game_id":440,"stv_port":27036,"stv_name":"Uncletopia | London | 3 | All Maps | STV","players":null},{"server_id":321,"name":"Uncletopia | London | 4 | All Maps","name_short":"lon-4","host":"lon-1.uk.uncletopia.com","port":27045,"enabled":true,"region":"eu","cc":"gb","latitude":51.509865,"longitude":-0.118092,"reserved":0,"last_update":"0001-01-01T00:00:00Z","name_a2s":"Uncletopia | London | 4 | All Maps","protocol":17,"map":"pl_badwater","folder":"tf","game":"Team Fortress","app_id":440,"player_count":0,"max_players":24,"Bots":0,"server_type":"Dedicated","server_os":"Linux","password":true,"vac":true,"version":"7961495","steam_id":85568392924510193,"keywords":["nocrits","nodmgspread","payload","uncletopia"],"game_id":440,"stv_port":27046,"stv_name":"Uncletopia | London | 4 | All Maps | STV","players":null},{"server_id":21,"name":"Uncletopia | London | 5 | All Maps","name_short":"lon-5","host":"lon-1.uk.uncletopia.com","port":27055,"enabled":true,"region":"eu","cc":"gb","latitude":51.509865,"longitude":-0.118092,"reserved":0,"last_update":"0001-01-01T00:00:00Z","name_a2s":"Uncletopia | London | 5 | All Maps","protocol":17,"map":"koth_lazarus","folder":"tf","game":"Team Fortress","app_id":440,"player_count":0,"max_players":24,"Bots":0,"server_type":"Dedicated","server_os":"Linux","password":true,"vac":true,"version":"7961495","steam_id":85568392924742829,"keywords":["cp","nocrits","nodmgspread","uncletopia"],"game_id":440,"stv_port":27056,"stv_name":"Uncletopia | London | 5 | All Maps | STV","players":null},{"server_id":22,"name":"Uncletopia | London | 6 | All Maps","name_short":"lon-6","host":"lon-1.uk.uncletopia.com","port":27065,"enabled":true,"region":"eu","cc":"gb","latitude":51.509865,"longitude":-0.118092,"reserved":0,"last_update":"0001-01-01T00:00:00Z","name_a2s":"Uncletopia | London | 6 | All Maps","protocol":17,"map":"cp_gorge","folder":"tf","game":"Team Fortress","app_id":440,"player_count":0,"max_players":24,"Bots":0,"server_type":"Dedicated","server_os":"Linux","password":true,"vac":true,"version":"7961495","steam_id":85568392924742830,"keywords":["cp","nocrits","nodmgspread","uncletopia"],"game_id":440,"stv_port":27066,"stv_name":"Uncletopia | London | 6 | All Maps | STV","players":null},{"server_id":40,"name":"Uncletopia | London | 7 | Stopwatch","name_short":"lon-7","host":"lon-1.uk.uncletopia.com","port":27075,"enabled":true,"region":"eu","cc":"gb","latitude":51.509865,"longitude":-0.118092,"reserved":0,"last_update":"0001-01-01T00:00:00Z","name_a2s":"Uncletopia | London | 7 | Stopwatch","protocol":17,"map":"workshop/pl_badwater_pro_v12.ugc2142942074","folder":"tf","game":"Team Fortress","app_id":440,"player_count":0,"max_players":24,"Bots":0,"server_type":"Dedicated","server_os":"Linux","password":true,"vac":true,"version":"7961495","steam_id":85568392924964314,"keywords":["nocrits","nodmgspread","payload","uncletopia"],"game_id":440,"stv_port":27076,"stv_name":"Uncletopia | London | 7 | Stopwatch | STV","players":null},{"server_id":41,"name":"Uncletopia | London | 8 | Community","name_short":"lon-8","host":"lon-1.uk.uncletopia.com","port":27085,"enabled":true,"region":"eu","cc":"gb","latitude":51.509865,"longitude":-0.118092,"reserved":0,"last_update":"0001-01-01T00:00:00Z","name_a2s":"Uncletopia | London | 8 | Community","protocol":17,"map":"workshop/cp_villa_b19.ugc2113052569","folder":"tf","game":"Team Fortress","app_id":440,"player_count":0,"max_players":24,"Bots":0,"server_type":"Dedicated","server_os":"Linux","password":true,"vac":true,"version":"7961495","steam_id":85568392924964315,"keywords":["cp","nocrits","nodmgspread","uncletopia"],"game_id":440,"stv_port":27086,"stv_name":"Uncletopia | London | 8 | Community | STV","players":null},{"server_id":300,"name":"Uncletopia | Montréal | 1 | One Thousand Uncles","name_short":"mtl-1","host":"mtl-1.ca.uncletopia.com","port":27015,"enabled":true,"region":"us-east","cc":"ca","latitude":45.50889,"longitude":-73.56167,"reserved":0,"last_update":"0001-01-01T00:00:00Z","name_a2s":"Uncletopia | Montréal | 1 | One Thousand Uncles","protocol":17,"map":"pl_goldrush","folder":"tf","game":"Team Fortress","app_id":440,"player_count":0,"max_players":32,"Bots":0,"server_type":"Dedicated","server_os":"Linux","password":true,"vac":true,"version":"7961495","steam_id":85568392924500087,"keywords":["alltalk","danepve","increased_maxplayers","norespawntime","payload","uncletopia"],"game_id":440,"stv_port":0,"stv_name":"","players":null},{"server_id":301,"name":"Uncletopia | Montréal | 2 | One Thousand Uncles","name_short":"mtl-2","host":"mtl-1.ca.uncletopia.com","port":27025,"enabled":true,"region":"us-east","cc":"ca","latitude":45.50889,"longitude":-73.56167,"reserved":0,"last_update":"0001-01-01T00:00:00Z","name_a2s":"Uncletopia | Montréal | 2 | One Thousand Uncles","protocol":17,"map":"pl_badwater","folder":"tf","game":"Team Fortress","app_id":440,"player_count":0,"max_players":32,"Bots":0,"server_type":"Dedicated","server_os":"Linux","password":true,"vac":true,"version":"7961495","steam_id":85568392924500088,"keywords":["alltalk","danepve","increased_maxplayers","norespawntime","payload","uncletopia"],"game_id":440,"stv_port":0,"stv_name":"","players":null},{"server_id":302,"name":"Uncletopia | Montréal | 3 | One Thousand Uncles","name_short":"mtl-3","host":"mtl-1.ca.uncletopia.com","port":27035,"enabled":true,"region":"us-east","cc":"ca","latitude":45.50889,"longitude":-73.56167,"reserved":0,"last_update":"0001-01-01T00:00:00Z","name_a2s":"Uncletopia | Montréal | 3 | One Thousand Uncles","protocol":17,"map":"pl_upward","folder":"tf","game":"Team Fortress","app_id":440,"player_count":0,"max_players":32,"Bots":0,"server_type":"Dedicated","server_os":"Linux","password":true,"vac":true,"version":"7961495","steam_id":85568392924500089,"keywords":["alltalk","danepve","increased_maxplayers","norespawntime","payload","uncletopia"],"game_id":440,"stv_port":0,"stv_name":"","players":null},{"server_id":13,"name":"Uncletopia | New York City | 1 | All Maps","name_short":"nyc-1","host":"nyc-1.us.uncletopia.com","port":27015,"enabled":true,"region":"us-east","cc":"us","latitude":40.73061,"longitude":-73.93524,"reserved":0,"last_update":"0001-01-01T00:00:00Z","name_a2s":"Uncletopia | New York City | 1 | All Maps","protocol":17,"map":"koth_viaduct","folder":"tf","game":"Team Fortress","app_id":440,"player_count":0,"max_players":24,"Bots":0,"server_type":"Dedicated","server_os":"Linux","password":true,"vac":true,"version":"7961495","steam_id":85568392924469993,"keywords":["cp","nocrits","nodmgspread","uncletopia"],"game_id":440,"stv_port":27016,"stv_name":"Uncletopia | New York City | 1 | All Maps | STV","players":null},{"server_id":14,"name":"Uncletopia | New York City | 2 | All Maps","name_short":"nyc-2","host":"nyc-1.us.uncletopia.com","port":27025,"enabled":true,"region":"us-east","cc":"us","latitude":40.73061,"longitude":-73.93524,"reserved":0,"last_update":"0001-01-01T00:00:00Z","name_a2s":"Uncletopia | New York City | 2 | All Maps","protocol":17,"map":"cp_gorge","folder":"tf","game":"Team Fortress","app_id":440,"player_count":0,"max_players":24,"Bots":0,"server_type":"Dedicated","server_os":"Linux","password":true,"vac":true,"version":"7961495","steam_id":85568392924469994,"keywords":["cp","nocrits","nodmgspread","uncletopia"],"game_id":440,"stv_port":27026,"stv_name":"Uncletopia | New York City | 2 | All Maps | STV","players":null},{"server_id":15,"name":"Uncletopia | New York City | 3 | Stopwatch","name_short":"nyc-3","host":"nyc-1.us.uncletopia.com","port":27035,"enabled":true,"region":"us-east","cc":"us","latitude":40.73061,"longitude":-73.93524,"reserved":0,"last_update":"0001-01-01T00:00:00Z","name_a2s":"Uncletopia | New York City | 3 | Stopwatch","protocol":17,"map":"workshop/koth_clearcut_b15.ugc2107050255","folder":"tf","game":"Team Fortress","app_id":440,"player_count":0,"max_players":24,"Bots":0,"server_type":"Dedicated","server_os":"Linux","password":true,"vac":true,"version":"7961495","steam_id":85568392924742820,"keywords":["cp","nocrits","nodmgspread","uncletopia"],"game_id":440,"stv_port":27036,"stv_name":"Uncletopia | New York City | 3 | Stopwatch | STV","players":null},{"server_id":16,"name":"Uncletopia | New York City | 4 | Community","name_short":"nyc-4","host":"nyc-1.us.uncletopia.com","port":27045,"enabled":true,"region":"us-east","cc":"us","latitude":40.73061,"longitude":-73.93524,"reserved":0,"last_update":"0001-01-01T00:00:00Z","name_a2s":"Uncletopia | New York City | 4 | Community","protocol":17,"map":"workshop/cp_hazyfort_rc6.ugc1365963729","folder":"tf","game":"Team Fortress","app_id":440,"player_count":0,"max_players":24,"Bots":0,"server_type":"Dedicated","server_os":"Linux","password":true,"vac":true,"version":"7961495","steam_id":85568392924742821,"keywords":["cp","nocrits","nodmgspread","uncletopia"],"game_id":440,"stv_port":27046,"stv_name":"Uncletopia | New York City | 4 | Community | STV","players":null},{"server_id":142,"name":"Uncletopia | São Paulo | 1 | All Maps","name_short":"sao-1","host":"sao-1.br.uncletopia.com","port":27015,"enabled":true,"region":"sa","cc":"br","latitude":-23.533773,"longitude":-46.62529,"reserved":0,"last_update":"0001-01-01T00:00:00Z","name_a2s":"Uncletopia | São Paulo | 1 | All Maps","protocol":17,"map":"koth_highpass","folder":"tf","game":"Team Fortress","app_id":440,"player_count":0,"max_players":24,"Bots":0,"server_type":"Dedicated","server_os":"Linux","password":true,"vac":true,"version":"7961495","steam_id":85568392924469996,"keywords":["cp","nocrits","nodmgspread","uncletopia"],"game_id":440,"stv_port":27016,"stv_name":"Uncletopia | São Paulo | 1 | All Maps | STV","players":null},{"server_id":143,"name":"Uncletopia | São Paulo | 2 | Community","name_short":"sao-2","host":"sao-2.br.uncletopia.com","port":27015,"enabled":true,"region":"sa","cc":"br","latitude":-23.533773,"longitude":-46.62529,"reserved":0,"last_update":"0001-01-01T00:00:00Z","name_a2s":"Uncletopia | São Paulo | 2 | Community","protocol":17,"map":"workshop/cp_croissant_final.ugc458840209","folder":"tf","game":"Team Fortress","app_id":440,"player_count":0,"max_players":24,"Bots":0,"server_type":"Dedicated","server_os":"Linux","password":true,"vac":true,"version":"7961495","steam_id":85568392924485349,"keywords":["cp","nocrits","nodmgspread","uncletopia"],"game_id":440,"stv_port":27016,"stv_name":"Uncletopia | São Paulo | 2 | Community | STV","players":null},{"server_id":7,"name":"Uncletopia | Seattle | 1 | All Maps","name_short":"sea-1","host":"sea-1.us.uncletopia.com","port":27015,"enabled":true,"region":"us-west","cc":"us","latitude":47.608013,"longitude":-122.33517,"reserved":0,"last_update":"0001-01-01T00:00:00Z","name_a2s":"Uncletopia | Seattle | 1 | All Maps","protocol":17,"map":"koth_highpass","folder":"tf","game":"Team Fortress","app_id":440,"player_count":24,"max_players":24,"Bots":0,"server_type":"Dedicated","server_os":"Linux","password":true,"vac":true,"version":"7961495","steam_id":85568392924469997,"keywords":["cp","nocrits","nodmgspread","uncletopia"],"game_id":440,"stv_port":27016,"stv_name":"Uncletopia | Seattle | 1 | All Maps | STV","players":[{"user_id":733,"name":"panda","steam_id":76561198025214612,"connected_time":3455000000000,"state":"active","ping":39},{"user_id":776,"name":"Cobra","steam_id":76561198392514273,"connected_time":103000000000,"state":"active","ping":57},{"user_id":699,"name":"Grassman (Cc)","steam_id":76561198026488532,"connected_time":5780000000000,"state":"active","ping":60},{"user_id":775,"name":"Supersonic","steam_id":76561198042167127,"connected_time":523000000000,"state":"active","ping":57},{"user_id":777,"name":"h","steam_id":76561198868164815,"connected_time":83000000000,"state":"active","ping":53},{"user_id":756,"name":"bootymanᴸᴮᴴ","steam_id":76561198322206140,"connected_time":1930000000000,"state":"active","ping":55},{"user_id":778,"name":"Facepalm","steam_id":76561198001935226,"connected_time":53000000000,"state":"active","ping":62},{"user_id":737,"name":"benji","steam_id":76561198084417967,"connected_time":3206000000000,"state":"active","ping":46},{"user_id":779,"name":"Femboy Len","steam_id":76561198335167814,"connected_time":30000000000,"state":"active","ping":60},{"user_id":717,"name":"Nom Skirrett","steam_id":76561198014600788,"connected_time":4844000000000,"state":"active","ping":61},{"user_id":762,"name":"Racecar_Driver","steam_id":76561198054176223,"connected_time":1210000000000,"state":"active","ping":45},{"user_id":770,"name":"Kung Fu Rat","steam_id":76561198178107275,"connected_time":737000000000,"state":"active","ping":163},{"user_id":767,"name":"Eden","steam_id":76561198081284664,"connected_time":1033000000000,"state":"active","ping":85},{"user_id":725,"name":"That wasn't milk","steam_id":76561198155294045,"connected_time":3784000000000,"state":"active","ping":66},{"user_id":774,"name":"rejz123","steam_id":76561198035165512,"connected_time":544000000000,"state":"active","ping":120},{"user_id":734,"name":"reiidaya","steam_id":76561198325306660,"connected_time":3453000000000,"state":"active","ping":54},{"user_id":772,"name":"OTG808","steam_id":76561198059459828,"connected_time":631000000000,"state":"active","ping":134},{"user_id":749,"name":"Shipmunk","steam_id":76561198063062670,"connected_time":2696000000000,"state":"active","ping":116},{"user_id":744,"name":"Antzen","steam_id":76561198041343470,"connected_time":3018000000000,"state":"active","ping":71},{"user_id":758,"name":"Sasha The Foxgirl","steam_id":76561198018403555,"connected_time":1882000000000,"state":"active","ping":43},{"user_id":759,"name":"Polar","steam_id":76561198055781237,"connected_time":1752000000000,"state":"active","ping":41},{"user_id":760,"name":"this","steam_id":76561197995469460,"connected_time":1738000000000,"state":"active","ping":76},{"user_id":745,"name":"Sailor","steam_id":76561199081983517,"connected_time":3014000000000,"state":"active","ping":90},{"user_id":773,"name":"silly","steam_id":76561198010171547,"connected_time":597000000000,"state":"active","ping":53}]},{"server_id":119,"name":"Uncletopia | Seattle | 2 | All Maps","name_short":"sea-2","host":"sea-1.us.uncletopia.com","port":27025,"enabled":true,"region":"us-west","cc":"us","latitude":47.608013,"longitude":-122.33517,"reserved":0,"last_update":"0001-01-01T00:00:00Z","name_a2s":"Uncletopia | Seattle | 2 | All Maps","protocol":17,"map":"koth_viaduct","folder":"tf","game":"Team Fortress","app_id":440,"player_count":25,"max_players":24,"Bots":0,"server_type":"Dedicated","server_os":"Linux","password":true,"vac":true,"version":"7961495","steam_id":85568392924469998,"keywords":["cp","nocrits","nodmgspread","uncletopia"],"game_id":440,"stv_port":27026,"stv_name":"Uncletopia | Seattle | 2 | All Maps | STV","players":[{"user_id":593,"name":":(){ :|:\u0026 };:","steam_id":76561198115242460,"connected_time":1325000000000,"state":"active","ping":57},{"user_id":609,"name":"Daz","steam_id":76561198041431938,"connected_time":260000000000,"state":"active","ping":52},{"user_id":580,"name":"P1Darkie (She/Her)","steam_id":76561199508141875,"connected_time":2942000000000,"state":"active","ping":110},{"user_id":616,"name":"TheDoorMatt655","steam_id":76561198355672296,"connected_time":4000000000,"state":"spawning","ping":76},{"user_id":587,"name":"Sweets","steam_id":76561198998446307,"connected_time":2431000000000,"state":"active","ping":64},{"user_id":598,"name":"resh","steam_id":76561198239598834,"connected_time":1036000000000,"state":"active","ping":133},{"user_id":613,"name":"Copy","steam_id":76561198025031590,"connected_time":98000000000,"state":"active","ping":53},{"user_id":572,"name":"Grand","steam_id":76561198290143399,"connected_time":3466000000000,"state":"active","ping":70},{"user_id":610,"name":"rorywashere /ᐠ - ˕ -マ Ⳋ","steam_id":76561198065825165,"connected_time":226000000000,"state":"active","ping":105},{"user_id":604,"name":"Dr. Inkulus | snlnʞuI ˙ɹᗡ","steam_id":76561198212231033,"connected_time":576000000000,"state":"active","ping":37},{"user_id":608,"name":"NEBULA","steam_id":76561198086878595,"connected_time":267000000000,"state":"active","ping":89},{"user_id":546,"name":"samantha","steam_id":76561198049258493,"connected_time":6591000000000,"state":"active","ping":66},{"user_id":539,"name":"delight","steam_id":76561197980280272,"connected_time":7800000000000,"state":"active","ping":45},{"user_id":602,"name":"deez","steam_id":76561198103841731,"connected_time":985000000000,"state":"active","ping":49},{"user_id":575,"name":"hazel","steam_id":76561198037292232,"connected_time":3449000000000,"state":"active","ping":120},{"user_id":607,"name":"lol","steam_id":76561198026491738,"connected_time":518000000000,"state":"active","ping":73},{"user_id":611,"name":"jorts","steam_id":76561199041179985,"connected_time":217000000000,"state":"active","ping":48},{"user_id":597,"name":"closet heater","steam_id":76561198216487540,"connected_time":1044000000000,"state":"active","ping":44},{"user_id":592,"name":"Amazing476","steam_id":76561198103937489,"connected_time":1509000000000,"state":"active","ping":85},{"user_id":577,"name":"bath","steam_id":76561197969993352,"connected_time":3311000000000,"state":"active","ping":105},{"user_id":591,"name":"Cat on the Moon","steam_id":76561198272661627,"connected_time":1852000000000,"state":"active","ping":75},{"user_id":563,"name":"Gm_Sweet","steam_id":76561199445091548,"connected_time":4369000000000,"state":"active","ping":59},{"user_id":612,"name":"John Calibur","steam_id":76561197999986606,"connected_time":189000000000,"state":"active","ping":68},{"user_id":497,"name":"smeasly","steam_id":76561198028718812,"connected_time":11550000000000,"state":"active","ping":43},{"user_id":615,"name":"(1)Doctor™","steam_id":76561198134309750,"connected_time":6000000000,"state":"active","ping":103}]},{"server_id":406,"name":"Uncletopia | Seattle | 3 | Stopwatch","name_short":"sea-3","host":"sea-1.us.uncletopia.com","port":27035,"enabled":true,"region":"us-west","cc":"us","latitude":47.608013,"longitude":-122.33517,"reserved":0,"last_update":"0001-01-01T00:00:00Z","name_a2s":"Uncletopia | Seattle | 3 | Stopwatch","protocol":17,"map":"workshop/koth_product_final.ugc454272353","folder":"tf","game":"Team Fortress","app_id":440,"player_count":0,"max_players":24,"Bots":0,"server_type":"Dedicated","server_os":"Linux","password":true,"vac":true,"version":"7961495","steam_id":85568392924515217,"keywords":["cp","nocrits","nodmgspread","uncletopia"],"game_id":440,"stv_port":27036,"stv_name":"Uncletopia | Seattle | 3 | Stopwatch | STV","players":null},{"server_id":17,"name":"Uncletopia | San Francisco | 1 | All Maps","name_short":"sfo-1","host":"sfo-1.us.uncletopia.com","port":27015,"enabled":true,"region":"us-west","cc":"us","latitude":37.77397,"longitude":-122.4313,"reserved":0,"last_update":"0001-01-01T00:00:00Z","name_a2s":"Uncletopia | San Francisco | 1 | All Maps","protocol":17,"map":"koth_lakeside_final","folder":"tf","game":"Team Fortress","app_id":440,"player_count":0,"max_players":24,"Bots":0,"server_type":"Dedicated","server_os":"Linux","password":true,"vac":true,"version":"7961495","steam_id":85568392924469999,"keywords":["cp","nocrits","nodmgspread","uncletopia"],"game_id":440,"stv_port":27016,"stv_name":"Uncletopia | San Francisco | 1 | All Maps | STV","players":null},{"server_id":18,"name":"Uncletopia | San Francisco | 2 | All Maps","name_short":"sfo-2","host":"sfo-1.us.uncletopia.com","port":27025,"enabled":true,"region":"us-west","cc":"us","latitude":37.77397,"longitude":-122.4313,"reserved":0,"last_update":"0001-01-01T00:00:00Z","name_a2s":"Uncletopia | San Francisco | 2 | All Maps","protocol":17,"map":"pl_frontier_final","folder":"tf","game":"Team Fortress","app_id":440,"player_count":0,"max_players":24,"Bots":0,"server_type":"Dedicated","server_os":"Linux","password":true,"vac":true,"version":"7961495","steam_id":85568392924470000,"keywords":["nocrits","nodmgspread","payload","uncletopia"],"game_id":440,"stv_port":27026,"stv_name":"Uncletopia | San Francisco | 2 | All Maps | STV","players":null},{"server_id":19,"name":"Uncletopia | San Francisco | 3 | Stopwatch","name_short":"sfo-3","host":"sfo-1.us.uncletopia.com","port":27035,"enabled":true,"region":"us-west","cc":"us","latitude":37.77397,"longitude":-122.4313,"reserved":0,"last_update":"0001-01-01T00:00:00Z","name_a2s":"Uncletopia | San Francisco | 3 | Stopwatch","protocol":17,"map":"koth_highpass","folder":"tf","game":"Team Fortress","app_id":440,"player_count":0,"max_players":24,"Bots":0,"server_type":"Dedicated","server_os":"Linux","password":true,"vac":true,"version":"7961495","steam_id":85568392924742824,"keywords":["cp","nocrits","nodmgspread","uncletopia"],"game_id":440,"stv_port":27036,"stv_name":"Uncletopia | San Francisco | 3 | Stopwatch | STV","players":null},{"server_id":20,"name":"Uncletopia | San Francisco | 4 | Community","name_short":"sfo-4","host":"sfo-1.us.uncletopia.com","port":27045,"enabled":true,"region":"us-west","cc":"us","latitude":37.77397,"longitude":-122.4313,"reserved":0,"last_update":"0001-01-01T00:00:00Z","name_a2s":"Uncletopia | San Francisco | 4 | Community","protocol":17,"map":"workshop/koth_slaughter_rc1.ugc1712845210","folder":"tf","game":"Team Fortress","app_id":440,"player_count":0,"max_players":24,"Bots":0,"server_type":"Dedicated","server_os":"Linux","password":true,"vac":true,"version":"7961495","steam_id":85568392924742826,"keywords":["cp","nocrits","nodmgspread","uncletopia"],"game_id":440,"stv_port":27046,"stv_name":"Uncletopia | San Francisco | 4 | Community | STV","players":null},{"server_id":141,"name":"Uncletopia | Sydney | 1 | All Maps","name_short":"syd-1","host":"syd-1.au.uncletopia.com","port":27015,"enabled":true,"region":"au","cc":"au","latitude":-33.865143,"longitude":151.2099,"reserved":0,"last_update":"0001-01-01T00:00:00Z","name_a2s":"Uncletopia | Sydney | 1 | All Maps","protocol":17,"map":"pl_pier","folder":"tf","game":"Team Fortress","app_id":440,"player_count":22,"max_players":24,"Bots":0,"server_type":"Dedicated","server_os":"Linux","password":true,"vac":true,"version":"7961495","steam_id":85568392924470001,"keywords":["nocrits","nodmgspread","payload","uncletopia"],"game_id":440,"stv_port":27016,"stv_name":"Uncletopia | Sydney | 1 | All Maps | STV","players":[{"user_id":75,"name":"Nebula","steam_id":76561198263946435,"connected_time":601000000000,"state":"active","ping":45},{"user_id":28,"name":"Penguinator5000","steam_id":76561198038183553,"connected_time":4338000000000,"state":"active","ping":42},{"user_id":76,"name":"DIY Miracle","steam_id":76561198046228152,"connected_time":538000000000,"state":"active","ping":52},{"user_id":77,"name":"Solenopsis Invicta","steam_id":76561198134147713,"connected_time":451000000000,"state":"active","ping":146},{"user_id":41,"name":"hellnah","steam_id":76561199020186211,"connected_time":2379000000000,"state":"active","ping":56},{"user_id":74,"name":"bangs","steam_id":76561198041334029,"connected_time":648000000000,"state":"active","ping":83},{"user_id":46,"name":"nutmilk","steam_id":76561198056367731,"connected_time":2056000000000,"state":"active","ping":91},{"user_id":79,"name":"El Chupacabra","steam_id":76561198070641651,"connected_time":361000000000,"state":"active","ping":47},{"user_id":47,"name":"Lobarté","steam_id":76561198090116136,"connected_time":1912000000000,"state":"active","ping":65},{"user_id":48,"name":"Bass4K","steam_id":76561198078398515,"connected_time":1890000000000,"state":"active","ping":51},{"user_id":89,"name":"Sherpa","steam_id":76561198018913829,"connected_time":81000000000,"state":"active","ping":58},{"user_id":80,"name":"ABDUL_PROPHET","steam_id":76561199020488015,"connected_time":360000000000,"state":"active","ping":88},{"user_id":83,"name":"T-10a","steam_id":76561198054765522,"connected_time":233000000000,"state":"active","ping":46},{"user_id":85,"name":"Echo","steam_id":76561198825163047,"connected_time":201000000000,"state":"active","ping":47},{"user_id":86,"name":"Fire_Dragon1","steam_id":76561198978045930,"connected_time":184000000000,"state":"active","ping":42},{"user_id":88,"name":"The Coffee","steam_id":76561199400467501,"connected_time":162000000000,"state":"active","ping":94},{"user_id":55,"name":"Milk Boi","steam_id":76561198238708000,"connected_time":1606000000000,"state":"active","ping":75},{"user_id":57,"name":"The Fighting Imp","steam_id":76561198025766516,"connected_time":1602000000000,"state":"active","ping":49},{"user_id":61,"name":"Sover blw.tf","steam_id":76561198136347837,"connected_time":1269000000000,"state":"active","ping":133},{"user_id":66,"name":"Feksil","steam_id":76561198127379171,"connected_time":1225000000000,"state":"active","ping":59},{"user_id":68,"name":"Cleisthenes","steam_id":76561198142861283,"connected_time":1200000000000,"state":"active","ping":85},{"user_id":69,"name":"I Miss Them","steam_id":76561198413277386,"connected_time":1191000000000,"state":"active","ping":65}]},{"server_id":123,"name":"Uncletopia | Sydney | 2 | All Maps","name_short":"syd-2","host":"syd-1.au.uncletopia.com","port":27025,"enabled":true,"region":"au","cc":"au","latitude":-33.865143,"longitude":151.2099,"reserved":0,"last_update":"0001-01-01T00:00:00Z","name_a2s":"Uncletopia | Sydney | 2 | All Maps","protocol":17,"map":"koth_cascade","folder":"tf","game":"Team Fortress","app_id":440,"player_count":0,"max_players":24,"Bots":0,"server_type":"Dedicated","server_os":"Linux","password":true,"vac":true,"version":"7961495","steam_id":85568392924470002,"keywords":["cp","nocrits","nodmgspread","uncletopia"],"game_id":440,"stv_port":27026,"stv_name":"Uncletopia | Sydney | 2 | All Maps | STV","players":null},{"server_id":395,"name":"Uncletopia | Sydney | 3 | All Maps","name_short":"syd-3","host":"syd-1.au.uncletopia.com","port":27035,"enabled":true,"region":"au","cc":"au","latitude":-33.865143,"longitude":151.2099,"reserved":0,"last_update":"0001-01-01T00:00:00Z","name_a2s":"Uncletopia | Sydney | 3 | All Maps","protocol":17,"map":"cp_metalworks","folder":"tf","game":"Team Fortress","app_id":440,"player_count":1,"max_players":24,"Bots":0,"server_type":"Dedicated","server_os":"Linux","password":true,"vac":true,"version":"7961495","steam_id":85568392925194467,"keywords":["cp","nocrits","nodmgspread","uncletopia"],"game_id":440,"stv_port":27036,"stv_name":"Uncletopia | Sydney | 3 | All Maps | STV","players":[{"user_id":4,"name":"Cool Wizard","steam_id":76561199161637215,"connected_time":36000000000,"state":"active","ping":90}]},{"server_id":396,"name":"Uncletopia | Sydney | 4 | All Maps","name_short":"syd-4","host":"syd-1.au.uncletopia.com","port":27045,"enabled":true,"region":"au","cc":"au","latitude":-33.865143,"longitude":151.2099,"reserved":0,"last_update":"0001-01-01T00:00:00Z","name_a2s":"Uncletopia | Sydney | 4 | All Maps","protocol":17,"map":"pl_badwater","folder":"tf","game":"Team Fortress","app_id":440,"player_count":22,"max_players":24,"Bots":0,"server_type":"Dedicated","server_os":"Linux","password":true,"vac":true,"version":"7961495","steam_id":85568392925397958,"keywords":["nocrits","nodmgspread","payload","uncletopia"],"game_id":440,"stv_port":27046,"stv_name":"Uncletopia | Sydney | 4 | All Maps | STV","players":[{"user_id":22,"name":"Dot","steam_id":76561198064534661,"connected_time":2701000000000,"state":"active","ping":58},{"user_id":48,"name":"Tomboslinger","steam_id":76561199216201591,"connected_time":1188000000000,"state":"active","ping":45},{"user_id":9,"name":"Gobifox","steam_id":76561198054041068,"connected_time":4345000000000,"state":"active","ping":73},{"user_id":52,"name":"Anemone","steam_id":76561198958131057,"connected_time":1061000000000,"state":"active","ping":69},{"user_id":11,"name":"pathway","steam_id":76561198346674092,"connected_time":4015000000000,"state":"active","ping":71},{"user_id":58,"name":"Depressed Jew","steam_id":76561198151970552,"connected_time":5000000000,"state":"spawning","ping":45},{"user_id":47,"name":"soupy","steam_id":76561198073734936,"connected_time":1232000000000,"state":"active","ping":90},{"user_id":18,"name":"CypressFluff (she/her)","steam_id":76561198174667818,"connected_time":3194000000000,"state":"active","ping":45},{"user_id":59,"name":"Hopps","steam_id":76561198289061794,"connected_time":4000000000,"state":"spawning","ping":68},{"user_id":24,"name":"Entralink","steam_id":76561198137562689,"connected_time":2542000000000,"state":"active","ping":59},{"user_id":25,"name":"Overlold","steam_id":76561197978635495,"connected_time":2538000000000,"state":"active","ping":69},{"user_id":27,"name":"better safe than Gregory","steam_id":76561198301282416,"connected_time":2402000000000,"state":"active","ping":52},{"user_id":43,"name":"idkfa","steam_id":76561197984777004,"connected_time":1780000000000,"state":"active","ping":74},{"user_id":33,"name":"Hello","steam_id":76561198090566432,"connected_time":2067000000000,"state":"active","ping":85},{"user_id":32,"name":"Malphas","steam_id":76561198011425371,"connected_time":2095000000000,"state":"active","ping":58},{"user_id":46,"name":"TheGoodGuy","steam_id":76561197994105505,"connected_time":1495000000000,"state":"active","ping":34},{"user_id":35,"name":"Kenny","steam_id":76561198077366241,"connected_time":2045000000000,"state":"active","ping":48},{"user_id":45,"name":"COLLINSct","steam_id":76561198045395403,"connected_time":1713000000000,"state":"active","ping":58},{"user_id":38,"name":"Ozymandias","steam_id":76561198863281522,"connected_time":1973000000000,"state":"active","ping":45},{"user_id":51,"name":"gru","steam_id":76561198055698864,"connected_time":1102000000000,"state":"active","ping":74},{"user_id":40,"name":"Tohru","steam_id":76561199029434736,"connected_time":1955000000000,"state":"active","ping":60},{"user_id":57,"name":"no teles 4 u","steam_id":76561198018478297,"connected_time":563000000000,"state":"active","ping":60}]},{"server_id":58,"name":"Uncletopia | Sydney | 5 | Stopwatch","name_short":"syd-5","host":"syd-1.au.uncletopia.com","port":27055,"enabled":true,"region":"au","cc":"au","latitude":-33.865143,"longitude":151.2099,"reserved":0,"last_update":"0001-01-01T00:00:00Z","name_a2s":"Uncletopia | Sydney | 5 | Stopwatch","protocol":17,"map":"workshop/koth_jamram_rc1a.ugc2964065613","folder":"tf","game":"Team Fortress","app_id":440,"player_count":0,"max_players":24,"Bots":0,"server_type":"Dedicated","server_os":"Linux","password":true,"vac":true,"version":"7961495","steam_id":85568392925397959,"keywords":["cp","nocrits","nodmgspread","uncletopia"],"game_id":440,"stv_port":27056,"stv_name":"Uncletopia | Sydney | 5 | Stopwatch | STV","players":null},{"server_id":59,"name":"Uncletopia | Sydney | 6 | Community","name_short":"syd-6","host":"syd-1.au.uncletopia.com","port":27065,"enabled":true,"region":"au","cc":"au","latitude":-33.865143,"longitude":151.2099,"reserved":0,"last_update":"0001-01-01T00:00:00Z","name_a2s":"Uncletopia | Sydney | 6 | Community","protocol":17,"map":"workshop/koth_trenchfoot_ab1.ugc731436616","folder":"tf","game":"Team Fortress","app_id":440,"player_count":0,"max_players":24,"Bots":0,"server_type":"Dedicated","server_os":"Linux","password":true,"vac":true,"version":"7961495","steam_id":85568392925397960,"keywords":["cp","nocrits","nodmgspread","uncletopia"],"game_id":440,"stv_port":27066,"stv_name":"Uncletopia | Sydney | 6 | Community | STV","players":null},{"server_id":49,"name":"Uncletopia | Warsaw | 1 | One Thousand Uncles","name_short":"waw-1","host":"waw-1.pl.uncletopia.com","port":27015,"enabled":true,"region":"eu","cc":"pl","latitude":52.2297,"longitude":21.017532,"reserved":0,"last_update":"0001-01-01T00:00:00Z","name_a2s":"Uncletopia | Warsaw | 1 | One Thousand Uncles","protocol":17,"map":"cp_altitude","folder":"tf","game":"Team Fortress","app_id":440,"player_count":0,"max_players":32,"Bots":0,"server_type":"Dedicated","server_os":"Linux","password":true,"vac":true,"version":"7961495","steam_id":85568392925397850,"keywords":["alltalk","cp","danepve","increased_maxplayers","norespawntime","uncletopia"],"game_id":440,"stv_port":0,"stv_name":"","players":null},{"server_id":50,"name":"Uncletopia | Warsaw | 2 | One Thousand Uncles","name_short":"waw-2","host":"waw-1.pl.uncletopia.com","port":27025,"enabled":true,"region":"eu","cc":"pl","latitude":52.2297,"longitude":21.017532,"reserved":0,"last_update":"0001-01-01T00:00:00Z","name_a2s":"Uncletopia | Warsaw | 2 | One Thousand Uncles","protocol":17,"map":"cp_egypt_final","folder":"tf","game":"Team Fortress","app_id":440,"player_count":0,"max_players":32,"Bots":0,"server_type":"Dedicated","server_os":"Linux","password":true,"vac":true,"version":"7961495","steam_id":85568392925397851,"keywords":["alltalk","cp","danepve","increased_maxplayers","norespawntime","uncletopia"],"game_id":440,"stv_port":0,"stv_name":"","players":null},{"server_id":51,"name":"Uncletopia | Warsaw | 3 | All Maps","name_short":"waw-3","host":"waw-1.pl.uncletopia.com","port":27035,"enabled":true,"region":"eu","cc":"pl","latitude":52.2297,"longitude":21.017532,"reserved":0,"last_update":"0001-01-01T00:00:00Z","name_a2s":"Uncletopia | Warsaw | 3 | All Maps","protocol":17,"map":"pl_snowycoast","folder":"tf","game":"Team Fortress","app_id":440,"player_count":0,"max_players":24,"Bots":0,"server_type":"Dedicated","server_os":"Linux","password":true,"vac":true,"version":"7961495","steam_id":85568392925397852,"keywords":["nocrits","nodmgspread","payload","uncletopia"],"game_id":440,"stv_port":27036,"stv_name":"Uncletopia | Warsaw | 3 | All Maps | STV","players":null},{"server_id":52,"name":"Uncletopia | Warsaw | 4 | All Maps","name_short":"waw-4","host":"waw-1.pl.uncletopia.com","port":27045,"enabled":true,"region":"eu","cc":"pl","latitude":52.2297,"longitude":21.017532,"reserved":0,"last_update":"0001-01-01T00:00:00Z","name_a2s":"Uncletopia | Warsaw | 4 | All Maps","protocol":17,"map":"cp_fastlane","folder":"tf","game":"Team Fortress","app_id":440,"player_count":0,"max_players":24,"Bots":0,"server_type":"Dedicated","server_os":"Linux","password":true,"vac":true,"version":"7961495","steam_id":85568392925397853,"keywords":["cp","nocrits","nodmgspread","uncletopia"],"game_id":440,"stv_port":27046,"stv_name":"Uncletopia | Warsaw | 4 | All Maps | STV","players":null},{"server_id":53,"name":"Uncletopia | Warsaw | 5 | Stopwatch","name_short":"waw-5","host":"waw-1.pl.uncletopia.com","port":27055,"enabled":true,"region":"eu","cc":"pl","latitude":52.2297,"longitude":21.017532,"reserved":0,"last_update":"0001-01-01T00:00:00Z","name_a2s":"Uncletopia | Warsaw | 5 | Stopwatch","protocol":17,"map":"cp_gullywash_final1","folder":"tf","game":"Team Fortress","app_id":440,"player_count":0,"max_players":24,"Bots":0,"server_type":"Dedicated","server_os":"Linux","password":true,"vac":true,"version":"7961495","steam_id":85568392925397854,"keywords":["cp","nocrits","nodmgspread","uncletopia"],"game_id":440,"stv_port":27056,"stv_name":"Uncletopia | Warsaw | 5 | Stopwatch | STV","players":null},{"server_id":54,"name":"Uncletopia | Warsaw | 6 | Community","name_short":"waw-6","host":"waw-1.pl.uncletopia.com","port":27065,"enabled":true,"region":"eu","cc":"pl","latitude":52.2297,"longitude":21.017532,"reserved":0,"last_update":"0001-01-01T00:00:00Z","name_a2s":"Uncletopia | Warsaw | 6 | Community","protocol":17,"map":"workshop/cp_fulgur_rc2a.ugc2068252300","folder":"tf","game":"Team Fortress","app_id":440,"player_count":0,"max_players":24,"Bots":0,"server_type":"Dedicated","server_os":"Linux","password":true,"vac":true,"version":"7961495","steam_id":85568392925397856,"keywords":["cp","nocrits","nodmgspread","uncletopia"],"game_id":440,"stv_port":27066,"stv_name":"Uncletopia | Warsaw | 6 | Community | STV","players":null}]}