{"status":true,"message":"","result":[{"server_id":9,"name":"Uncletopia | Atlanta | 1 | All Maps","name_short":"atl-1","host":"atl-1.us.uncletopia.com","port":27015,"enabled":true,"region":"us-east","cc":"us","latitude":33.753746,"longitude":-84.38633,"reserved":0,"last_update":"0001-01-01T00:00:00Z","name_a2s":"Uncletopia | Atlanta | 1 | All Maps","protocol":17,"map":"pl_snowycoast","folder":"tf","game":"Team Fortress","app_id":440,"player_count":22,"max_players":24,"Bots":0,"server_type":"Dedicated","server_os":"Linux","password":true,"vac":true,"version":"7757534","steam_id":85568392924469982,"keywords":["nocrits","nodmgspread","payload","uncletopia"],"game_id":440,"stv_port":27016,"stv_name":"Uncletopia | Atlanta | 1 | All Maps | STV","players":[{"user_id":666,"name":"CAPT Splashclaw","steam_id":76561198110019410,"connected_time":119000000000,"state":"active","ping":77},{"user_id":635,"name":"lil hog","steam_id":76561199230929836,"connected_time":4158000000000,"state":"active","ping":77},{"user_id":663,"name":"PINGAS DISPENSER‚Ñ¢","steam_id":76561198014868070,"connected_time":197000000000,"state":"active","ping":92},{"user_id":617,"name":"John Coltrane","steam_id":76561198037789297,"connected_time":5635000000000,"state":"active","ping":99},{"user_id":665,"name":"Sarbanes-Oxley","steam_id":76561197975898479,"connected_time":122000000000,"state":"active","ping":82},{"user_id":649,"name":"ATL1 | cola","steam_id":76561198374390458,"connected_time":2062000000000,"state":"active","ping":47},{"user_id":650,"name":"Spazicle12‚Ñ¢","steam_id":76561198080182569,"connected_time":1819000000000,"state":"active","ping":89},{"user_id":642,"name":"mayhem","steam_id":76561199246637881,"connected_time":3095000000000,"state":"active","ping":55},{"user_id":652,"name":"Im High","steam_id":76561198049954886,"connected_time":1616000000000,"state":"active","ping":70},{"user_id":638,"name":"Albino Jellyfish","steam_id":76561198208561097,"connected_time":3588000000000,"state":"active","ping":68},{"user_id":589,"name":"Intro Bonito","steam_id":76561198119478838,"connected_time":7817000000000,"state":"active","ping":45},{"user_id":662,"name":"Bali","steam_id":76561198038693845,"connected_time":294000000000,"state":"active","ping":74},{"user_id":653,"name":"Broken Cereal‚àö","steam_id":76561198087489795,"connected_time":1604000000000,"state":"active","ping":64},{"user_id":648,"name":"xiii","steam_id":76561198079416036,"connected_time":2455000000000,"state":"active","ping":75},{"user_id":661,"name":"HOT BEEF INJECTION","steam_id":76561198043787317,"connected_time":575000000000,"state":"active","ping":121},{"user_id":608,"name":"DFR Le4n!!!","steam_id":76561198045522596,"connected_time":6182000000000,"state":"active","ping":71},{"user_id":655,"name":"goober","steam_id":76561198943598378,"connected_time":907000000000,"state":"active","ping":42},{"user_id":639,"name":"xX_HimboSwallower_Xx","steam_id":76561198016029965,"connected_time":3578000000000,"state":"active","ping":65},{"user_id":624,"name":"BambuBabyPackRunner","steam_id":76561198320866421,"connected_time":4769000000000,"state":"active","ping":55},{"user_id":644,"name":"ATL1 | Avo","steam_id":76561197993340494,"connected_time":2478000000000,"state":"active","ping":59},{"user_id":656,"name":"GKEmperor","steam_id":76561197995187011,"connected_time":905000000000,"state":"active","ping":75},{"user_id":630,"name":"ATL1 | Crystron","steam_id":76561198880437428,"connected_time":4504000000000,"state":"active","ping":79}]},{"server_id":104,"name":"Uncletopia | Atlanta | 2 | All Maps","name_short":"atl-2","host":"atl-1.us.uncletopia.com","port":27025,"enabled":true,"region":"us-east","cc":"us","latitude":33.753746,"longitude":-84.38633,"reserved":0,"last_update":"0001-01-01T00:00:00Z","name_a2s":"Uncletopia | Atlanta | 2 | All Maps","protocol":17,"map":"cp_dustbowl","folder":"tf","game":"Team Fortress","app_id":440,"player_count":12,"max_players":24,"Bots":0,"server_type":"Dedicated","server_os":"Linux","password":true,"vac":true,"version":"7757534","steam_id":85568392924469983,"keywords":["cp","nocrits","nodmgspread","uncletopia"],"game_id":440,"stv_port":27026,"stv_name":"Uncletopia | Atlanta | 2 | All Maps | STV","players":[{"user_id":582,"name":"The French Gamer","steam_id":76561198043787070,"connected_time":119000000000,"state":"active","ping":79},{"user_id":578,"name":"pitchercity","steam_id":76561198328305373,"connected_time":303000000000,"state":"active","ping":116},{"user_id":568,"name":"Felipe Ramirez 2013","steam_id":76561198150497397,"connected_time":993000000000,"state":"active","ping":69},{"user_id":569,"name":"Blando","steam_id":76561199010194747,"connected_time":902000000000,"state":"active","ping":53},{"user_id":572,"name":"CHOPPER GOT A CHAINSAW ON IT","steam_id":76561198343731774,"connected_time":525000000000,"state":"active","ping":45},{"user_id":559,"name":"Shystie","steam_id":76561198025371440,"connected_time":1832000000000,"state":"active","ping":85},{"user_id":581,"name":"bbbbb","steam_id":76561198095480838,"connected_time":239000000000,"state":"active","ping":100},{"user_id":575,"name":"Vile","steam_id":76561198085615710,"connected_time":412000000000,"state":"active","ping":108},{"user_id":574,"name":"Crystal Mongoose","steam_id":76561198001585325,"connected_time":459000000000,"state":"active","ping":44},{"user_id":579,"name":"superwarm07","steam_id":76561199196313157,"connected_time":281000000000,"state":"active","ping":73},{"user_id":577,"name":"Daniel","steam_id":76561198986620510,"connected_time":379000000000,"state":"active","ping":60},{"user_id":560,"name":"Maverick","steam_id":76561198035615249,"connected_time":1751000000000,"state":"active","ping":50}]},{"server_id":400,"name":"Uncletopia | Atlanta | 3 | Community","name_short":"atl-3","host":"atl-1.us.uncletopia.com","port":27035,"enabled":true,"region":"us-east","cc":"us","latitude":33.753746,"longitude":-84.38633,"reserved":0,"last_update":"0001-01-01T00:00:00Z","name_a2s":"Uncletopia | Atlanta | 3 | Community","protocol":17,"map":"workshop/cp_logjam_rc12.ugc454812035","folder":"tf","game":"Team Fortress","app_id":440,"player_count":0,"max_players":24,"Bots":0,"server_type":"Dedicated","server_os":"Linux","password":true,"vac":true,"version":"7757534","steam_id":85568392924515187,"keywords":["cp","nocrits","nodmgspread","uncletopia"],"game_id":440,"stv_port":27036,"stv_name":"Uncletopia | Atlanta | 3 | Community | STV","players":null},{"server_id":401,"name":"Uncletopia | Atlanta | 4 | No Payload","name_short":"atl-4","host":"atl-1.us.uncletopia.com","port":27045,"enabled":true,"region":"us-east","cc":"us","latitude":33.753746,"longitude":-84.38633,"reserved":0,"last_update":"0001-01-01T00:00:00Z","name_a2s":"","protocol":0,"map":"","folder":"","game":"","app_id":0,"player_count":0,"max_players":0,"Bots":0,"server_type":"","server_os":"","password":false,"vac":false,"version":"","steam_id":0,"keywords":null,"game_id":0,"stv_port":0,"stv_name":"","players":null},{"server_id":2,"name":"Uncletopia | Chicago | 1 | All Maps","name_short":"chi-1","host":"chi-1.us.uncletopia.com","port":27015,"enabled":true,"region":"us-central","cc":"us","latitude":41.881832,"longitude":-87.62318,"reserved":0,"last_update":"0001-01-01T00:00:00Z","name_a2s":"Uncletopia | Chicago | 1 | All Maps","protocol":17,"map":"pl_swiftwater_final1","folder":"tf","game":"Team Fortress","app_id":440,"player_count":21,"max_players":24,"Bots":0,"server_type":"Dedicated","server_os":"Linux","password":true,"vac":true,"version":"7757534","steam_id":85568392924469984,"keywords":["nocrits","nodmgspread","payload","uncletopia"],"game_id":440,"stv_port":27016,"stv_name":"Uncletopia | Chicago | 1 | All Maps | STV","players":[{"user_id":635,"name":"strawberry","steam_id":76561198101926397,"connected_time":1378000000000,"state":"active","ping":49},{"user_id":652,"name":"The Super Mario Bros. Movie","steam_id":76561198871692156,"connected_time":443000000000,"state":"active","ping":100},{"user_id":604,"name":"Salad gaming (real)","steam_id":76561198298310744,"connected_time":3067000000000,"state":"active","ping":76},{"user_id":606,"name":"LooperDooper","steam_id":76561198162464484,"connected_time":3032000000000,"state":"active","ping":83},{"user_id":645,"name":"The jesus guy (FRNK)","steam_id":76561198237997622,"connected_time":855000000000,"state":"active","ping":178},{"user_id":651,"name":"Zoo Keeper Engie","steam_id":76561198064380111,"connected_time":507000000000,"state":"active","ping":79},{"user_id":608,"name":"Eugene Thaddeus Hinkle V","steam_id":76561198821535846,"connected_time":2989000000000,"state":"active","ping":68},{"user_id":653,"name":"Pizza","steam_id":76561198207407833,"connected_time":382000000000,"state":"active","ping":74},{"user_id":611,"name":"ultralisk52","steam_id":76561198051666604,"connected_time":2922000000000,"state":"active","ping":62},{"user_id":655,"name":"MushySushi üî•","steam_id":76561198007769611,"connected_time":308000000000,"state":"active","ping":135},{"user_id":638,"name":"Dr. B Busta","steam_id":76561198206387303,"connected_time":1236000000000,"state":"active","ping":100},{"user_id":637,"name":"Tobo","steam_id":76561198085846393,"connected_time":1311000000000,"state":"active","ping":86},{"user_id":658,"name":"Enderkill777","steam_id":76561198876915153,"connected_time":71000000000,"state":"active","ping":114},{"user_id":650,"name":"donk","steam_id":76561198040360395,"connected_time":683000000000,"state":"active","ping":62},{"user_id":641,"name":"c64guy","steam_id":76561198023022744,"connected_time":1208000000000,"state":"active","ping":73},{"user_id":648,"name":"JudoTrip","steam_id":76561197966111220,"connected_time":746000000000,"state":"active","ping":99},{"user_id":657,"name":"Windy Writer","steam_id":76561198048217633,"connected_time":120000000000,"state":"active","ping":46},{"user_id":656,"name":"Sussin'","steam_id":76561198059813696,"connected_time":296000000000,"state":"active","ping":71},{"user_id":642,"name":"TJThomas","steam_id":76561198038292405,"connected_time":1203000000000,"state":"active","ping":81},{"user_id":644,"name":"jayhong","steam_id":76561198046772832,"connected_time":935000000000,"state":"active","ping":67},{"user_id":634,"name":"Howard Hamlin","steam_id":76561198881039861,"connected_time":1467000000000,"state":"active","ping":54}]},{"server_id":106,"name":"Uncletopia | Chicago | 2 | All Maps","name_short":"chi-2","host":"chi-1.us.uncletopia.com","port":27025,"enabled":true,"region":"us-central","cc":"us","latitude":41.881832,"longitude":-87.62318,"reserved":0,"last_update":"0001-01-01T00:00:00Z","name_a2s":"Uncletopia | Chicago | 2 | All Maps","protocol":17,"map":"pl_pier","folder":"tf","game":"Team Fortress","app_id":440,"player_count":24,"max_players":24,"Bots":0,"server_type":"Dedicated","server_os":"Linux","password":true,"vac":true,"version":"7757534","steam_id":85568392924469985,"keywords":["nocrits","nodmgspread","payload","uncletopia"],"game_id":440,"stv_port":27026,"stv_name":"Uncletopia | Chicago | 2 | All Maps | STV","players":[{"user_id":412,"name":"pissbaby","steam_id":76561198155434598,"connected_time":1811000000000,"state":"active","ping":89},{"user_id":387,"name":"b‚ô•bb[Y!]","steam_id":76561198029549729,"connected_time":3780000000000,"state":"active","ping":89},{"user_id":425,"name":"Piogre","steam_id":76561198006182258,"connected_time":532000000000,"state":"active","ping":47},{"user_id":264,"name":"A Puppy","steam_id":76561198828184456,"connected_time":10680000000000,"state":"active","ping":57},{"user_id":414,"name":"27 blends","steam_id":76561197997100185,"connected_time":1749000000000,"state":"active","ping":86},{"user_id":409,"name":"Mr. Sauce","steam_id":76561198055512324,"connected_time":1871000000000,"state":"active","ping":67},{"user_id":401,"name":"just jazz","steam_id":76561198010637797,"connected_time":3143000000000,"state":"active","ping":85},{"user_id":403,"name":"Bonchiko","steam_id":76561198065133470,"connected_time":2903000000000,"state":"active","ping":64},{"user_id":417,"name":"Skyblade64","steam_id":76561198042177790,"connected_time":1622000000000,"state":"active","ping":45},{"user_id":429,"name":"Jombi","steam_id":76561198427813097,"connected_time":30000000000,"state":"active","ping":78},{"user_id":404,"name":"Eden Hazard","steam_id":76561198089241053,"connected_time":2898000000000,"state":"active","ping":69},{"user_id":378,"name":"Serb","steam_id":76561198135049906,"connected_time":4779000000000,"state":"active","ping":69},{"user_id":426,"name":"Greckoboi","steam_id":76561199114579822,"connected_time":288000000000,"state":"active","ping":60},{"user_id":415,"name":"cereaI","steam_id":76561198066929519,"connected_time":1736000000000,"state":"active","ping":80},{"user_id":427,"name":"^2Moving^1shadoW","steam_id":76561198078674411,"connected_time":283000000000,"state":"active","ping":79},{"user_id":385,"name":"twitch.tv/Yoshi21 | TF2Pugs.com","steam_id":76561198002516729,"connected_time":3819000000000,"state":"active","ping":73},{"user_id":384,"name":"bojack from the show bojack hor","steam_id":76561198053006712,"connected_time":3975000000000,"state":"active","ping":59},{"user_id":411,"name":"Sprucelass","steam_id":76561197998391724,"connected_time":1868000000000,"state":"active","ping":49},{"user_id":423,"name":"Buttlet","steam_id":76561198097400529,"connected_time":879000000000,"state":"active","ping":60},{"user_id":382,"name":"cotton candy thief","steam_id":76561198058998371,"connected_time":4151000000000,"state":"active","ping":63},{"user_id":418,"name":"I Have A Gun","steam_id":76561198407152424,"connected_time":1462000000000,"state":"active","ping":57},{"user_id":346,"name":"Pika","steam_id":76561198068063436,"connected_time":7198000000000,"state":"active","ping":54},{"user_id":406,"name":"tweedle-dee","steam_id":76561198278906807,"connected_time":2033000000000,"state":"active","ping":87},{"user_id":428,"name":"aqua","steam_id":76561199407709552,"connected_time":235000000000,"state":"active","ping":56}]},{"server_id":402,"name":"Uncletopia | Chicago | 3 | All Maps","name_short":"chi-3","host":"chi-1.us.uncletopia.com","port":27035,"enabled":true,"region":"us-central","cc":"us","latitude":41.881832,"longitude":-87.62318,"reserved":0,"last_update":"0001-01-01T00:00:00Z","name_a2s":"Uncletopia | Chicago | 3 | All Maps","protocol":17,"map":"ctf_doublecross","folder":"tf","game":"Team Fortress","app_id":440,"player_count":21,"max_players":24,"Bots":0,"server_type":"Dedicated","server_os":"Linux","password":true,"vac":true,"version":"7757534","steam_id":85568392924515191,"keywords":["ctf","nocrits","nodmgspread","uncletopia"],"game_id":440,"stv_port":27036,"stv_name":"Uncletopia | Chicago | 3 | All Maps | STV","players":[{"user_id":419,"name":"[DEEP] Danmar33","steam_id":76561198056453091,"connected_time":510000000000,"state":"active","ping":48},{"user_id":421,"name":"cabbage","steam_id":76561198103496593,"connected_time":303000000000,"state":"active","ping":61},{"user_id":425,"name":"Lars von Tryhard","steam_id":76561198063140970,"connected_time":183000000000,"state":"active","ping":151},{"user_id":420,"name":"AFK BRB","steam_id":76561198104939612,"connected_time":467000000000,"state":"active","ping":50},{"user_id":422,"name":"‚úøÁãêÂ¶ªakemi","steam_id":76561198406252824,"connected_time":298000000000,"state":"active","ping":101},{"user_id":413,"name":"autumnal.messenger","steam_id":76561199345816635,"connected_time":772000000000,"state":"active","ping":101},{"user_id":429,"name":"Tom Cr√∫aich","steam_id":76561197999439911,"connected_time":63000000000,"state":"active","ping":73},{"user_id":398,"name":"Auburn Beard","steam_id":76561198056188802,"connected_time":1867000000000,"state":"active","ping":90},{"user_id":382,"name":"Chicken Soup","steam_id":76561197989268948,"connected_time":3235000000000,"state":"active","ping":71},{"user_id":416,"name":"Button Cubby‚Ñ¢","steam_id":76561198009057299,"connected_time":622000000000,"state":"active","ping":71},{"user_id":417,"name":"highlanda","steam_id":76561198201259645,"connected_time":610000000000,"state":"active","ping":63},{"user_id":426,"name":"Scoober","steam_id":76561198079736959,"connected_time":147000000000,"state":"active","ping":78},{"user_id":427,"name":"TheDieeg","steam_id":76561199443116996,"connected_time":134000000000,"state":"active","ping":96},{"user_id":386,"name":"Challenger Charles","steam_id":76561198005576553,"connected_time":3151000000000,"state":"active","ping":84},{"user_id":388,"name":"Dirt Mammal","steam_id":76561198040781653,"connected_time":3109000000000,"state":"active","ping":102},{"user_id":389,"name":"Clump","steam_id":76561198049690860,"connected_time":3108000000000,"state":"active","ping":100},{"user_id":363,"name":"Bearegard","steam_id":76561198061926542,"connected_time":4270000000000,"state":"active","ping":71},{"user_id":428,"name":"Potato","steam_id":76561198115677693,"connected_time":126000000000,"state":"active","ping":59},{"user_id":404,"name":"CreativeUsername","steam_id":76561198186045503,"connected_time":1694000000000,"state":"active","ping":50},{"user_id":392,"name":"tyg","steam_id":76561198056246867,"connected_time":3040000000000,"state":"active","ping":65},{"user_id":406,"name":"PeopleOrderOurPatties","steam_id":76561198323144922,"connected_time":1646000000000,"state":"active","ping":79}]},{"server_id":403,"name":"Uncletopia | Chicago | 4 | All Maps","name_short":"chi-4","host":"chi-1.us.uncletopia.com","port":27045,"enabled":true,"region":"us-central","cc":"us","latitude":41.881832,"longitude":-87.62318,"reserved":0,"last_update":"0001-01-01T00:00:00Z","name_a2s":"Uncletopia | Chicago | 4 | All Maps","protocol":17,"map":"pl_barnblitz","folder":"tf","game":"Team Fortress","app_id":440,"player_count":24,"max_players":24,"Bots":0,"server_type":"Dedicated","server_os":"Linux","password":true,"vac":true,"version":"7757534","steam_id":85568392924515193,"keywords":["nocrits","nodmgspread","payload","uncletopia"],"game_id":440,"stv_port":27046,"stv_name":"Uncletopia | Chicago | 4 | All Maps | STV","players":[{"user_id":362,"name":"Goldensliv","steam_id":76561198161673891,"connected_time":756000000000,"state":"active","ping":90},{"user_id":326,"name":"Cuphead","steam_id":76561198211892779,"connected_time":3074000000000,"state":"active","ping":63},{"user_id":317,"name":"Bottom feeder","steam_id":76561198181298169,"connected_time":3725000000000,"state":"active","ping":57},{"user_id":357,"name":"SenTreats","steam_id":76561198085835841,"connected_time":970000000000,"state":"active","ping":115},{"user_id":372,"name":"Jezzus","steam_id":76561199289676387,"connected_time":321000000000,"state":"active","ping":83},{"user_id":348,"name":"Rage Pyro","steam_id":76561197998285726,"connected_time":1650000000000,"state":"active","ping":79},{"user_id":370,"name":"self sufficient kitten","steam_id":76561197960592612,"connected_time":401000000000,"state":"active","ping":90},{"user_id":363,"name":"Thot Police","steam_id":76561198084299100,"connected_time":755000000000,"state":"active","ping":55},{"user_id":377,"name":"Flooder","steam_id":76561198043792818,"connected_time":171000000000,"state":"active","ping":112},{"user_id":365,"name":"Sprit ‚ô•","steam_id":76561198268780781,"connected_time":730000000000,"state":"active","ping":46},{"user_id":342,"name":"OpenDown","steam_id":76561198064132688,"connected_time":1976000000000,"state":"active","ping":57},{"user_id":350,"name":"Brother Seamus","steam_id":76561197970450546,"connected_time":1563000000000,"state":"active","ping":115},{"user_id":366,"name":"OKlWONT","steam_id":76561198060328407,"connected_time":683000000000,"state":"active","ping":75},{"user_id":360,"name":"Dale Earnhardt, Jr.","steam_id":76561198096344570,"connected_time":833000000000,"state":"active","ping":70},{"user_id":367,"name":"Xii","steam_id":76561198860209947,"connected_time":608000000000,"state":"active","ping":56},{"user_id":351,"name":"a table","steam_id":76561198158461279,"connected_time":1548000000000,"state":"active","ping":64},{"user_id":371,"name":"girlpeen supreme","steam_id":76561198031242903,"connected_time":376000000000,"state":"active","ping":60},{"user_id":368,"name":"e doctor","steam_id":76561198081851446,"connected_time":594000000000,"state":"active","ping":45},{"user_id":332,"name":"‚ù§ Ashley ‚ù§","steam_id":76561198056428303,"connected_time":3009000000000,"state":"active","ping":100},{"user_id":369,"name":"Goat","steam_id":76561198068447650,"connected_time":498000000000,"state":"active","ping":65},{"user_id":373,"name":"crexorz","steam_id":76561198890949432,"connected_time":311000000000,"state":"active","ping":75},{"user_id":374,"name":"arbys sucks 69 69","steam_id":76561198083731489,"connected_time":245000000000,"state":"active","ping":49},{"user_id":359,"name":"Madrox Who?","steam_id":76561197988859134,"connected_time":885000000000,"state":"active","ping":75},{"user_id":376,"name":"garfield","steam_id":76561198114119308,"connected_time":219000000000,"state":"active","ping":61}]},{"server_id":36,"name":"Uncletopia | Chicago | 5 | All Maps","name_short":"chi-5","host":"chi-2.us.uncletopia.com","port":27015,"enabled":true,"region":"us-central","cc":"us","latitude":41.881832,"longitude":-87.62318,"reserved":0,"last_update":"0001-01-01T00:00:00Z","name_a2s":"Uncletopia | Chicago | 5 | All Maps","protocol":17,"map":"pl_barnblitz","folder":"tf","game":"Team Fortress","app_id":440,"player_count":24,"max_players":24,"Bots":0,"server_type":"Dedicated","server_os":"Linux","password":true,"vac":true,"version":"7757534","steam_id":85568392924866362,"keywords":["nocrits","nodmgspread","payload","uncletopia"],"game_id":440,"stv_port":27016,"stv_name":"Uncletopia | Chicago | 5 | All Maps | STV","players":[{"user_id":965,"name":"Wamce","steam_id":76561198082187052,"connected_time":103000000000,"state":"active","ping":59},{"user_id":960,"name":"simpleton_69","steam_id":76561198997727102,"connected_time":1201000000000,"state":"active","ping":58},{"user_id":959,"name":"raidlps","steam_id":76561199208003679,"connected_time":1250000000000,"state":"active","ping":119},{"user_id":952,"name":"runescape sea_shanty2","steam_id":76561198397662124,"connected_time":1949000000000,"state":"active","ping":90},{"user_id":957,"name":"‚Ä∫ snow","steam_id":76561198109783729,"connected_time":1299000000000,"state":"active","ping":48},{"user_id":914,"name":"Satori Komeiji","steam_id":76561198158211423,"connected_time":4454000000000,"state":"active","ping":101},{"user_id":948,"name":"mashallah","steam_id":76561198075111427,"connected_time":2595000000000,"state":"active","ping":59},{"user_id":964,"name":"Archaftershock","steam_id":76561198117934224,"connected_time":149000000000,"state":"active","ping":99},{"user_id":966,"name":"prestige worldwide (wide)","steam_id":76561198045655893,"connected_time":73000000000,"state":"active","ping":59},{"user_id":967,"name":"(¬¥-Œπ_-ÔΩÄ)","steam_id":76561198007464245,"connected_time":55000000000,"state":"active","ping":79},{"user_id":951,"name":"NATASCHA SUPREMACY","steam_id":76561198400058665,"connected_time":1961000000000,"state":"active","ping":73},{"user_id":954,"name":"sqwyrm","steam_id":76561198171032997,"connected_time":1740000000000,"state":"active","ping":436},{"user_id":935,"name":"Discourse","steam_id":76561198984286678,"connected_time":3376000000000,"state":"active","ping":58},{"user_id":963,"name":"Chunttttt","steam_id":76561198071356231,"connected_time":696000000000,"state":"active","ping":126},{"user_id":928,"name":"ABlueScienceDude","steam_id":76561198116594535,"connected_time":3790000000000,"state":"active","ping":72},{"user_id":968,"name":"Aggravated Badger Catastrophe","steam_id":76561199105588241,"connected_time":24000000000,"state":"active","ping":71},{"user_id":937,"name":"Kaluka","steam_id":76561198036861445,"connected_time":3345000000000,"state":"active","ping":61},{"user_id":955,"name":"Mefir","steam_id":76561198013650292,"connected_time":1347000000000,"state":"active","ping":110},{"user_id":947,"name":" ï‚Ä¢·¥•‚Ä¢ î the bear","steam_id":76561197989591976,"connected_time":2763000000000,"state":"active","ping":84},{"user_id":939,"name":"Big kahuna","steam_id":76561198142024812,"connected_time":3323000000000,"state":"active","ping":84},{"user_id":940,"name":"GatorAIDS","steam_id":76561198043220092,"connected_time":3300000000000,"state":"active","ping":84},{"user_id":961,"name":"uufyfuu","steam_id":76561198142787212,"connected_time":1173000000000,"state":"active","ping":77},{"user_id":893,"name":"ShitsandGiggles‚Ñ¢","steam_id":76561198058708019,"connected_time":6013000000000,"state":"active","ping":59},{"user_id":900,"name":"A Very Confused Gentleman","steam_id":76561198051686391,"connected_time":5674000000000,"state":"active","ping":59}]},{"server_id":37,"name":"Uncletopia | Chicago | 6 | All Maps","name_short":"chi-6","host":"chi-2.us.uncletopia.com","port":27025,"enabled":true,"region":"us-central","cc":"us","latitude":41.881832,"longitude":-87.62318,"reserved":0,"last_update":"0001-01-01T00:00:00Z","name_a2s":"Uncletopia | Chicago | 6 | All Maps","protocol":17,"map":"pl_badwater","folder":"tf","game":"Team Fortress","app_id":440,"player_count":20,"max_players":24,"Bots":0,"server_type":"Dedicated","server_os":"Linux","password":true,"vac":true,"version":"7757534","steam_id":85568392924866363,"keywords":["nocrits","nodmgspread","payload","uncletopia"],"game_id":440,"stv_port":27026,"stv_name":"Uncletopia | Chicago | 6 | All Maps | STV","players":[{"user_id":467,"name":"HOMOFLOW69","steam_id":76561198829555012,"connected_time":74000000000,"state":"active","ping":103},{"user_id":380,"name":"Phil Collins","steam_id":76561198068868644,"connected_time":6342000000000,"state":"active","ping":105},{"user_id":464,"name":"Egghead","steam_id":76561198159723876,"connected_time":184000000000,"state":"active","ping":84},{"user_id":468,"name":"BruhMan","steam_id":76561199020651702,"connected_time":73000000000,"state":"active","ping":257},{"user_id":456,"name":"Moonshine Man","steam_id":76561198088010073,"connected_time":1044000000000,"state":"active","ping":100},{"user_id":457,"name":"toastman","steam_id":76561198207073088,"connected_time":760000000000,"state":"active","ping":77},{"user_id":459,"name":"Just A Red Cultist","steam_id":76561198369543102,"connected_time":407000000000,"state":"active","ping":87},{"user_id":438,"name":"The Cyberborn Butcher","steam_id":76561198802514971,"connected_time":2273000000000,"state":"active","ping":148},{"user_id":400,"name":"Moshi Man","steam_id":76561198038249762,"connected_time":5508000000000,"state":"active","ping":49},{"user_id":424,"name":"Cable_tz","steam_id":76561199078745117,"connected_time":3542000000000,"state":"active","ping":84},{"user_id":465,"name":"‚ô°Hunter‚ô°","steam_id":76561199109153042,"connected_time":166000000000,"state":"active","ping":110},{"user_id":460,"name":"IronOat","steam_id":76561198326652249,"connected_time":366000000000,"state":"active","ping":60},{"user_id":433,"name":"SirLxnely","steam_id":76561199081096354,"connected_time":2766000000000,"state":"active","ping":55},{"user_id":461,"name":"Seedkns","steam_id":76561199092210172,"connected_time":331000000000,"state":"active","ping":70},{"user_id":442,"name":"Pyro","steam_id":76561198312228050,"connected_time":2182000000000,"state":"active","ping":71},{"user_id":405,"name":"That Guy","steam_id":76561198798973444,"connected_time":5241000000000,"state":"active","ping":69},{"user_id":453,"name":"perlecta","steam_id":76561198160407837,"connected_time":1552000000000,"state":"active","ping":65},{"user_id":463,"name":"volar","steam_id":76561198954814358,"connected_time":251000000000,"state":"active","ping":48},{"user_id":437,"name":"AverageCEO","steam_id":76561198341738788,"connected_time":2293000000000,"state":"active","ping":92},{"user_id":421,"name":"deadpixel","steam_id":76561198150249843,"connected_time":4494000000000,"state":"active","ping":59}]},{"server_id":38,"name":"Uncletopia | Chicago | 7 | Stopwatch Beta","name_short":"chi-7","host":"chi-2.us.uncletopia.com","port":27035,"enabled":true,"region":"us-central","cc":"us","latitude":41.881832,"longitude":-87.62318,"reserved":0,"last_update":"0001-01-01T00:00:00Z","name_a2s":"Uncletopia | Chicago | 7 | Stopwatch Beta","protocol":17,"map":"pl_barnblitz","folder":"tf","game":"Team Fortress","app_id":440,"player_count":0,"max_players":24,"Bots":0,"server_type":"Dedicated","server_os":"Linux","password":true,"vac":true,"version":"7757534","steam_id":85568392924866364,"keywords":["nocrits","nodmgspread","payload","uncletopia"],"game_id":440,"stv_port":27036,"stv_name":"Uncletopia | Chicago | 7 | Stopwatch Beta | STV","players":null},{"server_id":39,"name":"Uncletopia | Chicago | 8 | Community","name_short":"chi-8","host":"chi-2.us.uncletopia.com","port":27045,"enabled":true,"region":"us-central","cc":"us","latitude":41.881832,"longitude":-87.62318,"reserved":0,"last_update":"0001-01-01T00:00:00Z","name_a2s":"Uncletopia | Chicago | 8 | Community","protocol":17,"map":"workshop/cp_bruhstbowl_b5.ugc2878604990","folder":"tf","game":"Team Fortress","app_id":440,"player_count":18,"max_players":24,"Bots":0,"server_type":"Dedicated","server_os":"Linux","password":true,"vac":true,"version":"7757534","steam_id":85568392924866365,"keywords":["cp","nocrits","nodmgspread","uncletopia"],"game_id":440,"stv_port":27046,"stv_name":"Uncletopia | Chicago | 8 | Community | STV","players":[{"user_id":213,"name":"The Ghost of Jay Leno","steam_id":76561198058938897,"connected_time":5705000000000,"state":"active","ping":70},{"user_id":279,"name":"Vladimir Puddin","steam_id":76561198139674520,"connected_time":1349000000000,"state":"active","ping":56},{"user_id":262,"name":"King of Lames","steam_id":76561198006366763,"connected_time":2668000000000,"state":"active","ping":62},{"user_id":288,"name":"BurR","steam_id":76561198055431367,"connected_time":326000000000,"state":"active","ping":57},{"user_id":287,"name":"Leaderofthe00fkins","steam_id":76561198281999872,"connected_time":426000000000,"state":"active","ping":104},{"user_id":261,"name":"Cryonics","steam_id":76561198314197911,"connected_time":2711000000000,"state":"active","ping":62},{"user_id":291,"name":"SleepyJackdaw","steam_id":76561198053520098,"connected_time":230000000000,"state":"active","ping":44},{"user_id":256,"name":"HE‚ÄôS IN THE GODDAMN WALLS","steam_id":76561198363267009,"connected_time":3146000000000,"state":"active","ping":70},{"user_id":251,"name":"Wooby Bear","steam_id":76561198014737582,"connected_time":3418000000000,"state":"active","ping":78},{"user_id":162,"name":"Daz","steam_id":76561198041431938,"connected_time":10597000000000,"state":"active","ping":74},{"user_id":266,"name":"Purple","steam_id":76561198046490319,"connected_time":2446000000000,"state":"active","ping":42},{"user_id":271,"name":"Chinese \"Weather\" Balloon","steam_id":76561198031675881,"connected_time":1983000000000,"state":"active","ping":47},{"user_id":284,"name":"Persona404","steam_id":76561198109635077,"connected_time":1020000000000,"state":"active","ping":76},{"user_id":128,"name":"strawberry shortcock","steam_id":76561198032040831,"connected_time":12596000000000,"state":"active","ping":83},{"user_id":264,"name":"chinese spy balloon","steam_id":76561198043794014,"connected_time":2598000000000,"state":"active","ping":55},{"user_id":286,"name":"\"Chinese\" Weather Balloon","steam_id":76561198151674993,"connected_time":843000000000,"state":"active","ping":52},{"user_id":241,"name":"Bad Namesman","steam_id":76561198027205470,"connected_time":4041000000000,"state":"active","ping":106},{"user_id":254,"name":"The Lollichop Mann","steam_id":76561199430044801,"connected_time":3277000000000,"state":"active","ping":54}]},{"server_id":8,"name":"Uncletopia | Dallas | 1 | All Maps","name_short":"dal-1","host":"dal-1.us.uncletopia.com","port":27015,"enabled":true,"region":"us-central","cc":"us","latitude":32.779167,"longitude":-96.80889,"reserved":0,"last_update":"0001-01-01T00:00:00Z","name_a2s":"Uncletopia | Dallas | 1 | All Maps","protocol":17,"map":"pl_pier","folder":"tf","game":"Team Fortress","app_id":440,"player_count":24,"max_players":24,"Bots":0,"server_type":"Dedicated","server_os":"Linux","password":true,"vac":true,"version":"7757534","steam_id":85568392924469986,"keywords":["nocrits","nodmgspread","payload","uncletopia"],"game_id":440,"stv_port":27016,"stv_name":"Uncletopia | Dallas | 1 | All Maps | STV","players":[{"user_id":449,"name":"Bot Karma","steam_id":76561198422386331,"connected_time":367000000000,"state":"active","ping":150},{"user_id":437,"name":"white woman","steam_id":76561199116679777,"connected_time":1744000000000,"state":"active","ping":71},{"user_id":454,"name":"BernardBull","steam_id":76561198036138813,"connected_time":11000000000,"state":"active","ping":59},{"user_id":451,"name":"doctor large","steam_id":76561199195836752,"connected_time":300000000000,"state":"active","ping":81},{"user_id":446,"name":"Well-off Walnut","steam_id":76561198092494136,"connected_time":568000000000,"state":"active","ping":47},{"user_id":440,"name":"Jackboi","steam_id":76561198097707558,"connected_time":1515000000000,"state":"active","ping":88},{"user_id":430,"name":"crumbles","steam_id":76561198168707036,"connected_time":1920000000000,"state":"active","ping":89},{"user_id":427,"name":"Fantastic Mr. Fox Appreciator","steam_id":76561198096306325,"connected_time":1958000000000,"state":"active","ping":91},{"user_id":406,"name":"borzier","steam_id":76561198069190432,"connected_time":5228000000000,"state":"active","ping":73},{"user_id":425,"name":"DragonHeart","steam_id":76561198013245625,"connected_time":2653000000000,"state":"active","ping":74},{"user_id":431,"name":"Ping","steam_id":76561199206514106,"connected_time":1916000000000,"state":"active","ping":76},{"user_id":410,"name":"bro i think i got rabies","steam_id":76561198204169516,"connected_time":4800000000000,"state":"active","ping":111},{"user_id":445,"name":"StevieNicholai","steam_id":76561198327310266,"connected_time":611000000000,"state":"active","ping":59},{"user_id":438,"name":"Dylan","steam_id":76561198265522923,"connected_time":1553000000000,"state":"active","ping":45},{"user_id":452,"name":"St. Jimmy","steam_id":76561199107068627,"connected_time":288000000000,"state":"active","ping":74},{"user_id":422,"name":"Shamrock Shake Oct.10.2020 @8pm","steam_id":76561198833313201,"connected_time":3689000000000,"state":"active","ping":87},{"user_id":441,"name":"Rocky","steam_id":76561198048158539,"connected_time":1497000000000,"state":"active","ping":98},{"user_id":448,"name":"EarthZebra","steam_id":76561198948607230,"connected_time":427000000000,"state":"active","ping":59},{"user_id":436,"name":"ChottoAMinute","steam_id":76561198873157775,"connected_time":1750000000000,"state":"active","ping":38},{"user_id":407,"name":"Sly Marbo","steam_id":76561198056476987,"connected_time":5196000000000,"state":"active","ping":74},{"user_id":382,"name":"Joe Swanson","steam_id":76561199089907740,"connected_time":7647000000000,"state":"active","ping":69},{"user_id":375,"name":"Ghaeril","steam_id":76561198047880019,"connected_time":9259000000000,"state":"active","ping":60},{"user_id":415,"name":"errant","steam_id":76561197961758410,"connected_time":4526000000000,"state":"active","ping":41},{"user_id":251,"name":"Insert_Name_Here","steam_id":76561198089428414,"connected_time":18404000000000,"state":"active","ping":77}]},{"server_id":108,"name":"Uncletopia | Dallas | 2 | All Maps","name_short":"dal-2","host":"dal-1.us.uncletopia.com","port":27025,"enabled":true,"region":"us-central","cc":"us","latitude":32.779167,"longitude":-96.80889,"reserved":0,"last_update":"0001-01-01T00:00:00Z","name_a2s":"Uncletopia | Dallas | 2 | All Maps","protocol":17,"map":"ctf_2fort","folder":"tf","game":"Team Fortress","app_id":440,"player_count":20,"max_players":24,"Bots":0,"server_type":"Dedicated","server_os":"Linux","password":true,"vac":true,"version":"7757534","steam_id":85568392924469988,"keywords":["ctf","nocrits","nodmgspread","uncletopia"],"game_id":440,"stv_port":27026,"stv_name":"Uncletopia | Dallas | 2 | All Maps | STV","players":[{"user_id":315,"name":"FireLily","steam_id":76561198156510018,"connected_time":1423000000000,"state":"active","ping":60},{"user_id":323,"name":"Legoman810201","steam_id":76561198150261549,"connected_time":373000000000,"state":"active","ping":89},{"user_id":325,"name":"MeontoMaru","steam_id":76561198030415152,"connected_time":291000000000,"state":"active","ping":63},{"user_id":239,"name":"Hunter Biden's laptop","steam_id":76561199475829930,"connected_time":8582000000000,"state":"active","ping":69},{"user_id":303,"name":"Not A Rapper","steam_id":76561198077523537,"connected_time":2199000000000,"state":"active","ping":92},{"user_id":326,"name":"Drywall Eater","steam_id":76561198119665706,"connected_time":288000000000,"state":"active","ping":79},{"user_id":321,"name":"ArnoldGamingÔæ†Ÿ¥","steam_id":76561198040140247,"connected_time":759000000000,"state":"active","ping":102},{"user_id":300,"name":"DrBenjas","steam_id":76561198345883103,"connected_time":2383000000000,"state":"active","ping":74},{"user_id":301,"name":"carol in HR","steam_id":76561198071775268,"connected_time":2336000000000,"state":"active","ping":106},{"user_id":322,"name":"Super Kami Guru","steam_id":76561198322956099,"connected_time":435000000000,"state":"active","ping":68},{"user_id":310,"name":"Pope","steam_id":76561198053768137,"connected_time":1531000000000,"state":"active","ping":46},{"user_id":251,"name":"TTV/ArcticFlesh","steam_id":76561198099678868,"connected_time":6451000000000,"state":"active","ping":70},{"user_id":296,"name":"„Äê‚äö ”© ‚äö„Äë","steam_id":76561198263895597,"connected_time":3493000000000,"state":"active","ping":98},{"user_id":237,"name":"Fun Police","steam_id":76561198267520577,"connected_time":9046000000000,"state":"active","ping":83},{"user_id":313,"name":"N'wah","steam_id":76561198066297673,"connected_time":1485000000000,"state":"active","ping":104},{"user_id":327,"name":"Cursed Dog","steam_id":76561198090785078,"connected_time":276000000000,"state":"active","ping":69},{"user_id":330,"name":"Lennie Longfinger","steam_id":76561198276959460,"connected_time":49000000000,"state":"active","ping":111},{"user_id":331,"name":"*****setget","steam_id":76561198118824188,"connected_time":43000000000,"state":"active","ping":122},{"user_id":320,"name":"mehr","steam_id":76561198052076588,"connected_time":1079000000000,"state":"active","ping":77},{"user_id":317,"name":"BurnN8or101","steam_id":76561198132668224,"connected_time":1417000000000,"state":"active","ping":58}]},{"server_id":5,"name":"Uncletopia | Frankfurt | 1 | All Maps","name_short":"frk-1","host":"frk-1.de.uncletopia.com","port":27015,"enabled":true,"region":"eu","cc":"de","latitude":50.110924,"longitude":8.682127,"reserved":0,"last_update":"0001-01-01T00:00:00Z","name_a2s":"Uncletopia | Frankfurt | 1 | All Maps","protocol":17,"map":"pl_frontier_final","folder":"tf","game":"Team Fortress","app_id":440,"player_count":7,"max_players":24,"Bots":0,"server_type":"Dedicated","server_os":"Linux","password":true,"vac":true,"version":"7757534","steam_id":85568392924469989,"keywords":["nocrits","nodmgspread","payload","uncletopia"],"game_id":440,"stv_port":27016,"stv_name":"Uncletopia | Frankfurt | 1 | All Maps | STV","players":[{"user_id":5,"name":"|hmc|hmc|","steam_id":76561198998684199,"connected_time":994000000000,"state":"active","ping":109},{"user_id":4,"name":"pfizer","steam_id":76561198846784757,"connected_time":1025000000000,"state":"active","ping":67},{"user_id":6,"name":"Cenni","steam_id":76561198236644024,"connected_time":986000000000,"state":"active","ping":55},{"user_id":7,"name":"I eat plutonium cores","steam_id":76561198339480413,"connected_time":765000000000,"state":"active","ping":72},{"user_id":8,"name":"grandpa's post-mortem photo","steam_id":76561198130116078,"connected_time":544000000000,"state":"active","ping":90},{"user_id":10,"name":"63756d","steam_id":76561198808699024,"connected_time":234000000000,"state":"active","ping":56},{"user_id":11,"name":"ru7rover3","steam_id":76561199092085318,"connected_time":53000000000,"state":"active","ping":89}]},{"server_id":110,"name":"Uncletopia | Frankfurt | 2 | All Maps","name_short":"frk-2","host":"frk-1.de.uncletopia.com","port":27025,"enabled":true,"region":"eu","cc":"de","latitude":50.110924,"longitude":8.682127,"reserved":0,"last_update":"0001-01-01T00:00:00Z","name_a2s":"Uncletopia | Frankfurt | 2 | All Maps","protocol":17,"map":"cp_snakewater_final1","folder":"tf","game":"Team Fortress","app_id":440,"player_count":0,"max_players":24,"Bots":0,"server_type":"Dedicated","server_os":"Linux","password":true,"vac":true,"version":"7757534","steam_id":85568392924469990,"keywords":["cp","nocrits","nodmgspread","uncletopia"],"game_id":440,"stv_port":27026,"stv_name":"Uncletopia | Frankfurt | 2 | All Maps | STV","players":null},{"server_id":308,"name":"Uncletopia | Frankfurt | 3 | All Maps","name_short":"frk-3","host":"frk-1.de.uncletopia.com","port":27035,"enabled":true,"region":"eu","cc":"de","latitude":50.110924,"longitude":8.682127,"reserved":0,"last_update":"0001-01-01T00:00:00Z","name_a2s":"Uncletopia | Frankfurt | 3 | All Maps","protocol":17,"map":"pl_swiftwater_final1","folder":"tf","game":"Team Fortress","app_id":440,"player_count":0,"max_players":24,"Bots":0,"server_type":"Dedicated","server_os":"Linux","password":true,"vac":true,"version":"7757534","steam_id":85568392924504274,"keywords":["nocrits","nodmgspread","payload","uncletopia"],"game_id":440,"stv_port":27036,"stv_name":"Uncletopia | Frankfurt | 3 | All Maps | STV","players":null},{"server_id":309,"name":"Uncletopia | Frankfurt | 4 | All Maps","name_short":"frk-4","host":"frk-1.de.uncletopia.com","port":27045,"enabled":true,"region":"eu","cc":"de","latitude":50.110924,"longitude":8.682127,"reserved":0,"last_update":"0001-01-01T00:00:00Z","name_a2s":"Uncletopia | Frankfurt | 4 | All Maps","protocol":17,"map":"koth_viaduct","folder":"tf","game":"Team Fortress","app_id":440,"player_count":0,"max_players":24,"Bots":0,"server_type":"Dedicated","server_os":"Linux","password":true,"vac":true,"version":"7757534","steam_id":85568392924504275,"keywords":["cp","nocrits","nodmgspread","uncletopia"],"game_id":440,"stv_port":27046,"stv_name":"Uncletopia | Frankfurt | 4 | All Maps | STV","players":null},{"server_id":310,"name":"Uncletopia | Frankfurt | 5 | All Maps","name_short":"frk-5","host":"frk-1.de.uncletopia.com","port":27055,"enabled":true,"region":"eu","cc":"de","latitude":50.110924,"longitude":8.682127,"reserved":0,"last_update":"0001-01-01T00:00:00Z","name_a2s":"Uncletopia | Frankfurt | 5 | All Maps","protocol":17,"map":"koth_lakeside_final","folder":"tf","game":"Team Fortress","app_id":440,"player_count":0,"max_players":24,"Bots":0,"server_type":"Dedicated","server_os":"Linux","password":true,"vac":true,"version":"7757534","steam_id":85568392924504277,"keywords":["cp","nocrits","nodmgspread","uncletopia"],"game_id":440,"stv_port":27056,"stv_name":"Uncletopia | Frankfurt | 5 | All Maps | STV","players":null},{"server_id":311,"name":"Uncletopia | Frankfurt | 6 | All Maps","name_short":"frk-6","host":"frk-1.de.uncletopia.com","port":27065,"enabled":true,"region":"eu","cc":"de","latitude":50.110924,"longitude":8.682127,"reserved":0,"last_update":"0001-01-01T00:00:00Z","name_a2s":"Uncletopia | Frankfurt | 6 | All Maps","protocol":17,"map":"pl_frontier_final","folder":"tf","game":"Team Fortress","app_id":440,"player_count":0,"max_players":24,"Bots":0,"server_type":"Dedicated","server_os":"Linux","password":true,"vac":true,"version":"7757534","steam_id":85568392924504278,"keywords":["nocrits","nodmgspread","payload","uncletopia"],"game_id":440,"stv_port":27066,"stv_name":"Uncletopia | Frankfurt | 6 | All Maps | STV","players":null},{"server_id":23,"name":"Uncletopia | Frankfurt | 7 | Stopwatch Beta","name_short":"frk-7","host":"frk-1.de.uncletopia.com","port":27075,"enabled":true,"region":"eu","cc":"de","latitude":50.110924,"longitude":8.682127,"reserved":0,"last_update":"0001-01-01T00:00:00Z","name_a2s":"Uncletopia | Frankfurt | 7 | Stopwatch Beta","protocol":17,"map":"cp_sunshine","folder":"tf","game":"Team Fortress","app_id":440,"player_count":0,"max_players":24,"Bots":0,"server_type":"Dedicated","server_os":"Linux","password":true,"vac":true,"version":"7757534","steam_id":85568392924742827,"keywords":["cp","nocrits","nodmgspread","uncletopia"],"game_id":440,"stv_port":27076,"stv_name":"Uncletopia | Frankfurt | 7 | Stopwatch Beta | STV","players":null},{"server_id":24,"name":"Uncletopia | Frankfurt | 8 | Community","name_short":"frk-8","host":"frk-1.de.uncletopia.com","port":27085,"enabled":true,"region":"eu","cc":"de","latitude":50.110924,"longitude":8.682127,"reserved":0,"last_update":"0001-01-01T00:00:00Z","name_a2s":"Uncletopia | Frankfurt | 8 | Community","protocol":17,"map":"koth_lakeside_final","folder":"tf","game":"Team Fortress","app_id":440,"player_count":0,"max_players":24,"Bots":0,"server_type":"Dedicated","server_os":"Linux","password":true,"vac":true,"version":"7757534","steam_id":85568392924742828,"keywords":["cp","nocrits","nodmgspread","uncletopia"],"game_id":440,"stv_port":27086,"stv_name":"Uncletopia | Frankfurt | 8 | Community | STV","players":null},{"server_id":202,"name":"Uncletopia | Hong Kong | 1 | All Maps","name_short":"hgk-1","host":"hgk-1.hk.uncletopia.com","port":27015,"enabled":true,"region":"asia","cc":"hk","latitude":22.302711,"longitude":114.177216,"reserved":0,"last_update":"0001-01-01T00:00:00Z","name_a2s":"Uncletopia | Hong Kong | 1 | All Maps","protocol":17,"map":"pl_badwater","folder":"tf","game":"Team Fortress","app_id":440,"player_count":4,"max_players":24,"Bots":0,"server_type":"Dedicated","server_os":"Linux","password":true,"vac":true,"version":"7757534","steam_id":85568392924494504,"keywords":["nocrits","nodmgspread","payload","uncletopia"],"game_id":440,"stv_port":27016,"stv_name":"Uncletopia | Hong Kong | 1 | All Maps | STV","players":[{"user_id":15,"name":"Newbie.(cant chat)","steam_id":76561199131526926,"connected_time":2014000000000,"state":"active","ping":83},{"user_id":16,"name":"Spoigus","steam_id":76561199014028199,"connected_time":1339000000000,"state":"active","ping":265},{"user_id":17,"name":"cellum95","steam_id":76561198172146871,"connected_time":523000000000,"state":"active","ping":70},{"user_id":19,"name":"weizell200","steam_id":76561199471288943,"connected_time":66000000000,"state":"active","ping":414}]},{"server_id":1,"name":"Uncletopia | Los Angeles | 1 | All Maps","name_short":"lax-1","host":"lax-1.us.uncletopia.com","port":27015,"enabled":true,"region":"us-west","cc":"us","latitude":33.94279,"longitude":-118.41004,"reserved":0,"last_update":"0001-01-01T00:00:00Z","name_a2s":"Uncletopia | Los Angeles | 1 | All Maps","protocol":17,"map":"pl_badwater","folder":"tf","game":"Team Fortress","app_id":440,"player_count":24,"max_players":24,"Bots":0,"server_type":"Dedicated","server_os":"Linux","password":true,"vac":true,"version":"7757534","steam_id":85568392924469991,"keywords":["nocrits","nodmgspread","payload","uncletopia"],"game_id":440,"stv_port":27016,"stv_name":"Uncletopia | Los Angeles | 1 | All Maps | STV","players":[{"user_id":258,"name":"Landlord","steam_id":76561198987913057,"connected_time":2373000000000,"state":"active","ping":67},{"user_id":259,"name":"momus","steam_id":76561198966979196,"connected_time":2365000000000,"state":"active","ping":58},{"user_id":246,"name":"Blumpo","steam_id":76561198324639816,"connected_time":2752000000000,"state":"active","ping":61},{"user_id":275,"name":"craxyt","steam_id":76561198050192689,"connected_time":1637000000000,"state":"active","ping":49},{"user_id":247,"name":"zuckinson","steam_id":76561198824851407,"connected_time":2691000000000,"state":"active","ping":39},{"user_id":276,"name":"BULKLanaRhoades","steam_id":76561198043909391,"connected_time":1613000000000,"state":"active","ping":82},{"user_id":280,"name":"mechanicvirus","steam_id":76561198038161480,"connected_time":948000000000,"state":"active","ping":63},{"user_id":242,"name":"Joshzu","steam_id":76561198200521137,"connected_time":2987000000000,"state":"active","ping":83},{"user_id":251,"name":"The Yelper Special","steam_id":76561198204430351,"connected_time":2567000000000,"state":"active","ping":60},{"user_id":248,"name":"Baron The Bard","steam_id":76561198149512315,"connected_time":2593000000000,"state":"active","ping":104},{"user_id":281,"name":"Cringe and Bluepilled","steam_id":76561197986530028,"connected_time":913000000000,"state":"active","ping":104},{"user_id":249,"name":"Ambassador","steam_id":76561198142781175,"connected_time":2589000000000,"state":"active","ping":53},{"user_id":282,"name":"ICK369","steam_id":76561197999045629,"connected_time":897000000000,"state":"active","ping":91},{"user_id":288,"name":"Darker Rushie","steam_id":76561198110055031,"connected_time":490000000000,"state":"active","ping":46},{"user_id":284,"name":"lolgamer247","steam_id":76561198974645534,"connected_time":855000000000,"state":"active","ping":113},{"user_id":260,"name":"Leapinglionz11","steam_id":76561199216740065,"connected_time":2307000000000,"state":"active","ping":161},{"user_id":291,"name":"Pave Rarty","steam_id":76561197967763174,"connected_time":151000000000,"state":"active","ping":73},{"user_id":277,"name":"The Horselords and Animal Gods","steam_id":76561197975094050,"connected_time":1495000000000,"state":"active","ping":55},{"user_id":279,"name":"Reef","steam_id":76561199130187039,"connected_time":1454000000000,"state":"active","ping":67},{"user_id":264,"name":"Scooby1961","steam_id":76561198019444443,"connected_time":2262000000000,"state":"active","ping":72},{"user_id":270,"name":"BajaBlast76","steam_id":76561198144272437,"connected_time":2155000000000,"state":"active","ping":66},{"user_id":266,"name":"rozz","steam_id":76561198022597081,"connected_time":2257000000000,"state":"active","ping":96},{"user_id":267,"name":"Mom","steam_id":76561198207936000,"connected_time":2239000000000,"state":"active","ping":49},{"user_id":292,"name":".223 zur ihre kopf","steam_id":76561198016470586,"connected_time":121000000000,"state":"active","ping":100}]},{"server_id":112,"name":"Uncletopia | Los Angeles | 2 | All Maps","name_short":"lax-2","host":"lax-1.us.uncletopia.com","port":27025,"enabled":true,"region":"us-west","cc":"us","latitude":33.94279,"longitude":-118.41004,"reserved":0,"last_update":"0001-01-01T00:00:00Z","name_a2s":"Uncletopia | Los Angeles | 2 | All Maps","protocol":17,"map":"pl_frontier_final","folder":"tf","game":"Team Fortress","app_id":440,"player_count":24,"max_players":24,"Bots":0,"server_type":"Dedicated","server_os":"Linux","password":true,"vac":true,"version":"7757534","steam_id":85568392924469992,"keywords":["nocrits","nodmgspread","payload","uncletopia"],"game_id":440,"stv_port":27026,"stv_name":"Uncletopia | Los Angeles | 2 | All Maps | STV","players":[{"user_id":493,"name":"LogicalFurret","steam_id":76561198350604657,"connected_time":3317000000000,"state":"active","ping":47},{"user_id":504,"name":"wlfgng","steam_id":76561198316639499,"connected_time":1656000000000,"state":"active","ping":45},{"user_id":505,"name":"Marzbee115","steam_id":76561198095821025,"connected_time":1626000000000,"state":"active","ping":44},{"user_id":522,"name":"yoyo","steam_id":76561198285758098,"connected_time":237000000000,"state":"spawning","ping":65},{"user_id":492,"name":"GeneralTaco","steam_id":76561198026783097,"connected_time":3338000000000,"state":"active","ping":73},{"user_id":517,"name":"jinmenren","steam_id":76561198104794375,"connected_time":1320000000000,"state":"active","ping":73},{"user_id":500,"name":"nella","steam_id":76561198079349621,"connected_time":2734000000000,"state":"active","ping":56},{"user_id":509,"name":"charley","steam_id":76561198828238339,"connected_time":1565000000000,"state":"active","ping":79},{"user_id":488,"name":"DAS SCHNITZELSTIEN","steam_id":76561198051137159,"connected_time":4535000000000,"state":"active","ping":83},{"user_id":521,"name":"Jolly","steam_id":76561198116357972,"connected_time":255000000000,"state":"active","ping":45},{"user_id":495,"name":"Moth13","steam_id":76561199116006136,"connected_time":3246000000000,"state":"active","ping":101},{"user_id":502,"name":"nile","steam_id":76561197980035714,"connected_time":2299000000000,"state":"active","ping":91},{"user_id":491,"name":"cow","steam_id":76561198117331762,"connected_time":3378000000000,"state":"active","ping":93},{"user_id":523,"name":"Blue Protogen - 001198","steam_id":76561198145791867,"connected_time":204000000000,"state":"active","ping":52},{"user_id":520,"name":"Aequalis747","steam_id":76561199456589841,"connected_time":861000000000,"state":"active","ping":67},{"user_id":484,"name":"Harold","steam_id":76561198057317770,"connected_time":4763000000000,"state":"active","ping":46},{"user_id":480,"name":"Jovi Boy","steam_id":76561198046605691,"connected_time":4914000000000,"state":"active","ping":63},{"user_id":524,"name":"Peter, what are you doing?","steam_id":76561198066452726,"connected_time":144000000000,"state":"active","ping":46},{"user_id":514,"name":"Octo","steam_id":76561198024056355,"connected_time":1533000000000,"state":"active","ping":64},{"user_id":459,"name":"Jax O'Gaytor","steam_id":76561198288922168,"connected_time":7178000000000,"state":"active","ping":68},{"user_id":515,"name":"Mickmissi√≥n","steam_id":76561199133527421,"connected_time":1515000000000,"state":"active","ping":58},{"user_id":471,"name":"A UsedNom","steam_id":76561198402832756,"connected_time":5709000000000,"state":"active","ping":65},{"user_id":486,"name":"Twombly","steam_id":76561198056532348,"connected_time":4761000000000,"state":"active","ping":58},{"user_id":497,"name":"weedmaster","steam_id":76561199012869095,"connected_time":3127000000000,"state":"active","ping":117}]},{"server_id":324,"name":"Uncletopia | Los Angeles | 3 | All Maps","name_short":"lax-3","host":"lax-1.us.uncletopia.com","port":27035,"enabled":true,"region":"us-west","cc":"us","latitude":33.94279,"longitude":-118.41004,"reserved":0,"last_update":"0001-01-01T00:00:00Z","name_a2s":"Uncletopia | Los Angeles | 3 | All Maps","protocol":17,"map":"pl_swiftwater_final1","folder":"tf","game":"Team Fortress","app_id":440,"player_count":0,"max_players":24,"Bots":0,"server_type":"Dedicated","server_os":"Linux","password":true,"vac":true,"version":"7757534","steam_id":85568392924510198,"keywords":["nocrits","nodmgspread","payload","uncletopia"],"game_id":440,"stv_port":27036,"stv_name":"Uncletopia | Los Angeles | 3 | All Maps | STV","players":null},{"server_id":25,"name":"Uncletopia | Los Angeles | 4 | Stopwatch Beta","name_short":"lax-4","host":"lax-1.us.uncletopia.com","port":27045,"enabled":true,"region":"us-west","cc":"us","latitude":33.94279,"longitude":-118.41004,"reserved":0,"last_update":"0001-01-01T00:00:00Z","name_a2s":"Uncletopia | Los Angeles | 4 | Stopwatch Beta","protocol":17,"map":"pl_borneo","folder":"tf","game":"Team Fortress","app_id":440,"player_count":0,"max_players":24,"Bots":0,"server_type":"Dedicated","server_os":"Linux","password":true,"vac":true,"version":"7757534","steam_id":85568392924510199,"keywords":["nocrits","nodmgspread","payload","uncletopia"],"game_id":440,"stv_port":27046,"stv_name":"Uncletopia | Los Angeles | 4 | Stopwatch Beta | STV","players":null},{"server_id":11,"name":"Uncletopia | London | 1 | All Maps","name_short":"lon-1","host":"lon-1.uk.uncletopia.com","port":27015,"enabled":true,"region":"eu","cc":"gb","latitude":51.509865,"longitude":-0.118092,"reserved":0,"last_update":"0001-01-01T00:00:00Z","name_a2s":"Uncletopia | London | 1 | All Maps","protocol":17,"map":"pl_borneo","folder":"tf","game":"Team Fortress","app_id":440,"player_count":0,"max_players":24,"Bots":0,"server_type":"Dedicated","server_os":"Linux","password":true,"vac":true,"version":"7757534","steam_id":85568392924367362,"keywords":["nocrits","nodmgspread","payload","uncletopia"],"game_id":440,"stv_port":27016,"stv_name":"Uncletopia | London | 1 | All Maps | STV","players":null},{"server_id":114,"name":"Uncletopia | London | 2 | All Maps","name_short":"lon-2","host":"lon-1.uk.uncletopia.com","port":27025,"enabled":true,"region":"eu","cc":"gb","latitude":51.509865,"longitude":-0.118092,"reserved":0,"last_update":"0001-01-01T00:00:00Z","name_a2s":"Uncletopia | London | 2 | All Maps","protocol":17,"map":"koth_viaduct","folder":"tf","game":"Team Fortress","app_id":440,"player_count":0,"max_players":24,"Bots":0,"server_type":"Dedicated","server_os":"Linux","password":true,"vac":true,"version":"7757534","steam_id":85568392924470941,"keywords":["cp","nocrits","nodmgspread","uncletopia"],"game_id":440,"stv_port":27026,"stv_name":"Uncletopia | London | 2 | All Maps | STV","players":null},{"server_id":320,"name":"Uncletopia | London | 3 | All Maps","name_short":"lon-3","host":"lon-1.uk.uncletopia.com","port":27035,"enabled":true,"region":"eu","cc":"gb","latitude":51.509865,"longitude":-0.118092,"reserved":0,"last_update":"0001-01-01T00:00:00Z","name_a2s":"Uncletopia | London | 3 | All Maps","protocol":17,"map":"cp_process_final","folder":"tf","game":"Team Fortress","app_id":440,"player_count":0,"max_players":24,"Bots":0,"server_type":"Dedicated","server_os":"Linux","password":true,"vac":true,"version":"7757534","steam_id":85568392924510192,"keywords":["cp","nocrits","nodmgspread","uncletopia"],"game_id":440,"stv_port":27036,"stv_name":"Uncletopia | London | 3 | All Maps | STV","players":null},{"server_id":321,"name":"Uncletopia | London | 4 | All Maps","name_short":"lon-4","host":"lon-1.uk.uncletopia.com","port":27045,"enabled":true,"region":"eu","cc":"gb","latitude":51.509865,"longitude":-0.118092,"reserved":0,"last_update":"0001-01-01T00:00:00Z","name_a2s":"Uncletopia | London | 4 | All Maps","protocol":17,"map":"koth_viaduct","folder":"tf","game":"Team Fortress","app_id":440,"player_count":0,"max_players":24,"Bots":0,"server_type":"Dedicated","server_os":"Linux","password":true,"vac":true,"version":"7757534","steam_id":85568392924510193,"keywords":["cp","nocrits","nodmgspread","uncletopia"],"game_id":440,"stv_port":27046,"stv_name":"Uncletopia | London | 4 | All Maps | STV","players":null},{"server_id":21,"name":"Uncletopia | London | 5 | All Maps","name_short":"lon-5","host":"lon-1.uk.uncletopia.com","port":27055,"enabled":true,"region":"eu","cc":"gb","latitude":51.509865,"longitude":-0.118092,"reserved":0,"last_update":"0001-01-01T00:00:00Z","name_a2s":"Uncletopia | London | 5 | All Maps","protocol":17,"map":"pl_frontier_final","folder":"tf","game":"Team Fortress","app_id":440,"player_count":0,"max_players":24,"Bots":0,"server_type":"Dedicated","server_os":"Linux","password":true,"vac":true,"version":"7757534","steam_id":85568392924742829,"keywords":["nocrits","nodmgspread","payload","uncletopia"],"game_id":440,"stv_port":27056,"stv_name":"Uncletopia | London | 5 | All Maps | STV","players":null},{"server_id":22,"name":"Uncletopia | London | 6 | All Maps","name_short":"lon-6","host":"lon-1.uk.uncletopia.com","port":27065,"enabled":true,"region":"eu","cc":"gb","latitude":51.509865,"longitude":-0.118092,"reserved":0,"last_update":"0001-01-01T00:00:00Z","name_a2s":"Uncletopia | London | 6 | All Maps","protocol":17,"map":"koth_viaduct","folder":"tf","game":"Team Fortress","app_id":440,"player_count":0,"max_players":24,"Bots":0,"server_type":"Dedicated","server_os":"Linux","password":true,"vac":true,"version":"7757534","steam_id":85568392924742830,"keywords":["cp","nocrits","nodmgspread","uncletopia"],"game_id":440,"stv_port":27066,"stv_name":"Uncletopia | London | 6 | All Maps | STV","players":null},{"server_id":40,"name":"Uncletopia | London | 7 | No Payload","name_short":"lon-7","host":"lon-1.uk.uncletopia.com","port":27075,"enabled":true,"region":"eu","cc":"gb","latitude":51.509865,"longitude":-0.118092,"reserved":0,"last_update":"0001-01-01T00:00:00Z","name_a2s":"Uncletopia | London | 7 | No Payload","protocol":17,"map":"cp_foundry","folder":"tf","game":"Team Fortress","app_id":440,"player_count":0,"max_players":24,"Bots":0,"server_type":"Dedicated","server_os":"Linux","password":true,"vac":true,"version":"7757534","steam_id":85568392924964314,"keywords":["cp","nocrits","nodmgspread","uncletopia"],"game_id":440,"stv_port":27076,"stv_name":"Uncletopia | London | 7 | No Payload | STV","players":null},{"server_id":41,"name":"Uncletopia | London | 8 | Community","name_short":"lon-8","host":"lon-1.uk.uncletopia.com","port":27085,"enabled":true,"region":"eu","cc":"gb","latitude":51.509865,"longitude":-0.118092,"reserved":0,"last_update":"0001-01-01T00:00:00Z","name_a2s":"Uncletopia | London | 8 | Community","protocol":17,"map":"workshop/koth_synthetic_rc6a.ugc1549817316","folder":"tf","game":"Team Fortress","app_id":440,"player_count":1,"max_players":24,"Bots":0,"server_type":"Dedicated","server_os":"Linux","password":true,"vac":true,"version":"7757534","steam_id":85568392924964315,"keywords":["cp","nocrits","nodmgspread","uncletopia"],"game_id":440,"stv_port":27086,"stv_name":"Uncletopia | London | 8 | Community | STV","players":[{"user_id":662,"name":"Calypso","steam_id":76561198082939544,"connected_time":68000000000,"state":"active","ping":206}]},{"server_id":300,"name":"Uncletopia | Montr√©al | 1 | All Maps","name_short":"mtl-1","host":"mtl-1.ca.uncletopia.com","port":27015,"enabled":true,"region":"us-east","cc":"ca","latitude":45.50889,"longitude":-73.56167,"reserved":0,"last_update":"0001-01-01T00:00:00Z","name_a2s":"Uncletopia | Montr√©al | 1 | All Maps","protocol":17,"map":"pl_borneo","folder":"tf","game":"Team Fortress","app_id":440,"player_count":1,"max_players":24,"Bots":0,"server_type":"Dedicated","server_os":"Linux","password":true,"vac":true,"version":"7757534","steam_id":85568392924500087,"keywords":["nocrits","nodmgspread","payload","uncletopia"],"game_id":440,"stv_port":27016,"stv_name":"Uncletopia | Montr√©al | 1 | All Maps | STV","players":[{"user_id":179,"name":"O'Gealbain","steam_id":76561198415527151,"connected_time":1000000000,"state":"spawning","ping":65}]},{"server_id":301,"name":"Uncletopia | Montr√©al | 2 | All Maps","name_short":"mtl-2","host":"mtl-1.ca.uncletopia.com","port":27025,"enabled":true,"region":"us-east","cc":"ca","latitude":45.50889,"longitude":-73.56167,"reserved":0,"last_update":"0001-01-01T00:00:00Z","name_a2s":"Uncletopia | Montr√©al | 2 | All Maps","protocol":17,"map":"koth_lakeside_final","folder":"tf","game":"Team Fortress","app_id":440,"player_count":0,"max_players":24,"Bots":0,"server_type":"Dedicated","server_os":"Linux","password":true,"vac":true,"version":"7757534","steam_id":85568392924500088,"keywords":["cp","nocrits","nodmgspread","uncletopia"],"game_id":440,"stv_port":27026,"stv_name":"Uncletopia | Montr√©al | 2 | All Maps | STV","players":null},{"server_id":302,"name":"Uncletopia | Montr√©al | 3 | All Maps","name_short":"mtl-3","host":"mtl-1.ca.uncletopia.com","port":27035,"enabled":true,"region":"us-east","cc":"ca","latitude":45.50889,"longitude":-73.56167,"reserved":0,"last_update":"0001-01-01T00:00:00Z","name_a2s":"Uncletopia | Montr√©al | 3 | All Maps","protocol":17,"map":"pl_badwater","folder":"tf","game":"Team Fortress","app_id":440,"player_count":0,"max_players":24,"Bots":0,"server_type":"Dedicated","server_os":"Linux","password":true,"vac":true,"version":"7757534","steam_id":85568392924500089,"keywords":["nocrits","nodmgspread","payload","uncletopia"],"game_id":440,"stv_port":27036,"stv_name":"Uncletopia | Montr√©al | 3 | All Maps | STV","players":null},{"server_id":303,"name":"Uncletopia | Montr√©al | 4 | No Payload","name_short":"mtl-4","host":"mtl-1.ca.uncletopia.com","port":27045,"enabled":true,"region":"us-east","cc":"ca","latitude":45.50889,"longitude":-73.56167,"reserved":0,"last_update":"0001-01-01T00:00:00Z","name_a2s":"Uncletopia | Montr√©al | 4 | No Payload","protocol":17,"map":"cp_mossrock","folder":"tf","game":"Team Fortress","app_id":440,"player_count":0,"max_players":24,"Bots":0,"server_type":"Dedicated","server_os":"Linux","password":true,"vac":true,"version":"7757534","steam_id":85568392924500090,"keywords":["cp","nocrits","nodmgspread","uncletopia"],"game_id":440,"stv_port":27046,"stv_name":"Uncletopia | Montr√©al | 4 | No Payload | STV","players":null},{"server_id":13,"name":"Uncletopia | New York City | 1 | All Maps","name_short":"nyc-1","host":"nyc-1.us.uncletopia.com","port":27015,"enabled":true,"region":"us-east","cc":"us","latitude":40.73061,"longitude":-73.93524,"reserved":0,"last_update":"0001-01-01T00:00:00Z","name_a2s":"Uncletopia | New York City | 1 | All Maps","protocol":17,"map":"koth_viaduct","folder":"tf","game":"Team Fortress","app_id":440,"player_count":20,"max_players":24,"Bots":0,"server_type":"Dedicated","server_os":"Linux","password":true,"vac":true,"version":"7757534","steam_id":85568392924469993,"keywords":["cp","nocrits","nodmgspread","uncletopia"],"game_id":440,"stv_port":27016,"stv_name":"Uncletopia | New York City | 1 | All Maps | STV","players":[{"user_id":540,"name":"funnyduck1","steam_id":76561198072146886,"connected_time":110000000000,"state":"active","ping":78},{"user_id":518,"name":"epicgameslauncherplaer878","steam_id":76561198360279519,"connected_time":1378000000000,"state":"active","ping":158},{"user_id":542,"name":"Doggy Girl Kikimora","steam_id":76561198097117564,"connected_time":82000000000,"state":"active","ping":72},{"user_id":519,"name":"rinvuuv","steam_id":76561199045484566,"connected_time":1376000000000,"state":"active","ping":118},{"user_id":539,"name":"snuppy","steam_id":76561199157666657,"connected_time":459000000000,"state":"active","ping":88},{"user_id":521,"name":"Klitz Drunkunt Penischmidt (Sta","steam_id":76561198050582941,"connected_time":1338000000000,"state":"active","ping":63},{"user_id":543,"name":"Kids His Age Bounce","steam_id":76561198132284338,"connected_time":11000000000,"state":"spawning","ping":77},{"user_id":532,"name":"Arrythmia","steam_id":76561198093748123,"connected_time":778000000000,"state":"active","ping":104},{"user_id":524,"name":"WatermelonSprinkles838","steam_id":76561198202518148,"connected_time":1203000000000,"state":"active","ping":70},{"user_id":525,"name":"Farseer Ulwithy","steam_id":76561197965179245,"connected_time":1167000000000,"state":"active","ping":113},{"user_id":533,"name":"pro gamer with a giant mousepad","steam_id":76561197999187629,"connected_time":752000000000,"state":"active","ping":53},{"user_id":534,"name":"Subway Fan","steam_id":76561198336372790,"connected_time":707000000000,"state":"active","ping":38},{"user_id":528,"name":"Axon","steam_id":76561198117444710,"connected_time":1068000000000,"state":"active","ping":60},{"user_id":529,"name":"SirWolfBane","steam_id":76561198090258434,"connected_time":1065000000000,"state":"active","ping":104},{"user_id":515,"name":"Ramadan Steve","steam_id":76561198138568488,"connected_time":2483000000000,"state":"active","ping":49},{"user_id":503,"name":"Uhonlapjontetkiza","steam_id":76561199431280503,"connected_time":3450000000000,"state":"active","ping":59},{"user_id":530,"name":"Plank","steam_id":76561198092413032,"connected_time":1047000000000,"state":"active","ping":67},{"user_id":531,"name":"GoldtoothFour","steam_id":76561198055529332,"connected_time":1018000000000,"state":"active","ping":77},{"user_id":535,"name":"I ate those food","steam_id":76561198084614149,"connected_time":664000000000,"state":"active","ping":41},{"user_id":537,"name":"pete_the_cat_2014","steam_id":76561198199266047,"connected_time":579000000000,"state":"active","ping":45}]},{"server_id":14,"name":"Uncletopia | New York City | 2 | All Maps","name_short":"nyc-2","host":"nyc-1.us.uncletopia.com","port":27025,"enabled":true,"region":"us-east","cc":"us","latitude":40.73061,"longitude":-73.93524,"reserved":0,"last_update":"0001-01-01T00:00:00Z","name_a2s":"Uncletopia | New York City | 2 | All Maps","protocol":17,"map":"pl_frontier_final","folder":"tf","game":"Team Fortress","app_id":440,"player_count":24,"max_players":24,"Bots":0,"server_type":"Dedicated","server_os":"Linux","password":true,"vac":true,"version":"7757534","steam_id":85568392924469994,"keywords":["nocrits","nodmgspread","payload","uncletopia"],"game_id":440,"stv_port":27026,"stv_name":"Uncletopia | New York City | 2 | All Maps | STV","players":[{"user_id":568,"name":"WEAPON OF ASS DESTRUCTION","steam_id":76561199475507686,"connected_time":1096000000000,"state":"active","ping":72},{"user_id":569,"name":"TurtleZero","steam_id":76561198314681540,"connected_time":1080000000000,"state":"active","ping":45},{"user_id":514,"name":"Braamklauw","steam_id":76561198283287697,"connected_time":6462000000000,"state":"active","ping":136},{"user_id":473,"name":"aciddragon","steam_id":76561198151211107,"connected_time":9523000000000,"state":"active","ping":105},{"user_id":546,"name":"Lore","steam_id":76561198098407538,"connected_time":2058000000000,"state":"active","ping":74},{"user_id":524,"name":"TheRatman","steam_id":76561197975916410,"connected_time":6130000000000,"state":"active","ping":55},{"user_id":570,"name":"Jun Manjoume","steam_id":76561198124040126,"connected_time":1023000000000,"state":"active","ping":53},{"user_id":525,"name":"chroma","steam_id":76561198050188632,"connected_time":5710000000000,"state":"active","ping":47},{"user_id":526,"name":"Pozyomka","steam_id":76561198086331015,"connected_time":5475000000000,"state":"active","ping":37},{"user_id":539,"name":"motherfudger","steam_id":76561198114959385,"connected_time":3423000000000,"state":"active","ping":63},{"user_id":571,"name":"Kidzbopsicle","steam_id":76561198047660691,"connected_time":1002000000000,"state":"active","ping":44},{"user_id":565,"name":"super-oofio64","steam_id":76561198954052123,"connected_time":1239000000000,"state":"active","ping":146},{"user_id":572,"name":"Phillip Jeffries","steam_id":76561198064052174,"connected_time":924000000000,"state":"active","ping":58},{"user_id":550,"name":"NovaSc6ut","steam_id":76561198277163301,"connected_time":2006000000000,"state":"active","ping":77},{"user_id":566,"name":"I_Am_Lazy","steam_id":76561199030283067,"connected_time":1176000000000,"state":"active","ping":70},{"user_id":513,"name":"Sir Quacksalot","steam_id":76561198048942777,"connected_time":6576000000000,"state":"active","ping":96},{"user_id":567,"name":"PeopleLikeStuff","steam_id":76561198053416567,"connected_time":1149000000000,"state":"active","ping":96},{"user_id":530,"name":"Ashan","steam_id":76561198085854437,"connected_time":4926000000000,"state":"active","ping":92},{"user_id":545,"name":"Grilled Of The Cheese","steam_id":76561198145066749,"connected_time":2070000000000,"state":"active","ping":53},{"user_id":575,"name":"Pineapple Cas","steam_id":76561198059729643,"connected_time":410000000000,"state":"active","ping":67},{"user_id":553,"name":"Kush","steam_id":76561198021243202,"connected_time":1981000000000,"state":"active","ping":105},{"user_id":579,"name":"One Shot and A Miss","steam_id":76561198124269698,"connected_time":16000000000,"state":"spawning","ping":55},{"user_id":574,"name":"Rachamo","steam_id":76561198935818242,"connected_time":832000000000,"state":"active","ping":64},{"user_id":577,"name":"Majin","steam_id":76561197970500151,"connected_time":344000000000,"state":"active","ping":123}]},{"server_id":15,"name":"Uncletopia | New York City | 3 | Stopwatch Beta","name_short":"nyc-3","host":"nyc-1.us.uncletopia.com","port":27035,"enabled":true,"region":"us-east","cc":"us","latitude":40.73061,"longitude":-73.93524,"reserved":0,"last_update":"0001-01-01T00:00:00Z","name_a2s":"Uncletopia | New York City | 3 | Stopwatch Beta","protocol":17,"map":"workshop/pl_badwater_pro_v12.ugc2142942074","folder":"tf","game":"Team Fortress","app_id":440,"player_count":0,"max_players":24,"Bots":0,"server_type":"Dedicated","server_os":"Linux","password":true,"vac":true,"version":"7757534","steam_id":85568392924742820,"keywords":["nocrits","nodmgspread","payload","uncletopia"],"game_id":440,"stv_port":27036,"stv_name":"Uncletopia | New York City | 3 | Stopwatch Beta | STV","players":null},{"server_id":16,"name":"Uncletopia | New York City | 4 | Community","name_short":"nyc-4","host":"nyc-1.us.uncletopia.com","port":27045,"enabled":true,"region":"us-east","cc":"us","latitude":40.73061,"longitude":-73.93524,"reserved":0,"last_update":"0001-01-01T00:00:00Z","name_a2s":"Uncletopia | New York City | 4 | Community","protocol":17,"map":"workshop/pl_vigil_rc9.ugc1266210012","folder":"tf","game":"Team Fortress","app_id":440,"player_count":0,"max_players":24,"Bots":0,"server_type":"Dedicated","server_os":"Linux","password":true,"vac":true,"version":"7757534","steam_id":85568392924742821,"keywords":["nocrits","nodmgspread","payload","uncletopia"],"game_id":440,"stv_port":27046,"stv_name":"Uncletopia | New York City | 4 | Community | STV","players":null},{"server_id":142,"name":"Uncletopia | S√£o Paulo | 1 | All Maps","name_short":"sao-1","host":"sao-1.br.uncletopia.com","port":27015,"enabled":true,"region":"sa","cc":"br","latitude":-23.533773,"longitude":-46.62529,"reserved":0,"last_update":"0001-01-01T00:00:00Z","name_a2s":"Uncletopia | S√£o Paulo | 1 | All Maps","protocol":17,"map":"cp_process_final","folder":"tf","game":"Team Fortress","app_id":440,"player_count":0,"max_players":24,"Bots":0,"server_type":"Dedicated","server_os":"Linux","password":true,"vac":true,"version":"7757534","steam_id":85568392924469996,"keywords":["cp","nocrits","nodmgspread","uncletopia"],"game_id":440,"stv_port":27016,"stv_name":"Uncletopia | S√£o Paulo | 1 | All Maps | STV","players":null},{"server_id":143,"name":"Uncletopia | S√£o Paulo | 2 | All Maps","name_short":"sao-2","host":"sao-2.br.uncletopia.com","port":27015,"enabled":true,"region":"sa","cc":"br","latitude":-23.533773,"longitude":-46.62529,"reserved":0,"last_update":"0001-01-01T00:00:00Z","name_a2s":"Uncletopia | S√£o Paulo | 2 | All Maps","protocol":17,"map":"cp_process_final","folder":"tf","game":"Team Fortress","app_id":440,"player_count":0,"max_players":24,"Bots":0,"server_type":"Dedicated","server_os":"Linux","password":true,"vac":true,"version":"7757534","steam_id":85568392924485349,"keywords":["cp","nocrits","nodmgspread","uncletopia"],"game_id":440,"stv_port":27016,"stv_name":"Uncletopia | S√£o Paulo | 2 | All Maps | STV","players":null},{"server_id":7,"name":"Uncletopia | Seattle | 1 | All Maps","name_short":"sea-1","host":"sea-1.us.uncletopia.com","port":27015,"enabled":true,"region":"us-west","cc":"us","latitude":47.608013,"longitude":-122.33517,"reserved":0,"last_update":"0001-01-01T00:00:00Z","name_a2s":"Uncletopia | Seattle | 1 | All Maps","protocol":17,"map":"koth_cascade","folder":"tf","game":"Team Fortress","app_id":440,"player_count":24,"max_players":24,"Bots":0,"server_type":"Dedicated","server_os":"Linux","password":true,"vac":true,"version":"7757534","steam_id":85568392924469997,"keywords":["cp","nocrits","nodmgspread","uncletopia"],"game_id":440,"stv_port":27016,"stv_name":"Uncletopia | Seattle | 1 | All Maps | STV","players":[{"user_id":868,"name":"BlueDragonOracle","steam_id":76561198124318349,"connected_time":430000000000,"state":"active","ping":68},{"user_id":847,"name":"everyrockstar!","steam_id":76561198272094975,"connected_time":1527000000000,"state":"active","ping":94},{"user_id":820,"name":"A Duck With Socks","steam_id":76561198018844227,"connected_time":3499000000000,"state":"active","ping":59},{"user_id":846,"name":"Strikerbolt","steam_id":76561199095622897,"connected_time":1560000000000,"state":"active","ping":95},{"user_id":804,"name":"jayeskae","steam_id":76561198144220801,"connected_time":5159000000000,"state":"active","ping":45},{"user_id":869,"name":"JustVinn","steam_id":76561198076181564,"connected_time":338000000000,"state":"active","ping":75},{"user_id":800,"name":"WACKY JIM","steam_id":76561198961641122,"connected_time":5379000000000,"state":"active","ping":59},{"user_id":764,"name":"alaska","steam_id":76561198017030029,"connected_time":8699000000000,"state":"active","ping":67},{"user_id":865,"name":"Nakasmacka","steam_id":76561198049787270,"connected_time":742000000000,"state":"active","ping":54},{"user_id":840,"name":"Hongy","steam_id":76561198012448846,"connected_time":2080000000000,"state":"active","ping":57},{"user_id":844,"name":"Lord Hater","steam_id":76561199158148782,"connected_time":1574000000000,"state":"active","ping":58},{"user_id":824,"name":"[TrC] Noisy","steam_id":76561197978859310,"connected_time":2900000000000,"state":"active","ping":58},{"user_id":864,"name":"Zesty","steam_id":76561199001310708,"connected_time":1118000000000,"state":"active","ping":81},{"user_id":842,"name":"Nightshade","steam_id":76561199011017814,"connected_time":1933000000000,"state":"active","ping":86},{"user_id":862,"name":"MyMonkeyBaby","steam_id":76561198046896670,"connected_time":1286000000000,"state":"active","ping":56},{"user_id":790,"name":"Luca","steam_id":76561198125087140,"connected_time":6220000000000,"state":"active","ping":47},{"user_id":866,"name":"bobtech12","steam_id":76561198154986566,"connected_time":741000000000,"state":"active","ping":78},{"user_id":825,"name":"[TrC] Dackstrus","steam_id":76561197973518509,"connected_time":2899000000000,"state":"active","ping":61},{"user_id":768,"name":"oo","steam_id":76561198119626492,"connected_time":8314000000000,"state":"active","ping":76},{"user_id":839,"name":"5392vin","steam_id":76561198880493511,"connected_time":2302000000000,"state":"active","ping":60},{"user_id":838,"name":"Dr. Karl, the AUS Science Guy","steam_id":76561198031278747,"connected_time":2340000000000,"state":"active","ping":46},{"user_id":830,"name":"Skabbety","steam_id":76561198168044257,"connected_time":2678000000000,"state":"active","ping":41},{"user_id":863,"name":"William P. Ennis","steam_id":76561198073464877,"connected_time":1149000000000,"state":"active","ping":98},{"user_id":861,"name":"dust | she/it","steam_id":76561198045218909,"connected_time":1327000000000,"state":"active","ping":42}]},{"server_id":119,"name":"Uncletopia | Seattle | 2 | All Maps","name_short":"sea-2","host":"sea-1.us.uncletopia.com","port":27025,"enabled":true,"region":"us-west","cc":"us","latitude":47.608013,"longitude":-122.33517,"reserved":0,"last_update":"0001-01-01T00:00:00Z","name_a2s":"Uncletopia | Seattle | 2 | All Maps","protocol":17,"map":"pl_borneo","folder":"tf","game":"Team Fortress","app_id":440,"player_count":24,"max_players":24,"Bots":0,"server_type":"Dedicated","server_os":"Linux","password":true,"vac":true,"version":"7757534","steam_id":85568392924469998,"keywords":["nocrits","nodmgspread","payload","uncletopia"],"game_id":440,"stv_port":27026,"stv_name":"Uncletopia | Seattle | 2 | All Maps | STV","players":[{"user_id":737,"name":"sora","steam_id":76561198094256973,"connected_time":1859000000000,"state":"active","ping":69},{"user_id":739,"name":"DatFluffyPancake","steam_id":76561198271958697,"connected_time":1730000000000,"state":"active","ping":59},{"user_id":747,"name":"BasedGod","steam_id":76561198061177973,"connected_time":1021000000000,"state":"active","ping":67},{"user_id":750,"name":"McNamJam","steam_id":76561198028128686,"connected_time":802000000000,"state":"active","ping":66},{"user_id":741,"name":"Klone","steam_id":76561198854485605,"connected_time":1288000000000,"state":"active","ping":116},{"user_id":721,"name":"keithykeithers","steam_id":76561197995552615,"connected_time":2846000000000,"state":"active","ping":46},{"user_id":702,"name":"SwoopShoot","steam_id":76561199024079388,"connected_time":3939000000000,"state":"active","ping":47},{"user_id":722,"name":"Big Stick","steam_id":76561198853874790,"connected_time":2825000000000,"state":"active","ping":101},{"user_id":746,"name":"Piro_agua","steam_id":76561199041880779,"connected_time":1089000000000,"state":"active","ping":51},{"user_id":733,"name":"TeriyakiDynamite","steam_id":76561198050049346,"connected_time":2018000000000,"state":"active","ping":99},{"user_id":740,"name":"Tibetan Pop Star","steam_id":76561198844903984,"connected_time":1313000000000,"state":"active","ping":93},{"user_id":748,"name":"certified cinderace slayer","steam_id":76561198421913648,"connected_time":995000000000,"state":"active","ping":50},{"user_id":734,"name":"Dob Bole","steam_id":76561198056367220,"connected_time":1989000000000,"state":"active","ping":69},{"user_id":731,"name":"exephur","steam_id":76561198135763234,"connected_time":2315000000000,"state":"active","ping":71},{"user_id":749,"name":"bauxoffdagloop","steam_id":76561199196442823,"connected_time":810000000000,"state":"active","ping":106},{"user_id":714,"name":"gloobern","steam_id":76561198341190679,"connected_time":3062000000000,"state":"active","ping":66},{"user_id":725,"name":"S Q U I S H E  T H A T  C A T","steam_id":76561198293865429,"connected_time":2665000000000,"state":"active","ping":41},{"user_id":736,"name":"Bingleton","steam_id":76561197998930473,"connected_time":1881000000000,"state":"active","ping":43},{"user_id":732,"name":"gods drunkest driver","steam_id":76561198293857963,"connected_time":2211000000000,"state":"active","ping":92},{"user_id":738,"name":"catrinaisahuman","steam_id":76561198281355729,"connected_time":1849000000000,"state":"active","ping":79},{"user_id":727,"name":"Gaming","steam_id":76561198327632113,"connected_time":2643000000000,"state":"active","ping":52},{"user_id":745,"name":"Sivinus","steam_id":76561198025589541,"connected_time":1246000000000,"state":"active","ping":97},{"user_id":706,"name":"COOL master_9","steam_id":76561198073041151,"connected_time":3765000000000,"state":"active","ping":102},{"user_id":744,"name":"R5-D4","steam_id":76561198025196439,"connected_time":1255000000000,"state":"active","ping":58}]},{"server_id":406,"name":"Uncletopia | Seattle | 3 | Stopwatch Beta","name_short":"sea-3","host":"sea-1.us.uncletopia.com","port":27035,"enabled":true,"region":"us-west","cc":"us","latitude":47.608013,"longitude":-122.33517,"reserved":0,"last_update":"0001-01-01T00:00:00Z","name_a2s":"Uncletopia | Seattle | 3 | Stopwatch Beta","protocol":17,"map":"koth_lakeside_final","folder":"tf","game":"Team Fortress","app_id":440,"player_count":0,"max_players":24,"Bots":0,"server_type":"Dedicated","server_os":"Linux","password":true,"vac":true,"version":"7757534","steam_id":85568392924515217,"keywords":["cp","nocrits","nodmgspread","uncletopia"],"game_id":440,"stv_port":27036,"stv_name":"Uncletopia | Seattle | 3 | Stopwatch Beta | STV","players":null},{"server_id":17,"name":"Uncletopia | San Francisco | 1 | All Maps","name_short":"sfo-1","host":"sfo-1.us.uncletopia.com","port":27015,"enabled":true,"region":"us-west","cc":"us","latitude":37.77397,"longitude":-122.4313,"reserved":0,"last_update":"0001-01-01T00:00:00Z","name_a2s":"Uncletopia | San Francisco | 1 | All Maps","protocol":17,"map":"pl_swiftwater_final1","folder":"tf","game":"Team Fortress","app_id":440,"player_count":24,"max_players":24,"Bots":0,"server_type":"Dedicated","server_os":"Linux","password":true,"vac":true,"version":"7757534","steam_id":85568392924469999,"keywords":["nocrits","nodmgspread","payload","uncletopia"],"game_id":440,"stv_port":27016,"stv_name":"Uncletopia | San Francisco | 1 | All Maps | STV","players":[{"user_id":109,"name":"Salty Ketchup","steam_id":76561198133905845,"connected_time":1474000000000,"state":"active","ping":58},{"user_id":116,"name":"SuperSandwichGoku","steam_id":76561198438882159,"connected_time":924000000000,"state":"active","ping":109},{"user_id":103,"name":"Nobody","steam_id":76561199352089107,"connected_time":1737000000000,"state":"active","ping":63},{"user_id":88,"name":"F3RRAL","steam_id":76561198172279275,"connected_time":3338000000000,"state":"active","ping":55},{"user_id":104,"name":"michael myers gaming","steam_id":76561198155843685,"connected_time":1726000000000,"state":"active","ping":55},{"user_id":119,"name":"bad spy player","steam_id":76561198873699671,"connected_time":337000000000,"state":"active","ping":71},{"user_id":29,"name":"the great oda nobunaga","steam_id":76561198228125224,"connected_time":5693000000000,"state":"active","ping":56},{"user_id":110,"name":"Û†Ä°","steam_id":76561198279421415,"connected_time":1463000000000,"state":"active","ping":57},{"user_id":100,"name":"Thexx ‚ù§","steam_id":76561198113823050,"connected_time":1840000000000,"state":"active","ping":73},{"user_id":120,"name":"Sir Lump","steam_id":76561198119879254,"connected_time":305000000000,"state":"active","ping":79},{"user_id":108,"name":"GP-Stealth","steam_id":76561198142906368,"connected_time":1574000000000,"state":"active","ping":61},{"user_id":70,"name":"Sierra Foxtrot","steam_id":76561197996667382,"connected_time":3758000000000,"state":"active","ping":104},{"user_id":73,"name":"Optimore","steam_id":76561198047662990,"connected_time":3669000000000,"state":"active","ping":53},{"user_id":106,"name":"Frakelord","steam_id":76561197970316904,"connected_time":1663000000000,"state":"active","ping":70},{"user_id":121,"name":"Cam(era)","steam_id":76561198285054047,"connected_time":245000000000,"state":"active","ping":73},{"user_id":44,"name":"Killer_Queen.exe","steam_id":76561198065624326,"connected_time":4140000000000,"state":"active","ping":61},{"user_id":111,"name":"SmolCloud157","steam_id":76561198842079807,"connected_time":1211000000000,"state":"active","ping":72},{"user_id":122,"name":"American Dad Funny Moments #32","steam_id":76561198254874328,"connected_time":228000000000,"state":"active","ping":74},{"user_id":118,"name":"Blank_Sicon","steam_id":76561198887041407,"connected_time":729000000000,"state":"active","ping":69},{"user_id":90,"name":"0xful","steam_id":76561198081684676,"connected_time":3308000000000,"state":"active","ping":82},{"user_id":98,"name":"aerolar connective tissue","steam_id":76561198057138795,"connected_time":2456000000000,"state":"active","ping":95},{"user_id":97,"name":"SDL","steam_id":76561198859719985,"connected_time":2602000000000,"state":"active","ping":98},{"user_id":112,"name":"ThatEmoEmu","steam_id":76561198272304706,"connected_time":1065000000000,"state":"active","ping":74},{"user_id":62,"name":"ferby","steam_id":76561198028229594,"connected_time":3848000000000,"state":"active","ping":50}]},{"server_id":18,"name":"Uncletopia | San Francisco | 2 | All Maps","name_short":"sfo-2","host":"sfo-1.us.uncletopia.com","port":27025,"enabled":true,"region":"us-west","cc":"us","latitude":37.77397,"longitude":-122.4313,"reserved":0,"last_update":"0001-01-01T00:00:00Z","name_a2s":"Uncletopia | San Francisco | 2 | All Maps","protocol":17,"map":"cp_dustbowl","folder":"tf","game":"Team Fortress","app_id":440,"player_count":21,"max_players":24,"Bots":0,"server_type":"Dedicated","server_os":"Linux","password":true,"vac":true,"version":"7757534","steam_id":85568392924470000,"keywords":["cp","nocrits","nodmgspread","uncletopia"],"game_id":440,"stv_port":27026,"stv_name":"Uncletopia | San Francisco | 2 | All Maps | STV","players":[{"user_id":123,"name":"Lalo","steam_id":76561198827278421,"connected_time":1226000000000,"state":"active","ping":86},{"user_id":145,"name":"SvicidalBug","steam_id":76561198221390504,"connected_time":42000000000,"state":"spawning","ping":94},{"user_id":125,"name":"MasterGeek.MX","steam_id":76561198063355220,"connected_time":1160000000000,"state":"active","ping":144},{"user_id":138,"name":"Japanese_Spaghetti","steam_id":76561198081019897,"connected_time":651000000000,"state":"active","ping":59},{"user_id":139,"name":"‚ôõ Wiccan_Queen ‚ôõ","steam_id":76561199262567996,"connected_time":613000000000,"state":"active","ping":102},{"user_id":126,"name":"Kung fu Mungus","steam_id":76561198069281556,"connected_time":1149000000000,"state":"active","ping":72},{"user_id":146,"name":"Janislaus","steam_id":76561198072048108,"connected_time":20000000000,"state":"spawning","ping":196},{"user_id":127,"name":"Tmiracle","steam_id":76561198052375275,"connected_time":1136000000000,"state":"active","ping":48},{"user_id":136,"name":"420blzItM8","steam_id":76561198137983285,"connected_time":702000000000,"state":"active","ping":89},{"user_id":140,"name":"beefskewer","steam_id":76561198049992949,"connected_time":589000000000,"state":"active","ping":54},{"user_id":117,"name":"DrStarBucksCoffee","steam_id":76561198037372470,"connected_time":1842000000000,"state":"active","ping":72},{"user_id":119,"name":"Site Director Corvo Gray","steam_id":76561198880838009,"connected_time":1588000000000,"state":"active","ping":84},{"user_id":80,"name":"Edward Nipplepiercings","steam_id":76561198097721532,"connected_time":3705000000000,"state":"active","ping":59},{"user_id":122,"name":"PAwnoPIES","steam_id":76561198261042991,"connected_time":1295000000000,"state":"active","ping":71},{"user_id":83,"name":"Courier711","steam_id":76561198053232343,"connected_time":3687000000000,"state":"active","ping":61},{"user_id":133,"name":"windyhawks1934","steam_id":76561199439732176,"connected_time":968000000000,"state":"active","ping":65},{"user_id":143,"name":"John Smith","steam_id":76561198185776555,"connected_time":425000000000,"state":"active","ping":59},{"user_id":114,"name":"ConiferCarver(#SaveTF2)","steam_id":76561198195875845,"connected_time":2085000000000,"state":"active","ping":48},{"user_id":109,"name":"MantisToboggan","steam_id":76561197969447887,"connected_time":2283000000000,"state":"active","ping":88},{"user_id":45,"name":"Postal Dude","steam_id":76561199229667773,"connected_time":6382000000000,"state":"active","ping":121},{"user_id":142,"name":"orlandolucas524","steam_id":76561199131978880,"connected_time":469000000000,"state":"active","ping":52}]},{"server_id":19,"name":"Uncletopia | San Francisco | 3 | Stopwatch Beta","name_short":"sfo-3","host":"sfo-1.us.uncletopia.com","port":27035,"enabled":true,"region":"us-west","cc":"us","latitude":37.77397,"longitude":-122.4313,"reserved":0,"last_update":"0001-01-01T00:00:00Z","name_a2s":"Uncletopia | San Francisco | 3 | Stopwatch Beta","protocol":17,"map":"pl_swiftwater_final1","folder":"tf","game":"Team Fortress","app_id":440,"player_count":0,"max_players":24,"Bots":0,"server_type":"Dedicated","server_os":"Linux","password":true,"vac":true,"version":"7757534","steam_id":85568392924742824,"keywords":["nocrits","nodmgspread","payload","uncletopia"],"game_id":440,"stv_port":27036,"stv_name":"Uncletopia | San Francisco | 3 | Stopwatch Beta | STV","players":null},{"server_id":20,"name":"Uncletopia | San Francisco | 4 | Community","name_short":"sfo-4","host":"sfo-1.us.uncletopia.com","port":27045,"enabled":true,"region":"us-west","cc":"us","latitude":37.77397,"longitude":-122.4313,"reserved":0,"last_update":"0001-01-01T00:00:00Z","name_a2s":"Uncletopia | San Francisco | 4 | Community","protocol":17,"map":"workshop/cp_alloy_rc3.ugc592805587","folder":"tf","game":"Team Fortress","app_id":440,"player_count":0,"max_players":24,"Bots":0,"server_type":"Dedicated","server_os":"Linux","password":true,"vac":true,"version":"7757534","steam_id":85568392924742826,"keywords":["cp","nocrits","nodmgspread","uncletopia"],"game_id":440,"stv_port":27046,"stv_name":"Uncletopia | San Francisco | 4 | Community | STV","players":null},{"server_id":141,"name":"Uncletopia | Sydney | 1 | All Maps","name_short":"syd-1","host":"syd-1.au.uncletopia.com","port":27015,"enabled":true,"region":"au","cc":"au","latitude":-33.865143,"longitude":151.2099,"reserved":0,"last_update":"0001-01-01T00:00:00Z","name_a2s":"Uncletopia | Sydney | 1 | All Maps","protocol":17,"map":"cp_dustbowl","folder":"tf","game":"Team Fortress","app_id":440,"player_count":24,"max_players":24,"Bots":0,"server_type":"Dedicated","server_os":"Linux","password":true,"vac":true,"version":"7757534","steam_id":85568392924470001,"keywords":["cp","nocrits","nodmgspread","uncletopia"],"game_id":440,"stv_port":27016,"stv_name":"Uncletopia | Sydney | 1 | All Maps | STV","players":[{"user_id":26,"name":"Zakdos","steam_id":76561199206212104,"connected_time":3213000000000,"state":"active","ping":73},{"user_id":27,"name":"ADUCK","steam_id":76561198249887912,"connected_time":3061000000000,"state":"active","ping":68},{"user_id":42,"name":"kaybee kutlet :333","steam_id":76561198038401873,"connected_time":1416000000000,"state":"active","ping":82},{"user_id":32,"name":"Viktor Reznov","steam_id":76561199248074873,"connected_time":2118000000000,"state":"active","ping":88},{"user_id":65,"name":"noobar","steam_id":76561198042991153,"connected_time":153000000000,"state":"active","ping":56},{"user_id":34,"name":"Doctor Estonia","steam_id":76561198057365089,"connected_time":2083000000000,"state":"active","ping":101},{"user_id":36,"name":"Branko","steam_id":76561199262196710,"connected_time":1937000000000,"state":"active","ping":45},{"user_id":37,"name":"Lord Oink","steam_id":76561198125237921,"connected_time":1934000000000,"state":"active","ping":44},{"user_id":38,"name":"plink","steam_id":76561198048064049,"connected_time":1492000000000,"state":"active","ping":81},{"user_id":39,"name":"Cup","steam_id":76561198038485845,"connected_time":1472000000000,"state":"active","ping":30},{"user_id":52,"name":"Distilledrain41","steam_id":76561198272717119,"connected_time":1209000000000,"state":"active","ping":45},{"user_id":43,"name":"Foxtonnes","steam_id":76561198007628373,"connected_time":1406000000000,"state":"active","ping":45},{"user_id":53,"name":"jrg","steam_id":76561197997362731,"connected_time":1197000000000,"state":"active","ping":44},{"user_id":45,"name":"justaordinarygamer","steam_id":76561199132864695,"connected_time":1342000000000,"state":"active","ping":104},{"user_id":63,"name":"Humboldt","steam_id":76561198064930358,"connected_time":420000000000,"state":"active","ping":104},{"user_id":62,"name":"krandlez` (Any/All)","steam_id":76561198044839726,"connected_time":497000000000,"state":"active","ping":44},{"user_id":49,"name":"EpicGuy4227","steam_id":76561198094132328,"connected_time":1295000000000,"state":"active","ping":54},{"user_id":50,"name":"wafflesandcoffee","steam_id":76561198141547517,"connected_time":1264000000000,"state":"active","ping":61},{"user_id":51,"name":"Pans'r'us","steam_id":76561199457046392,"connected_time":1225000000000,"state":"active","ping":72},{"user_id":56,"name":"White","steam_id":76561198895232692,"connected_time":952000000000,"state":"active","ping":44},{"user_id":64,"name":"Fresh Produce Gaming","steam_id":76561198358483352,"connected_time":420000000000,"state":"active","ping":56},{"user_id":58,"name":"Ralph Wiggum","steam_id":76561198243808014,"connected_time":930000000000,"state":"active","ping":51},{"user_id":59,"name":"Wingus Binginton","steam_id":76561199121938819,"connected_time":914000000000,"state":"active","ping":77},{"user_id":60,"name":"BruceWillis235","steam_id":76561198884324029,"connected_time":904000000000,"state":"active","ping":87}]},{"server_id":123,"name":"Uncletopia | Sydney | 2 | All Maps","name_short":"syd-2","host":"syd-1.au.uncletopia.com","port":27025,"enabled":true,"region":"au","cc":"au","latitude":-33.865143,"longitude":151.2099,"reserved":0,"last_update":"0001-01-01T00:00:00Z","name_a2s":"Uncletopia | Sydney | 2 | All Maps","protocol":17,"map":"pl_snowycoast","folder":"tf","game":"Team Fortress","app_id":440,"player_count":0,"max_players":24,"Bots":0,"server_type":"Dedicated","server_os":"Linux","password":true,"vac":true,"version":"7757534","steam_id":85568392924470002,"keywords":["nocrits","nodmgspread","payload","uncletopia"],"game_id":440,"stv_port":27026,"stv_name":"Uncletopia | Sydney | 2 | All Maps | STV","players":null},{"server_id":395,"name":"Uncletopia | Sydney | 3 | All Maps","name_short":"syd-3","host":"syd-1.au.uncletopia.com","port":27035,"enabled":true,"region":"au","cc":"au","latitude":-33.865143,"longitude":151.2099,"reserved":0,"last_update":"0001-01-01T00:00:00Z","name_a2s":"Uncletopia | Sydney | 3 | All Maps","protocol":17,"map":"pl_badwater","folder":"tf","game":"Team Fortress","app_id":440,"player_count":0,"max_players":24,"Bots":0,"server_type":"Dedicated","server_os":"Linux","password":true,"vac":true,"version":"7757534","steam_id":85568392925194467,"keywords":["nocrits","nodmgspread","payload","uncletopia"],"game_id":440,"stv_port":27036,"stv_name":"Uncletopia | Sydney | 3 | All Maps | STV","players":null},{"server_id":396,"name":"Uncletopia | Sydney | 4 | All Maps","name_short":"syd-4","host":"syd-1.au.uncletopia.com","port":27045,"enabled":true,"region":"au","cc":"au","latitude":-33.865143,"longitude":151.2099,"reserved":0,"last_update":"0001-01-01T00:00:00Z","name_a2s":"Uncletopia | Sydney | 4 | All Maps","protocol":17,"map":"koth_highpass","folder":"tf","game":"Team Fortress","app_id":440,"player_count":0,"max_players":24,"Bots":0,"server_type":"Dedicated","server_os":"Linux","password":true,"vac":true,"version":"7757534","steam_id":85568392925397958,"keywords":["cp","nocrits","nodmgspread","uncletopia"],"game_id":440,"stv_port":27046,"stv_name":"Uncletopia | Sydney | 4 | All Maps | STV","players":null},{"server_id":58,"name":"Uncletopia | Sydney | 5 | Stopwatch Beta","name_short":"syd-5","host":"syd-1.au.uncletopia.com","port":27055,"enabled":true,"region":"au","cc":"au","latitude":-33.865143,"longitude":151.2099,"reserved":0,"last_update":"0001-01-01T00:00:00Z","name_a2s":"Uncletopia | Sydney | 5 | Stopwatch Beta","protocol":17,"map":"cp_process_final","folder":"tf","game":"Team Fortress","app_id":440,"player_count":0,"max_players":24,"Bots":0,"server_type":"Dedicated","server_os":"Linux","password":true,"vac":true,"version":"7757534","steam_id":85568392925397959,"keywords":["cp","nocrits","nodmgspread","uncletopia"],"game_id":440,"stv_port":27056,"stv_name":"Uncletopia | Sydney | 5 | Stopwatch Beta | STV","players":null},{"server_id":59,"name":"Uncletopia | Sydney | 6 | Community","name_short":"syd-6","host":"syd-1.au.uncletopia.com","port":27065,"enabled":true,"region":"au","cc":"au","latitude":-33.865143,"longitude":151.2099,"reserved":0,"last_update":"0001-01-01T00:00:00Z","name_a2s":"Uncletopia | Sydney | 6 | Community","protocol":17,"map":"workshop/koth_slaughter_rc1.ugc1712845210","folder":"tf","game":"Team Fortress","app_id":440,"player_count":0,"max_players":24,"Bots":0,"server_type":"Dedicated","server_os":"Linux","password":true,"vac":true,"version":"7757534","steam_id":85568392925397960,"keywords":["cp","nocrits","nodmgspread","uncletopia"],"game_id":440,"stv_port":27066,"stv_name":"Uncletopia | Sydney | 6 | Community | STV","players":null},{"server_id":49,"name":"Uncletopia | Warsaw | 1 | All Maps","name_short":"waw-1","host":"waw-1.pl.uncletopia.com","port":27015,"enabled":true,"region":"eu","cc":"pl","latitude":52.2297,"longitude":21.017532,"reserved":0,"last_update":"0001-01-01T00:00:00Z","name_a2s":"","protocol":0,"map":"","folder":"","game":"","app_id":0,"player_count":0,"max_players":0,"Bots":0,"server_type":"","server_os":"","password":false,"vac":false,"version":"","steam_id":0,"keywords":null,"game_id":0,"stv_port":0,"stv_name":"","players":null},{"server_id":50,"name":"Uncletopia | Warsaw | 2 | All Maps","name_short":"waw-2","host":"waw-1.pl.uncletopia.com","port":27025,"enabled":true,"region":"eu","cc":"pl","latitude":52.2297,"longitude":21.017532,"reserved":0,"last_update":"0001-01-01T00:00:00Z","name_a2s":"Uncletopia | Warsaw | 2 | All Maps","protocol":17,"map":"koth_viaduct","folder":"tf","game":"Team Fortress","app_id":440,"player_count":0,"max_players":24,"Bots":0,"server_type":"Dedicated","server_os":"Linux","password":true,"vac":true,"version":"7757534","steam_id":85568392925397851,"keywords":["cp","nocrits","nodmgspread","uncletopia"],"game_id":440,"stv_port":27026,"stv_name":"Uncletopia | Warsaw | 2 | All Maps | STV","players":null},{"server_id":51,"name":"Uncletopia | Warsaw | 3 | All Maps","name_short":"waw-3","host":"waw-1.pl.uncletopia.com","port":27035,"enabled":true,"region":"eu","cc":"pl","latitude":52.2297,"longitude":21.017532,"reserved":0,"last_update":"0001-01-01T00:00:00Z","name_a2s":"Uncletopia | Warsaw | 3 | All Maps","protocol":17,"map":"pl_badwater","folder":"tf","game":"Team Fortress","app_id":440,"player_count":0,"max_players":24,"Bots":0,"server_type":"Dedicated","server_os":"Linux","password":true,"vac":true,"version":"7757534","steam_id":85568392925397852,"keywords":["nocrits","nodmgspread","payload","uncletopia"],"game_id":440,"stv_port":27036,"stv_name":"Uncletopia | Warsaw | 3 | All Maps | STV","players":null},{"server_id":52,"name":"Uncletopia | Warsaw | 4 | All Maps","name_short":"waw-4","host":"waw-1.pl.uncletopia.com","port":27045,"enabled":true,"region":"eu","cc":"pl","latitude":52.2297,"longitude":21.017532,"reserved":0,"last_update":"0001-01-01T00:00:00Z","name_a2s":"Uncletopia | Warsaw | 4 | All Maps","protocol":17,"map":"koth_lakeside_final","folder":"tf","game":"Team Fortress","app_id":440,"player_count":0,"max_players":24,"Bots":0,"server_type":"Dedicated","server_os":"Linux","password":true,"vac":true,"version":"7757534","steam_id":85568392925397853,"keywords":["cp","nocrits","nodmgspread","uncletopia"],"game_id":440,"stv_port":27046,"stv_name":"Uncletopia | Warsaw | 4 | All Maps | STV","players":null},{"server_id":53,"name":"Uncletopia | Warsaw | 5 | Stopwatch Beta","name_short":"waw-5","host":"waw-1.pl.uncletopia.com","port":27055,"enabled":true,"region":"eu","cc":"pl","latitude":52.2297,"longitude":21.017532,"reserved":0,"last_update":"0001-01-01T00:00:00Z","name_a2s":"Uncletopia | Warsaw | 5 | Stopwatch Beta","protocol":17,"map":"pl_borneo","folder":"tf","game":"Team Fortress","app_id":440,"player_count":0,"max_players":24,"Bots":0,"server_type":"Dedicated","server_os":"Linux","password":true,"vac":true,"version":"7757534","steam_id":85568392925397854,"keywords":["nocrits","nodmgspread","payload","uncletopia"],"game_id":440,"stv_port":27056,"stv_name":"Uncletopia | Warsaw | 5 | Stopwatch Beta | STV","players":null},{"server_id":54,"name":"Uncletopia | Warsaw | 6 | Community","name_short":"waw-6","host":"waw-1.pl.uncletopia.com","port":27065,"enabled":true,"region":"eu","cc":"pl","latitude":52.2297,"longitude":21.017532,"reserved":0,"last_update":"0001-01-01T00:00:00Z","name_a2s":"Uncletopia | Warsaw | 6 | Community","protocol":17,"map":"koth_lakeside_final","folder":"tf","game":"Team Fortress","app_id":440,"player_count":0,"max_players":24,"Bots":0,"server_type":"Dedicated","server_os":"Linux","password":true,"vac":true,"version":"7757534","steam_id":85568392925397856,"keywords":["cp","nocrits","nodmgspread","uncletopia"],"game_id":440,"stv_port":27066,"stv_name":"Uncletopia | Warsaw | 6 | Community | STV","players":null}]}