{"status":true,"message":"","result":[{"server_id":9,"name":"Uncletopia | Atlanta | 1 | All Maps","name_short":"atl-1","host":"atl-1.us.uncletopia.com","port":27015,"enabled":true,"region":"us-east","cc":"us","latitude":33.753746,"longitude":-84.38633,"reserved":0,"last_update":"0001-01-01T00:00:00Z","name_a2s":"Uncletopia | Atlanta | 1 | All Maps","protocol":17,"map":"pl_barnblitz","folder":"tf","game":"Team Fortress","app_id":440,"player_count":24,"max_players":24,"Bots":0,"server_type":"Dedicated","server_os":"Linux","password":true,"vac":true,"version":"7742253","steam_id":85568392924469982,"keywords":["nocrits","nodmgspread","payload","uncletopia"],"game_id":440,"stv_port":27016,"stv_name":"Uncletopia | Atlanta | 1 | All Maps | STV","players":[{"user_id":321,"name":"Kojiro","steam_id":76561198220714341,"connected_time":939000000000,"state":"active","ping":62},{"user_id":327,"name":"xyt0nix","steam_id":76561199437938235,"connected_time":463000000000,"state":"active","ping":53},{"user_id":324,"name":"woosh","steam_id":76561198173020438,"connected_time":541000000000,"state":"active","ping":75},{"user_id":326,"name":"mousejumper","steam_id":76561198220181353,"connected_time":466000000000,"state":"active","ping":71},{"user_id":280,"name":"AliCeline","steam_id":76561198207017241,"connected_time":4729000000000,"state":"active","ping":91},{"user_id":288,"name":"Young-OG","steam_id":76561198058800479,"connected_time":3467000000000,"state":"active","ping":67},{"user_id":317,"name":"le fromage","steam_id":76561198084230569,"connected_time":1122000000000,"state":"active","ping":75},{"user_id":284,"name":"Nixie","steam_id":76561198978778718,"connected_time":3658000000000,"state":"active","ping":131},{"user_id":331,"name":"ATL1 | a very merry ma0re","steam_id":76561199231971506,"connected_time":360000000000,"state":"active","ping":67},{"user_id":298,"name":"Quiggles lft","steam_id":76561199177247655,"connected_time":2559000000000,"state":"active","ping":64},{"user_id":299,"name":"-Enter Name Here-","steam_id":76561198040358938,"connected_time":2554000000000,"state":"active","ping":61},{"user_id":268,"name":"ATL1 | Vee (very holly \u0026 jolly)","steam_id":76561198330432889,"connected_time":6662000000000,"state":"active","ping":62},{"user_id":307,"name":"ATL1 | Lav4ie They/Them","steam_id":76561198825997674,"connected_time":1565000000000,"state":"active","ping":79},{"user_id":314,"name":"Elixir","steam_id":76561198166786809,"connected_time":1332000000000,"state":"active","ping":73},{"user_id":328,"name":"stolen loot","steam_id":76561198069954956,"connected_time":461000000000,"state":"active","ping":47},{"user_id":306,"name":"ATL1 | p4ka","steam_id":76561198315291317,"connected_time":1647000000000,"state":"active","ping":86},{"user_id":319,"name":"lamadre07","steam_id":76561198067337453,"connected_time":1021000000000,"state":"active","ping":89},{"user_id":311,"name":"Rockhead","steam_id":76561197995196535,"connected_time":1498000000000,"state":"active","ping":63},{"user_id":325,"name":"‚ô°Alyx‚ô°","steam_id":76561198024303978,"connected_time":520000000000,"state":"active","ping":59},{"user_id":294,"name":"FlakkerSaber","steam_id":76561198103503066,"connected_time":3325000000000,"state":"active","ping":67},{"user_id":246,"name":"ATL1 | SparkStorm","steam_id":76561198095817025,"connected_time":8362000000000,"state":"active","ping":40},{"user_id":329,"name":"mos","steam_id":76561198146126212,"connected_time":460000000000,"state":"active","ping":65},{"user_id":301,"name":"3am Mail-in Ballot Dump","steam_id":76561198008531707,"connected_time":2449000000000,"state":"active","ping":54},{"user_id":330,"name":"ash","steam_id":76561198127890645,"connected_time":460000000000,"state":"active","ping":64}]},{"server_id":400,"name":"Uncletopia | Atlanta | 3 | Stopwatch Beta","name_short":"atl-3","host":"atl-1.us.uncletopia.com","port":27035,"enabled":true,"region":"us-east","cc":"us","latitude":33.753746,"longitude":-84.38633,"reserved":0,"last_update":"0001-01-01T00:00:00Z","name_a2s":"Uncletopia | Atlanta | 3 | Stopwatch Beta","protocol":17,"map":"workshop/koth_clearcut_b15.ugc2107050255","folder":"tf","game":"Team Fortress","app_id":440,"player_count":8,"max_players":24,"Bots":0,"server_type":"Dedicated","server_os":"Linux","password":true,"vac":true,"version":"7742253","steam_id":85568392924515187,"keywords":["cp","nocrits","nodmgspread","uncletopia"],"game_id":440,"stv_port":27036,"stv_name":"Uncletopia | Atlanta | 3 | Stopwatch Beta | STV","players":[{"user_id":214,"name":"Raniel Dicciardo","steam_id":76561198053859538,"connected_time":178000000000,"state":"active","ping":84},{"user_id":206,"name":"TF2 Engineer (real)","steam_id":76561197992718242,"connected_time":798000000000,"state":"active","ping":75},{"user_id":213,"name":"Nightfall","steam_id":76561198169718867,"connected_time":282000000000,"state":"active","ping":87},{"user_id":195,"name":"Your Local Festive Furry","steam_id":76561199030190462,"connected_time":1576000000000,"state":"active","ping":73},{"user_id":215,"name":"qiulongtao","steam_id":76561198977558717,"connected_time":80000000000,"state":"active","ping":77},{"user_id":192,"name":"Spy_Is_Pye","steam_id":76561199439622967,"connected_time":1786000000000,"state":"active","ping":84},{"user_id":180,"name":"F4sy","steam_id":76561198247360374,"connected_time":2283000000000,"state":"active","ping":50},{"user_id":185,"name":"Badoglio Fascista","steam_id":76561198302435743,"connected_time":2023000000000,"state":"active","ping":166}]},{"server_id":401,"name":"Uncletopia | Atlanta | 4 | No Payload","name_short":"atl-4","host":"atl-1.us.uncletopia.com","port":27045,"enabled":true,"region":"us-east","cc":"us","latitude":33.753746,"longitude":-84.38633,"reserved":0,"last_update":"0001-01-01T00:00:00Z","name_a2s":"Uncletopia | Atlanta | 4 | No Payload","protocol":17,"map":"pl_pier","folder":"tf","game":"Team Fortress","app_id":440,"player_count":0,"max_players":24,"Bots":0,"server_type":"Dedicated","server_os":"Linux","password":true,"vac":true,"version":"7723704","steam_id":85568392924515188,"keywords":["nocrits","nodmgspread","payload","uncletopia"],"game_id":440,"stv_port":27046,"stv_name":"Uncletopia | Atlanta | 4 | No Payload | STV","players":null},{"server_id":2,"name":"Uncletopia | Chicago | 1 | All Maps","name_short":"chi-1","host":"chi-1.us.uncletopia.com","port":27015,"enabled":true,"region":"us-central","cc":"us","latitude":41.881832,"longitude":-87.62318,"reserved":0,"last_update":"0001-01-01T00:00:00Z","name_a2s":"Uncletopia | Chicago | 1 | All Maps","protocol":17,"map":"pl_frontier_final","folder":"tf","game":"Team Fortress","app_id":440,"player_count":23,"max_players":24,"Bots":0,"server_type":"Dedicated","server_os":"Linux","password":true,"vac":true,"version":"7742253","steam_id":85568392924469984,"keywords":["nocrits","nodmgspread","payload","uncletopia"],"game_id":440,"stv_port":27016,"stv_name":"Uncletopia | Chicago | 1 | All Maps | STV","players":[{"user_id":382,"name":"bruiseraaron","steam_id":76561198020092380,"connected_time":766000000000,"state":"active","ping":40},{"user_id":359,"name":"One Shot and A Miss","steam_id":76561198124269698,"connected_time":2868000000000,"state":"active","ping":66},{"user_id":362,"name":"DJ_Faty310","steam_id":76561198275645038,"connected_time":2703000000000,"state":"active","ping":53},{"user_id":386,"name":"Hunt_er#SaveTf2","steam_id":76561198325350546,"connected_time":698000000000,"state":"active","ping":71},{"user_id":376,"name":"NotaSimp","steam_id":76561197971394640,"connected_time":1588000000000,"state":"active","ping":101},{"user_id":381,"name":"TheToastingToaster","steam_id":76561198439391966,"connected_time":1278000000000,"state":"active","ping":59},{"user_id":341,"name":"Stressmelo","steam_id":76561199204445185,"connected_time":4359000000000,"state":"active","ping":80},{"user_id":367,"name":"{ST} Pip","steam_id":76561198200365894,"connected_time":2294000000000,"state":"active","ping":39},{"user_id":396,"name":"KaiaDoggy","steam_id":76561197997096301,"connected_time":241000000000,"state":"active","ping":78},{"user_id":393,"name":"mindcrack season 2","steam_id":76561198079892116,"connected_time":375000000000,"state":"active","ping":45},{"user_id":361,"name":"Spy Gaming","steam_id":76561198453295613,"connected_time":2792000000000,"state":"active","ping":113},{"user_id":388,"name":"darkjustin54","steam_id":76561198060056280,"connected_time":625000000000,"state":"active","ping":59},{"user_id":299,"name":"Paco","steam_id":76561198023504958,"connected_time":7707000000000,"state":"active","ping":60},{"user_id":389,"name":"DeathwingTheDestroyer","steam_id":76561199147322448,"connected_time":617000000000,"state":"active","ping":50},{"user_id":378,"name":"I_Am_Lazy","steam_id":76561199030283067,"connected_time":1569000000000,"state":"active","ping":80},{"user_id":383,"name":"Merchants of Misery","steam_id":76561199188142396,"connected_time":763000000000,"state":"active","ping":106},{"user_id":390,"name":"somebody real","steam_id":76561198425503395,"connected_time":575000000000,"state":"active","ping":64},{"user_id":345,"name":"Catboy Potemkin","steam_id":76561198078474420,"connected_time":3716000000000,"state":"active","ping":64},{"user_id":397,"name":"Sigiferd","steam_id":76561198148788110,"connected_time":193000000000,"state":"active","ping":122},{"user_id":371,"name":"howtobepker","steam_id":76561198115053865,"connected_time":2167000000000,"state":"active","ping":80},{"user_id":392,"name":"Kitt(eh) ‚àë:3","steam_id":76561198110858518,"connected_time":514000000000,"state":"active","ping":53},{"user_id":304,"name":"Astori√¶!","steam_id":76561199090168858,"connected_time":6877000000000,"state":"active","ping":75},{"user_id":220,"name":"Pisser12434","steam_id":76561198835144780,"connected_time":10615000000000,"state":"active","ping":73}]},{"server_id":106,"name":"Uncletopia | Chicago | 2 | All Maps","name_short":"chi-2","host":"chi-1.us.uncletopia.com","port":27025,"enabled":true,"region":"us-central","cc":"us","latitude":41.881832,"longitude":-87.62318,"reserved":0,"last_update":"0001-01-01T00:00:00Z","name_a2s":"Uncletopia | Chicago | 2 | All Maps","protocol":17,"map":"pl_chilly","folder":"tf","game":"Team Fortress","app_id":440,"player_count":23,"max_players":24,"Bots":0,"server_type":"Dedicated","server_os":"Linux","password":true,"vac":true,"version":"7742253","steam_id":85568392924469985,"keywords":["nocrits","nodmgspread","payload","uncletopia"],"game_id":440,"stv_port":27026,"stv_name":"Uncletopia | Chicago | 2 | All Maps | STV","players":[{"user_id":467,"name":"SL164","steam_id":76561197970800276,"connected_time":444000000000,"state":"active","ping":52},{"user_id":462,"name":"katryna","steam_id":76561198023440304,"connected_time":687000000000,"state":"active","ping":57},{"user_id":439,"name":"ultraDiViNe","steam_id":76561198109084485,"connected_time":3712000000000,"state":"active","ping":93},{"user_id":452,"name":"kirby7","steam_id":76561199167006749,"connected_time":1280000000000,"state":"active","ping":43},{"user_id":461,"name":"HellRaiser","steam_id":76561199051660033,"connected_time":729000000000,"state":"active","ping":73},{"user_id":463,"name":"Ciela","steam_id":76561198799403828,"connected_time":666000000000,"state":"active","ping":53},{"user_id":460,"name":"Cottontail","steam_id":76561198213634567,"connected_time":751000000000,"state":"active","ping":88},{"user_id":436,"name":"Goober","steam_id":76561198988863807,"connected_time":3965000000000,"state":"active","ping":73},{"user_id":429,"name":"stop","steam_id":76561198268686419,"connected_time":4277000000000,"state":"active","ping":58},{"user_id":453,"name":"Guts","steam_id":76561198244702428,"connected_time":1189000000000,"state":"active","ping":57},{"user_id":413,"name":"ScreamCram","steam_id":76561199114068524,"connected_time":5231000000000,"state":"active","ping":54},{"user_id":420,"name":"La Tabda","steam_id":76561198120364620,"connected_time":5075000000000,"state":"active","ping":93},{"user_id":454,"name":"The Horselords and Animal Gods","steam_id":76561197975094050,"connected_time":1176000000000,"state":"active","ping":101},{"user_id":459,"name":"SirJellyRolls","steam_id":76561198119277244,"connected_time":753000000000,"state":"active","ping":67},{"user_id":448,"name":"Rosani","steam_id":76561199152388008,"connected_time":1819000000000,"state":"active","ping":51},{"user_id":468,"name":"faxxy","steam_id":76561198079621240,"connected_time":311000000000,"state":"active","ping":47},{"user_id":457,"name":"Agent Ukulele","steam_id":76561198171707091,"connected_time":761000000000,"state":"active","ping":61},{"user_id":443,"name":"42","steam_id":76561198043965184,"connected_time":2460000000000,"state":"active","ping":102},{"user_id":450,"name":"Discourse","steam_id":76561198984286678,"connected_time":1734000000000,"state":"active","ping":52},{"user_id":340,"name":"donti","steam_id":76561197977223197,"connected_time":9751000000000,"state":"active","ping":57},{"user_id":458,"name":"‚ë®„ÄÇ„Éê„Ç´","steam_id":76561198055186751,"connected_time":759000000000,"state":"active","ping":57},{"user_id":464,"name":"AAAAAAAAAAAAAAAAAAAAAAAAAAAAAAA","steam_id":76561198125467937,"connected_time":666000000000,"state":"active","ping":107},{"user_id":469,"name":"Goofball","steam_id":76561198061211537,"connected_time":276000000000,"state":"active","ping":76}]},{"server_id":402,"name":"Uncletopia | Chicago | 3 | All Maps","name_short":"chi-3","host":"chi-1.us.uncletopia.com","port":27035,"enabled":true,"region":"us-central","cc":"us","latitude":41.881832,"longitude":-87.62318,"reserved":0,"last_update":"0001-01-01T00:00:00Z","name_a2s":"Uncletopia | Chicago | 3 | All Maps","protocol":17,"map":"pl_rumford_event","folder":"tf","game":"Team Fortress","app_id":440,"player_count":24,"max_players":24,"Bots":0,"server_type":"Dedicated","server_os":"Linux","password":true,"vac":true,"version":"7742253","steam_id":85568392924515191,"keywords":["nocrits","nodmgspread","payload","uncletopia"],"game_id":440,"stv_port":27036,"stv_name":"Uncletopia | Chicago | 3 | All Maps | STV","players":[{"user_id":276,"name":"Bread Baker","steam_id":76561198185335103,"connected_time":1236000000000,"state":"active","ping":51},{"user_id":270,"name":"Gachalover","steam_id":76561199231552074,"connected_time":1294000000000,"state":"active","ping":78},{"user_id":235,"name":"psy","steam_id":76561198013195018,"connected_time":3151000000000,"state":"active","ping":88},{"user_id":268,"name":"Cthulwho?","steam_id":76561198165550810,"connected_time":1306000000000,"state":"active","ping":63},{"user_id":281,"name":"bluebird","steam_id":76561198065219155,"connected_time":1111000000000,"state":"active","ping":42},{"user_id":292,"name":"DonJam√≥n","steam_id":76561198319090131,"connected_time":327000000000,"state":"active","ping":65},{"user_id":279,"name":"king of bogers","steam_id":76561198045731295,"connected_time":1183000000000,"state":"active","ping":63},{"user_id":273,"name":"Minion Bob","steam_id":76561198023938170,"connected_time":1255000000000,"state":"active","ping":107},{"user_id":218,"name":"dan","steam_id":76561197984998426,"connected_time":3876000000000,"state":"active","ping":85},{"user_id":293,"name":"White Woman Fiesta","steam_id":76561198215902495,"connected_time":279000000000,"state":"active","ping":76},{"user_id":283,"name":"sasharudzik","steam_id":76561199126617781,"connected_time":988000000000,"state":"active","ping":64},{"user_id":271,"name":"‚àÄ…ê","steam_id":76561198139718219,"connected_time":1275000000000,"state":"active","ping":68},{"user_id":263,"name":"beethan","steam_id":76561198148199120,"connected_time":1945000000000,"state":"active","ping":86},{"user_id":287,"name":"Metic","steam_id":76561198047294521,"connected_time":673000000000,"state":"active","ping":74},{"user_id":259,"name":"workin for snapple","steam_id":76561198013732450,"connected_time":2230000000000,"state":"active","ping":58},{"user_id":284,"name":"Darkmaen","steam_id":76561198060543390,"connected_time":960000000000,"state":"active","ping":138},{"user_id":252,"name":"CaptainAwesome","steam_id":76561198030377233,"connected_time":2376000000000,"state":"active","ping":81},{"user_id":289,"name":"dansci","steam_id":76561198269530717,"connected_time":416000000000,"state":"active","ping":85},{"user_id":290,"name":"HarryjusttHarry","steam_id":76561198982810452,"connected_time":393000000000,"state":"active","ping":72},{"user_id":286,"name":"raduski","steam_id":76561198795699119,"connected_time":777000000000,"state":"active","ping":89},{"user_id":277,"name":"jolo","steam_id":76561198042831480,"connected_time":1235000000000,"state":"active","ping":78},{"user_id":294,"name":"All 24 Pok√©mon movies at once","steam_id":76561198164738311,"connected_time":279000000000,"state":"active","ping":58},{"user_id":280,"name":"Willy","steam_id":76561199240618325,"connected_time":1179000000000,"state":"active","ping":56},{"user_id":295,"name":"LABRAT","steam_id":76561199226732110,"connected_time":274000000000,"state":"active","ping":82}]},{"server_id":403,"name":"Uncletopia | Chicago | 4 | All Maps","name_short":"chi-4","host":"chi-1.us.uncletopia.com","port":27045,"enabled":true,"region":"us-central","cc":"us","latitude":41.881832,"longitude":-87.62318,"reserved":0,"last_update":"0001-01-01T00:00:00Z","name_a2s":"Uncletopia | Chicago | 4 | All Maps","protocol":17,"map":"pl_badwater","folder":"tf","game":"Team Fortress","app_id":440,"player_count":5,"max_players":24,"Bots":0,"server_type":"Dedicated","server_os":"Linux","password":true,"vac":true,"version":"7742253","steam_id":85568392924515193,"keywords":["nocrits","nodmgspread","payload","uncletopia"],"game_id":440,"stv_port":27046,"stv_name":"Uncletopia | Chicago | 4 | All Maps | STV","players":[{"user_id":21,"name":"Cyborgnn","steam_id":76561198283586887,"connected_time":815000000000,"state":"active","ping":61},{"user_id":20,"name":"WinterCat","steam_id":76561199071923869,"connected_time":890000000000,"state":"active","ping":77},{"user_id":22,"name":"Derpydude2002 #SaveTf2","steam_id":76561198811719519,"connected_time":793000000000,"state":"active","ping":55},{"user_id":24,"name":"John Creighton-Cruz Harrison","steam_id":76561198031611806,"connected_time":251000000000,"state":"active","ping":60},{"user_id":25,"name":"Acid_Logan","steam_id":76561198882525179,"connected_time":79000000000,"state":"active","ping":90}]},{"server_id":36,"name":"Uncletopia | Chicago | 5 | All Maps","name_short":"chi-5","host":"chi-2.us.uncletopia.com","port":27015,"enabled":true,"region":"us-central","cc":"us","latitude":41.881832,"longitude":-87.62318,"reserved":0,"last_update":"0001-01-01T00:00:00Z","name_a2s":"Uncletopia | Chicago | 5 | All Maps","protocol":17,"map":"pl_upward","folder":"tf","game":"Team Fortress","app_id":440,"player_count":23,"max_players":24,"Bots":0,"server_type":"Dedicated","server_os":"Linux","password":true,"vac":true,"version":"7742253","steam_id":85568392924866362,"keywords":["nocrits","nodmgspread","payload","uncletopia"],"game_id":440,"stv_port":27016,"stv_name":"Uncletopia | Chicago | 5 | All Maps | STV","players":[{"user_id":7,"name":"t.tv/stabslive","steam_id":76561198293116584,"connected_time":5432000000000,"state":"active","ping":75},{"user_id":94,"name":"Ask Nicely For Heals","steam_id":76561198138478907,"connected_time":487000000000,"state":"active","ping":49},{"user_id":99,"name":"callum","steam_id":76561198070918366,"connected_time":227000000000,"state":"active","ping":74},{"user_id":10,"name":"lampshade","steam_id":76561199092140963,"connected_time":5414000000000,"state":"active","ping":151},{"user_id":101,"name":"jstn","steam_id":76561198845283665,"connected_time":100000000000,"state":"active","ping":67},{"user_id":12,"name":"Red on Red","steam_id":76561198802356746,"connected_time":5396000000000,"state":"active","ping":90},{"user_id":13,"name":"Mowsferatu","steam_id":76561198041901707,"connected_time":5395000000000,"state":"active","ping":65},{"user_id":96,"name":"Gorbo Acechi","steam_id":76561198399936004,"connected_time":394000000000,"state":"active","ping":56},{"user_id":83,"name":"Myagic","steam_id":76561198123746755,"connected_time":1296000000000,"state":"active","ping":60},{"user_id":86,"name":"demoknight tf2","steam_id":76561198070393998,"connected_time":956000000000,"state":"active","ping":59},{"user_id":44,"name":"cologne","steam_id":76561198069600113,"connected_time":4026000000000,"state":"active","ping":56},{"user_id":100,"name":"Snimca","steam_id":76561198453519709,"connected_time":111000000000,"state":"active","ping":68},{"user_id":102,"name":"Vladimir Puddin","steam_id":76561198139674520,"connected_time":96000000000,"state":"active","ping":57},{"user_id":79,"name":"NoShen","steam_id":76561198147434663,"connected_time":1532000000000,"state":"active","ping":63},{"user_id":90,"name":"4d4","steam_id":76561198402360789,"connected_time":813000000000,"state":"active","ping":60},{"user_id":68,"name":"Pancreas Enjoyer","steam_id":76561199438598904,"connected_time":2543000000000,"state":"active","ping":86},{"user_id":103,"name":"BOUZENZEL","steam_id":76561198095000722,"connected_time":80000000000,"state":"active","ping":60},{"user_id":36,"name":"Muffin","steam_id":76561199156302434,"connected_time":4712000000000,"state":"active","ping":51},{"user_id":105,"name":"C‚àÖRVUS","steam_id":76561198100640019,"connected_time":47000000000,"state":"active","ping":114},{"user_id":98,"name":"surrender to the void","steam_id":76561198055494039,"connected_time":283000000000,"state":"active","ping":87},{"user_id":92,"name":"Rin \"Hindwing\" Redtail","steam_id":76561199074865638,"connected_time":811000000000,"state":"active","ping":74},{"user_id":104,"name":"DIZ","steam_id":76561199065119525,"connected_time":78000000000,"state":"active","ping":122},{"user_id":40,"name":"ClarityCoi","steam_id":76561198283531042,"connected_time":4367000000000,"state":"active","ping":67}]},{"server_id":37,"name":"Uncletopia | Chicago | 6 | All Maps","name_short":"chi-6","host":"chi-2.us.uncletopia.com","port":27025,"enabled":true,"region":"us-central","cc":"us","latitude":41.881832,"longitude":-87.62318,"reserved":0,"last_update":"0001-01-01T00:00:00Z","name_a2s":"Uncletopia | Chicago | 6 | All Maps","protocol":17,"map":"koth_cascade","folder":"tf","game":"Team Fortress","app_id":440,"player_count":0,"max_players":24,"Bots":0,"server_type":"Dedicated","server_os":"Linux","password":true,"vac":true,"version":"7742253","steam_id":85568392924866363,"keywords":["cp","nocrits","nodmgspread","uncletopia"],"game_id":440,"stv_port":27026,"stv_name":"Uncletopia | Chicago | 6 | All Maps | STV","players":null},{"server_id":38,"name":"Uncletopia | Chicago | 7 | Stopwatch Beta","name_short":"chi-7","host":"chi-2.us.uncletopia.com","port":27035,"enabled":true,"region":"us-central","cc":"us","latitude":41.881832,"longitude":-87.62318,"reserved":0,"last_update":"0001-01-01T00:00:00Z","name_a2s":"Uncletopia | Chicago | 7 | Stopwatch Beta","protocol":17,"map":"cp_altitude","folder":"tf","game":"Team Fortress","app_id":440,"player_count":0,"max_players":24,"Bots":0,"server_type":"Dedicated","server_os":"Linux","password":true,"vac":true,"version":"7742253","steam_id":85568392924866364,"keywords":["cp","nocrits","nodmgspread","uncletopia"],"game_id":440,"stv_port":27036,"stv_name":"Uncletopia | Chicago | 7 | Stopwatch Beta | STV","players":null},{"server_id":39,"name":"Uncletopia | Chicago | 8 | Community","name_short":"chi-8","host":"chi-2.us.uncletopia.com","port":27045,"enabled":true,"region":"us-central","cc":"us","latitude":41.881832,"longitude":-87.62318,"reserved":0,"last_update":"0001-01-01T00:00:00Z","name_a2s":"Uncletopia | Chicago | 8 | Community","protocol":17,"map":"koth_cascade","folder":"tf","game":"Team Fortress","app_id":440,"player_count":0,"max_players":24,"Bots":0,"server_type":"Dedicated","server_os":"Linux","password":true,"vac":true,"version":"7742253","steam_id":85568392924866365,"keywords":["cp","nocrits","nodmgspread","uncletopia"],"game_id":440,"stv_port":27046,"stv_name":"Uncletopia | Chicago | 8 | Community | STV","players":null},{"server_id":8,"name":"Uncletopia | Dallas | 1 | All Maps","name_short":"dal-1","host":"dal-1.us.uncletopia.com","port":27015,"enabled":true,"region":"us-central","cc":"us","latitude":32.779167,"longitude":-96.80889,"reserved":0,"last_update":"0001-01-01T00:00:00Z","name_a2s":"Uncletopia | Dallas | 1 | All Maps","protocol":17,"map":"koth_viaduct","folder":"tf","game":"Team Fortress","app_id":440,"player_count":0,"max_players":24,"Bots":0,"server_type":"Dedicated","server_os":"Linux","password":true,"vac":true,"version":"7742253","steam_id":85568392924469986,"keywords":["cp","nocrits","nodmgspread","uncletopia"],"game_id":440,"stv_port":27016,"stv_name":"Uncletopia | Dallas | 1 | All Maps | STV","players":null},{"server_id":108,"name":"Uncletopia | Dallas | 2 | All Maps","name_short":"dal-2","host":"dal-1.us.uncletopia.com","port":27025,"enabled":true,"region":"us-central","cc":"us","latitude":32.779167,"longitude":-96.80889,"reserved":0,"last_update":"0001-01-01T00:00:00Z","name_a2s":"Uncletopia | Dallas | 2 | All Maps","protocol":17,"map":"pl_frontier_final","folder":"tf","game":"Team Fortress","app_id":440,"player_count":22,"max_players":24,"Bots":0,"server_type":"Dedicated","server_os":"Linux","password":true,"vac":true,"version":"7742253","steam_id":85568392924469988,"keywords":["nocrits","nodmgspread","payload","uncletopia"],"game_id":440,"stv_port":27026,"stv_name":"Uncletopia | Dallas | 2 | All Maps | STV","players":[{"user_id":86,"name":"Inkle dAn","steam_id":76561198119215388,"connected_time":324000000000,"state":"active","ping":54},{"user_id":87,"name":"moe","steam_id":76561198929586245,"connected_time":298000000000,"state":"active","ping":75},{"user_id":98,"name":"https://www.dmv.ca.gov/portal/","steam_id":76561198207253121,"connected_time":53000000000,"state":"active","ping":76},{"user_id":88,"name":"TheBiggerIron","steam_id":76561198257043605,"connected_time":242000000000,"state":"active","ping":111},{"user_id":70,"name":"Hat Kid","steam_id":76561198218897383,"connected_time":1700000000000,"state":"active","ping":90},{"user_id":89,"name":"ColonelGuy5509","steam_id":76561198050493174,"connected_time":229000000000,"state":"active","ping":49},{"user_id":59,"name":"Rick Assley","steam_id":76561198365019199,"connected_time":2522000000000,"state":"active","ping":80},{"user_id":83,"name":"dw4rf","steam_id":76561198046953937,"connected_time":421000000000,"state":"active","ping":108},{"user_id":76,"name":"FunGi","steam_id":76561198881418662,"connected_time":856000000000,"state":"active","ping":69},{"user_id":99,"name":"Jag_Samurott","steam_id":76561198262036126,"connected_time":3000000000,"state":"spawning","ping":110},{"user_id":90,"name":"Octopoda","steam_id":76561199064758232,"connected_time":229000000000,"state":"active","ping":53},{"user_id":74,"name":"Female Gamer","steam_id":76561199366482682,"connected_time":1385000000000,"state":"active","ping":122},{"user_id":91,"name":"leumas","steam_id":76561198240408540,"connected_time":210000000000,"state":"active","ping":83},{"user_id":34,"name":"xXx_The_REAL_Marge_Simpson_xXx","steam_id":76561199116846851,"connected_time":3228000000000,"state":"active","ping":62},{"user_id":84,"name":"gonurlight","steam_id":76561198935839416,"connected_time":420000000000,"state":"active","ping":72},{"user_id":92,"name":"George Washington","steam_id":76561197993295656,"connected_time":187000000000,"state":"active","ping":70},{"user_id":93,"name":"Arby","steam_id":76561198989593180,"connected_time":185000000000,"state":"active","ping":93},{"user_id":85,"name":"Dr. Drive07","steam_id":76561199285435663,"connected_time":364000000000,"state":"active","ping":56},{"user_id":64,"name":"Bonesala","steam_id":76561199052450127,"connected_time":1979000000000,"state":"active","ping":70},{"user_id":94,"name":"Sly Ramen","steam_id":76561198043075361,"connected_time":176000000000,"state":"active","ping":52},{"user_id":95,"name":"Lingus Loopus","steam_id":76561198041426868,"connected_time":120000000000,"state":"active","ping":44},{"user_id":97,"name":"unck da","steam_id":76561198333299539,"connected_time":100000000000,"state":"active","ping":57}]},{"server_id":5,"name":"Uncletopia | Frankfurt | 1 | All Maps","name_short":"frk-1","host":"frk-1.de.uncletopia.com","port":27015,"enabled":true,"region":"eu","cc":"de","latitude":50.110924,"longitude":8.682127,"reserved":0,"last_update":"0001-01-01T00:00:00Z","name_a2s":"Uncletopia | Frankfurt | 1 | All Maps","protocol":17,"map":"koth_suijin","folder":"tf","game":"Team Fortress","app_id":440,"player_count":19,"max_players":24,"Bots":0,"server_type":"Dedicated","server_os":"Linux","password":true,"vac":true,"version":"7742253","steam_id":85568392924469989,"keywords":["cp","nocrits","nodmgspread","uncletopia"],"game_id":440,"stv_port":27016,"stv_name":"Uncletopia | Frankfurt | 1 | All Maps | STV","players":[{"user_id":466,"name":"TheAnonymeKiller","steam_id":76561198190680978,"connected_time":22000000000,"state":"active","ping":85},{"user_id":413,"name":"Milca_11","steam_id":76561198848650365,"connected_time":1980000000000,"state":"active","ping":93},{"user_id":414,"name":"Name One TF2 Item","steam_id":76561199446125892,"connected_time":1955000000000,"state":"active","ping":67},{"user_id":410,"name":"Bendy_Tank","steam_id":76561199438911774,"connected_time":3104000000000,"state":"active","ping":53},{"user_id":417,"name":"Gorzel","steam_id":76561198828273330,"connected_time":1705000000000,"state":"active","ping":63},{"user_id":459,"name":"Th√§as","steam_id":76561198264708239,"connected_time":181000000000,"state":"active","ping":67},{"user_id":419,"name":"Takita Silver Fang","steam_id":76561198127470473,"connected_time":1591000000000,"state":"active","ping":63},{"user_id":420,"name":"Sn√∂man","steam_id":76561198087141780,"connected_time":1565000000000,"state":"active","ping":75},{"user_id":448,"name":"bANji","steam_id":76561198108898161,"connected_time":703000000000,"state":"active","ping":45},{"user_id":443,"name":"beef estrogenoff","steam_id":76561198106455841,"connected_time":837000000000,"state":"active","ping":81},{"user_id":453,"name":"KosjoBG","steam_id":76561198138053535,"connected_time":515000000000,"state":"active","ping":107},{"user_id":455,"name":"duck","steam_id":76561198058809499,"connected_time":470000000000,"state":"active","ping":61},{"user_id":428,"name":"BD[PL]","steam_id":76561198115995871,"connected_time":1208000000000,"state":"active","ping":75},{"user_id":438,"name":"Krios","steam_id":76561199198145670,"connected_time":956000000000,"state":"active","ping":34},{"user_id":449,"name":"Maerk","steam_id":76561199119121016,"connected_time":701000000000,"state":"active","ping":89},{"user_id":457,"name":"MAJAX","steam_id":76561198254828632,"connected_time":315000000000,"state":"active","ping":66},{"user_id":460,"name":"Bob Salami","steam_id":76561198150681340,"connected_time":179000000000,"state":"active","ping":70},{"user_id":464,"name":"skrimgxral","steam_id":76561198271936950,"connected_time":125000000000,"state":"active","ping":60},{"user_id":442,"name":"Ragnor","steam_id":76561198269543979,"connected_time":847000000000,"state":"active","ping":52}]},{"server_id":110,"name":"Uncletopia | Frankfurt | 2 | All Maps","name_short":"frk-2","host":"frk-1.de.uncletopia.com","port":27025,"enabled":true,"region":"eu","cc":"de","latitude":50.110924,"longitude":8.682127,"reserved":0,"last_update":"0001-01-01T00:00:00Z","name_a2s":"Uncletopia | Frankfurt | 2 | All Maps","protocol":17,"map":"koth_lakeside_final","folder":"tf","game":"Team Fortress","app_id":440,"player_count":0,"max_players":24,"Bots":0,"server_type":"Dedicated","server_os":"Linux","password":true,"vac":true,"version":"7742253","steam_id":85568392924469990,"keywords":["cp","nocrits","nodmgspread","uncletopia"],"game_id":440,"stv_port":27026,"stv_name":"Uncletopia | Frankfurt | 2 | All Maps | STV","players":null},{"server_id":308,"name":"Uncletopia | Frankfurt | 3 | All Maps","name_short":"frk-3","host":"frk-1.de.uncletopia.com","port":27035,"enabled":true,"region":"eu","cc":"de","latitude":50.110924,"longitude":8.682127,"reserved":0,"last_update":"0001-01-01T00:00:00Z","name_a2s":"Uncletopia | Frankfurt | 3 | All Maps","protocol":17,"map":"pl_upward","folder":"tf","game":"Team Fortress","app_id":440,"player_count":10,"max_players":24,"Bots":0,"server_type":"Dedicated","server_os":"Linux","password":true,"vac":true,"version":"7742253","steam_id":85568392924504274,"keywords":["nocrits","nodmgspread","payload","uncletopia"],"game_id":440,"stv_port":27036,"stv_name":"Uncletopia | Frankfurt | 3 | All Maps | STV","players":[{"user_id":601,"name":"Zelmor","steam_id":76561197997708311,"connected_time":17000000000,"state":"active","ping":55},{"user_id":593,"name":"EX","steam_id":76561198048842228,"connected_time":269000000000,"state":"active","ping":48},{"user_id":594,"name":"gwa≈Çt wƒÖtroby 0,7 i 5 piw","steam_id":76561199038973360,"connected_time":269000000000,"state":"active","ping":89},{"user_id":597,"name":"domin532","steam_id":76561198956449414,"connected_time":196000000000,"state":"active","ping":85},{"user_id":600,"name":"DocTwoEight","steam_id":76561198153488940,"connected_time":65000000000,"state":"active","ping":62},{"user_id":596,"name":"monti808","steam_id":76561198201422170,"connected_time":206000000000,"state":"active","ping":58},{"user_id":588,"name":"nut cracker","steam_id":76561198237588932,"connected_time":547000000000,"state":"active","ping":59},{"user_id":562,"name":".quickfast.","steam_id":76561199438900919,"connected_time":3486000000000,"state":"active","ping":69},{"user_id":557,"name":"Kozzi","steam_id":76561198049832042,"connected_time":3912000000000,"state":"active","ping":75},{"user_id":589,"name":"BoPoe","steam_id":76561198093333882,"connected_time":505000000000,"state":"active","ping":108}]},{"server_id":309,"name":"Uncletopia | Frankfurt | 4 | All Maps","name_short":"frk-4","host":"frk-1.de.uncletopia.com","port":27045,"enabled":true,"region":"eu","cc":"de","latitude":50.110924,"longitude":8.682127,"reserved":0,"last_update":"0001-01-01T00:00:00Z","name_a2s":"Uncletopia | Frankfurt | 4 | All Maps","protocol":17,"map":"pl_upward","folder":"tf","game":"Team Fortress","app_id":440,"player_count":23,"max_players":24,"Bots":0,"server_type":"Dedicated","server_os":"Linux","password":true,"vac":true,"version":"7742253","steam_id":85568392924504275,"keywords":["nocrits","nodmgspread","payload","uncletopia"],"game_id":440,"stv_port":27046,"stv_name":"Uncletopia | Frankfurt | 4 | All Maps | STV","players":[{"user_id":664,"name":"Useless Tripod","steam_id":76561199013194455,"connected_time":670000000000,"state":"active","ping":153},{"user_id":635,"name":"üúè Drepp","steam_id":76561197998867164,"connected_time":1806000000000,"state":"active","ping":59},{"user_id":575,"name":"kgf","steam_id":76561198181442259,"connected_time":3969000000000,"state":"active","ping":63},{"user_id":672,"name":"deez","steam_id":76561198831476915,"connected_time":176000000000,"state":"active","ping":65},{"user_id":640,"name":"sex haver","steam_id":76561198798892497,"connected_time":1392000000000,"state":"active","ping":59},{"user_id":577,"name":"dddd","steam_id":76561198120894372,"connected_time":3769000000000,"state":"active","ping":121},{"user_id":667,"name":"Piss eater","steam_id":76561198390635708,"connected_time":537000000000,"state":"active","ping":59},{"user_id":651,"name":"The Fellow Feller","steam_id":76561198188864306,"connected_time":1126000000000,"state":"active","ping":59},{"user_id":654,"name":"Use The Finger","steam_id":76561198050203563,"connected_time":1069000000000,"state":"active","ping":69},{"user_id":668,"name":"Joff-tchoff-tchoffo-tchoffo-tch","steam_id":76561198044167743,"connected_time":511000000000,"state":"active","ping":90},{"user_id":571,"name":"Craid","steam_id":76561198806040594,"connected_time":4297000000000,"state":"active","ping":82},{"user_id":669,"name":"Miedzan","steam_id":76561198405250516,"connected_time":486000000000,"state":"active","ping":67},{"user_id":641,"name":"dairy","steam_id":76561198117033273,"connected_time":1389000000000,"state":"active","ping":76},{"user_id":645,"name":"Creative","steam_id":76561198835034247,"connected_time":1307000000000,"state":"active","ping":85},{"user_id":637,"name":"tets","steam_id":76561198154734428,"connected_time":1781000000000,"state":"active","ping":101},{"user_id":639,"name":"101 000 tuns of democracy","steam_id":76561198218257120,"connected_time":1675000000000,"state":"active","ping":72},{"user_id":655,"name":"mr teleports","steam_id":76561197980736364,"connected_time":1056000000000,"state":"active","ping":76},{"user_id":666,"name":"Ben Redic Fy Fazan","steam_id":76561198069946573,"connected_time":565000000000,"state":"active","ping":109},{"user_id":671,"name":"ScarredPixel123","steam_id":76561199165112703,"connected_time":415000000000,"state":"active","ping":84},{"user_id":567,"name":"honey live","steam_id":76561198345972230,"connected_time":4394000000000,"state":"active","ping":76},{"user_id":560,"name":"Raxor","steam_id":76561198239927434,"connected_time":5228000000000,"state":"active","ping":85},{"user_id":544,"name":"–ò–Ω—Å–ø–µ–∫—Ç–æ—Ä –ê—Ç–∞—Å","steam_id":76561199175688390,"connected_time":6559000000000,"state":"active","ping":77},{"user_id":621,"name":"WUNNA","steam_id":76561198999848273,"connected_time":2104000000000,"state":"active","ping":80}]},{"server_id":310,"name":"Uncletopia | Frankfurt | 5 | All Maps","name_short":"frk-5","host":"frk-1.de.uncletopia.com","port":27055,"enabled":true,"region":"eu","cc":"de","latitude":50.110924,"longitude":8.682127,"reserved":0,"last_update":"0001-01-01T00:00:00Z","name_a2s":"Uncletopia | Frankfurt | 5 | All Maps","protocol":17,"map":"cp_altitude","folder":"tf","game":"Team Fortress","app_id":440,"player_count":21,"max_players":24,"Bots":0,"server_type":"Dedicated","server_os":"Linux","password":true,"vac":true,"version":"7742253","steam_id":85568392924504277,"keywords":["cp","nocrits","nodmgspread","uncletopia"],"game_id":440,"stv_port":27056,"stv_name":"Uncletopia | Frankfurt | 5 | All Maps | STV","players":[{"user_id":265,"name":"Zateske","steam_id":76561198047446276,"connected_time":10000000000,"state":"active","ping":111},{"user_id":263,"name":"Mr.Schnittlauch","steam_id":76561198295868113,"connected_time":80000000000,"state":"active","ping":54},{"user_id":236,"name":"pakin157","steam_id":76561198035125667,"connected_time":1979000000000,"state":"active","ping":68},{"user_id":215,"name":"Pablo.Fortnite.2011","steam_id":76561198259034983,"connected_time":3052000000000,"state":"active","ping":60},{"user_id":187,"name":"Lahna","steam_id":76561198064898117,"connected_time":3886000000000,"state":"active","ping":82},{"user_id":242,"name":"Noob_with_source","steam_id":76561198870362103,"connected_time":1727000000000,"state":"active","ping":59},{"user_id":188,"name":"Oskuri","steam_id":76561198155956047,"connected_time":3854000000000,"state":"active","ping":62},{"user_id":255,"name":"ZePequenio","steam_id":76561197968506094,"connected_time":253000000000,"state":"active","ping":54},{"user_id":259,"name":"Mishaswy","steam_id":76561198156848144,"connected_time":244000000000,"state":"active","ping":98},{"user_id":223,"name":"Jams","steam_id":76561198118316970,"connected_time":2587000000000,"state":"active","ping":85},{"user_id":261,"name":"Rask","steam_id":76561198052934944,"connected_time":235000000000,"state":"active","ping":95},{"user_id":243,"name":"upisfree","steam_id":76561198064037857,"connected_time":1722000000000,"state":"active","ping":111},{"user_id":253,"name":"Milosz52","steam_id":76561199060940204,"connected_time":291000000000,"state":"active","ping":64},{"user_id":257,"name":"moser23","steam_id":76561197960543171,"connected_time":247000000000,"state":"active","ping":45},{"user_id":258,"name":"snowi","steam_id":76561198006502679,"connected_time":247000000000,"state":"active","ping":62},{"user_id":231,"name":"Telivan","steam_id":76561198026048940,"connected_time":2348000000000,"state":"active","ping":111},{"user_id":262,"name":"Tort","steam_id":76561198329646769,"connected_time":197000000000,"state":"active","ping":63},{"user_id":264,"name":"Scouter","steam_id":76561198025368375,"connected_time":37000000000,"state":"active","ping":57},{"user_id":199,"name":"DrauconeTMDS","steam_id":76561198083510257,"connected_time":3672000000000,"state":"active","ping":44},{"user_id":207,"name":"Rubi","steam_id":76561198139410003,"connected_time":3505000000000,"state":"active","ping":83},{"user_id":213,"name":"freemantel30","steam_id":76561198065669800,"connected_time":3189000000000,"state":"active","ping":47}]},{"server_id":311,"name":"Uncletopia | Frankfurt | 6 | All Maps","name_short":"frk-6","host":"frk-1.de.uncletopia.com","port":27065,"enabled":true,"region":"eu","cc":"de","latitude":50.110924,"longitude":8.682127,"reserved":0,"last_update":"0001-01-01T00:00:00Z","name_a2s":"Uncletopia | Frankfurt | 6 | All Maps","protocol":17,"map":"pl_frontier_final","folder":"tf","game":"Team Fortress","app_id":440,"player_count":23,"max_players":24,"Bots":0,"server_type":"Dedicated","server_os":"Linux","password":true,"vac":true,"version":"7742253","steam_id":85568392924504278,"keywords":["nocrits","nodmgspread","payload","uncletopia"],"game_id":440,"stv_port":27066,"stv_name":"Uncletopia | Frankfurt | 6 | All Maps | STV","players":[{"user_id":593,"name":"BitterStep","steam_id":76561199103959197,"connected_time":223000000000,"state":"active","ping":94},{"user_id":582,"name":"Roggers","steam_id":76561198080631634,"connected_time":500000000000,"state":"active","ping":67},{"user_id":573,"name":"mohemmedmokhter2005","steam_id":76561199197650506,"connected_time":1497000000000,"state":"active","ping":118},{"user_id":583,"name":"Roon","steam_id":76561198191983045,"connected_time":495000000000,"state":"active","ping":50},{"user_id":565,"name":"Albert Einstein","steam_id":76561198351190006,"connected_time":1692000000000,"state":"active","ping":87},{"user_id":586,"name":"XRVenomGamer","steam_id":76561198323382406,"connected_time":429000000000,"state":"active","ping":72},{"user_id":594,"name":"Wyvern786","steam_id":76561199137770636,"connected_time":211000000000,"state":"active","ping":63},{"user_id":592,"name":"lanzer","steam_id":76561198049983016,"connected_time":244000000000,"state":"active","ping":99},{"user_id":587,"name":"Bepperman","steam_id":76561198397517828,"connected_time":423000000000,"state":"active","ping":72},{"user_id":568,"name":"nwp?","steam_id":76561198082516068,"connected_time":1637000000000,"state":"active","ping":75},{"user_id":581,"name":"YeetusFeetus","steam_id":76561199043598948,"connected_time":538000000000,"state":"active","ping":108},{"user_id":599,"name":"Brica","steam_id":76561198196324799,"connected_time":43000000000,"state":"active","ping":69},{"user_id":518,"name":"wickEd_","steam_id":76561198048068999,"connected_time":5392000000000,"state":"active","ping":149},{"user_id":597,"name":"D_Ink","steam_id":76561198267716662,"connected_time":70000000000,"state":"active","ping":58},{"user_id":598,"name":".Aq","steam_id":76561198043376092,"connected_time":50000000000,"state":"spawning","ping":267},{"user_id":556,"name":"r06u3","steam_id":76561198254099253,"connected_time":2348000000000,"state":"active","ping":186},{"user_id":596,"name":"Grim the lemon","steam_id":76561199083433988,"connected_time":137000000000,"state":"active","ping":79},{"user_id":570,"name":"eple","steam_id":76561198017686306,"connected_time":1611000000000,"state":"active","ping":60},{"user_id":550,"name":"Videogamer","steam_id":76561198106012909,"connected_time":3190000000000,"state":"active","ping":70},{"user_id":571,"name":"prank em john","steam_id":76561199265289808,"connected_time":1600000000000,"state":"active","ping":116},{"user_id":579,"name":"Bromoneto","steam_id":76561198876695014,"connected_time":808000000000,"state":"active","ping":85},{"user_id":572,"name":"Jar","steam_id":76561198156384007,"connected_time":1585000000000,"state":"active","ping":64},{"user_id":498,"name":"Hexagon","steam_id":76561198151205758,"connected_time":6972000000000,"state":"active","ping":52}]},{"server_id":23,"name":"Uncletopia | Frankfurt | 7 | Stopwatch Beta","name_short":"frk-7","host":"frk-1.de.uncletopia.com","port":27075,"enabled":true,"region":"eu","cc":"de","latitude":50.110924,"longitude":8.682127,"reserved":0,"last_update":"0001-01-01T00:00:00Z","name_a2s":"Uncletopia | Frankfurt | 7 | Stopwatch Beta","protocol":17,"map":"cp_process_final","folder":"tf","game":"Team Fortress","app_id":440,"player_count":24,"max_players":24,"Bots":0,"server_type":"Dedicated","server_os":"Linux","password":true,"vac":true,"version":"7742253","steam_id":85568392924742827,"keywords":["cp","nocrits","nodmgspread","uncletopia"],"game_id":440,"stv_port":27076,"stv_name":"Uncletopia | Frankfurt | 7 | Stopwatch Beta | STV","players":[{"user_id":210,"name":"BookKouy","steam_id":76561199446431633,"connected_time":3043000000000,"state":"active","ping":73},{"user_id":246,"name":"tralalaOuiOui","steam_id":76561197963471507,"connected_time":1377000000000,"state":"active","ping":54},{"user_id":212,"name":"Raeews","steam_id":76561198254646517,"connected_time":2967000000000,"state":"active","ping":48},{"user_id":237,"name":"Cosmetic brain","steam_id":76561198055936410,"connected_time":1781000000000,"state":"active","ping":85},{"user_id":261,"name":"Pingu","steam_id":76561198074477219,"connected_time":627000000000,"state":"active","ping":59},{"user_id":233,"name":"Farmercy","steam_id":76561198000038039,"connected_time":2140000000000,"state":"active","ping":60},{"user_id":269,"name":"Max","steam_id":76561198138959361,"connected_time":111000000000,"state":"active","ping":60},{"user_id":232,"name":"10","steam_id":76561198120668070,"connected_time":2190000000000,"state":"active","ping":63},{"user_id":147,"name":"Welder","steam_id":76561198355300561,"connected_time":6266000000000,"state":"active","ping":69},{"user_id":148,"name":"roblan11","steam_id":76561198066839258,"connected_time":6003000000000,"state":"active","ping":59},{"user_id":258,"name":"toom","steam_id":76561198053003432,"connected_time":792000000000,"state":"active","ping":74},{"user_id":252,"name":"Mr.O #deletesniper","steam_id":76561198039567498,"connected_time":1088000000000,"state":"active","ping":60},{"user_id":263,"name":"Smuggs","steam_id":76561197999456003,"connected_time":532000000000,"state":"active","ping":55},{"user_id":245,"name":"stonebum","steam_id":76561198057004606,"connected_time":1408000000000,"state":"active","ping":60},{"user_id":254,"name":"Rory","steam_id":76561198354037580,"connected_time":1066000000000,"state":"active","ping":55},{"user_id":219,"name":"barni","steam_id":76561198170420173,"connected_time":2664000000000,"state":"active","ping":87},{"user_id":255,"name":"Pachakamakk","steam_id":76561197989010401,"connected_time":1051000000000,"state":"active","ping":58},{"user_id":268,"name":"Dado1208","steam_id":76561199080888460,"connected_time":242000000000,"state":"active","ping":81},{"user_id":248,"name":"UNT","steam_id":76561199021528172,"connected_time":1340000000000,"state":"active","ping":114},{"user_id":256,"name":"shoras","steam_id":76561198019680159,"connected_time":1039000000000,"state":"active","ping":87},{"user_id":267,"name":"Miton","steam_id":76561197970323209,"connected_time":269000000000,"state":"active","ping":77},{"user_id":251,"name":"LasagnaLarry22","steam_id":76561198089478290,"connected_time":1235000000000,"state":"active","ping":60},{"user_id":224,"name":"Toon","steam_id":76561198065421595,"connected_time":2596000000000,"state":"active","ping":57},{"user_id":264,"name":"cat (they/them)","steam_id":76561198416657815,"connected_time":532000000000,"state":"active","ping":70}]},{"server_id":24,"name":"Uncletopia | Frankfurt | 8 | Community","name_short":"frk-8","host":"frk-1.de.uncletopia.com","port":27085,"enabled":true,"region":"eu","cc":"de","latitude":50.110924,"longitude":8.682127,"reserved":0,"last_update":"0001-01-01T00:00:00Z","name_a2s":"Uncletopia | Frankfurt | 8 | Community","protocol":17,"map":"workshop/koth_ramjam_v2_b2.ugc2865676487","folder":"tf","game":"Team Fortress","app_id":440,"player_count":0,"max_players":24,"Bots":0,"server_type":"Dedicated","server_os":"Linux","password":true,"vac":true,"version":"7742253","steam_id":85568392924742828,"keywords":["cp","nocrits","nodmgspread","uncletopia"],"game_id":440,"stv_port":27086,"stv_name":"Uncletopia | Frankfurt | 8 | Community | STV","players":null},{"server_id":202,"name":"Uncletopia | Hong Kong | 1 | All Maps","name_short":"hgk-1","host":"hgk-1.hk.uncletopia.com","port":27015,"enabled":true,"region":"asia","cc":"hk","latitude":22.302711,"longitude":114.177216,"reserved":0,"last_update":"0001-01-01T00:00:00Z","name_a2s":"Uncletopia | Hong Kong | 1 | All Maps","protocol":17,"map":"koth_highpass","folder":"tf","game":"Team Fortress","app_id":440,"player_count":0,"max_players":24,"Bots":0,"server_type":"Dedicated","server_os":"Linux","password":true,"vac":true,"version":"7742253","steam_id":85568392924494504,"keywords":["cp","nocrits","nodmgspread","uncletopia"],"game_id":440,"stv_port":27016,"stv_name":"Uncletopia | Hong Kong | 1 | All Maps | STV","players":null},{"server_id":1,"name":"Uncletopia | Los Angeles | 1 | All Maps","name_short":"lax-1","host":"lax-1.us.uncletopia.com","port":27015,"enabled":true,"region":"us-west","cc":"us","latitude":33.94279,"longitude":-118.41004,"reserved":0,"last_update":"0001-01-01T00:00:00Z","name_a2s":"Uncletopia | Los Angeles | 1 | All Maps","protocol":17,"map":"cp_sunshine","folder":"tf","game":"Team Fortress","app_id":440,"player_count":0,"max_players":24,"Bots":0,"server_type":"Dedicated","server_os":"Linux","password":true,"vac":true,"version":"7742253","steam_id":85568392924469991,"keywords":["cp","nocrits","nodmgspread","uncletopia"],"game_id":440,"stv_port":27016,"stv_name":"Uncletopia | Los Angeles | 1 | All Maps | STV","players":null},{"server_id":112,"name":"Uncletopia | Los Angeles | 2 | All Maps","name_short":"lax-2","host":"lax-1.us.uncletopia.com","port":27025,"enabled":true,"region":"us-west","cc":"us","latitude":33.94279,"longitude":-118.41004,"reserved":0,"last_update":"0001-01-01T00:00:00Z","name_a2s":"Uncletopia | Los Angeles | 2 | All Maps","protocol":17,"map":"pl_upward","folder":"tf","game":"Team Fortress","app_id":440,"player_count":0,"max_players":24,"Bots":0,"server_type":"Dedicated","server_os":"Linux","password":true,"vac":true,"version":"7742253","steam_id":85568392924469992,"keywords":["nocrits","nodmgspread","payload","uncletopia"],"game_id":440,"stv_port":27026,"stv_name":"Uncletopia | Los Angeles | 2 | All Maps | STV","players":null},{"server_id":324,"name":"Uncletopia | Los Angeles | 3 | All Maps","name_short":"lax-3","host":"lax-1.us.uncletopia.com","port":27035,"enabled":true,"region":"us-west","cc":"us","latitude":33.94279,"longitude":-118.41004,"reserved":0,"last_update":"0001-01-01T00:00:00Z","name_a2s":"Uncletopia | Los Angeles | 3 | All Maps","protocol":17,"map":"pl_borneo","folder":"tf","game":"Team Fortress","app_id":440,"player_count":0,"max_players":24,"Bots":0,"server_type":"Dedicated","server_os":"Linux","password":true,"vac":true,"version":"7742253","steam_id":85568392924510198,"keywords":["nocrits","nodmgspread","payload","uncletopia"],"game_id":440,"stv_port":27036,"stv_name":"Uncletopia | Los Angeles | 3 | All Maps | STV","players":null},{"server_id":25,"name":"Uncletopia | Los Angeles | 4 | Stopwatch Beta","name_short":"lax-4","host":"lax-1.us.uncletopia.com","port":27045,"enabled":true,"region":"us-west","cc":"us","latitude":33.94279,"longitude":-118.41004,"reserved":0,"last_update":"0001-01-01T00:00:00Z","name_a2s":"Uncletopia | Los Angeles | 4 | Stopwatch Beta","protocol":17,"map":"cp_process_final","folder":"tf","game":"Team Fortress","app_id":440,"player_count":0,"max_players":24,"Bots":0,"server_type":"Dedicated","server_os":"Linux","password":true,"vac":true,"version":"7742253","steam_id":85568392924510199,"keywords":["cp","nocrits","nodmgspread","uncletopia"],"game_id":440,"stv_port":27046,"stv_name":"Uncletopia | Los Angeles | 4 | Stopwatch Beta | STV","players":null},{"server_id":11,"name":"Uncletopia | London | 1 | All Maps","name_short":"lon-1","host":"lon-1.uk.uncletopia.com","port":27015,"enabled":true,"region":"eu","cc":"gb","latitude":51.509865,"longitude":-0.118092,"reserved":0,"last_update":"0001-01-01T00:00:00Z","name_a2s":"Uncletopia | London | 1 | All Maps","protocol":17,"map":"cp_snakewater_final1","folder":"tf","game":"Team Fortress","app_id":440,"player_count":24,"max_players":24,"Bots":0,"server_type":"Dedicated","server_os":"Linux","password":true,"vac":true,"version":"7742253","steam_id":85568392924367362,"keywords":["cp","nocrits","nodmgspread","uncletopia"],"game_id":440,"stv_port":27016,"stv_name":"Uncletopia | London | 1 | All Maps | STV","players":[{"user_id":588,"name":"Grying High","steam_id":76561198053961616,"connected_time":2881000000000,"state":"active","ping":59},{"user_id":594,"name":"SOPHIIEE","steam_id":76561198443798981,"connected_time":2441000000000,"state":"active","ping":55},{"user_id":593,"name":"muza‚ô•","steam_id":76561198220183377,"connected_time":2496000000000,"state":"active","ping":112},{"user_id":608,"name":"Cool Beans","steam_id":76561197995130085,"connected_time":75000000000,"state":"active","ping":43},{"user_id":549,"name":"BroHood(active only in weekends","steam_id":76561198044766151,"connected_time":4673000000000,"state":"active","ping":94},{"user_id":529,"name":"dec","steam_id":76561198009660168,"connected_time":6310000000000,"state":"active","ping":49},{"user_id":590,"name":"lookbrood","steam_id":76561198025592834,"connected_time":2850000000000,"state":"active","ping":56},{"user_id":563,"name":"Pasta sauce","steam_id":76561198232919072,"connected_time":4305000000000,"state":"active","ping":41},{"user_id":606,"name":"ProfAkame","steam_id":76561198391945324,"connected_time":103000000000,"state":"active","ping":69},{"user_id":609,"name":"fETUS","steam_id":76561198064755918,"connected_time":54000000000,"state":"active","ping":100},{"user_id":553,"name":"–≥–æ–ª—É–±","steam_id":76561198209101861,"connected_time":4631000000000,"state":"active","ping":79},{"user_id":575,"name":"Mattt_66","steam_id":76561199086267158,"connected_time":3711000000000,"state":"active","ping":43},{"user_id":598,"name":"Green","steam_id":76561198183580019,"connected_time":2188000000000,"state":"active","ping":75},{"user_id":610,"name":"timothy mcgee","steam_id":76561198131670413,"connected_time":52000000000,"state":"active","ping":65},{"user_id":602,"name":"Silent Person","steam_id":76561198107763537,"connected_time":1070000000000,"state":"active","ping":80},{"user_id":567,"name":"Crafty Kobold","steam_id":76561197970546264,"connected_time":4146000000000,"state":"active","ping":49},{"user_id":591,"name":"19raic","steam_id":76561199093514786,"connected_time":2827000000000,"state":"active","ping":63},{"user_id":601,"name":"anaphylaxis","steam_id":76561198097396447,"connected_time":1237000000000,"state":"active","ping":58},{"user_id":565,"name":"fiyahstorm","steam_id":76561197992574261,"connected_time":4260000000000,"state":"active","ping":44},{"user_id":603,"name":"Swear$","steam_id":76561198254324824,"connected_time":637000000000,"state":"active","ping":50},{"user_id":607,"name":"Luke","steam_id":76561197993517025,"connected_time":86000000000,"state":"active","ping":45},{"user_id":605,"name":"Charon","steam_id":76561198061714753,"connected_time":594000000000,"state":"active","ping":83},{"user_id":599,"name":"Dominus.","steam_id":76561199065917088,"connected_time":1528000000000,"state":"active","ping":67},{"user_id":611,"name":"mus","steam_id":76561199439030016,"connected_time":49000000000,"state":"active","ping":110}]},{"server_id":114,"name":"Uncletopia | London | 2 | All Maps","name_short":"lon-2","host":"lon-1.uk.uncletopia.com","port":27025,"enabled":true,"region":"eu","cc":"gb","latitude":51.509865,"longitude":-0.118092,"reserved":0,"last_update":"0001-01-01T00:00:00Z","name_a2s":"Uncletopia | London | 2 | All Maps","protocol":17,"map":"pl_pier","folder":"tf","game":"Team Fortress","app_id":440,"player_count":23,"max_players":24,"Bots":0,"server_type":"Dedicated","server_os":"Linux","password":true,"vac":true,"version":"7742253","steam_id":85568392924470941,"keywords":["nocrits","nodmgspread","payload","uncletopia"],"game_id":440,"stv_port":27026,"stv_name":"Uncletopia | London | 2 | All Maps | STV","players":[{"user_id":453,"name":"Panzerwaffle","steam_id":76561198030382800,"connected_time":729000000000,"state":"active","ping":49},{"user_id":414,"name":"charlag_khan","steam_id":76561197991768268,"connected_time":2174000000000,"state":"active","ping":60},{"user_id":438,"name":"/…ô ÀàstjuÀêp…™d Ààf…õmb…î…™/","steam_id":76561198413545609,"connected_time":1526000000000,"state":"active","ping":48},{"user_id":457,"name":"Bgm_","steam_id":76561198056452044,"connected_time":139000000000,"state":"active","ping":75},{"user_id":456,"name":"Pruff","steam_id":76561198377084417,"connected_time":247000000000,"state":"active","ping":75},{"user_id":454,"name":"SaReT","steam_id":76561199060126307,"connected_time":637000000000,"state":"active","ping":95},{"user_id":431,"name":"Yos","steam_id":76561199056318258,"connected_time":1981000000000,"state":"active","ping":91},{"user_id":450,"name":"bored","steam_id":76561198981796805,"connected_time":822000000000,"state":"active","ping":66},{"user_id":432,"name":"Coca162","steam_id":76561198230656540,"connected_time":1965000000000,"state":"active","ping":33},{"user_id":420,"name":"clraffell","steam_id":76561198904469197,"connected_time":2058000000000,"state":"active","ping":61},{"user_id":372,"name":"Thesis","steam_id":76561199308784371,"connected_time":4974000000000,"state":"active","ping":54},{"user_id":445,"name":"garbage mikuknight","steam_id":76561198361819054,"connected_time":1206000000000,"state":"active","ping":117},{"user_id":455,"name":"Crispy","steam_id":76561198027957907,"connected_time":620000000000,"state":"active","ping":70},{"user_id":423,"name":"Noxifoxis","steam_id":76561198838493783,"connected_time":2044000000000,"state":"active","ping":93},{"user_id":449,"name":"Prox","steam_id":76561198351490981,"connected_time":989000000000,"state":"active","ping":47},{"user_id":408,"name":"Estamie","steam_id":76561198058527691,"connected_time":2862000000000,"state":"active","ping":81},{"user_id":425,"name":"SovietSpaceDog","steam_id":76561198005876029,"connected_time":2042000000000,"state":"active","ping":87},{"user_id":440,"name":"Nuuskis","steam_id":76561198084042012,"connected_time":1460000000000,"state":"active","ping":83},{"user_id":446,"name":"Dolphin2011","steam_id":76561197997323419,"connected_time":1197000000000,"state":"active","ping":87},{"user_id":374,"name":"When Life gives you Lemons","steam_id":76561198318290663,"connected_time":4852000000000,"state":"active","ping":61},{"user_id":458,"name":"zinzyk","steam_id":76561198128011822,"connected_time":49000000000,"state":"active","ping":68},{"user_id":448,"name":"Cuplcake","steam_id":76561198017604608,"connected_time":1171000000000,"state":"active","ping":60},{"user_id":428,"name":"Michael","steam_id":76561198003146906,"connected_time":2038000000000,"state":"active","ping":47}]},{"server_id":320,"name":"Uncletopia | London | 3 | All Maps","name_short":"lon-3","host":"lon-1.uk.uncletopia.com","port":27035,"enabled":true,"region":"eu","cc":"gb","latitude":51.509865,"longitude":-0.118092,"reserved":0,"last_update":"0001-01-01T00:00:00Z","name_a2s":"Uncletopia | London | 3 | All Maps","protocol":17,"map":"cp_dustbowl","folder":"tf","game":"Team Fortress","app_id":440,"player_count":24,"max_players":24,"Bots":0,"server_type":"Dedicated","server_os":"Linux","password":true,"vac":true,"version":"7742253","steam_id":85568392924510192,"keywords":["cp","nocrits","nodmgspread","uncletopia"],"game_id":440,"stv_port":27036,"stv_name":"Uncletopia | London | 3 | All Maps | STV","players":[{"user_id":465,"name":"FUKTARD2005","steam_id":76561198839121591,"connected_time":6352000000000,"state":"active","ping":64},{"user_id":543,"name":"EmissaryOfTheLord","steam_id":76561199130305263,"connected_time":423000000000,"state":"active","ping":38},{"user_id":526,"name":"Munibe","steam_id":76561198107967904,"connected_time":965000000000,"state":"active","ping":54},{"user_id":527,"name":"Mr.Cupcake","steam_id":76561198152711174,"connected_time":937000000000,"state":"active","ping":66},{"user_id":539,"name":"Bobo","steam_id":76561198052308399,"connected_time":535000000000,"state":"active","ping":60},{"user_id":529,"name":"The Pyro Chef","steam_id":76561198069610259,"connected_time":847000000000,"state":"active","ping":45},{"user_id":525,"name":"murf","steam_id":76561199184831395,"connected_time":1165000000000,"state":"active","ping":45},{"user_id":530,"name":"Tresnov","steam_id":76561198068106802,"connected_time":803000000000,"state":"active","ping":56},{"user_id":531,"name":"Henk_de_Patatman","steam_id":76561198070103191,"connected_time":796000000000,"state":"active","ping":39},{"user_id":532,"name":"XavierSweet","steam_id":76561198091781913,"connected_time":730000000000,"state":"active","ping":48},{"user_id":533,"name":"nice player","steam_id":76561199312009998,"connected_time":711000000000,"state":"active","ping":95},{"user_id":534,"name":"Maddog","steam_id":76561198401562263,"connected_time":676000000000,"state":"active","ping":46},{"user_id":537,"name":"muppi","steam_id":76561198067765324,"connected_time":554000000000,"state":"active","ping":74},{"user_id":538,"name":"Tachanka","steam_id":76561198329246233,"connected_time":541000000000,"state":"active","ping":45},{"user_id":523,"name":"KFC Enjoyer","steam_id":76561198840259819,"connected_time":1509000000000,"state":"active","ping":58},{"user_id":488,"name":"Seargant Snagge","steam_id":76561198055227276,"connected_time":4021000000000,"state":"active","ping":90},{"user_id":522,"name":"MAKENTAKEN","steam_id":76561199127359587,"connected_time":1782000000000,"state":"active","ping":94},{"user_id":540,"name":"loonies in the hall","steam_id":76561198216544293,"connected_time":512000000000,"state":"active","ping":67},{"user_id":513,"name":"scrimblobimblo","steam_id":76561198339480413,"connected_time":2396000000000,"state":"active","ping":57},{"user_id":541,"name":"Jo_King27","steam_id":76561199110629078,"connected_time":488000000000,"state":"active","ping":161},{"user_id":547,"name":"Sto√Øcisme","steam_id":76561198127441800,"connected_time":245000000000,"state":"active","ping":61},{"user_id":544,"name":"Guru","steam_id":76561198093853069,"connected_time":398000000000,"state":"active","ping":70},{"user_id":545,"name":"‚ò£ cat fock ‚ò£","steam_id":76561198264641620,"connected_time":363000000000,"state":"active","ping":120},{"user_id":549,"name":"Chocopenguin","steam_id":76561198247470284,"connected_time":86000000000,"state":"active","ping":55}]},{"server_id":321,"name":"Uncletopia | London | 4 | All Maps","name_short":"lon-4","host":"lon-1.uk.uncletopia.com","port":27045,"enabled":true,"region":"eu","cc":"gb","latitude":51.509865,"longitude":-0.118092,"reserved":0,"last_update":"0001-01-01T00:00:00Z","name_a2s":"Uncletopia | London | 4 | All Maps","protocol":17,"map":"pl_upward","folder":"tf","game":"Team Fortress","app_id":440,"player_count":23,"max_players":24,"Bots":0,"server_type":"Dedicated","server_os":"Linux","password":true,"vac":true,"version":"7742253","steam_id":85568392924510193,"keywords":["nocrits","nodmgspread","payload","uncletopia"],"game_id":440,"stv_port":27046,"stv_name":"Uncletopia | London | 4 | All Maps | STV","players":[{"user_id":538,"name":"Cheekus Breekus","steam_id":76561198188310329,"connected_time":1660000000000,"state":"active","ping":93},{"user_id":549,"name":"Tywhip","steam_id":76561199207545191,"connected_time":767000000000,"state":"active","ping":59},{"user_id":521,"name":"Jakearooney","steam_id":76561198137205424,"connected_time":3027000000000,"state":"active","ping":63},{"user_id":543,"name":"LGBT_Loves_Russia","steam_id":76561198030463932,"connected_time":1450000000000,"state":"active","ping":105},{"user_id":483,"name":"Jingleboob's 1# Elf","steam_id":76561198067204908,"connected_time":5466000000000,"state":"active","ping":55},{"user_id":482,"name":"Cloudberry","steam_id":76561198035612538,"connected_time":5697000000000,"state":"active","ping":64},{"user_id":522,"name":"Tel Ltd.","steam_id":76561198045137670,"connected_time":2994000000000,"state":"active","ping":52},{"user_id":469,"name":"jingleboob","steam_id":76561198097507847,"connected_time":6131000000000,"state":"active","ping":86},{"user_id":548,"name":"Ged","steam_id":76561198079288943,"connected_time":1086000000000,"state":"active","ping":136},{"user_id":551,"name":"Vershal Smershal","steam_id":76561198116223995,"connected_time":687000000000,"state":"active","ping":55},{"user_id":544,"name":"ivanmixo","steam_id":76561198160213989,"connected_time":1331000000000,"state":"active","ping":77},{"user_id":527,"name":"Clover","steam_id":76561198315908102,"connected_time":2676000000000,"state":"active","ping":57},{"user_id":535,"name":"jge","steam_id":76561198123186387,"connected_time":2247000000000,"state":"active","ping":60},{"user_id":547,"name":"Koli","steam_id":76561197992428783,"connected_time":1314000000000,"state":"active","ping":60},{"user_id":530,"name":"purplecan","steam_id":76561199208283508,"connected_time":2585000000000,"state":"active","ping":72},{"user_id":545,"name":"Bones","steam_id":76561198065081225,"connected_time":1328000000000,"state":"active","ping":39},{"user_id":550,"name":"tf2","steam_id":76561198236099496,"connected_time":763000000000,"state":"active","ping":111},{"user_id":555,"name":"jaMie","steam_id":76561198170148783,"connected_time":17000000000,"state":"spawning","ping":53},{"user_id":480,"name":"The Notorious B.I.O.","steam_id":76561198170609049,"connected_time":5980000000000,"state":"active","ping":75},{"user_id":553,"name":"a fucking villain","steam_id":76561198085184452,"connected_time":198000000000,"state":"active","ping":82},{"user_id":540,"name":"kbbq","steam_id":76561198346638308,"connected_time":1582000000000,"state":"active","ping":48},{"user_id":542,"name":"ADR!@N","steam_id":76561198154824335,"connected_time":1516000000000,"state":"active","ping":88},{"user_id":546,"name":"Equinox","steam_id":76561199055592635,"connected_time":1327000000000,"state":"active","ping":50}]},{"server_id":21,"name":"Uncletopia | London | 5 | All Maps","name_short":"lon-5","host":"lon-1.uk.uncletopia.com","port":27055,"enabled":true,"region":"eu","cc":"gb","latitude":51.509865,"longitude":-0.118092,"reserved":0,"last_update":"0001-01-01T00:00:00Z","name_a2s":"Uncletopia | London | 5 | All Maps","protocol":17,"map":"cp_altitude","folder":"tf","game":"Team Fortress","app_id":440,"player_count":0,"max_players":24,"Bots":0,"server_type":"Dedicated","server_os":"Linux","password":true,"vac":true,"version":"7742253","steam_id":85568392924742829,"keywords":["cp","nocrits","nodmgspread","uncletopia"],"game_id":440,"stv_port":27056,"stv_name":"Uncletopia | London | 5 | All Maps | STV","players":null},{"server_id":22,"name":"Uncletopia | London | 6 | All Maps","name_short":"lon-6","host":"lon-1.uk.uncletopia.com","port":27065,"enabled":true,"region":"eu","cc":"gb","latitude":51.509865,"longitude":-0.118092,"reserved":0,"last_update":"0001-01-01T00:00:00Z","name_a2s":"Uncletopia | London | 6 | All Maps","protocol":17,"map":"koth_cascade","folder":"tf","game":"Team Fortress","app_id":440,"player_count":1,"max_players":24,"Bots":0,"server_type":"Dedicated","server_os":"Linux","password":true,"vac":true,"version":"7742253","steam_id":85568392924742830,"keywords":["cp","nocrits","nodmgspread","uncletopia"],"game_id":440,"stv_port":27066,"stv_name":"Uncletopia | London | 6 | All Maps | STV","players":[{"user_id":30,"name":"Fwebbie","steam_id":76561199006875621,"connected_time":919000000000,"state":"active","ping":55}]},{"server_id":40,"name":"Uncletopia | London | 7 | No Payload","name_short":"lon-7","host":"lon-1.uk.uncletopia.com","port":27075,"enabled":true,"region":"eu","cc":"gb","latitude":51.509865,"longitude":-0.118092,"reserved":0,"last_update":"0001-01-01T00:00:00Z","name_a2s":"Uncletopia | London | 7 | No Payload","protocol":17,"map":"koth_harvest_final","folder":"tf","game":"Team Fortress","app_id":440,"player_count":0,"max_players":24,"Bots":0,"server_type":"Dedicated","server_os":"Linux","password":true,"vac":true,"version":"7742253","steam_id":85568392924964314,"keywords":["cp","nocrits","nodmgspread","uncletopia"],"game_id":440,"stv_port":27076,"stv_name":"Uncletopia | London | 7 | No Payload | STV","players":null},{"server_id":41,"name":"Uncletopia | London | 8 | Community","name_short":"lon-8","host":"lon-1.uk.uncletopia.com","port":27085,"enabled":true,"region":"eu","cc":"gb","latitude":51.509865,"longitude":-0.118092,"reserved":0,"last_update":"0001-01-01T00:00:00Z","name_a2s":"Uncletopia | London | 8 | Community","protocol":17,"map":"workshop/cp_villa_b19.ugc2113052569","folder":"tf","game":"Team Fortress","app_id":440,"player_count":0,"max_players":24,"Bots":0,"server_type":"Dedicated","server_os":"Linux","password":true,"vac":true,"version":"7742253","steam_id":85568392924964315,"keywords":["cp","nocrits","nodmgspread","uncletopia"],"game_id":440,"stv_port":27086,"stv_name":"Uncletopia | London | 8 | Community | STV","players":null},{"server_id":300,"name":"Uncletopia | Montr√©al | 1 | All Maps","name_short":"mtl-1","host":"mtl-1.ca.uncletopia.com","port":27015,"enabled":true,"region":"us-east","cc":"ca","latitude":45.50889,"longitude":-73.56167,"reserved":0,"last_update":"0001-01-01T00:00:00Z","name_a2s":"Uncletopia | Montr√©al | 1 | All Maps","protocol":17,"map":"koth_lakeside_final","folder":"tf","game":"Team Fortress","app_id":440,"player_count":0,"max_players":24,"Bots":0,"server_type":"Dedicated","server_os":"Linux","password":true,"vac":true,"version":"7742253","steam_id":85568392924500087,"keywords":["cp","nocrits","nodmgspread","uncletopia"],"game_id":440,"stv_port":27016,"stv_name":"Uncletopia | Montr√©al | 1 | All Maps | STV","players":null},{"server_id":301,"name":"Uncletopia | Montr√©al | 2 | All Maps","name_short":"mtl-2","host":"mtl-1.ca.uncletopia.com","port":27025,"enabled":true,"region":"us-east","cc":"ca","latitude":45.50889,"longitude":-73.56167,"reserved":0,"last_update":"0001-01-01T00:00:00Z","name_a2s":"Uncletopia | Montr√©al | 2 | All Maps","protocol":17,"map":"koth_lakeside_final","folder":"tf","game":"Team Fortress","app_id":440,"player_count":0,"max_players":24,"Bots":0,"server_type":"Dedicated","server_os":"Linux","password":true,"vac":true,"version":"7742253","steam_id":85568392924500088,"keywords":["cp","nocrits","nodmgspread","uncletopia"],"game_id":440,"stv_port":27026,"stv_name":"Uncletopia | Montr√©al | 2 | All Maps | STV","players":null},{"server_id":302,"name":"Uncletopia | Montr√©al | 3 | All Maps","name_short":"mtl-3","host":"mtl-1.ca.uncletopia.com","port":27035,"enabled":true,"region":"us-east","cc":"ca","latitude":45.50889,"longitude":-73.56167,"reserved":0,"last_update":"0001-01-01T00:00:00Z","name_a2s":"Uncletopia | Montr√©al | 3 | All Maps","protocol":17,"map":"cp_altitude","folder":"tf","game":"Team Fortress","app_id":440,"player_count":0,"max_players":24,"Bots":0,"server_type":"Dedicated","server_os":"Linux","password":true,"vac":true,"version":"7742253","steam_id":85568392924500089,"keywords":["cp","nocrits","nodmgspread","uncletopia"],"game_id":440,"stv_port":27036,"stv_name":"Uncletopia | Montr√©al | 3 | All Maps | STV","players":null},{"server_id":303,"name":"Uncletopia | Montr√©al | 4 | No Payload","name_short":"mtl-4","host":"mtl-1.ca.uncletopia.com","port":27045,"enabled":true,"region":"us-east","cc":"ca","latitude":45.50889,"longitude":-73.56167,"reserved":0,"last_update":"0001-01-01T00:00:00Z","name_a2s":"Uncletopia | Montr√©al | 4 | No Payload","protocol":17,"map":"koth_highpass","folder":"tf","game":"Team Fortress","app_id":440,"player_count":0,"max_players":24,"Bots":0,"server_type":"Dedicated","server_os":"Linux","password":true,"vac":true,"version":"7742253","steam_id":85568392924500090,"keywords":["cp","nocrits","nodmgspread","uncletopia"],"game_id":440,"stv_port":27046,"stv_name":"Uncletopia | Montr√©al | 4 | No Payload | STV","players":null},{"server_id":13,"name":"Uncletopia | New York City | 1 | All Maps","name_short":"nyc-1","host":"nyc-1.us.uncletopia.com","port":27015,"enabled":true,"region":"us-east","cc":"us","latitude":40.73061,"longitude":-73.93524,"reserved":0,"last_update":"0001-01-01T00:00:00Z","name_a2s":"Uncletopia | New York City | 1 | All Maps","protocol":17,"map":"pl_badwater","folder":"tf","game":"Team Fortress","app_id":440,"player_count":22,"max_players":24,"Bots":0,"server_type":"Dedicated","server_os":"Linux","password":true,"vac":true,"version":"7742253","steam_id":85568392924469993,"keywords":["nocrits","nodmgspread","payload","uncletopia"],"game_id":440,"stv_port":27016,"stv_name":"Uncletopia | New York City | 1 | All Maps | STV","players":[{"user_id":233,"name":"NovaSc6ut","steam_id":76561198277163301,"connected_time":317000000000,"state":"active","ping":69},{"user_id":238,"name":"drum","steam_id":76561198031400151,"connected_time":10000000000,"state":"spawning","ping":47},{"user_id":177,"name":"theancientnut","steam_id":76561199396708880,"connected_time":3852000000000,"state":"active","ping":72},{"user_id":236,"name":"badspyplayer300","steam_id":76561198964306655,"connected_time":220000000000,"state":"active","ping":74},{"user_id":193,"name":"Cheeks","steam_id":76561198110023732,"connected_time":2636000000000,"state":"active","ping":42},{"user_id":239,"name":"a distinctive lack of serotonin","steam_id":76561198032121669,"connected_time":6000000000,"state":"spawning","ping":63},{"user_id":203,"name":"JohnnyWishbone","steam_id":76561198043103441,"connected_time":1831000000000,"state":"active","ping":132},{"user_id":235,"name":"Mrs.Frizzle","steam_id":76561198117157085,"connected_time":248000000000,"state":"active","ping":47},{"user_id":212,"name":"Bob Ross","steam_id":76561198932623728,"connected_time":1477000000000,"state":"active","ping":81},{"user_id":219,"name":"Tenisballs","steam_id":76561199230034309,"connected_time":1020000000000,"state":"active","ping":46},{"user_id":205,"name":"killername","steam_id":76561199105156791,"connected_time":1794000000000,"state":"active","ping":80},{"user_id":215,"name":"OverPovered","steam_id":76561198027900325,"connected_time":1271000000000,"state":"active","ping":74},{"user_id":162,"name":"Antoshka","steam_id":76561198056235391,"connected_time":4859000000000,"state":"active","ping":42},{"user_id":208,"name":"free bird solo","steam_id":76561198337692867,"connected_time":1634000000000,"state":"active","ping":84},{"user_id":217,"name":"Sicko Mode (Chris Pratt Cover)","steam_id":76561198315786174,"connected_time":1207000000000,"state":"active","ping":72},{"user_id":220,"name":"catgirl","steam_id":76561198020736672,"connected_time":1018000000000,"state":"active","ping":61},{"user_id":221,"name":"BigBubble42","steam_id":76561198136286123,"connected_time":964000000000,"state":"active","ping":69},{"user_id":222,"name":"Oliver Clozoff556","steam_id":76561199170979993,"connected_time":948000000000,"state":"active","ping":69},{"user_id":223,"name":"fatcat","steam_id":76561197993786013,"connected_time":916000000000,"state":"active","ping":51},{"user_id":232,"name":"sosu","steam_id":76561198012675381,"connected_time":330000000000,"state":"active","ping":75},{"user_id":237,"name":"dartwing","steam_id":76561197998575360,"connected_time":181000000000,"state":"active","ping":107},{"user_id":227,"name":"Ubadiah","steam_id":76561198329996885,"connected_time":865000000000,"state":"active","ping":55}]},{"server_id":14,"name":"Uncletopia | New York City | 2 | All Maps","name_short":"nyc-2","host":"nyc-1.us.uncletopia.com","port":27025,"enabled":true,"region":"us-east","cc":"us","latitude":40.73061,"longitude":-73.93524,"reserved":0,"last_update":"0001-01-01T00:00:00Z","name_a2s":"Uncletopia | New York City | 2 | All Maps","protocol":17,"map":"ctf_turbine","folder":"tf","game":"Team Fortress","app_id":440,"player_count":23,"max_players":24,"Bots":0,"server_type":"Dedicated","server_os":"Linux","password":true,"vac":true,"version":"7742253","steam_id":85568392924469994,"keywords":["ctf","nocrits","nodmgspread","uncletopia"],"game_id":440,"stv_port":27026,"stv_name":"Uncletopia | New York City | 2 | All Maps | STV","players":[{"user_id":305,"name":"MACHUCADO","steam_id":76561199179037898,"connected_time":135000000000,"state":"active","ping":172},{"user_id":299,"name":"Warpy","steam_id":76561198055852599,"connected_time":553000000000,"state":"active","ping":96},{"user_id":302,"name":"Kitten, The Real One","steam_id":76561198261332468,"connected_time":370000000000,"state":"active","ping":68},{"user_id":297,"name":"PinkLemonade","steam_id":76561198799286228,"connected_time":747000000000,"state":"active","ping":47},{"user_id":279,"name":"dirty dank","steam_id":76561198360904432,"connected_time":1545000000000,"state":"active","ping":55},{"user_id":267,"name":"MILF Gaming","steam_id":76561198155378170,"connected_time":1850000000000,"state":"active","ping":58},{"user_id":285,"name":"Spiral Mountain","steam_id":76561198058683715,"connected_time":1293000000000,"state":"active","ping":58},{"user_id":293,"name":"Uncle Majic the Hip Hop Magicia","steam_id":76561198107924303,"connected_time":941000000000,"state":"active","ping":55},{"user_id":269,"name":"Just_Gas","steam_id":76561198123082220,"connected_time":1824000000000,"state":"active","ping":82},{"user_id":283,"name":"Zinc","steam_id":76561198025303928,"connected_time":1378000000000,"state":"active","ping":54},{"user_id":259,"name":"oakosaurus rex","steam_id":76561198092135570,"connected_time":2861000000000,"state":"active","ping":89},{"user_id":298,"name":"e0e0","steam_id":76561198293839750,"connected_time":612000000000,"state":"active","ping":45},{"user_id":143,"name":"Skadewsh","steam_id":76561198102772209,"connected_time":11183000000000,"state":"active","ping":57},{"user_id":306,"name":"munki„ÉÑ","steam_id":76561198841270249,"connected_time":96000000000,"state":"active","ping":38},{"user_id":307,"name":"Vobo","steam_id":76561199159418598,"connected_time":90000000000,"state":"active","ping":133},{"user_id":284,"name":"Krellah","steam_id":76561198287045069,"connected_time":1375000000000,"state":"active","ping":59},{"user_id":233,"name":"Barry","steam_id":76561198371953939,"connected_time":5193000000000,"state":"active","ping":56},{"user_id":276,"name":"Spooked-Akame","steam_id":76561198799072553,"connected_time":1635000000000,"state":"active","ping":123},{"user_id":291,"name":"Marauding Morty","steam_id":76561198013159528,"connected_time":1083000000000,"state":"active","ping":45},{"user_id":241,"name":"champion  turkey","steam_id":76561198151338482,"connected_time":4319000000000,"state":"active","ping":45},{"user_id":295,"name":"tokyo","steam_id":76561199013458589,"connected_time":923000000000,"state":"active","ping":42},{"user_id":304,"name":"Monke Mob","steam_id":76561198156873737,"connected_time":254000000000,"state":"active","ping":51},{"user_id":261,"name":"Raichu","steam_id":76561199105321535,"connected_time":2851000000000,"state":"active","ping":42}]},{"server_id":15,"name":"Uncletopia | New York City | 3 | Stopwatch Beta","name_short":"nyc-3","host":"nyc-1.us.uncletopia.com","port":27035,"enabled":true,"region":"us-east","cc":"us","latitude":40.73061,"longitude":-73.93524,"reserved":0,"last_update":"0001-01-01T00:00:00Z","name_a2s":"Uncletopia | New York City | 3 | Stopwatch Beta","protocol":17,"map":"koth_lakeside_final","folder":"tf","game":"Team Fortress","app_id":440,"player_count":0,"max_players":24,"Bots":0,"server_type":"Dedicated","server_os":"Linux","password":true,"vac":true,"version":"7742253","steam_id":85568392924742820,"keywords":["cp","nocrits","nodmgspread","uncletopia"],"game_id":440,"stv_port":27036,"stv_name":"Uncletopia | New York City | 3 | Stopwatch Beta | STV","players":null},{"server_id":16,"name":"Uncletopia | New York City | 4 | Community","name_short":"nyc-4","host":"nyc-1.us.uncletopia.com","port":27045,"enabled":true,"region":"us-east","cc":"us","latitude":40.73061,"longitude":-73.93524,"reserved":0,"last_update":"0001-01-01T00:00:00Z","name_a2s":"Uncletopia | New York City | 4 | Community","protocol":17,"map":"workshop/cp_sulfur_rc2.ugc619869471","folder":"tf","game":"Team Fortress","app_id":440,"player_count":0,"max_players":24,"Bots":0,"server_type":"Dedicated","server_os":"Linux","password":true,"vac":true,"version":"7742253","steam_id":85568392924742821,"keywords":["cp","nocrits","nodmgspread","uncletopia"],"game_id":440,"stv_port":27046,"stv_name":"Uncletopia | New York City | 4 | Community | STV","players":null},{"server_id":142,"name":"Uncletopia | S√£o Paulo | 1 | All Maps","name_short":"sao-1","host":"sao-1.br.uncletopia.com","port":27015,"enabled":true,"region":"sa","cc":"br","latitude":-23.533773,"longitude":-46.62529,"reserved":0,"last_update":"0001-01-01T00:00:00Z","name_a2s":"Uncletopia | S√£o Paulo | 1 | All Maps","protocol":17,"map":"koth_harvest_final","folder":"tf","game":"Team Fortress","app_id":440,"player_count":2,"max_players":24,"Bots":0,"server_type":"Dedicated","server_os":"Linux","password":true,"vac":true,"version":"7742253","steam_id":85568392924469996,"keywords":["cp","nocrits","nodmgspread","uncletopia"],"game_id":440,"stv_port":27016,"stv_name":"Uncletopia | S√£o Paulo | 1 | All Maps | STV","players":[{"user_id":23,"name":"Rattlehead","steam_id":76561199447377187,"connected_time":205000000000,"state":"active","ping":51},{"user_id":24,"name":"Ï¶àÌïò","steam_id":76561198143438576,"connected_time":148000000000,"state":"active","ping":45}]},{"server_id":143,"name":"Uncletopia | S√£o Paulo | 2 | All Maps","name_short":"sao-2","host":"sao-2.br.uncletopia.com","port":27015,"enabled":true,"region":"sa","cc":"br","latitude":-23.533773,"longitude":-46.62529,"reserved":0,"last_update":"0001-01-01T00:00:00Z","name_a2s":"Uncletopia | S√£o Paulo | 2 | All Maps","protocol":17,"map":"koth_cascade","folder":"tf","game":"Team Fortress","app_id":440,"player_count":0,"max_players":24,"Bots":0,"server_type":"Dedicated","server_os":"Linux","password":true,"vac":true,"version":"7742253","steam_id":85568392924485349,"keywords":["cp","nocrits","nodmgspread","uncletopia"],"game_id":440,"stv_port":27016,"stv_name":"Uncletopia | S√£o Paulo | 2 | All Maps | STV","players":null},{"server_id":7,"name":"Uncletopia | Seattle | 1 | All Maps","name_short":"sea-1","host":"sea-1.us.uncletopia.com","port":27015,"enabled":true,"region":"us-west","cc":"us","latitude":47.608013,"longitude":-122.33517,"reserved":0,"last_update":"0001-01-01T00:00:00Z","name_a2s":"Uncletopia | Seattle | 1 | All Maps","protocol":17,"map":"pl_frontier_final","folder":"tf","game":"Team Fortress","app_id":440,"player_count":24,"max_players":24,"Bots":0,"server_type":"Dedicated","server_os":"Linux","password":true,"vac":true,"version":"7742253","steam_id":85568392924469997,"keywords":["nocrits","nodmgspread","payload","uncletopia"],"game_id":440,"stv_port":27016,"stv_name":"Uncletopia | Seattle | 1 | All Maps | STV","players":[{"user_id":117,"name":"Zee‚ù§","steam_id":76561198274550638,"connected_time":2909000000000,"state":"active","ping":113},{"user_id":90,"name":"shane","steam_id":76561198060491451,"connected_time":4926000000000,"state":"active","ping":89},{"user_id":121,"name":"Tom","steam_id":76561198070630154,"connected_time":2467000000000,"state":"active","ping":79},{"user_id":113,"name":"frogwatch","steam_id":76561198420683272,"connected_time":3147000000000,"state":"active","ping":46},{"user_id":143,"name":"jacix3 [gay wolfgirl]{she/it}","steam_id":76561198205004165,"connected_time":388000000000,"state":"active","ping":56},{"user_id":132,"name":"Mignyanne :3","steam_id":76561198048754056,"connected_time":1402000000000,"state":"active","ping":70},{"user_id":119,"name":"AKKAWI","steam_id":76561198203159952,"connected_time":2869000000000,"state":"active","ping":77},{"user_id":128,"name":"Can of Oranges (Festive)","steam_id":76561199121813529,"connected_time":1661000000000,"state":"active","ping":36},{"user_id":22,"name":"Luca","steam_id":76561198125087140,"connected_time":8372000000000,"state":"active","ping":46},{"user_id":138,"name":"Zirconium Pants","steam_id":76561198883030922,"connected_time":492000000000,"state":"active","ping":79},{"user_id":137,"name":"Noisiest Maker","steam_id":76561198969841542,"connected_time":738000000000,"state":"active","ping":106},{"user_id":124,"name":"giant_dork","steam_id":76561199105606956,"connected_time":2356000000000,"state":"active","ping":121},{"user_id":129,"name":"Mr. Pink","steam_id":76561198065858172,"connected_time":1631000000000,"state":"active","ping":117},{"user_id":142,"name":"13ricity","steam_id":76561198394291206,"connected_time":395000000000,"state":"active","ping":122},{"user_id":155,"name":"MazapanCabon28","steam_id":76561199243339919,"connected_time":152000000000,"state":"active","ping":84},{"user_id":136,"name":"J. Cash","steam_id":76561198078626283,"connected_time":890000000000,"state":"active","ping":44},{"user_id":149,"name":"Quantify45","steam_id":76561198044400135,"connected_time":292000000000,"state":"active","ping":82},{"user_id":131,"name":"Ducks","steam_id":76561198130038345,"connected_time":1608000000000,"state":"active","ping":62},{"user_id":94,"name":"Sailor","steam_id":76561199081983517,"connected_time":4857000000000,"state":"active","ping":92},{"user_id":160,"name":"‚õß‚∏∏‚õß‚∏∏‚õß‚∏∏","steam_id":76561198007051179,"connected_time":50000000000,"state":"active","ping":111},{"user_id":102,"name":"bbbbb","steam_id":76561198095480838,"connected_time":4333000000000,"state":"active","ping":50},{"user_id":161,"name":"blessed yule","steam_id":76561198146228439,"connected_time":8000000000,"state":"spawning","ping":61},{"user_id":115,"name":"zoiboi","steam_id":76561198069598590,"connected_time":3060000000000,"state":"active","ping":78},{"user_id":135,"name":"Day Man","steam_id":76561198067154807,"connected_time":1269000000000,"state":"active","ping":49}]},{"server_id":119,"name":"Uncletopia | Seattle | 2 | All Maps","name_short":"sea-2","host":"sea-1.us.uncletopia.com","port":27025,"enabled":true,"region":"us-west","cc":"us","latitude":47.608013,"longitude":-122.33517,"reserved":0,"last_update":"0001-01-01T00:00:00Z","name_a2s":"Uncletopia | Seattle | 2 | All Maps","protocol":17,"map":"pl_pier","folder":"tf","game":"Team Fortress","app_id":440,"player_count":23,"max_players":24,"Bots":0,"server_type":"Dedicated","server_os":"Linux","password":true,"vac":true,"version":"7742253","steam_id":85568392924469998,"keywords":["nocrits","nodmgspread","payload","uncletopia"],"game_id":440,"stv_port":27026,"stv_name":"Uncletopia | Seattle | 2 | All Maps | STV","players":[{"user_id":28,"name":"lili.winters","steam_id":76561199391478575,"connected_time":2904000000000,"state":"active","ping":139},{"user_id":18,"name":"chompmastr","steam_id":76561199121805899,"connected_time":4246000000000,"state":"active","ping":53},{"user_id":33,"name":"vartion","steam_id":76561198272996824,"connected_time":2387000000000,"state":"active","ping":49},{"user_id":20,"name":"26-Oh Christmas Tree","steam_id":76561198964074985,"connected_time":4075000000000,"state":"active","ping":58},{"user_id":22,"name":"toodles","steam_id":76561198025463883,"connected_time":3472000000000,"state":"active","ping":48},{"user_id":34,"name":"Sir Severus","steam_id":76561198061295188,"connected_time":2364000000000,"state":"active","ping":49},{"user_id":42,"name":"Spy of 83","steam_id":76561199062242958,"connected_time":1885000000000,"state":"active","ping":50},{"user_id":35,"name":"hypotenuse","steam_id":76561198062479158,"connected_time":2140000000000,"state":"active","ping":55},{"user_id":70,"name":"YourBoiCoy330","steam_id":76561199123709099,"connected_time":435000000000,"state":"active","ping":176},{"user_id":50,"name":"noraneko","steam_id":76561198025418738,"connected_time":1729000000000,"state":"active","ping":47},{"user_id":60,"name":"Naffers","steam_id":76561198195957335,"connected_time":1103000000000,"state":"active","ping":45},{"user_id":64,"name":"Flores","steam_id":76561198106938500,"connected_time":744000000000,"state":"active","ping":80},{"user_id":39,"name":"BrandOp","steam_id":76561198177154519,"connected_time":1998000000000,"state":"active","ping":106},{"user_id":40,"name":"Quartis","steam_id":76561198056088842,"connected_time":1936000000000,"state":"active","ping":112},{"user_id":56,"name":"Nibotshooter","steam_id":76561199284825579,"connected_time":1490000000000,"state":"active","ping":87},{"user_id":73,"name":"notkadenk (ricky mode)","steam_id":76561198837454396,"connected_time":88000000000,"state":"active","ping":48},{"user_id":45,"name":"Sleuth","steam_id":76561198418288939,"connected_time":1846000000000,"state":"active","ping":60},{"user_id":57,"name":"Bubbamanme","steam_id":76561198119778504,"connected_time":1404000000000,"state":"active","ping":53},{"user_id":47,"name":"Artic_Ryuu","steam_id":76561198182194918,"connected_time":1843000000000,"state":"active","ping":76},{"user_id":65,"name":"Punished J‡∂ûff #NeverSimpAgain","steam_id":76561198304252584,"connected_time":733000000000,"state":"active","ping":63},{"user_id":67,"name":"Tot4L Gridlock","steam_id":76561197999816631,"connected_time":713000000000,"state":"active","ping":54},{"user_id":69,"name":"Jason Voorhees","steam_id":76561198358987380,"connected_time":661000000000,"state":"active","ping":53},{"user_id":72,"name":"plutonium isotope","steam_id":76561198319442494,"connected_time":254000000000,"state":"active","ping":88}]},{"server_id":406,"name":"Uncletopia | Seattle | 3 | Stopwatch Beta","name_short":"sea-3","host":"sea-1.us.uncletopia.com","port":27035,"enabled":true,"region":"us-west","cc":"us","latitude":47.608013,"longitude":-122.33517,"reserved":0,"last_update":"0001-01-01T00:00:00Z","name_a2s":"Uncletopia | Seattle | 3 | Stopwatch Beta","protocol":17,"map":"pl_upward","folder":"tf","game":"Team Fortress","app_id":440,"player_count":1,"max_players":24,"Bots":0,"server_type":"Dedicated","server_os":"Linux","password":true,"vac":false,"version":"7742253","steam_id":0,"keywords":["nocrits","nodmgspread","payload","uncletopia"],"game_id":440,"stv_port":27036,"stv_name":"Uncletopia | Seattle | 3 | Stopwatch Beta | STV","players":[{"user_id":5,"name":"playing on deck","steam_id":76561198866629645,"connected_time":197000000000,"state":"active","ping":38}]},{"server_id":17,"name":"Uncletopia | San Francisco | 1 | All Maps","name_short":"sfo-1","host":"sfo-1.us.uncletopia.com","port":27015,"enabled":true,"region":"us-west","cc":"us","latitude":37.77397,"longitude":-122.4313,"reserved":0,"last_update":"0001-01-01T00:00:00Z","name_a2s":"Uncletopia | San Francisco | 1 | All Maps","protocol":17,"map":"koth_cascade","folder":"tf","game":"Team Fortress","app_id":440,"player_count":0,"max_players":24,"Bots":0,"server_type":"Dedicated","server_os":"Linux","password":true,"vac":true,"version":"7742253","steam_id":85568392924469999,"keywords":["cp","nocrits","nodmgspread","uncletopia"],"game_id":440,"stv_port":27016,"stv_name":"Uncletopia | San Francisco | 1 | All Maps | STV","players":null},{"server_id":18,"name":"Uncletopia | San Francisco | 2 | All Maps","name_short":"sfo-2","host":"sfo-1.us.uncletopia.com","port":27025,"enabled":true,"region":"us-west","cc":"us","latitude":37.77397,"longitude":-122.4313,"reserved":0,"last_update":"0001-01-01T00:00:00Z","name_a2s":"Uncletopia | San Francisco | 2 | All Maps","protocol":17,"map":"cp_altitude","folder":"tf","game":"Team Fortress","app_id":440,"player_count":7,"max_players":24,"Bots":0,"server_type":"Dedicated","server_os":"Linux","password":true,"vac":true,"version":"7742253","steam_id":85568392924470000,"keywords":["cp","nocrits","nodmgspread","uncletopia"],"game_id":440,"stv_port":27026,"stv_name":"Uncletopia | San Francisco | 2 | All Maps | STV","players":[{"user_id":152,"name":"Hero Smasher","steam_id":76561198150681669,"connected_time":1744000000000,"state":"active","ping":45},{"user_id":165,"name":"fortzei","steam_id":76561198210920541,"connected_time":32000000000,"state":"spawning","ping":62},{"user_id":156,"name":"OLE SAINTE NICKE HIMSELVE","steam_id":76561198103331056,"connected_time":1229000000000,"state":"active","ping":45},{"user_id":157,"name":"Icanttouchgrass","steam_id":76561199193051796,"connected_time":865000000000,"state":"active","ping":105},{"user_id":158,"name":"plat","steam_id":76561198974178569,"connected_time":863000000000,"state":"active","ping":60},{"user_id":161,"name":"Kalir","steam_id":76561197996125658,"connected_time":532000000000,"state":"active","ping":70},{"user_id":162,"name":"bad player","steam_id":76561198957233710,"connected_time":441000000000,"state":"active","ping":54}]},{"server_id":19,"name":"Uncletopia | San Francisco | 3 | Stopwatch Beta","name_short":"sfo-3","host":"sfo-1.us.uncletopia.com","port":27035,"enabled":true,"region":"us-west","cc":"us","latitude":37.77397,"longitude":-122.4313,"reserved":0,"last_update":"0001-01-01T00:00:00Z","name_a2s":"Uncletopia | San Francisco | 3 | Stopwatch Beta","protocol":17,"map":"cp_snakewater_final1","folder":"tf","game":"Team Fortress","app_id":440,"player_count":0,"max_players":24,"Bots":0,"server_type":"Dedicated","server_os":"Linux","password":true,"vac":true,"version":"7742253","steam_id":85568392924742824,"keywords":["cp","nocrits","nodmgspread","uncletopia"],"game_id":440,"stv_port":27036,"stv_name":"Uncletopia | San Francisco | 3 | Stopwatch Beta | STV","players":null},{"server_id":20,"name":"Uncletopia | San Francisco | 4 | Community","name_short":"sfo-4","host":"sfo-1.us.uncletopia.com","port":27045,"enabled":true,"region":"us-west","cc":"us","latitude":37.77397,"longitude":-122.4313,"reserved":0,"last_update":"0001-01-01T00:00:00Z","name_a2s":"Uncletopia | San Francisco | 4 | Community","protocol":17,"map":"cp_altitude","folder":"tf","game":"Team Fortress","app_id":440,"player_count":0,"max_players":24,"Bots":0,"server_type":"Dedicated","server_os":"Linux","password":true,"vac":true,"version":"7742253","steam_id":85568392924742826,"keywords":["cp","nocrits","nodmgspread","uncletopia"],"game_id":440,"stv_port":27046,"stv_name":"Uncletopia | San Francisco | 4 | Community | STV","players":null},{"server_id":141,"name":"Uncletopia | Sydney | 1 | All Maps","name_short":"syd-1","host":"syd-1.au.uncletopia.com","port":27015,"enabled":true,"region":"au","cc":"au","latitude":-33.865143,"longitude":151.2099,"reserved":0,"last_update":"0001-01-01T00:00:00Z","name_a2s":"Uncletopia | Sydney | 1 | All Maps","protocol":17,"map":"pl_barnblitz","folder":"tf","game":"Team Fortress","app_id":440,"player_count":0,"max_players":24,"Bots":0,"server_type":"Dedicated","server_os":"Linux","password":true,"vac":true,"version":"7742253","steam_id":85568392924470001,"keywords":["nocrits","nodmgspread","payload","uncletopia"],"game_id":440,"stv_port":27016,"stv_name":"Uncletopia | Sydney | 1 | All Maps | STV","players":null},{"server_id":123,"name":"Uncletopia | Sydney | 2 | All Maps","name_short":"syd-2","host":"syd-1.au.uncletopia.com","port":27025,"enabled":true,"region":"au","cc":"au","latitude":-33.865143,"longitude":151.2099,"reserved":0,"last_update":"0001-01-01T00:00:00Z","name_a2s":"Uncletopia | Sydney | 2 | All Maps","protocol":17,"map":"cp_mountainlab","folder":"tf","game":"Team Fortress","app_id":440,"player_count":2,"max_players":24,"Bots":0,"server_type":"Dedicated","server_os":"Linux","password":true,"vac":true,"version":"7742253","steam_id":85568392924470002,"keywords":["cp","nocrits","nodmgspread","uncletopia"],"game_id":440,"stv_port":27026,"stv_name":"Uncletopia | Sydney | 2 | All Maps | STV","players":[{"user_id":29,"name":"CatWithAMatch","steam_id":76561199378844984,"connected_time":1537000000000,"state":"active","ping":44},{"user_id":31,"name":"Mission","steam_id":76561199218935728,"connected_time":872000000000,"state":"active","ping":64}]},{"server_id":395,"name":"Uncletopia | Sydney | 3 | All Maps","name_short":"syd-3","host":"syd-1.au.uncletopia.com","port":27035,"enabled":true,"region":"au","cc":"au","latitude":-33.865143,"longitude":151.2099,"reserved":0,"last_update":"0001-01-01T00:00:00Z","name_a2s":"Uncletopia | Sydney | 3 | All Maps","protocol":17,"map":"cp_dustbowl","folder":"tf","game":"Team Fortress","app_id":440,"player_count":0,"max_players":24,"Bots":0,"server_type":"Dedicated","server_os":"Linux","password":true,"vac":true,"version":"7742253","steam_id":85568392925194467,"keywords":["cp","nocrits","nodmgspread","uncletopia"],"game_id":440,"stv_port":27036,"stv_name":"Uncletopia | Sydney | 3 | All Maps | STV","players":null},{"server_id":396,"name":"Uncletopia | Sydney | 4 | All Maps","name_short":"syd-4","host":"syd-1.au.uncletopia.com","port":27045,"enabled":true,"region":"au","cc":"au","latitude":-33.865143,"longitude":151.2099,"reserved":0,"last_update":"0001-01-01T00:00:00Z","name_a2s":"Uncletopia | Sydney | 4 | All Maps","protocol":17,"map":"pl_frontier_final","folder":"tf","game":"Team Fortress","app_id":440,"player_count":0,"max_players":24,"Bots":0,"server_type":"Dedicated","server_os":"Linux","password":true,"vac":true,"version":"7742253","steam_id":85568392925397958,"keywords":["nocrits","nodmgspread","payload","uncletopia"],"game_id":440,"stv_port":27046,"stv_name":"Uncletopia | Sydney | 4 | All Maps | STV","players":null},{"server_id":58,"name":"Uncletopia | Sydney | 5 | Stopwatch Beta","name_short":"syd-5","host":"syd-1.au.uncletopia.com","port":27055,"enabled":true,"region":"au","cc":"au","latitude":-33.865143,"longitude":151.2099,"reserved":0,"last_update":"0001-01-01T00:00:00Z","name_a2s":"Uncletopia | Sydney | 5 | Stopwatch Beta","protocol":17,"map":"workshop/koth_ashville_final.ugc2130459942","folder":"tf","game":"Team Fortress","app_id":440,"player_count":0,"max_players":24,"Bots":0,"server_type":"Dedicated","server_os":"Linux","password":true,"vac":true,"version":"7742253","steam_id":85568392925397959,"keywords":["cp","nocrits","nodmgspread","uncletopia"],"game_id":440,"stv_port":27056,"stv_name":"Uncletopia | Sydney | 5 | Stopwatch Beta | STV","players":null},{"server_id":59,"name":"Uncletopia | Sydney | 6 | Community","name_short":"syd-6","host":"syd-1.au.uncletopia.com","port":27065,"enabled":true,"region":"au","cc":"au","latitude":-33.865143,"longitude":151.2099,"reserved":0,"last_update":"0001-01-01T00:00:00Z","name_a2s":"Uncletopia | Sydney | 6 | Community","protocol":17,"map":"workshop/pl_fifthcurve_rc1.ugc648227046","folder":"tf","game":"Team Fortress","app_id":440,"player_count":0,"max_players":24,"Bots":0,"server_type":"Dedicated","server_os":"Linux","password":true,"vac":true,"version":"7742253","steam_id":85568392925397960,"keywords":["nocrits","nodmgspread","payload","uncletopia"],"game_id":440,"stv_port":27066,"stv_name":"Uncletopia | Sydney | 6 | Community | STV","players":null},{"server_id":49,"name":"Uncletopia | Warsaw | 1 | All Maps","name_short":"waw-1","host":"waw-1.pl.uncletopia.com","port":27015,"enabled":true,"region":"eu","cc":"pl","latitude":52.2297,"longitude":21.017532,"reserved":0,"last_update":"0001-01-01T00:00:00Z","name_a2s":"Uncletopia | Warsaw | 1 | All Maps","protocol":17,"map":"koth_lakeside_final","folder":"tf","game":"Team Fortress","app_id":440,"player_count":0,"max_players":24,"Bots":0,"server_type":"Dedicated","server_os":"Linux","password":true,"vac":true,"version":"7723704","steam_id":85568392925397850,"keywords":["cp","nocrits","nodmgspread","uncletopia"],"game_id":440,"stv_port":27016,"stv_name":"Uncletopia | Warsaw | 1 | All Maps | STV","players":null},{"server_id":50,"name":"Uncletopia | Warsaw | 2 | All Maps","name_short":"waw-2","host":"waw-1.pl.uncletopia.com","port":27025,"enabled":true,"region":"eu","cc":"pl","latitude":52.2297,"longitude":21.017532,"reserved":0,"last_update":"0001-01-01T00:00:00Z","name_a2s":"Uncletopia | Warsaw | 2 | All Maps","protocol":17,"map":"koth_highpass","folder":"tf","game":"Team Fortress","app_id":440,"player_count":0,"max_players":24,"Bots":0,"server_type":"Dedicated","server_os":"Linux","password":true,"vac":true,"version":"7742253","steam_id":85568392925397851,"keywords":["cp","nocrits","nodmgspread","uncletopia"],"game_id":440,"stv_port":27026,"stv_name":"Uncletopia | Warsaw | 2 | All Maps | STV","players":null},{"server_id":51,"name":"Uncletopia | Warsaw | 3 | All Maps","name_short":"waw-3","host":"waw-1.pl.uncletopia.com","port":27035,"enabled":true,"region":"eu","cc":"pl","latitude":52.2297,"longitude":21.017532,"reserved":0,"last_update":"0001-01-01T00:00:00Z","name_a2s":"Uncletopia | Warsaw | 3 | All Maps","protocol":17,"map":"koth_cascade","folder":"tf","game":"Team Fortress","app_id":440,"player_count":0,"max_players":24,"Bots":0,"server_type":"Dedicated","server_os":"Linux","password":true,"vac":true,"version":"7742253","steam_id":85568392925397852,"keywords":["cp","nocrits","nodmgspread","uncletopia"],"game_id":440,"stv_port":27036,"stv_name":"Uncletopia | Warsaw | 3 | All Maps | STV","players":null},{"server_id":52,"name":"Uncletopia | Warsaw | 4 | All Maps","name_short":"waw-4","host":"waw-1.pl.uncletopia.com","port":27045,"enabled":true,"region":"eu","cc":"pl","latitude":52.2297,"longitude":21.017532,"reserved":0,"last_update":"0001-01-01T00:00:00Z","name_a2s":"Uncletopia | Warsaw | 4 | All Maps","protocol":17,"map":"pl_swiftwater_final1","folder":"tf","game":"Team Fortress","app_id":440,"player_count":0,"max_players":24,"Bots":0,"server_type":"Dedicated","server_os":"Linux","password":true,"vac":true,"version":"7742253","steam_id":85568392925397853,"keywords":["nocrits","nodmgspread","payload","uncletopia"],"game_id":440,"stv_port":27046,"stv_name":"Uncletopia | Warsaw | 4 | All Maps | STV","players":null},{"server_id":53,"name":"Uncletopia | Warsaw | 5 | Stopwatch Beta","name_short":"waw-5","host":"waw-1.pl.uncletopia.com","port":27055,"enabled":true,"region":"eu","cc":"pl","latitude":52.2297,"longitude":21.017532,"reserved":0,"last_update":"0001-01-01T00:00:00Z","name_a2s":"Uncletopia | Warsaw | 5 | Stopwatch Beta","protocol":17,"map":"pl_pier","folder":"tf","game":"Team Fortress","app_id":440,"player_count":0,"max_players":24,"Bots":0,"server_type":"Dedicated","server_os":"Linux","password":true,"vac":true,"version":"7742253","steam_id":85568392925397854,"keywords":["nocrits","nodmgspread","payload","uncletopia"],"game_id":440,"stv_port":27056,"stv_name":"Uncletopia | Warsaw | 5 | Stopwatch Beta | STV","players":null},{"server_id":54,"name":"Uncletopia | Warsaw | 6 | Community","name_short":"waw-6","host":"waw-1.pl.uncletopia.com","port":27065,"enabled":true,"region":"eu","cc":"pl","latitude":52.2297,"longitude":21.017532,"reserved":0,"last_update":"0001-01-01T00:00:00Z","name_a2s":"Uncletopia | Warsaw | 6 | Community","protocol":17,"map":"workshop/pl_cactuscanyon_redux_rc4b.ugc2579644293","folder":"tf","game":"Team Fortress","app_id":440,"player_count":0,"max_players":24,"Bots":0,"server_type":"Dedicated","server_os":"Linux","password":true,"vac":true,"version":"7742253","steam_id":85568392925397856,"keywords":["nocrits","nodmgspread","payload","uncletopia"],"game_id":440,"stv_port":27066,"stv_name":"Uncletopia | Warsaw | 6 | Community | STV","players":null}]}