{"status":true,"message":"","result":[{"server_id":9,"name":"Uncletopia | Atlanta | 1 | All Maps","name_short":"atl-1","host":"atl-1.us.uncletopia.com","port":27015,"enabled":true,"region":"us-east","cc":"us","latitude":33.753746,"longitude":-84.38633,"reserved":0,"last_update":"0001-01-01T00:00:00Z","name_a2s":"Uncletopia | Atlanta | 1 | All Maps","protocol":17,"map":"koth_harvest_final","folder":"tf","game":"Team Fortress","app_id":440,"player_count":1,"max_players":24,"Bots":0,"server_type":"Dedicated","server_os":"Linux","password":true,"vac":true,"version":"7704440","steam_id":85568392924469982,"keywords":["cp","nocrits","nodmgspread","uncletopia"],"game_id":440,"stv_port":27016,"stv_name":"Uncletopia | Atlanta | 1 | All Maps | STV","players":[{"user_id":13,"name":"William Wallace","steam_id":76561199343316814,"connected_time":30000000000,"state":"active","ping":35}]},{"server_id":400,"name":"Uncletopia | Atlanta | 3 | All Maps","name_short":"atl-3","host":"atl-1.us.uncletopia.com","port":27035,"enabled":true,"region":"us-east","cc":"us","latitude":33.753746,"longitude":-84.38633,"reserved":0,"last_update":"0001-01-01T00:00:00Z","name_a2s":"Uncletopia | Atlanta | 3 | All Maps","protocol":17,"map":"koth_lakeside_final","folder":"tf","game":"Team Fortress","app_id":440,"player_count":0,"max_players":24,"Bots":0,"server_type":"Dedicated","server_os":"Linux","password":true,"vac":true,"version":"7704440","steam_id":85568392924515187,"keywords":["cp","nocrits","nodmgspread","uncletopia"],"game_id":440,"stv_port":27036,"stv_name":"Uncletopia | Atlanta | 3 | All Maps | STV","players":null},{"server_id":401,"name":"Uncletopia | Atlanta | 4 | No Payload","name_short":"atl-4","host":"atl-1.us.uncletopia.com","port":27045,"enabled":true,"region":"us-east","cc":"us","latitude":33.753746,"longitude":-84.38633,"reserved":0,"last_update":"0001-01-01T00:00:00Z","name_a2s":"Uncletopia | Atlanta | 4 | No Payload","protocol":17,"map":"pl_swiftwater_final1","folder":"tf","game":"Team Fortress","app_id":440,"player_count":0,"max_players":24,"Bots":0,"server_type":"Dedicated","server_os":"Linux","password":true,"vac":true,"version":"7704440","steam_id":85568392924515188,"keywords":["nocrits","nodmgspread","payload","uncletopia"],"game_id":440,"stv_port":0,"stv_name":"","players":null},{"server_id":2,"name":"Uncletopia | Chicago | 1 | All Maps","name_short":"chi-1","host":"chi-1.us.uncletopia.com","port":27015,"enabled":true,"region":"us-central","cc":"us","latitude":41.881832,"longitude":-87.62318,"reserved":0,"last_update":"0001-01-01T00:00:00Z","name_a2s":"Uncletopia | Chicago | 1 | All Maps","protocol":17,"map":"pl_badwater","folder":"tf","game":"Team Fortress","app_id":440,"player_count":0,"max_players":24,"Bots":0,"server_type":"Dedicated","server_os":"Linux","password":true,"vac":true,"version":"7704440","steam_id":85568392924469984,"keywords":["nocrits","nodmgspread","payload","uncletopia"],"game_id":440,"stv_port":27016,"stv_name":"Uncletopia | Chicago | 1 | All Maps | STV","players":null},{"server_id":106,"name":"Uncletopia | Chicago | 2 | All Maps","name_short":"chi-2","host":"chi-1.us.uncletopia.com","port":27025,"enabled":true,"region":"us-central","cc":"us","latitude":41.881832,"longitude":-87.62318,"reserved":0,"last_update":"0001-01-01T00:00:00Z","name_a2s":"Uncletopia | Chicago | 2 | All Maps","protocol":17,"map":"cp_snakewater_final1","folder":"tf","game":"Team Fortress","app_id":440,"player_count":24,"max_players":24,"Bots":0,"server_type":"Dedicated","server_os":"Linux","password":true,"vac":true,"version":"7704440","steam_id":85568392924469985,"keywords":["cp","nocrits","nodmgspread","uncletopia"],"game_id":440,"stv_port":27026,"stv_name":"Uncletopia | Chicago | 2 | All Maps | STV","players":[{"user_id":7,"name":"PKBEAST_7","steam_id":76561198177136537,"connected_time":2630000000000,"state":"active","ping":84},{"user_id":45,"name":"realheavy","steam_id":76561198114603745,"connected_time":281000000000,"state":"active","ping":90},{"user_id":5,"name":"JustSomePest","steam_id":76561198185573363,"connected_time":2774000000000,"state":"active","ping":81},{"user_id":8,"name":"amagicowl","steam_id":76561199060487814,"connected_time":2269000000000,"state":"active","ping":73},{"user_id":9,"name":"BIGGEST MAC","steam_id":76561198847517098,"connected_time":2211000000000,"state":"active","ping":87},{"user_id":31,"name":"carter","steam_id":76561198391280639,"connected_time":1263000000000,"state":"active","ping":60},{"user_id":11,"name":"asbestos","steam_id":76561198079178866,"connected_time":2140000000000,"state":"active","ping":60},{"user_id":12,"name":"veewon","steam_id":76561198276513608,"connected_time":2114000000000,"state":"active","ping":168},{"user_id":13,"name":"cloud","steam_id":76561198090531755,"connected_time":2076000000000,"state":"active","ping":72},{"user_id":42,"name":"solar dorf","steam_id":76561198044265737,"connected_time":506000000000,"state":"active","ping":39},{"user_id":16,"name":"Tyler\u0026Fingers","steam_id":76561198085154485,"connected_time":1902000000000,"state":"active","ping":81},{"user_id":39,"name":"bdkaine1","steam_id":76561198133545467,"connected_time":624000000000,"state":"active","ping":64},{"user_id":40,"name":"Nic0","steam_id":76561198305690218,"connected_time":610000000000,"state":"active","ping":66},{"user_id":19,"name":"Dert","steam_id":76561198883014990,"connected_time":1636000000000,"state":"active","ping":145},{"user_id":43,"name":"The Evil Resident","steam_id":76561198051862704,"connected_time":498000000000,"state":"active","ping":71},{"user_id":25,"name":"woosh","steam_id":76561198173020438,"connected_time":1376000000000,"state":"active","ping":75},{"user_id":23,"name":"Your childhood","steam_id":76561198799385466,"connected_time":1544000000000,"state":"active","ping":56},{"user_id":24,"name":"kametro4","steam_id":76561198835430429,"connected_time":1489000000000,"state":"active","ping":76},{"user_id":48,"name":"attentiondeficit","steam_id":76561198129682583,"connected_time":103000000000,"state":"active","ping":61},{"user_id":36,"name":"indi","steam_id":76561198045917538,"connected_time":959000000000,"state":"active","ping":45},{"user_id":47,"name":"Skippies","steam_id":76561198131280715,"connected_time":211000000000,"state":"active","ping":56},{"user_id":32,"name":"dam","steam_id":76561198991633113,"connected_time":1191000000000,"state":"active","ping":145},{"user_id":33,"name":"MysteryMage","steam_id":76561198074241821,"connected_time":1183000000000,"state":"active","ping":117},{"user_id":37,"name":"IRAcide","steam_id":76561198236149504,"connected_time":957000000000,"state":"active","ping":97}]},{"server_id":402,"name":"Uncletopia | Chicago | 3 | All Maps","name_short":"chi-3","host":"chi-1.us.uncletopia.com","port":27035,"enabled":true,"region":"us-central","cc":"us","latitude":41.881832,"longitude":-87.62318,"reserved":0,"last_update":"0001-01-01T00:00:00Z","name_a2s":"Uncletopia | Chicago | 3 | All Maps","protocol":17,"map":"pl_upward","folder":"tf","game":"Team Fortress","app_id":440,"player_count":0,"max_players":24,"Bots":0,"server_type":"Dedicated","server_os":"Linux","password":true,"vac":true,"version":"7704440","steam_id":85568392924515191,"keywords":["nocrits","nodmgspread","payload","uncletopia"],"game_id":440,"stv_port":27036,"stv_name":"Uncletopia | Chicago | 3 | All Maps | STV","players":null},{"server_id":403,"name":"Uncletopia | Chicago | 4 | All Maps","name_short":"chi-4","host":"chi-1.us.uncletopia.com","port":27045,"enabled":true,"region":"us-central","cc":"us","latitude":41.881832,"longitude":-87.62318,"reserved":0,"last_update":"0001-01-01T00:00:00Z","name_a2s":"Uncletopia | Chicago | 4 | All Maps","protocol":17,"map":"koth_lakeside_final","folder":"tf","game":"Team Fortress","app_id":440,"player_count":0,"max_players":24,"Bots":0,"server_type":"Dedicated","server_os":"Linux","password":true,"vac":true,"version":"7704440","steam_id":85568392924515193,"keywords":["cp","nocrits","nodmgspread","uncletopia"],"game_id":440,"stv_port":0,"stv_name":"","players":null},{"server_id":36,"name":"Uncletopia | Chicago | 5 | All Maps","name_short":"chi-5","host":"chi-2.us.uncletopia.com","port":27015,"enabled":true,"region":"us-central","cc":"us","latitude":41.881832,"longitude":-87.62318,"reserved":0,"last_update":"0001-01-01T00:00:00Z","name_a2s":"Uncletopia | Chicago | 5 | All Maps","protocol":17,"map":"pl_borneo","folder":"tf","game":"Team Fortress","app_id":440,"player_count":0,"max_players":24,"Bots":0,"server_type":"Dedicated","server_os":"Linux","password":true,"vac":true,"version":"7704440","steam_id":85568392924866362,"keywords":["nocrits","nodmgspread","payload","uncletopia"],"game_id":440,"stv_port":0,"stv_name":"","players":null},{"server_id":37,"name":"Uncletopia | Chicago | 6 | All Maps","name_short":"chi-6","host":"chi-2.us.uncletopia.com","port":27025,"enabled":true,"region":"us-central","cc":"us","latitude":41.881832,"longitude":-87.62318,"reserved":0,"last_update":"0001-01-01T00:00:00Z","name_a2s":"Uncletopia | Chicago | 6 | All Maps","protocol":17,"map":"pl_upward","folder":"tf","game":"Team Fortress","app_id":440,"player_count":0,"max_players":24,"Bots":0,"server_type":"Dedicated","server_os":"Linux","password":true,"vac":true,"version":"7704440","steam_id":85568392924866363,"keywords":["nocrits","nodmgspread","payload","uncletopia"],"game_id":440,"stv_port":0,"stv_name":"","players":null},{"server_id":38,"name":"Uncletopia | Chicago | 7 | No Payload","name_short":"chi-7","host":"chi-2.us.uncletopia.com","port":27035,"enabled":true,"region":"us-central","cc":"us","latitude":41.881832,"longitude":-87.62318,"reserved":0,"last_update":"0001-01-01T00:00:00Z","name_a2s":"Uncletopia | Chicago | 7 | No Payload","protocol":17,"map":"pl_snowycoast","folder":"tf","game":"Team Fortress","app_id":440,"player_count":0,"max_players":24,"Bots":0,"server_type":"Dedicated","server_os":"Linux","password":true,"vac":true,"version":"7704440","steam_id":85568392924866364,"keywords":["nocrits","nodmgspread","payload","uncletopia"],"game_id":440,"stv_port":0,"stv_name":"","players":null},{"server_id":39,"name":"Uncletopia | Chicago | 8 | Community","name_short":"chi-8","host":"chi-2.us.uncletopia.com","port":27045,"enabled":true,"region":"us-central","cc":"us","latitude":41.881832,"longitude":-87.62318,"reserved":0,"last_update":"0001-01-01T00:00:00Z","name_a2s":"Uncletopia | Chicago | 8 | Community","protocol":17,"map":"pl_upward","folder":"tf","game":"Team Fortress","app_id":440,"player_count":0,"max_players":24,"Bots":0,"server_type":"Dedicated","server_os":"Linux","password":true,"vac":true,"version":"7704440","steam_id":85568392924866365,"keywords":["nocrits","nodmgspread","payload","uncletopia"],"game_id":440,"stv_port":0,"stv_name":"","players":null},{"server_id":8,"name":"Uncletopia | Dallas | 1 | All Maps","name_short":"dal-1","host":"dal-1.us.uncletopia.com","port":27015,"enabled":true,"region":"us-central","cc":"us","latitude":32.779167,"longitude":-96.80889,"reserved":0,"last_update":"0001-01-01T00:00:00Z","name_a2s":"Uncletopia | Dallas | 1 | All Maps","protocol":17,"map":"koth_cascade","folder":"tf","game":"Team Fortress","app_id":440,"player_count":0,"max_players":24,"Bots":0,"server_type":"Dedicated","server_os":"Linux","password":true,"vac":true,"version":"7704440","steam_id":85568392924469986,"keywords":["cp","nocrits","nodmgspread","uncletopia"],"game_id":440,"stv_port":0,"stv_name":"","players":null},{"server_id":108,"name":"Uncletopia | Dallas | 2 | All Maps","name_short":"dal-2","host":"dal-1.us.uncletopia.com","port":27025,"enabled":true,"region":"us-central","cc":"us","latitude":32.779167,"longitude":-96.80889,"reserved":0,"last_update":"0001-01-01T00:00:00Z","name_a2s":"Uncletopia | Dallas | 2 | All Maps","protocol":17,"map":"pl_snowycoast","folder":"tf","game":"Team Fortress","app_id":440,"player_count":0,"max_players":24,"Bots":0,"server_type":"Dedicated","server_os":"Linux","password":true,"vac":true,"version":"7704440","steam_id":85568392924469988,"keywords":["nocrits","nodmgspread","payload","uncletopia"],"game_id":440,"stv_port":0,"stv_name":"","players":null},{"server_id":5,"name":"Uncletopia | Frankfurt | 1 | All Maps","name_short":"frk-1","host":"frk-1.de.uncletopia.com","port":27015,"enabled":true,"region":"eu","cc":"de","latitude":50.110924,"longitude":8.682127,"reserved":0,"last_update":"0001-01-01T00:00:00Z","name_a2s":"Uncletopia | Frankfurt | 1 | All Maps","protocol":17,"map":"pl_swiftwater_final1","folder":"tf","game":"Team Fortress","app_id":440,"player_count":24,"max_players":24,"Bots":0,"server_type":"Dedicated","server_os":"Linux","password":true,"vac":true,"version":"7704440","steam_id":85568392924469989,"keywords":["nocrits","nodmgspread","payload","uncletopia"],"game_id":440,"stv_port":27016,"stv_name":"Uncletopia | Frankfurt | 1 | All Maps | STV","players":[{"user_id":363,"name":"giclure :;","steam_id":76561197986362828,"connected_time":1385000000000,"state":"active","ping":41},{"user_id":371,"name":"sasibak123@gmail.ru","steam_id":76561198981533174,"connected_time":563000000000,"state":"active","ping":78},{"user_id":280,"name":"Troodon","steam_id":76561198223648788,"connected_time":6599000000000,"state":"active","ping":86},{"user_id":374,"name":"System","steam_id":76561199442503973,"connected_time":437000000000,"state":"active","ping":48},{"user_id":366,"name":"nancy the tavern wench","steam_id":76561199143737200,"connected_time":944000000000,"state":"active","ping":86},{"user_id":305,"name":"I jazzed myself","steam_id":76561198203016603,"connected_time":3841000000000,"state":"active","ping":58},{"user_id":329,"name":"MagicTITIKAKA","steam_id":76561198129509548,"connected_time":2548000000000,"state":"active","ping":99},{"user_id":356,"name":"lvl. 50 honkler","steam_id":76561198061688660,"connected_time":1530000000000,"state":"active","ping":98},{"user_id":369,"name":"Kevin from Denmark","steam_id":76561198068612720,"connected_time":828000000000,"state":"active","ping":64},{"user_id":358,"name":"Alice can't hit pipes","steam_id":76561198052410860,"connected_time":1471000000000,"state":"active","ping":141},{"user_id":372,"name":"krissa2006","steam_id":76561199070236551,"connected_time":547000000000,"state":"active","ping":77},{"user_id":338,"name":"Pyrolander","steam_id":76561198050785450,"connected_time":2032000000000,"state":"active","ping":47},{"user_id":312,"name":"Luke SpyWalker","steam_id":76561198008643276,"connected_time":3610000000000,"state":"active","ping":59},{"user_id":376,"name":"HeloOo_per The Communist","steam_id":76561199099995357,"connected_time":244000000000,"state":"active","ping":100},{"user_id":370,"name":"DeCypher","steam_id":76561198171992619,"connected_time":697000000000,"state":"active","ping":64},{"user_id":346,"name":"Rbata","steam_id":76561198214079909,"connected_time":1882000000000,"state":"active","ping":78},{"user_id":365,"name":"Dolcelatte","steam_id":76561198038501770,"connected_time":1214000000000,"state":"active","ping":58},{"user_id":350,"name":"fallingpencil","steam_id":76561199230233148,"connected_time":1762000000000,"state":"active","ping":56},{"user_id":347,"name":"IEatBananaStrings","steam_id":76561198158203877,"connected_time":1870000000000,"state":"active","ping":54},{"user_id":361,"name":"mary jane","steam_id":76561198971389390,"connected_time":1407000000000,"state":"active","ping":69},{"user_id":307,"name":"üÉî Nugg1t(sme/lly)","steam_id":76561198065652251,"connected_time":3825000000000,"state":"active","ping":43},{"user_id":367,"name":"Makeways","steam_id":76561198274466477,"connected_time":928000000000,"state":"active","ping":66},{"user_id":377,"name":"castl3sss","steam_id":76561198878687605,"connected_time":243000000000,"state":"active","ping":100},{"user_id":375,"name":"Brothu","steam_id":76561198095120859,"connected_time":432000000000,"state":"active","ping":64}]},{"server_id":110,"name":"Uncletopia | Frankfurt | 2 | All Maps","name_short":"frk-2","host":"frk-1.de.uncletopia.com","port":27025,"enabled":true,"region":"eu","cc":"de","latitude":50.110924,"longitude":8.682127,"reserved":0,"last_update":"0001-01-01T00:00:00Z","name_a2s":"Uncletopia | Frankfurt | 2 | All Maps","protocol":17,"map":"pl_badwater","folder":"tf","game":"Team Fortress","app_id":440,"player_count":24,"max_players":24,"Bots":0,"server_type":"Dedicated","server_os":"Linux","password":true,"vac":true,"version":"7704440","steam_id":85568392924469990,"keywords":["nocrits","nodmgspread","payload","uncletopia"],"game_id":440,"stv_port":27026,"stv_name":"Uncletopia | Frankfurt | 2 | All Maps | STV","players":[{"user_id":8,"name":"galaxy","steam_id":76561198164819022,"connected_time":4397000000000,"state":"active","ping":54},{"user_id":58,"name":"Matteo Besho","steam_id":76561199159657855,"connected_time":1684000000000,"state":"active","ping":68},{"user_id":67,"name":"Fat Pigeon","steam_id":76561198817940142,"connected_time":1241000000000,"state":"active","ping":50},{"user_id":73,"name":"Octis","steam_id":76561198015536917,"connected_time":703000000000,"state":"active","ping":77},{"user_id":14,"name":"Senfbaron","steam_id":76561198070370608,"connected_time":3743000000000,"state":"active","ping":55},{"user_id":15,"name":"PC Train","steam_id":76561198072998986,"connected_time":3739000000000,"state":"active","ping":62},{"user_id":71,"name":"Varsity Athlete","steam_id":76561198012296395,"connected_time":747000000000,"state":"active","ping":58},{"user_id":70,"name":"'Tis but a scratch","steam_id":76561198118517671,"connected_time":898000000000,"state":"active","ping":109},{"user_id":79,"name":"bigwish | bmod.tf","steam_id":76561197997859723,"connected_time":271000000000,"state":"active","ping":65},{"user_id":74,"name":"kamekame","steam_id":76561198047108054,"connected_time":703000000000,"state":"active","ping":93},{"user_id":75,"name":"kumar final horse","steam_id":76561197988085026,"connected_time":674000000000,"state":"active","ping":60},{"user_id":69,"name":"shr1mple","steam_id":76561198173537027,"connected_time":1099000000000,"state":"active","ping":39},{"user_id":55,"name":".::[SerafeTTiN]::.","steam_id":76561198009471724,"connected_time":2015000000000,"state":"active","ping":87},{"user_id":41,"name":"Engineer Gaming","steam_id":76561198866730509,"connected_time":2407000000000,"state":"active","ping":90},{"user_id":38,"name":"Nick","steam_id":76561198036109469,"connected_time":2589000000000,"state":"active","ping":89},{"user_id":72,"name":"snowii","steam_id":76561198836246326,"connected_time":730000000000,"state":"active","ping":104},{"user_id":76,"name":"Tomfool","steam_id":76561197993256481,"connected_time":584000000000,"state":"active","ping":76},{"user_id":45,"name":"captaidemon","steam_id":76561198977470008,"connected_time":2274000000000,"state":"active","ping":79},{"user_id":53,"name":"Virgil","steam_id":76561198248786778,"connected_time":2081000000000,"state":"active","ping":115},{"user_id":80,"name":"dankerghost","steam_id":76561198838761959,"connected_time":184000000000,"state":"active","ping":121},{"user_id":49,"name":"Belgorodec","steam_id":76561199383879505,"connected_time":2156000000000,"state":"active","ping":98},{"user_id":65,"name":"Vikud","steam_id":76561199110575856,"connected_time":1404000000000,"state":"active","ping":136},{"user_id":56,"name":"Udinese Dion","steam_id":76561198067931573,"connected_time":1986000000000,"state":"active","ping":53},{"user_id":82,"name":"desperate rogue","steam_id":76561199016050401,"connected_time":44000000000,"state":"spawning","ping":146}]},{"server_id":308,"name":"Uncletopia | Frankfurt | 3 | All Maps","name_short":"frk-3","host":"frk-1.de.uncletopia.com","port":27035,"enabled":true,"region":"eu","cc":"de","latitude":50.110924,"longitude":8.682127,"reserved":0,"last_update":"0001-01-01T00:00:00Z","name_a2s":"Uncletopia | Frankfurt | 3 | All Maps","protocol":17,"map":"pl_frontier_final","folder":"tf","game":"Team Fortress","app_id":440,"player_count":2,"max_players":24,"Bots":0,"server_type":"Dedicated","server_os":"Linux","password":true,"vac":true,"version":"7704440","steam_id":85568392924504274,"keywords":["nocrits","nodmgspread","payload","uncletopia"],"game_id":440,"stv_port":27036,"stv_name":"Uncletopia | Frankfurt | 3 | All Maps | STV","players":[{"user_id":10,"name":"Loudladdy","steam_id":76561198095271834,"connected_time":283000000000,"state":"active","ping":60},{"user_id":11,"name":"randomoneye","steam_id":76561199380157176,"connected_time":26000000000,"state":"spawning","ping":87}]},{"server_id":309,"name":"Uncletopia | Frankfurt | 4 | All Maps","name_short":"frk-4","host":"frk-1.de.uncletopia.com","port":27045,"enabled":true,"region":"eu","cc":"de","latitude":50.110924,"longitude":8.682127,"reserved":0,"last_update":"0001-01-01T00:00:00Z","name_a2s":"Uncletopia | Frankfurt | 4 | All Maps","protocol":17,"map":"koth_king","folder":"tf","game":"Team Fortress","app_id":440,"player_count":23,"max_players":24,"Bots":0,"server_type":"Dedicated","server_os":"Linux","password":true,"vac":true,"version":"7704440","steam_id":85568392924504275,"keywords":["cp","nocrits","nodmgspread","uncletopia"],"game_id":440,"stv_port":27046,"stv_name":"Uncletopia | Frankfurt | 4 | All Maps | STV","players":[{"user_id":105,"name":"Syd","steam_id":76561198020515027,"connected_time":1397000000000,"state":"active","ping":68},{"user_id":116,"name":"White Dwarf","steam_id":76561198285110879,"connected_time":1024000000000,"state":"active","ping":63},{"user_id":131,"name":"The Funny Cat Èù¢ÁôΩ„ÅÑÁå´","steam_id":76561198439978112,"connected_time":387000000000,"state":"active","ping":111},{"user_id":92,"name":"tob:ias","steam_id":76561198832146626,"connected_time":1958000000000,"state":"active","ping":56},{"user_id":101,"name":"the man demands","steam_id":76561198026261250,"connected_time":1545000000000,"state":"active","ping":73},{"user_id":106,"name":"zen","steam_id":76561198160747675,"connected_time":1369000000000,"state":"active","ping":95},{"user_id":96,"name":"gwhq–ëv}–Ådtfb¬∑–Åweb–•","steam_id":76561198401523966,"connected_time":1832000000000,"state":"active","ping":89},{"user_id":120,"name":"Josh","steam_id":76561199352643666,"connected_time":952000000000,"state":"active","ping":113},{"user_id":132,"name":"Taewinzer","steam_id":76561198261820803,"connected_time":340000000000,"state":"active","ping":74},{"user_id":121,"name":"Eggcracker","steam_id":76561199274850641,"connected_time":880000000000,"state":"active","ping":73},{"user_id":129,"name":"Deacon Dracul","steam_id":76561198046880663,"connected_time":424000000000,"state":"active","ping":113},{"user_id":108,"name":"Passa_a_Bola","steam_id":76561197999288107,"connected_time":1249000000000,"state":"active","ping":75},{"user_id":111,"name":"The Punch","steam_id":76561198212488780,"connected_time":1152000000000,"state":"active","ping":56},{"user_id":134,"name":"Zm4j","steam_id":76561198259465946,"connected_time":255000000000,"state":"active","ping":80},{"user_id":115,"name":"TheFox.tf","steam_id":76561197996851702,"connected_time":1077000000000,"state":"active","ping":73},{"user_id":122,"name":"Welder","steam_id":76561198355300561,"connected_time":784000000000,"state":"active","ping":68},{"user_id":127,"name":"robotiq","steam_id":76561198084218622,"connected_time":533000000000,"state":"active","ping":154},{"user_id":123,"name":"washed up","steam_id":76561198275742101,"connected_time":761000000000,"state":"active","ping":55},{"user_id":135,"name":"Skitli","steam_id":76561198980426812,"connected_time":41000000000,"state":"spawning","ping":122},{"user_id":125,"name":"controller playerTF2EASY.COM","steam_id":76561199215588827,"connected_time":688000000000,"state":"active","ping":101},{"user_id":130,"name":"Amon Gus","steam_id":76561199094540960,"connected_time":401000000000,"state":"active","ping":55},{"user_id":63,"name":"amsterdam","steam_id":76561199216923710,"connected_time":4073000000000,"state":"active","ping":126},{"user_id":60,"name":"Pain in a Box","steam_id":76561197990777173,"connected_time":4325000000000,"state":"active","ping":59}]},{"server_id":310,"name":"Uncletopia | Frankfurt | 5 | All Maps","name_short":"frk-5","host":"frk-1.de.uncletopia.com","port":27055,"enabled":true,"region":"eu","cc":"de","latitude":50.110924,"longitude":8.682127,"reserved":0,"last_update":"0001-01-01T00:00:00Z","name_a2s":"Uncletopia | Frankfurt | 5 | All Maps","protocol":17,"map":"cp_snakewater_final1","folder":"tf","game":"Team Fortress","app_id":440,"player_count":0,"max_players":24,"Bots":0,"server_type":"Dedicated","server_os":"Linux","password":true,"vac":true,"version":"7704440","steam_id":85568392924504277,"keywords":["cp","nocrits","nodmgspread","uncletopia"],"game_id":440,"stv_port":27056,"stv_name":"Uncletopia | Frankfurt | 5 | All Maps | STV","players":null},{"server_id":311,"name":"Uncletopia | Frankfurt | 6 | All Maps","name_short":"frk-6","host":"frk-1.de.uncletopia.com","port":27065,"enabled":true,"region":"eu","cc":"de","latitude":50.110924,"longitude":8.682127,"reserved":0,"last_update":"0001-01-01T00:00:00Z","name_a2s":"Uncletopia | Frankfurt | 6 | All Maps","protocol":17,"map":"koth_lakeside_final","folder":"tf","game":"Team Fortress","app_id":440,"player_count":0,"max_players":24,"Bots":0,"server_type":"Dedicated","server_os":"Linux","password":true,"vac":true,"version":"7704440","steam_id":85568392924504278,"keywords":["cp","nocrits","nodmgspread","uncletopia"],"game_id":440,"stv_port":0,"stv_name":"","players":null},{"server_id":23,"name":"Uncletopia | Frankfurt | 7 | No Payload","name_short":"frk-7","host":"frk-1.de.uncletopia.com","port":27075,"enabled":true,"region":"eu","cc":"de","latitude":50.110924,"longitude":8.682127,"reserved":0,"last_update":"0001-01-01T00:00:00Z","name_a2s":"Uncletopia | Frankfurt | 7 | No Payload","protocol":17,"map":"cp_process_final","folder":"tf","game":"Team Fortress","app_id":440,"player_count":0,"max_players":24,"Bots":0,"server_type":"Dedicated","server_os":"Linux","password":true,"vac":true,"version":"7704440","steam_id":85568392924742827,"keywords":["cp","nocrits","nodmgspread","uncletopia"],"game_id":440,"stv_port":0,"stv_name":"","players":null},{"server_id":24,"name":"Uncletopia | Frankfurt | 8 | Community","name_short":"frk-8","host":"frk-1.de.uncletopia.com","port":27085,"enabled":true,"region":"eu","cc":"de","latitude":50.110924,"longitude":8.682127,"reserved":0,"last_update":"0001-01-01T00:00:00Z","name_a2s":"Uncletopia | Frankfurt | 8 | Community","protocol":17,"map":"cp_process_final","folder":"tf","game":"Team Fortress","app_id":440,"player_count":0,"max_players":24,"Bots":0,"server_type":"Dedicated","server_os":"Linux","password":true,"vac":true,"version":"7704440","steam_id":85568392924742828,"keywords":["cp","nocrits","nodmgspread","uncletopia"],"game_id":440,"stv_port":0,"stv_name":"","players":null},{"server_id":202,"name":"Uncletopia | Hong Kong | 1 | All Maps","name_short":"hgk-1","host":"hgk-1.hk.uncletopia.com","port":27015,"enabled":true,"region":"asia","cc":"hk","latitude":22.302711,"longitude":114.177216,"reserved":0,"last_update":"0001-01-01T00:00:00Z","name_a2s":"Uncletopia | Hong Kong | 1 | All Maps","protocol":17,"map":"pl_barnblitz","folder":"tf","game":"Team Fortress","app_id":440,"player_count":24,"max_players":24,"Bots":0,"server_type":"Dedicated","server_os":"Linux","password":true,"vac":true,"version":"7704440","steam_id":85568392924494504,"keywords":["nocrits","nodmgspread","payload","uncletopia"],"game_id":440,"stv_port":27016,"stv_name":"Uncletopia | Hong Kong | 1 | All Maps | STV","players":[{"user_id":525,"name":"AmaiToxic","steam_id":76561199122491157,"connected_time":2056000000000,"state":"active","ping":66},{"user_id":492,"name":"JayJ","steam_id":76561198324008555,"connected_time":4257000000000,"state":"active","ping":58},{"user_id":519,"name":"Paradoxu","steam_id":76561198394407876,"connected_time":2512000000000,"state":"active","ping":81},{"user_id":532,"name":"Violezine","steam_id":76561199000502615,"connected_time":1415000000000,"state":"active","ping":82},{"user_id":540,"name":"PINKMAN!!!","steam_id":76561198347997204,"connected_time":939000000000,"state":"active","ping":149},{"user_id":512,"name":"ÊØç„ÅÆËÇâÂõ£Â≠ê","steam_id":76561198069561896,"connected_time":3015000000000,"state":"active","ping":45},{"user_id":484,"name":"+W+","steam_id":76561197997220367,"connected_time":4597000000000,"state":"active","ping":48},{"user_id":440,"name":"Rephex","steam_id":76561198308185574,"connected_time":10321000000000,"state":"active","ping":64},{"user_id":528,"name":"Lu","steam_id":76561198320532821,"connected_time":1748000000000,"state":"active","ping":72},{"user_id":485,"name":"PocoLoco","steam_id":76561198834044246,"connected_time":4595000000000,"state":"active","ping":103},{"user_id":530,"name":"Insert cash here","steam_id":76561199141112344,"connected_time":1588000000000,"state":"active","ping":70},{"user_id":539,"name":"Pyro Is Scout","steam_id":76561198966730125,"connected_time":958000000000,"state":"active","ping":74},{"user_id":541,"name":"CroJio","steam_id":76561198334634172,"connected_time":865000000000,"state":"active","ping":145},{"user_id":542,"name":"LanIX (f2p)","steam_id":76561199058405183,"connected_time":827000000000,"state":"active","ping":65},{"user_id":534,"name":"Mon0","steam_id":76561198141630395,"connected_time":1090000000000,"state":"active","ping":126},{"user_id":535,"name":"vantinenka","steam_id":76561199365665188,"connected_time":1066000000000,"state":"active","ping":100},{"user_id":523,"name":"Sinyeon","steam_id":76561198125363469,"connected_time":2124000000000,"state":"active","ping":90},{"user_id":543,"name":"Box","steam_id":76561199165729667,"connected_time":779000000000,"state":"active","ping":69},{"user_id":544,"name":"Him Him Ung","steam_id":76561198204789021,"connected_time":688000000000,"state":"active","ping":55},{"user_id":515,"name":"hpeed","steam_id":76561198808595586,"connected_time":2535000000000,"state":"active","ping":69},{"user_id":486,"name":"Paragon","steam_id":76561197983816430,"connected_time":4594000000000,"state":"active","ping":130},{"user_id":514,"name":"Toygar","steam_id":76561198023679830,"connected_time":2572000000000,"state":"active","ping":53},{"user_id":538,"name":"emanate","steam_id":76561198277898822,"connected_time":1035000000000,"state":"active","ping":149},{"user_id":520,"name":"IZ*","steam_id":76561198834621927,"connected_time":2500000000000,"state":"active","ping":87}]},{"server_id":1,"name":"Uncletopia | Los Angeles | 1 | All Maps","name_short":"lax-1","host":"lax-1.us.uncletopia.com","port":27015,"enabled":true,"region":"us-west","cc":"us","latitude":33.94279,"longitude":-118.41004,"reserved":0,"last_update":"0001-01-01T00:00:00Z","name_a2s":"Uncletopia | Los Angeles | 1 | All Maps","protocol":17,"map":"pl_barnblitz","folder":"tf","game":"Team Fortress","app_id":440,"player_count":0,"max_players":24,"Bots":0,"server_type":"Dedicated","server_os":"Linux","password":true,"vac":true,"version":"7704440","steam_id":85568392924469991,"keywords":["nocrits","nodmgspread","payload","uncletopia"],"game_id":440,"stv_port":0,"stv_name":"","players":null},{"server_id":112,"name":"Uncletopia | Los Angeles | 2 | All Maps","name_short":"lax-2","host":"lax-1.us.uncletopia.com","port":27025,"enabled":true,"region":"us-west","cc":"us","latitude":33.94279,"longitude":-118.41004,"reserved":0,"last_update":"0001-01-01T00:00:00Z","name_a2s":"Uncletopia | Los Angeles | 2 | All Maps","protocol":17,"map":"pl_pier","folder":"tf","game":"Team Fortress","app_id":440,"player_count":0,"max_players":24,"Bots":0,"server_type":"Dedicated","server_os":"Linux","password":true,"vac":true,"version":"7704440","steam_id":85568392924469992,"keywords":["nocrits","nodmgspread","payload","uncletopia"],"game_id":440,"stv_port":0,"stv_name":"","players":null},{"server_id":324,"name":"Uncletopia | Los Angeles | 3 | All Maps","name_short":"lax-3","host":"lax-1.us.uncletopia.com","port":27035,"enabled":true,"region":"us-west","cc":"us","latitude":33.94279,"longitude":-118.41004,"reserved":0,"last_update":"0001-01-01T00:00:00Z","name_a2s":"Uncletopia | Los Angeles | 3 | All Maps","protocol":17,"map":"cp_dustbowl","folder":"tf","game":"Team Fortress","app_id":440,"player_count":0,"max_players":24,"Bots":0,"server_type":"Dedicated","server_os":"Linux","password":true,"vac":true,"version":"7704440","steam_id":85568392924510198,"keywords":["cp","nocrits","nodmgspread","uncletopia"],"game_id":440,"stv_port":0,"stv_name":"","players":null},{"server_id":25,"name":"Uncletopia | Los Angeles | 4 | No Payload","name_short":"lax-4","host":"lax-1.us.uncletopia.com","port":27045,"enabled":true,"region":"us-west","cc":"us","latitude":33.94279,"longitude":-118.41004,"reserved":0,"last_update":"0001-01-01T00:00:00Z","name_a2s":"Uncletopia | Los Angeles | 4 | No Payload","protocol":17,"map":"pl_badwater","folder":"tf","game":"Team Fortress","app_id":440,"player_count":2,"max_players":24,"Bots":0,"server_type":"Dedicated","server_os":"Linux","password":true,"vac":true,"version":"7704440","steam_id":85568392924510199,"keywords":["nocrits","nodmgspread","payload","uncletopia"],"game_id":440,"stv_port":0,"stv_name":"","players":[{"user_id":2,"name":"PersonWhoJustDiedMaybeIDontKnow","steam_id":76561199109564855,"connected_time":1165000000000,"state":"active","ping":59},{"user_id":3,"name":"Zaya7709","steam_id":76561199274247868,"connected_time":1144000000000,"state":"active","ping":91}]},{"server_id":11,"name":"Uncletopia | London | 1 | All Maps","name_short":"lon-1","host":"lon-1.uk.uncletopia.com","port":27015,"enabled":true,"region":"eu","cc":"gb","latitude":51.509865,"longitude":-0.118092,"reserved":0,"last_update":"0001-01-01T00:00:00Z","name_a2s":"Uncletopia | London | 1 | All Maps","protocol":17,"map":"pl_pier","folder":"tf","game":"Team Fortress","app_id":440,"player_count":24,"max_players":24,"Bots":0,"server_type":"Dedicated","server_os":"Linux","password":true,"vac":true,"version":"7704440","steam_id":85568392924367362,"keywords":["nocrits","nodmgspread","payload","uncletopia"],"game_id":440,"stv_port":27016,"stv_name":"Uncletopia | London | 1 | All Maps | STV","players":[{"user_id":197,"name":"Mlanky","steam_id":76561198047796778,"connected_time":928000000000,"state":"active","ping":31},{"user_id":209,"name":"Purplenoogie","steam_id":76561198081872160,"connected_time":155000000000,"state":"active","ping":35},{"user_id":189,"name":"Caskye","steam_id":76561198165430888,"connected_time":1324000000000,"state":"active","ping":74},{"user_id":158,"name":"bayley","steam_id":76561198117472639,"connected_time":3012000000000,"state":"active","ping":51},{"user_id":202,"name":"Tinsel","steam_id":76561197995290557,"connected_time":680000000000,"state":"active","ping":50},{"user_id":194,"name":"‚Ä°|TheArcher|‚Ä°","steam_id":76561198061758225,"connected_time":1085000000000,"state":"active","ping":85},{"user_id":109,"name":"Flare","steam_id":76561198039098320,"connected_time":5590000000000,"state":"active","ping":56},{"user_id":203,"name":"XxhollowninjaxX","steam_id":76561199054048217,"connected_time":634000000000,"state":"active","ping":160},{"user_id":198,"name":"Bob Sacamano","steam_id":76561198085610701,"connected_time":888000000000,"state":"active","ping":81},{"user_id":211,"name":"coachnetworkoperared514","steam_id":76561198236015392,"connected_time":140000000000,"state":"active","ping":119},{"user_id":181,"name":"Ô∑Ω","steam_id":76561198440978751,"connected_time":1836000000000,"state":"active","ping":94},{"user_id":199,"name":"luma","steam_id":76561198081649669,"connected_time":845000000000,"state":"active","ping":76},{"user_id":145,"name":"Nibiru_Agent","steam_id":76561198796404149,"connected_time":3654000000000,"state":"active","ping":108},{"user_id":210,"name":"juJu","steam_id":76561198049343793,"connected_time":145000000000,"state":"active","ping":63},{"user_id":204,"name":"Jafoul","steam_id":76561199383437138,"connected_time":536000000000,"state":"active","ping":123},{"user_id":196,"name":"Layton","steam_id":76561198087221314,"connected_time":1012000000000,"state":"active","ping":54},{"user_id":162,"name":"romaingallo","steam_id":76561198268112907,"connected_time":2984000000000,"state":"active","ping":45},{"user_id":207,"name":"hubbles","steam_id":76561197961142646,"connected_time":424000000000,"state":"active","ping":60},{"user_id":208,"name":"sniperfoxeh","steam_id":76561198842112008,"connected_time":415000000000,"state":"active","ping":45},{"user_id":44,"name":"Apocalypse Potatoes","steam_id":76561199001466356,"connected_time":9505000000000,"state":"active","ping":45},{"user_id":201,"name":"NO","steam_id":76561198795767535,"connected_time":836000000000,"state":"active","ping":77},{"user_id":173,"name":"nhstefanov","steam_id":76561198811811405,"connected_time":2130000000000,"state":"active","ping":78},{"user_id":206,"name":"Dakkafex","steam_id":76561198020254869,"connected_time":521000000000,"state":"active","ping":46},{"user_id":119,"name":"nudjura","steam_id":76561198281986139,"connected_time":5106000000000,"state":"active","ping":45}]},{"server_id":114,"name":"Uncletopia | London | 2 | All Maps","name_short":"lon-2","host":"lon-1.uk.uncletopia.com","port":27025,"enabled":true,"region":"eu","cc":"gb","latitude":51.509865,"longitude":-0.118092,"reserved":0,"last_update":"0001-01-01T00:00:00Z","name_a2s":"Uncletopia | London | 2 | All Maps","protocol":17,"map":"koth_cascade","folder":"tf","game":"Team Fortress","app_id":440,"player_count":7,"max_players":24,"Bots":0,"server_type":"Dedicated","server_os":"Linux","password":true,"vac":true,"version":"7704440","steam_id":85568392924470941,"keywords":["cp","nocrits","nodmgspread","uncletopia"],"game_id":440,"stv_port":27026,"stv_name":"Uncletopia | London | 2 | All Maps | STV","players":[{"user_id":10,"name":"STRF9040","steam_id":76561198094111415,"connected_time":462000000000,"state":"active","ping":68},{"user_id":11,"name":":3","steam_id":76561198117784431,"connected_time":460000000000,"state":"active","ping":64},{"user_id":14,"name":"Eing","steam_id":76561198253125820,"connected_time":142000000000,"state":"active","ping":68},{"user_id":15,"name":"tiia (cold hends)","steam_id":76561198046196005,"connected_time":91000000000,"state":"active","ping":57},{"user_id":18,"name":"noamshor","steam_id":76561198974556515,"connected_time":43000000000,"state":"active","ping":112},{"user_id":17,"name":"Shawty","steam_id":76561198256704286,"connected_time":77000000000,"state":"spawning","ping":71},{"user_id":20,"name":"Breadcrab","steam_id":76561198015924039,"connected_time":19000000000,"state":"active","ping":58}]},{"server_id":320,"name":"Uncletopia | London | 3 | All Maps","name_short":"lon-3","host":"lon-1.uk.uncletopia.com","port":27035,"enabled":true,"region":"eu","cc":"gb","latitude":51.509865,"longitude":-0.118092,"reserved":0,"last_update":"0001-01-01T00:00:00Z","name_a2s":"Uncletopia | London | 3 | All Maps","protocol":17,"map":"koth_highpass","folder":"tf","game":"Team Fortress","app_id":440,"player_count":0,"max_players":24,"Bots":0,"server_type":"Dedicated","server_os":"Linux","password":true,"vac":true,"version":"7704440","steam_id":85568392924510192,"keywords":["cp","nocrits","nodmgspread","uncletopia"],"game_id":440,"stv_port":27036,"stv_name":"Uncletopia | London | 3 | All Maps | STV","players":null},{"server_id":321,"name":"Uncletopia | London | 4 | All Maps","name_short":"lon-4","host":"lon-1.uk.uncletopia.com","port":27045,"enabled":true,"region":"eu","cc":"gb","latitude":51.509865,"longitude":-0.118092,"reserved":0,"last_update":"0001-01-01T00:00:00Z","name_a2s":"Uncletopia | London | 4 | All Maps","protocol":17,"map":"koth_viaduct","folder":"tf","game":"Team Fortress","app_id":440,"player_count":0,"max_players":24,"Bots":0,"server_type":"Dedicated","server_os":"Linux","password":true,"vac":true,"version":"7704440","steam_id":85568392924510193,"keywords":["cp","nocrits","nodmgspread","uncletopia"],"game_id":440,"stv_port":0,"stv_name":"","players":null},{"server_id":21,"name":"Uncletopia | London | 5 | All Maps","name_short":"lon-5","host":"lon-1.uk.uncletopia.com","port":27055,"enabled":true,"region":"eu","cc":"gb","latitude":51.509865,"longitude":-0.118092,"reserved":0,"last_update":"0001-01-01T00:00:00Z","name_a2s":"Uncletopia | London | 5 | All Maps","protocol":17,"map":"pl_badwater","folder":"tf","game":"Team Fortress","app_id":440,"player_count":24,"max_players":24,"Bots":0,"server_type":"Dedicated","server_os":"Linux","password":true,"vac":true,"version":"7704440","steam_id":85568392924742829,"keywords":["nocrits","nodmgspread","payload","uncletopia"],"game_id":440,"stv_port":27056,"stv_name":"Uncletopia | London | 5 | All Maps | STV","players":[{"user_id":272,"name":"Smag","steam_id":76561198153675141,"connected_time":1619000000000,"state":"active","ping":45},{"user_id":268,"name":"Per√§miehen√§","steam_id":76561197968945306,"connected_time":1723000000000,"state":"active","ping":72},{"user_id":289,"name":"jaMie","steam_id":76561198170148783,"connected_time":159000000000,"state":"active","ping":36},{"user_id":288,"name":"FliggerFlitt","steam_id":76561198147711035,"connected_time":201000000000,"state":"active","ping":71},{"user_id":273,"name":"jge","steam_id":76561198123186387,"connected_time":1510000000000,"state":"active","ping":60},{"user_id":274,"name":"juju man","steam_id":76561198019065232,"connected_time":1507000000000,"state":"active","ping":38},{"user_id":290,"name":"xepnfogon","steam_id":76561198107127340,"connected_time":145000000000,"state":"active","ping":60},{"user_id":271,"name":"Flump","steam_id":76561198106352373,"connected_time":1698000000000,"state":"active","ping":38},{"user_id":278,"name":"IIIIIIIIIIIIIIIIIIIIIIIIIIIIIII","steam_id":76561199042470246,"connected_time":1281000000000,"state":"active","ping":62},{"user_id":236,"name":"Pepto-Bismol","steam_id":76561199135518221,"connected_time":4054000000000,"state":"active","ping":46},{"user_id":258,"name":"Cuthbert","steam_id":76561198204649481,"connected_time":2760000000000,"state":"active","ping":107},{"user_id":293,"name":"hipster_doofus","steam_id":76561197970902697,"connected_time":48000000000,"state":"active","ping":51},{"user_id":279,"name":"Jayco","steam_id":76561198122497262,"connected_time":1252000000000,"state":"active","ping":41},{"user_id":243,"name":"Plop_","steam_id":76561198112567921,"connected_time":3470000000000,"state":"active","ping":44},{"user_id":280,"name":"TMC","steam_id":76561198077956157,"connected_time":1243000000000,"state":"active","ping":38},{"user_id":281,"name":"JeanCorben","steam_id":76561197965133561,"connected_time":1206000000000,"state":"active","ping":38},{"user_id":250,"name":"Cillian","steam_id":76561199046965320,"connected_time":3067000000000,"state":"active","ping":68},{"user_id":220,"name":"If I TopScoreMyTeamSucks","steam_id":76561198147668373,"connected_time":4963000000000,"state":"active","ping":62},{"user_id":282,"name":"cinny","steam_id":76561198832112629,"connected_time":1187000000000,"state":"active","ping":88},{"user_id":283,"name":"Mathieu.","steam_id":76561198039268163,"connected_time":1183000000000,"state":"active","ping":58},{"user_id":244,"name":"patrick","steam_id":76561198125038506,"connected_time":3417000000000,"state":"active","ping":61},{"user_id":284,"name":"DripPurrer","steam_id":76561199064766141,"connected_time":1149000000000,"state":"active","ping":87},{"user_id":253,"name":"Hood","steam_id":76561199229682408,"connected_time":3009000000000,"state":"active","ping":30},{"user_id":292,"name":"TheJCmonster","steam_id":76561198945258203,"connected_time":108000000000,"state":"active","ping":48}]},{"server_id":22,"name":"Uncletopia | London | 6 | All Maps","name_short":"lon-6","host":"lon-1.uk.uncletopia.com","port":27065,"enabled":true,"region":"eu","cc":"gb","latitude":51.509865,"longitude":-0.118092,"reserved":0,"last_update":"0001-01-01T00:00:00Z","name_a2s":"Uncletopia | London | 6 | All Maps","protocol":17,"map":"cp_snakewater_final1","folder":"tf","game":"Team Fortress","app_id":440,"player_count":0,"max_players":24,"Bots":0,"server_type":"Dedicated","server_os":"Linux","password":true,"vac":true,"version":"7704440","steam_id":85568392924742830,"keywords":["cp","nocrits","nodmgspread","uncletopia"],"game_id":440,"stv_port":27066,"stv_name":"Uncletopia | London | 6 | All Maps | STV","players":null},{"server_id":40,"name":"Uncletopia | London | 7 | No Payload","name_short":"lon-7","host":"lon-1.uk.uncletopia.com","port":27075,"enabled":true,"region":"eu","cc":"gb","latitude":51.509865,"longitude":-0.118092,"reserved":0,"last_update":"0001-01-01T00:00:00Z","name_a2s":"Uncletopia | London | 7 | No Payload","protocol":17,"map":"plr_bananabay","folder":"tf","game":"Team Fortress","app_id":440,"player_count":0,"max_players":24,"Bots":0,"server_type":"Dedicated","server_os":"Linux","password":true,"vac":true,"version":"7704440","steam_id":85568392924964314,"keywords":["nocrits","nodmgspread","payload","uncletopia"],"game_id":440,"stv_port":27076,"stv_name":"Uncletopia | London | 7 | No Payload | STV","players":null},{"server_id":41,"name":"Uncletopia | London | 8 | Community","name_short":"lon-8","host":"lon-1.uk.uncletopia.com","port":27085,"enabled":true,"region":"eu","cc":"gb","latitude":51.509865,"longitude":-0.118092,"reserved":0,"last_update":"0001-01-01T00:00:00Z","name_a2s":"Uncletopia | London | 8 | Community","protocol":17,"map":"cp_snakewater_final1","folder":"tf","game":"Team Fortress","app_id":440,"player_count":0,"max_players":24,"Bots":0,"server_type":"Dedicated","server_os":"Linux","password":true,"vac":true,"version":"7704440","steam_id":85568392924964315,"keywords":["cp","nocrits","nodmgspread","uncletopia"],"game_id":440,"stv_port":0,"stv_name":"","players":null},{"server_id":300,"name":"Uncletopia | Montr√©al | 1 | All Maps","name_short":"mtl-1","host":"mtl-1.ca.uncletopia.com","port":27015,"enabled":true,"region":"us-east","cc":"ca","latitude":45.50889,"longitude":-73.56167,"reserved":0,"last_update":"0001-01-01T00:00:00Z","name_a2s":"Uncletopia | Montr√©al | 1 | All Maps","protocol":17,"map":"pl_snowycoast","folder":"tf","game":"Team Fortress","app_id":440,"player_count":0,"max_players":24,"Bots":0,"server_type":"Dedicated","server_os":"Linux","password":true,"vac":true,"version":"7704440","steam_id":85568392924500087,"keywords":["nocrits","nodmgspread","payload","uncletopia"],"game_id":440,"stv_port":0,"stv_name":"","players":null},{"server_id":301,"name":"Uncletopia | Montr√©al | 2 | All Maps","name_short":"mtl-2","host":"mtl-1.ca.uncletopia.com","port":27025,"enabled":true,"region":"us-east","cc":"ca","latitude":45.50889,"longitude":-73.56167,"reserved":0,"last_update":"0001-01-01T00:00:00Z","name_a2s":"Uncletopia | Montr√©al | 2 | All Maps","protocol":17,"map":"cp_snakewater_final1","folder":"tf","game":"Team Fortress","app_id":440,"player_count":0,"max_players":24,"Bots":0,"server_type":"Dedicated","server_os":"Linux","password":true,"vac":true,"version":"7704440","steam_id":85568392924500088,"keywords":["cp","nocrits","nodmgspread","uncletopia"],"game_id":440,"stv_port":0,"stv_name":"","players":null},{"server_id":302,"name":"Uncletopia | Montr√©al | 3 | All Maps","name_short":"mtl-3","host":"mtl-1.ca.uncletopia.com","port":27035,"enabled":true,"region":"us-east","cc":"ca","latitude":45.50889,"longitude":-73.56167,"reserved":0,"last_update":"0001-01-01T00:00:00Z","name_a2s":"Uncletopia | Montr√©al | 3 | All Maps","protocol":17,"map":"pl_pier","folder":"tf","game":"Team Fortress","app_id":440,"player_count":0,"max_players":24,"Bots":0,"server_type":"Dedicated","server_os":"Linux","password":true,"vac":true,"version":"7704440","steam_id":85568392924500089,"keywords":["nocrits","nodmgspread","payload","uncletopia"],"game_id":440,"stv_port":0,"stv_name":"","players":null},{"server_id":303,"name":"Uncletopia | Montr√©al | 4 | No Payload","name_short":"mtl-4","host":"mtl-1.ca.uncletopia.com","port":27045,"enabled":true,"region":"us-east","cc":"ca","latitude":45.50889,"longitude":-73.56167,"reserved":0,"last_update":"0001-01-01T00:00:00Z","name_a2s":"Uncletopia | Montr√©al | 4 | No Payload","protocol":17,"map":"pl_upward","folder":"tf","game":"Team Fortress","app_id":440,"player_count":0,"max_players":24,"Bots":0,"server_type":"Dedicated","server_os":"Linux","password":true,"vac":true,"version":"7704440","steam_id":85568392924500090,"keywords":["nocrits","nodmgspread","payload","uncletopia"],"game_id":440,"stv_port":0,"stv_name":"","players":null},{"server_id":13,"name":"Uncletopia | New York City | 1 | All Maps","name_short":"nyc-1","host":"nyc-1.us.uncletopia.com","port":27015,"enabled":true,"region":"us-east","cc":"us","latitude":40.73061,"longitude":-73.93524,"reserved":0,"last_update":"0001-01-01T00:00:00Z","name_a2s":"Uncletopia | New York City | 1 | All Maps","protocol":17,"map":"koth_lakeside_final","folder":"tf","game":"Team Fortress","app_id":440,"player_count":0,"max_players":24,"Bots":0,"server_type":"Dedicated","server_os":"Linux","password":true,"vac":true,"version":"7704440","steam_id":85568392924469993,"keywords":["cp","nocrits","nodmgspread","uncletopia"],"game_id":440,"stv_port":0,"stv_name":"","players":null},{"server_id":14,"name":"Uncletopia | New York City | 2 | All Maps","name_short":"nyc-2","host":"nyc-1.us.uncletopia.com","port":27025,"enabled":true,"region":"us-east","cc":"us","latitude":40.73061,"longitude":-73.93524,"reserved":0,"last_update":"0001-01-01T00:00:00Z","name_a2s":"Uncletopia | New York City | 2 | All Maps","protocol":17,"map":"pl_upward","folder":"tf","game":"Team Fortress","app_id":440,"player_count":0,"max_players":24,"Bots":0,"server_type":"Dedicated","server_os":"Linux","password":true,"vac":true,"version":"7704440","steam_id":85568392924469994,"keywords":["nocrits","nodmgspread","payload","uncletopia"],"game_id":440,"stv_port":27026,"stv_name":"Uncletopia | New York City | 2 | All Maps | STV","players":null},{"server_id":15,"name":"Uncletopia | New York City | 3 | All Maps","name_short":"nyc-3","host":"nyc-1.us.uncletopia.com","port":27035,"enabled":true,"region":"us-east","cc":"us","latitude":40.73061,"longitude":-73.93524,"reserved":0,"last_update":"0001-01-01T00:00:00Z","name_a2s":"Uncletopia | New York City | 3 | All Maps","protocol":17,"map":"pl_borneo","folder":"tf","game":"Team Fortress","app_id":440,"player_count":0,"max_players":24,"Bots":0,"server_type":"Dedicated","server_os":"Linux","password":true,"vac":true,"version":"7704440","steam_id":85568392924742820,"keywords":["nocrits","nodmgspread","payload","uncletopia"],"game_id":440,"stv_port":27036,"stv_name":"Uncletopia | New York City | 3 | All Maps | STV","players":null},{"server_id":16,"name":"Uncletopia | New York City | 4 | Community","name_short":"nyc-4","host":"nyc-1.us.uncletopia.com","port":27045,"enabled":true,"region":"us-east","cc":"us","latitude":40.73061,"longitude":-73.93524,"reserved":0,"last_update":"0001-01-01T00:00:00Z","name_a2s":"Uncletopia | New York City | 4 | Community","protocol":17,"map":"workshop/cp_villa_b19.ugc2113052569","folder":"tf","game":"Team Fortress","app_id":440,"player_count":0,"max_players":24,"Bots":0,"server_type":"Dedicated","server_os":"Linux","password":true,"vac":true,"version":"7704440","steam_id":85568392924742821,"keywords":["cp","nocrits","nodmgspread","uncletopia"],"game_id":440,"stv_port":27046,"stv_name":"Uncletopia | New York City | 4 | Community | STV","players":null},{"server_id":142,"name":"Uncletopia | S√£o Paulo | 1 | All Maps","name_short":"sao-1","host":"sao-1.br.uncletopia.com","port":27015,"enabled":true,"region":"sa","cc":"br","latitude":-23.533773,"longitude":-46.62529,"reserved":0,"last_update":"0001-01-01T00:00:00Z","name_a2s":"Uncletopia | S√£o Paulo | 1 | All Maps","protocol":17,"map":"pl_barnblitz","folder":"tf","game":"Team Fortress","app_id":440,"player_count":0,"max_players":24,"Bots":0,"server_type":"Dedicated","server_os":"Linux","password":true,"vac":true,"version":"7704440","steam_id":85568392924469996,"keywords":["nocrits","nodmgspread","payload","uncletopia"],"game_id":440,"stv_port":27016,"stv_name":"Uncletopia | S√£o Paulo | 1 | All Maps | STV","players":null},{"server_id":143,"name":"Uncletopia | S√£o Paulo | 2 | All Maps","name_short":"sao-2","host":"sao-2.br.uncletopia.com","port":27015,"enabled":true,"region":"sa","cc":"br","latitude":-23.533773,"longitude":-46.62529,"reserved":0,"last_update":"0001-01-01T00:00:00Z","name_a2s":"Uncletopia | S√£o Paulo | 2 | All Maps","protocol":17,"map":"pl_frontier_final","folder":"tf","game":"Team Fortress","app_id":440,"player_count":0,"max_players":24,"Bots":0,"server_type":"Dedicated","server_os":"Linux","password":true,"vac":true,"version":"7704440","steam_id":85568392924485349,"keywords":["nocrits","nodmgspread","payload","uncletopia"],"game_id":440,"stv_port":0,"stv_name":"","players":null},{"server_id":7,"name":"Uncletopia | Seattle | 1 | All Maps","name_short":"sea-1","host":"sea-1.us.uncletopia.com","port":27015,"enabled":true,"region":"us-west","cc":"us","latitude":47.608013,"longitude":-122.33517,"reserved":0,"last_update":"0001-01-01T00:00:00Z","name_a2s":"Uncletopia | Seattle | 1 | All Maps","protocol":17,"map":"pl_frontier_final","folder":"tf","game":"Team Fortress","app_id":440,"player_count":0,"max_players":24,"Bots":0,"server_type":"Dedicated","server_os":"Linux","password":true,"vac":true,"version":"7704440","steam_id":85568392924469997,"keywords":["nocrits","nodmgspread","payload","uncletopia"],"game_id":440,"stv_port":0,"stv_name":"","players":null},{"server_id":119,"name":"Uncletopia | Seattle | 2 | All Maps","name_short":"sea-2","host":"sea-1.us.uncletopia.com","port":27025,"enabled":true,"region":"us-west","cc":"us","latitude":47.608013,"longitude":-122.33517,"reserved":0,"last_update":"0001-01-01T00:00:00Z","name_a2s":"Uncletopia | Seattle | 2 | All Maps","protocol":17,"map":"pl_frontier_final","folder":"tf","game":"Team Fortress","app_id":440,"player_count":0,"max_players":24,"Bots":0,"server_type":"Dedicated","server_os":"Linux","password":true,"vac":true,"version":"7704440","steam_id":85568392924469998,"keywords":["nocrits","nodmgspread","payload","uncletopia"],"game_id":440,"stv_port":27026,"stv_name":"Uncletopia | Seattle | 2 | All Maps | STV","players":null},{"server_id":17,"name":"Uncletopia | San Francisco | 1 | All Maps","name_short":"sfo-1","host":"sfo-1.us.uncletopia.com","port":27015,"enabled":true,"region":"us-west","cc":"us","latitude":37.77397,"longitude":-122.4313,"reserved":0,"last_update":"0001-01-01T00:00:00Z","name_a2s":"Uncletopia | San Francisco | 1 | All Maps","protocol":17,"map":"cp_dustbowl","folder":"tf","game":"Team Fortress","app_id":440,"player_count":0,"max_players":24,"Bots":0,"server_type":"Dedicated","server_os":"Linux","password":true,"vac":true,"version":"7704440","steam_id":85568392924469999,"keywords":["cp","nocrits","nodmgspread","uncletopia"],"game_id":440,"stv_port":0,"stv_name":"","players":null},{"server_id":18,"name":"Uncletopia | San Francisco | 2 | All Maps","name_short":"sfo-2","host":"sfo-1.us.uncletopia.com","port":27025,"enabled":true,"region":"us-west","cc":"us","latitude":37.77397,"longitude":-122.4313,"reserved":0,"last_update":"0001-01-01T00:00:00Z","name_a2s":"Uncletopia | San Francisco | 2 | All Maps","protocol":17,"map":"koth_highpass","folder":"tf","game":"Team Fortress","app_id":440,"player_count":0,"max_players":24,"Bots":0,"server_type":"Dedicated","server_os":"Linux","password":true,"vac":true,"version":"7704440","steam_id":85568392924470000,"keywords":["cp","nocrits","nodmgspread","uncletopia"],"game_id":440,"stv_port":0,"stv_name":"","players":null},{"server_id":19,"name":"Uncletopia | San Francisco | 3 | No Payload","name_short":"sfo-3","host":"sfo-1.us.uncletopia.com","port":27035,"enabled":true,"region":"us-west","cc":"us","latitude":37.77397,"longitude":-122.4313,"reserved":0,"last_update":"0001-01-01T00:00:00Z","name_a2s":"Uncletopia | San Francisco | 3 | No Payload","protocol":17,"map":"cp_process_final","folder":"tf","game":"Team Fortress","app_id":440,"player_count":0,"max_players":24,"Bots":0,"server_type":"Dedicated","server_os":"Linux","password":true,"vac":true,"version":"7704440","steam_id":85568392924742824,"keywords":["cp","nocrits","nodmgspread","uncletopia"],"game_id":440,"stv_port":0,"stv_name":"","players":null},{"server_id":20,"name":"Uncletopia | San Francisco | 4 | Community","name_short":"sfo-4","host":"sfo-1.us.uncletopia.com","port":27045,"enabled":true,"region":"us-west","cc":"us","latitude":37.77397,"longitude":-122.4313,"reserved":0,"last_update":"0001-01-01T00:00:00Z","name_a2s":"Uncletopia | San Francisco | 4 | Community","protocol":17,"map":"koth_highpass","folder":"tf","game":"Team Fortress","app_id":440,"player_count":0,"max_players":24,"Bots":0,"server_type":"Dedicated","server_os":"Linux","password":true,"vac":true,"version":"7704440","steam_id":85568392924742826,"keywords":["cp","nocrits","nodmgspread","uncletopia"],"game_id":440,"stv_port":0,"stv_name":"","players":null},{"server_id":141,"name":"Uncletopia | Sydney | 1 | All Maps","name_short":"syd-1","host":"syd-1.au.uncletopia.com","port":27015,"enabled":true,"region":"au","cc":"au","latitude":-33.865143,"longitude":151.2099,"reserved":0,"last_update":"0001-01-01T00:00:00Z","name_a2s":"Uncletopia | Sydney | 1 | All Maps","protocol":17,"map":"cp_mountainlab","folder":"tf","game":"Team Fortress","app_id":440,"player_count":0,"max_players":24,"Bots":0,"server_type":"Dedicated","server_os":"Linux","password":true,"vac":true,"version":"7704440","steam_id":85568392924470001,"keywords":["cp","nocrits","nodmgspread","uncletopia"],"game_id":440,"stv_port":27016,"stv_name":"Uncletopia | Sydney | 1 | All Maps | STV","players":null},{"server_id":123,"name":"Uncletopia | Sydney | 2 | All Maps","name_short":"syd-2","host":"syd-1.au.uncletopia.com","port":27025,"enabled":true,"region":"au","cc":"au","latitude":-33.865143,"longitude":151.2099,"reserved":0,"last_update":"0001-01-01T00:00:00Z","name_a2s":"Uncletopia | Sydney | 2 | All Maps","protocol":17,"map":"koth_viaduct","folder":"tf","game":"Team Fortress","app_id":440,"player_count":0,"max_players":24,"Bots":0,"server_type":"Dedicated","server_os":"Linux","password":true,"vac":true,"version":"7704440","steam_id":85568392924470002,"keywords":["cp","nocrits","nodmgspread","uncletopia"],"game_id":440,"stv_port":27026,"stv_name":"Uncletopia | Sydney | 2 | All Maps | STV","players":null},{"server_id":395,"name":"Uncletopia | Sydney | 3 | All Maps","name_short":"syd-3","host":"syd-1.au.uncletopia.com","port":27035,"enabled":true,"region":"au","cc":"au","latitude":-33.865143,"longitude":151.2099,"reserved":0,"last_update":"0001-01-01T00:00:00Z","name_a2s":"Uncletopia | Sydney | 3 | All Maps","protocol":17,"map":"pl_pier","folder":"tf","game":"Team Fortress","app_id":440,"player_count":0,"max_players":24,"Bots":0,"server_type":"Dedicated","server_os":"Linux","password":true,"vac":true,"version":"7704440","steam_id":85568392925194467,"keywords":["nocrits","nodmgspread","payload","uncletopia"],"game_id":440,"stv_port":27036,"stv_name":"Uncletopia | Sydney | 3 | All Maps | STV","players":null},{"server_id":396,"name":"Uncletopia | Sydney | 4 | All Maps","name_short":"syd-4","host":"syd-1.au.uncletopia.com","port":27045,"enabled":true,"region":"au","cc":"au","latitude":-33.865143,"longitude":151.2099,"reserved":0,"last_update":"0001-01-01T00:00:00Z","name_a2s":"Uncletopia | Sydney | 4 | All Maps","protocol":17,"map":"koth_highpass","folder":"tf","game":"Team Fortress","app_id":440,"player_count":0,"max_players":24,"Bots":0,"server_type":"Dedicated","server_os":"Linux","password":true,"vac":true,"version":"7704440","steam_id":85568392925397958,"keywords":["cp","nocrits","nodmgspread","uncletopia"],"game_id":440,"stv_port":27046,"stv_name":"Uncletopia | Sydney | 4 | All Maps | STV","players":null},{"server_id":58,"name":"Uncletopia | Sydney | 5 | No Payload","name_short":"syd-5","host":"syd-1.au.uncletopia.com","port":27055,"enabled":true,"region":"au","cc":"au","latitude":-33.865143,"longitude":151.2099,"reserved":0,"last_update":"0001-01-01T00:00:00Z","name_a2s":"Uncletopia | Sydney | 5 | No Payload","protocol":17,"map":"pl_barnblitz","folder":"tf","game":"Team Fortress","app_id":440,"player_count":0,"max_players":24,"Bots":0,"server_type":"Dedicated","server_os":"Linux","password":true,"vac":true,"version":"7704440","steam_id":85568392925397959,"keywords":["nocrits","nodmgspread","payload","uncletopia"],"game_id":440,"stv_port":0,"stv_name":"","players":null},{"server_id":59,"name":"Uncletopia | Sydney | 6 | Community","name_short":"syd-6","host":"syd-1.au.uncletopia.com","port":27065,"enabled":true,"region":"au","cc":"au","latitude":-33.865143,"longitude":151.2099,"reserved":0,"last_update":"0001-01-01T00:00:00Z","name_a2s":"Uncletopia | Sydney | 6 | Community","protocol":17,"map":"workshop/rd_asteroid_redux_rc9.ugc2154902912","folder":"tf","game":"Team Fortress","app_id":440,"player_count":0,"max_players":24,"Bots":0,"server_type":"Dedicated","server_os":"Linux","password":true,"vac":true,"version":"7704440","steam_id":85568392925397960,"keywords":["beta","nocrits","nodmgspread","rd","uncletopia"],"game_id":440,"stv_port":27066,"stv_name":"Uncletopia | Sydney | 6 | Community | STV","players":null},{"server_id":49,"name":"Uncletopia | Warsaw | 1 | All Maps","name_short":"waw-1","host":"waw-1.pl.uncletopia.com","port":27015,"enabled":true,"region":"eu","cc":"pl","latitude":52.2297,"longitude":21.017532,"reserved":0,"last_update":"0001-01-01T00:00:00Z","name_a2s":"Uncletopia | Warsaw | 1 | All Maps","protocol":17,"map":"koth_cascade","folder":"tf","game":"Team Fortress","app_id":440,"player_count":0,"max_players":24,"Bots":0,"server_type":"Dedicated","server_os":"Linux","password":true,"vac":true,"version":"7704440","steam_id":85568392925397850,"keywords":["cp","nocrits","nodmgspread","uncletopia"],"game_id":440,"stv_port":27016,"stv_name":"Uncletopia | Warsaw | 1 | All Maps | STV","players":null},{"server_id":50,"name":"Uncletopia | Warsaw | 2 | All Maps","name_short":"waw-2","host":"waw-1.pl.uncletopia.com","port":27025,"enabled":true,"region":"eu","cc":"pl","latitude":52.2297,"longitude":21.017532,"reserved":0,"last_update":"0001-01-01T00:00:00Z","name_a2s":"Uncletopia | Warsaw | 2 | All Maps","protocol":17,"map":"pl_badwater","folder":"tf","game":"Team Fortress","app_id":440,"player_count":0,"max_players":24,"Bots":0,"server_type":"Dedicated","server_os":"Linux","password":true,"vac":true,"version":"7704440","steam_id":85568392925397851,"keywords":["nocrits","nodmgspread","payload","uncletopia"],"game_id":440,"stv_port":0,"stv_name":"","players":null},{"server_id":51,"name":"Uncletopia | Warsaw | 3 | All Maps","name_short":"waw-3","host":"waw-1.pl.uncletopia.com","port":27035,"enabled":true,"region":"eu","cc":"pl","latitude":52.2297,"longitude":21.017532,"reserved":0,"last_update":"0001-01-01T00:00:00Z","name_a2s":"Uncletopia | Warsaw | 3 | All Maps","protocol":17,"map":"pl_swiftwater_final1","folder":"tf","game":"Team Fortress","app_id":440,"player_count":0,"max_players":24,"Bots":0,"server_type":"Dedicated","server_os":"Linux","password":true,"vac":true,"version":"7704440","steam_id":85568392925397852,"keywords":["nocrits","nodmgspread","payload","uncletopia"],"game_id":440,"stv_port":27036,"stv_name":"Uncletopia | Warsaw | 3 | All Maps | STV","players":null},{"server_id":52,"name":"Uncletopia | Warsaw | 4 | All Maps","name_short":"waw-4","host":"waw-1.pl.uncletopia.com","port":27045,"enabled":true,"region":"eu","cc":"pl","latitude":52.2297,"longitude":21.017532,"reserved":0,"last_update":"0001-01-01T00:00:00Z","name_a2s":"Uncletopia | Warsaw | 4 | All Maps","protocol":17,"map":"cp_process_final","folder":"tf","game":"Team Fortress","app_id":440,"player_count":0,"max_players":24,"Bots":0,"server_type":"Dedicated","server_os":"Linux","password":true,"vac":true,"version":"7704440","steam_id":85568392925397853,"keywords":["cp","nocrits","nodmgspread","uncletopia"],"game_id":440,"stv_port":0,"stv_name":"","players":null},{"server_id":53,"name":"Uncletopia | Warsaw | 5 | No Payload","name_short":"waw-5","host":"waw-1.pl.uncletopia.com","port":27055,"enabled":true,"region":"eu","cc":"pl","latitude":52.2297,"longitude":21.017532,"reserved":0,"last_update":"0001-01-01T00:00:00Z","name_a2s":"Uncletopia | Warsaw | 5 | No Payload","protocol":17,"map":"cp_process_final","folder":"tf","game":"Team Fortress","app_id":440,"player_count":0,"max_players":24,"Bots":0,"server_type":"Dedicated","server_os":"Linux","password":true,"vac":true,"version":"7704440","steam_id":85568392925397854,"keywords":["cp","nocrits","nodmgspread","uncletopia"],"game_id":440,"stv_port":27056,"stv_name":"Uncletopia | Warsaw | 5 | No Payload | STV","players":null},{"server_id":54,"name":"Uncletopia | Warsaw | 6 | Community","name_short":"waw-6","host":"waw-1.pl.uncletopia.com","port":27065,"enabled":true,"region":"eu","cc":"pl","latitude":52.2297,"longitude":21.017532,"reserved":0,"last_update":"0001-01-01T00:00:00Z","name_a2s":"Uncletopia | Warsaw | 6 | Community","protocol":17,"map":"pl_badwater","folder":"tf","game":"Team Fortress","app_id":440,"player_count":0,"max_players":24,"Bots":0,"server_type":"Dedicated","server_os":"Linux","password":true,"vac":true,"version":"7704440","steam_id":85568392925397856,"keywords":["nocrits","nodmgspread","payload","uncletopia"],"game_id":440,"stv_port":0,"stv_name":"","players":null}]}