{"status":true,"message":"","result":[{"server_id":9,"name":"Uncletopia | Atlanta | 1 | All Maps","name_short":"atl-1","host":"atl-1.us.uncletopia.com","port":27015,"enabled":true,"region":"us-east","cc":"us","latitude":33.753746,"longitude":-84.38633,"reserved":0,"last_update":"0001-01-01T00:00:00Z","name_a2s":"Uncletopia | Atlanta | 1 | All Maps","protocol":17,"map":"cp_mountainlab","folder":"tf","game":"Team Fortress","app_id":440,"player_count":0,"max_players":24,"Bots":0,"server_type":"Dedicated","server_os":"Linux","password":true,"vac":true,"version":"7932396","steam_id":85568392924469982,"keywords":["cp","nocrits","nodmgspread","uncletopia"],"game_id":440,"stv_port":27016,"stv_name":"Uncletopia | Atlanta | 1 | All Maps | STV","players":null},{"server_id":104,"name":"Uncletopia | Atlanta | 2 | All Maps","name_short":"atl-2","host":"atl-1.us.uncletopia.com","port":27025,"enabled":true,"region":"us-east","cc":"us","latitude":33.753746,"longitude":-84.38633,"reserved":0,"last_update":"0001-01-01T00:00:00Z","name_a2s":"Uncletopia | Atlanta | 2 | All Maps","protocol":17,"map":"cp_snakewater_final1","folder":"tf","game":"Team Fortress","app_id":440,"player_count":0,"max_players":24,"Bots":0,"server_type":"Dedicated","server_os":"Linux","password":true,"vac":true,"version":"7932396","steam_id":85568392924469983,"keywords":["cp","nocrits","nodmgspread","uncletopia"],"game_id":440,"stv_port":27026,"stv_name":"Uncletopia | Atlanta | 2 | All Maps | STV","players":null},{"server_id":400,"name":"Uncletopia | Atlanta | 3 | Community","name_short":"atl-3","host":"atl-1.us.uncletopia.com","port":27035,"enabled":true,"region":"us-east","cc":"us","latitude":33.753746,"longitude":-84.38633,"reserved":0,"last_update":"0001-01-01T00:00:00Z","name_a2s":"Uncletopia | Atlanta | 3 | Community","protocol":17,"map":"workshop/cp_bruhstbowl_b5.ugc2878604990","folder":"tf","game":"Team Fortress","app_id":440,"player_count":0,"max_players":24,"Bots":0,"server_type":"Dedicated","server_os":"Linux","password":true,"vac":true,"version":"7932396","steam_id":85568392924515187,"keywords":["cp","nocrits","nodmgspread","uncletopia"],"game_id":440,"stv_port":27036,"stv_name":"Uncletopia | Atlanta | 3 | Community | STV","players":null},{"server_id":401,"name":"Uncletopia | Atlanta | 4 | No Payload","name_short":"atl-4","host":"atl-1.us.uncletopia.com","port":27045,"enabled":true,"region":"us-east","cc":"us","latitude":33.753746,"longitude":-84.38633,"reserved":0,"last_update":"0001-01-01T00:00:00Z","name_a2s":"","protocol":0,"map":"","folder":"","game":"","app_id":0,"player_count":0,"max_players":0,"Bots":0,"server_type":"","server_os":"","password":false,"vac":false,"version":"","steam_id":0,"keywords":null,"game_id":0,"stv_port":0,"stv_name":"","players":null},{"server_id":2,"name":"Uncletopia | Chicago | 1 | All Maps","name_short":"chi-1","host":"chi-1.us.uncletopia.com","port":27015,"enabled":true,"region":"us-central","cc":"us","latitude":41.881832,"longitude":-87.62318,"reserved":0,"last_update":"0001-01-01T00:00:00Z","name_a2s":"Uncletopia | Chicago | 1 | All Maps","protocol":17,"map":"pl_badwater","folder":"tf","game":"Team Fortress","app_id":440,"player_count":24,"max_players":24,"Bots":0,"server_type":"Dedicated","server_os":"Linux","password":true,"vac":true,"version":"7932396","steam_id":85568392924469984,"keywords":["nocrits","nodmgspread","payload","uncletopia"],"game_id":440,"stv_port":27016,"stv_name":"Uncletopia | Chicago | 1 | All Maps | STV","players":[{"user_id":472,"name":"eish","steam_id":76561198089463603,"connected_time":2047000000000,"state":"active","ping":121},{"user_id":498,"name":"Soph The Dark Elf","steam_id":76561198294426385,"connected_time":158000000000,"state":"active","ping":58},{"user_id":482,"name":"0x01FE","steam_id":76561198838881917,"connected_time":1500000000000,"state":"active","ping":76},{"user_id":455,"name":"God","steam_id":76561198131089513,"connected_time":3093000000000,"state":"active","ping":45},{"user_id":488,"name":"eating my yummy dinner :3","steam_id":76561198048882285,"connected_time":1032000000000,"state":"active","ping":60},{"user_id":483,"name":"PDF File","steam_id":76561198128936049,"connected_time":1499000000000,"state":"active","ping":61},{"user_id":469,"name":"ATL1 | Le4n!!!","steam_id":76561198045522596,"connected_time":2061000000000,"state":"active","ping":76},{"user_id":478,"name":"Ashes | (She/Her)","steam_id":76561198122027532,"connected_time":1918000000000,"state":"active","ping":82},{"user_id":470,"name":"KING KONG","steam_id":76561198927517471,"connected_time":2059000000000,"state":"active","ping":71},{"user_id":420,"name":"Cpl Coomer","steam_id":76561199143310951,"connected_time":5541000000000,"state":"active","ping":69},{"user_id":460,"name":"Bloop","steam_id":76561198253563271,"connected_time":2603000000000,"state":"active","ping":35},{"user_id":486,"name":"8th Ward","steam_id":76561198405839882,"connected_time":1374000000000,"state":"active","ping":62},{"user_id":489,"name":"Tree","steam_id":76561198195445331,"connected_time":1021000000000,"state":"active","ping":117},{"user_id":473,"name":"Toonice","steam_id":76561198402994885,"connected_time":2045000000000,"state":"active","ping":76},{"user_id":474,"name":"Sophie","steam_id":76561198170408057,"connected_time":2001000000000,"state":"active","ping":60},{"user_id":493,"name":"Rainy","steam_id":76561198025609304,"connected_time":676000000000,"state":"active","ping":77},{"user_id":462,"name":"DragonFalcon™","steam_id":76561198044559930,"connected_time":2475000000000,"state":"active","ping":83},{"user_id":494,"name":"Wizard Raccoon","steam_id":76561198072562591,"connected_time":496000000000,"state":"active","ping":85},{"user_id":485,"name":"Nicolas Cage Kisses Mace Windu","steam_id":76561198046127710,"connected_time":1459000000000,"state":"active","ping":55},{"user_id":490,"name":"MajorGeneral","steam_id":76561198096725670,"connected_time":997000000000,"state":"active","ping":61},{"user_id":291,"name":"Mank","steam_id":76561198189421005,"connected_time":15260000000000,"state":"active","ping":47},{"user_id":432,"name":"Hector Salamanca","steam_id":76561199103213955,"connected_time":5058000000000,"state":"active","ping":125},{"user_id":459,"name":"Dr. Blair Chao","steam_id":76561198146027518,"connected_time":2855000000000,"state":"active","ping":69},{"user_id":476,"name":"TheRealMud","steam_id":76561198138312993,"connected_time":1976000000000,"state":"active","ping":72}]},{"server_id":106,"name":"Uncletopia | Chicago | 2 | All Maps","name_short":"chi-2","host":"chi-1.us.uncletopia.com","port":27025,"enabled":true,"region":"us-central","cc":"us","latitude":41.881832,"longitude":-87.62318,"reserved":0,"last_update":"0001-01-01T00:00:00Z","name_a2s":"Uncletopia | Chicago | 2 | All Maps","protocol":17,"map":"cp_process_final","folder":"tf","game":"Team Fortress","app_id":440,"player_count":0,"max_players":24,"Bots":0,"server_type":"Dedicated","server_os":"Linux","password":true,"vac":true,"version":"7932396","steam_id":85568392924469985,"keywords":["cp","nocrits","nodmgspread","uncletopia"],"game_id":440,"stv_port":27026,"stv_name":"Uncletopia | Chicago | 2 | All Maps | STV","players":null},{"server_id":402,"name":"Uncletopia | Chicago | 3 | All Maps","name_short":"chi-3","host":"chi-1.us.uncletopia.com","port":27035,"enabled":true,"region":"us-central","cc":"us","latitude":41.881832,"longitude":-87.62318,"reserved":0,"last_update":"0001-01-01T00:00:00Z","name_a2s":"Uncletopia | Chicago | 3 | All Maps","protocol":17,"map":"pl_frontier_final","folder":"tf","game":"Team Fortress","app_id":440,"player_count":13,"max_players":24,"Bots":0,"server_type":"Dedicated","server_os":"Linux","password":true,"vac":true,"version":"7932396","steam_id":85568392924515191,"keywords":["nocrits","nodmgspread","payload","uncletopia"],"game_id":440,"stv_port":27036,"stv_name":"Uncletopia | Chicago | 3 | All Maps | STV","players":[{"user_id":383,"name":"erf","steam_id":76561198078203677,"connected_time":414000000000,"state":"active","ping":67},{"user_id":379,"name":"ÜberBurst inVinci","steam_id":76561198044470684,"connected_time":1000000000000,"state":"active","ping":70},{"user_id":386,"name":"Tanuki with a gun.","steam_id":76561198027487285,"connected_time":212000000000,"state":"active","ping":104},{"user_id":342,"name":"Vladikr1","steam_id":76561198401495362,"connected_time":6478000000000,"state":"active","ping":62},{"user_id":380,"name":"Skaven Apologist","steam_id":76561198028082993,"connected_time":996000000000,"state":"active","ping":102},{"user_id":368,"name":"jooby","steam_id":76561198131065492,"connected_time":3718000000000,"state":"active","ping":60},{"user_id":336,"name":"daemon","steam_id":76561198001541433,"connected_time":6532000000000,"state":"active","ping":54},{"user_id":337,"name":"Strange Festive Femboy","steam_id":76561198050385093,"connected_time":6527000000000,"state":"active","ping":74},{"user_id":363,"name":"fish","steam_id":76561198054070811,"connected_time":4238000000000,"state":"active","ping":102},{"user_id":338,"name":"V!CT!M","steam_id":76561198962721502,"connected_time":6527000000000,"state":"active","ping":82},{"user_id":339,"name":"C Papi","steam_id":76561198027779564,"connected_time":6513000000000,"state":"active","ping":49},{"user_id":378,"name":"cletismckloskey","steam_id":76561198020014376,"connected_time":1975000000000,"state":"active","ping":99},{"user_id":382,"name":"One week at Frederick's","steam_id":76561198264752535,"connected_time":916000000000,"state":"active","ping":53}]},{"server_id":403,"name":"Uncletopia | Chicago | 4 | All Maps","name_short":"chi-4","host":"chi-1.us.uncletopia.com","port":27045,"enabled":true,"region":"us-central","cc":"us","latitude":41.881832,"longitude":-87.62318,"reserved":0,"last_update":"0001-01-01T00:00:00Z","name_a2s":"Uncletopia | Chicago | 4 | All Maps","protocol":17,"map":"koth_highpass","folder":"tf","game":"Team Fortress","app_id":440,"player_count":1,"max_players":24,"Bots":0,"server_type":"Dedicated","server_os":"Linux","password":true,"vac":true,"version":"7932396","steam_id":85568392924515193,"keywords":["cp","nocrits","nodmgspread","uncletopia"],"game_id":440,"stv_port":27046,"stv_name":"Uncletopia | Chicago | 4 | All Maps | STV","players":[{"user_id":338,"name":"090-nsalih","steam_id":76561199467467873,"connected_time":22000000000,"state":"active","ping":95}]},{"server_id":36,"name":"Uncletopia | Chicago | 5 | All Maps","name_short":"chi-5","host":"chi-2.us.uncletopia.com","port":27015,"enabled":true,"region":"us-central","cc":"us","latitude":41.881832,"longitude":-87.62318,"reserved":0,"last_update":"0001-01-01T00:00:00Z","name_a2s":"Uncletopia | Chicago | 5 | All Maps","protocol":17,"map":"pl_pier","folder":"tf","game":"Team Fortress","app_id":440,"player_count":24,"max_players":24,"Bots":0,"server_type":"Dedicated","server_os":"Linux","password":true,"vac":true,"version":"7932396","steam_id":85568392924866362,"keywords":["nocrits","nodmgspread","payload","uncletopia"],"game_id":440,"stv_port":27016,"stv_name":"Uncletopia | Chicago | 5 | All Maps | STV","players":[{"user_id":468,"name":"Shystie","steam_id":76561198025371440,"connected_time":4133000000000,"state":"active","ping":73},{"user_id":419,"name":"BigDeac","steam_id":76561198091237274,"connected_time":7905000000000,"state":"active","ping":57},{"user_id":504,"name":"Ja","steam_id":76561198396340174,"connected_time":1345000000000,"state":"active","ping":75},{"user_id":489,"name":"Mathatguy","steam_id":76561198225432188,"connected_time":2623000000000,"state":"active","ping":86},{"user_id":516,"name":"Bee","steam_id":76561198074681324,"connected_time":462000000000,"state":"active","ping":61},{"user_id":507,"name":"Cradinal","steam_id":76561198047705714,"connected_time":983000000000,"state":"active","ping":73},{"user_id":510,"name":"Iron","steam_id":76561198247918478,"connected_time":791000000000,"state":"active","ping":97},{"user_id":488,"name":"TGD","steam_id":76561198197582594,"connected_time":2729000000000,"state":"active","ping":57},{"user_id":506,"name":"crazey","steam_id":76561198286510667,"connected_time":1230000000000,"state":"active","ping":105},{"user_id":505,"name":".-.. --- ...- . / -.-- --- ..-","steam_id":76561198002483206,"connected_time":1331000000000,"state":"active","ping":60},{"user_id":433,"name":"noah","steam_id":76561198173310157,"connected_time":7135000000000,"state":"active","ping":53},{"user_id":509,"name":"frank","steam_id":76561198137777483,"connected_time":916000000000,"state":"active","ping":61},{"user_id":494,"name":"Buckshot","steam_id":76561198312838299,"connected_time":2584000000000,"state":"active","ping":60},{"user_id":491,"name":"Enrico_Gucci","steam_id":76561198089919580,"connected_time":2614000000000,"state":"active","ping":83},{"user_id":502,"name":"Not Slavoj Žižek","steam_id":76561198004619616,"connected_time":1562000000000,"state":"active","ping":112},{"user_id":471,"name":"Chad","steam_id":76561198222313772,"connected_time":4044000000000,"state":"active","ping":101},{"user_id":511,"name":"dreadout5","steam_id":76561198090331903,"connected_time":754000000000,"state":"active","ping":75},{"user_id":512,"name":"Big Russ","steam_id":76561198122943559,"connected_time":734000000000,"state":"active","ping":93},{"user_id":503,"name":"None of that $9.99 bullshit","steam_id":76561198116169903,"connected_time":1557000000000,"state":"active","ping":49},{"user_id":462,"name":"Salixiola","steam_id":76561198042177809,"connected_time":4446000000000,"state":"active","ping":74},{"user_id":517,"name":"ego death","steam_id":76561199159928133,"connected_time":113000000000,"state":"active","ping":73},{"user_id":515,"name":"PowderBones","steam_id":76561198057211840,"connected_time":582000000000,"state":"active","ping":76},{"user_id":481,"name":"\"radatouille\"","steam_id":76561198182245622,"connected_time":3343000000000,"state":"active","ping":65},{"user_id":493,"name":"Blastmdead™","steam_id":76561198271355164,"connected_time":2606000000000,"state":"active","ping":80}]},{"server_id":37,"name":"Uncletopia | Chicago | 6 | All Maps","name_short":"chi-6","host":"chi-2.us.uncletopia.com","port":27025,"enabled":true,"region":"us-central","cc":"us","latitude":41.881832,"longitude":-87.62318,"reserved":0,"last_update":"0001-01-01T00:00:00Z","name_a2s":"Uncletopia | Chicago | 6 | All Maps","protocol":17,"map":"pl_borneo","folder":"tf","game":"Team Fortress","app_id":440,"player_count":24,"max_players":24,"Bots":0,"server_type":"Dedicated","server_os":"Linux","password":true,"vac":true,"version":"7932396","steam_id":85568392924866363,"keywords":["nocrits","nodmgspread","payload","uncletopia"],"game_id":440,"stv_port":27026,"stv_name":"Uncletopia | Chicago | 6 | All Maps | STV","players":[{"user_id":473,"name":"Yummy Kabobz","steam_id":76561198067661705,"connected_time":2361000000000,"state":"active","ping":61},{"user_id":472,"name":"Crisp","steam_id":76561198132644084,"connected_time":2425000000000,"state":"active","ping":69},{"user_id":471,"name":"zee","steam_id":76561197994492154,"connected_time":2492000000000,"state":"active","ping":171},{"user_id":480,"name":"Lore","steam_id":76561198098407538,"connected_time":2053000000000,"state":"active","ping":55},{"user_id":488,"name":"Kzjytsugn","steam_id":76561198130241974,"connected_time":1220000000000,"state":"active","ping":85},{"user_id":500,"name":"THe sleepiest gamer girl alive","steam_id":76561198079461770,"connected_time":988000000000,"state":"active","ping":62},{"user_id":443,"name":"TofuChef","steam_id":76561198253740350,"connected_time":4582000000000,"state":"active","ping":60},{"user_id":447,"name":"Medic Boyfriend","steam_id":76561198104086771,"connected_time":4332000000000,"state":"active","ping":100},{"user_id":491,"name":"FLYTE","steam_id":76561198124177662,"connected_time":1124000000000,"state":"active","ping":169},{"user_id":492,"name":"sunny","steam_id":76561198069380992,"connected_time":1101000000000,"state":"active","ping":82},{"user_id":496,"name":"Ludcmorais","steam_id":76561198359217809,"connected_time":1066000000000,"state":"active","ping":191},{"user_id":475,"name":"OrangeSodaMachine","steam_id":76561198079230156,"connected_time":2264000000000,"state":"active","ping":83},{"user_id":493,"name":"Peppino","steam_id":76561198189176634,"connected_time":1093000000000,"state":"active","ping":92},{"user_id":476,"name":"goose","steam_id":76561198367551668,"connected_time":2231000000000,"state":"active","ping":59},{"user_id":506,"name":"Jezzus","steam_id":76561199289676387,"connected_time":218000000000,"state":"active","ping":93},{"user_id":477,"name":"ijustshovedanukeupmypussy","steam_id":76561198142394470,"connected_time":2204000000000,"state":"active","ping":62},{"user_id":494,"name":"Gustavo","steam_id":76561198190288063,"connected_time":1085000000000,"state":"active","ping":90},{"user_id":484,"name":"BERLIN BAEST","steam_id":76561199407580843,"connected_time":1816000000000,"state":"active","ping":126},{"user_id":505,"name":"doro","steam_id":76561198099041747,"connected_time":224000000000,"state":"active","ping":100},{"user_id":504,"name":"Pub Davinci","steam_id":76561198083975056,"connected_time":291000000000,"state":"active","ping":103},{"user_id":498,"name":"Mastermind","steam_id":76561198127783432,"connected_time":1056000000000,"state":"active","ping":75},{"user_id":499,"name":"the grim reefer","steam_id":76561199198633203,"connected_time":1055000000000,"state":"active","ping":99},{"user_id":457,"name":"aleksei","steam_id":76561199061380038,"connected_time":4180000000000,"state":"active","ping":74}]},{"server_id":38,"name":"Uncletopia | Chicago | 7 | Stopwatch Beta","name_short":"chi-7","host":"chi-2.us.uncletopia.com","port":27035,"enabled":true,"region":"us-central","cc":"us","latitude":41.881832,"longitude":-87.62318,"reserved":0,"last_update":"0001-01-01T00:00:00Z","name_a2s":"Uncletopia | Chicago | 7 | Stopwatch Beta","protocol":17,"map":"workshop/koth_ashville_final.ugc2130459942","folder":"tf","game":"Team Fortress","app_id":440,"player_count":0,"max_players":24,"Bots":0,"server_type":"Dedicated","server_os":"Linux","password":true,"vac":true,"version":"7932396","steam_id":85568392924866364,"keywords":["cp","nocrits","nodmgspread","uncletopia"],"game_id":440,"stv_port":27036,"stv_name":"Uncletopia | Chicago | 7 | Stopwatch Beta | STV","players":null},{"server_id":39,"name":"Uncletopia | Chicago | 8 | Community","name_short":"chi-8","host":"chi-2.us.uncletopia.com","port":27045,"enabled":true,"region":"us-central","cc":"us","latitude":41.881832,"longitude":-87.62318,"reserved":0,"last_update":"0001-01-01T00:00:00Z","name_a2s":"Uncletopia | Chicago | 8 | Community","protocol":17,"map":"workshop/cp_indulge.ugc528106646","folder":"tf","game":"Team Fortress","app_id":440,"player_count":0,"max_players":24,"Bots":0,"server_type":"Dedicated","server_os":"Linux","password":true,"vac":true,"version":"7932396","steam_id":85568392924866365,"keywords":["cp","nocrits","nodmgspread","uncletopia"],"game_id":440,"stv_port":27046,"stv_name":"Uncletopia | Chicago | 8 | Community | STV","players":null},{"server_id":8,"name":"Uncletopia | Dallas | 1 | All Maps","name_short":"dal-1","host":"dal-1.us.uncletopia.com","port":27015,"enabled":true,"region":"us-central","cc":"us","latitude":32.779167,"longitude":-96.80889,"reserved":0,"last_update":"0001-01-01T00:00:00Z","name_a2s":"Uncletopia | Dallas | 1 | All Maps","protocol":17,"map":"pl_swiftwater_final1","folder":"tf","game":"Team Fortress","app_id":440,"player_count":23,"max_players":24,"Bots":0,"server_type":"Dedicated","server_os":"Linux","password":true,"vac":true,"version":"7932396","steam_id":85568392924469986,"keywords":["nocrits","nodmgspread","payload","uncletopia"],"game_id":440,"stv_port":27016,"stv_name":"Uncletopia | Dallas | 1 | All Maps | STV","players":[{"user_id":690,"name":"Sebastian","steam_id":76561199049191805,"connected_time":1220000000000,"state":"active","ping":131},{"user_id":671,"name":"lancer","steam_id":76561199124468228,"connected_time":1665000000000,"state":"active","ping":45},{"user_id":688,"name":"Mr. Stockington","steam_id":76561198091354032,"connected_time":1270000000000,"state":"active","ping":61},{"user_id":673,"name":"Fake21","steam_id":76561198282065071,"connected_time":1556000000000,"state":"active","ping":53},{"user_id":665,"name":"I'm a stone","steam_id":76561198414300607,"connected_time":2087000000000,"state":"active","ping":83},{"user_id":660,"name":"piuy373","steam_id":76561198799361157,"connected_time":2623000000000,"state":"active","ping":38},{"user_id":674,"name":"American Dad Funny Moments #32","steam_id":76561198254874328,"connected_time":1466000000000,"state":"active","ping":104},{"user_id":675,"name":"KennytheHedgehog","steam_id":76561198094607721,"connected_time":1461000000000,"state":"active","ping":45},{"user_id":651,"name":"LederBoy","steam_id":76561198051822369,"connected_time":3778000000000,"state":"active","ping":70},{"user_id":698,"name":"münnn","steam_id":76561198111147624,"connected_time":59000000000,"state":"active","ping":61},{"user_id":676,"name":"Profile Name","steam_id":76561198083985586,"connected_time":1437000000000,"state":"active","ping":89},{"user_id":677,"name":"Dr. Webkinz","steam_id":76561198101207200,"connected_time":1418000000000,"state":"active","ping":109},{"user_id":699,"name":"VHSTAPE","steam_id":76561198036560740,"connected_time":36000000000,"state":"spawning","ping":73},{"user_id":700,"name":"Etomb","steam_id":76561198210017208,"connected_time":10000000000,"state":"spawning","ping":165},{"user_id":680,"name":"emaudispiegl13","steam_id":76561199374065051,"connected_time":1382000000000,"state":"active","ping":174},{"user_id":681,"name":"benowpuff","steam_id":76561198140606087,"connected_time":1378000000000,"state":"active","ping":101},{"user_id":697,"name":"Pitch is a Stick","steam_id":76561198800287853,"connected_time":244000000000,"state":"active","ping":114},{"user_id":657,"name":"MithStyck","steam_id":76561198071538489,"connected_time":3022000000000,"state":"active","ping":41},{"user_id":693,"name":"Woomy","steam_id":76561198070242372,"connected_time":924000000000,"state":"active","ping":73},{"user_id":685,"name":"Sgt. Satire","steam_id":76561198104193483,"connected_time":1323000000000,"state":"active","ping":99},{"user_id":686,"name":"Demoslow","steam_id":76561198805592656,"connected_time":1312000000000,"state":"active","ping":98},{"user_id":694,"name":"Pete","steam_id":76561198402131413,"connected_time":919000000000,"state":"active","ping":53},{"user_id":687,"name":"DownwindFish","steam_id":76561199001082183,"connected_time":1288000000000,"state":"active","ping":116}]},{"server_id":108,"name":"Uncletopia | Dallas | 2 | All Maps","name_short":"dal-2","host":"dal-1.us.uncletopia.com","port":27025,"enabled":true,"region":"us-central","cc":"us","latitude":32.779167,"longitude":-96.80889,"reserved":0,"last_update":"0001-01-01T00:00:00Z","name_a2s":"Uncletopia | Dallas | 2 | All Maps","protocol":17,"map":"koth_viaduct","folder":"tf","game":"Team Fortress","app_id":440,"player_count":20,"max_players":24,"Bots":0,"server_type":"Dedicated","server_os":"Linux","password":true,"vac":true,"version":"7932396","steam_id":85568392924469988,"keywords":["cp","nocrits","nodmgspread","uncletopia"],"game_id":440,"stv_port":27026,"stv_name":"Uncletopia | Dallas | 2 | All Maps | STV","players":[{"user_id":539,"name":"BigPimpin","steam_id":76561198119549348,"connected_time":2044000000000,"state":"active","ping":47},{"user_id":565,"name":"joythecat514","steam_id":76561199466073821,"connected_time":725000000000,"state":"active","ping":64},{"user_id":510,"name":"Reisen Udongein Inaba","steam_id":76561198051082314,"connected_time":5864000000000,"state":"active","ping":91},{"user_id":560,"name":"dyyd7706","steam_id":76561199230461523,"connected_time":803000000000,"state":"active","ping":92},{"user_id":516,"name":"SleeplessCollin","steam_id":76561198968140914,"connected_time":4728000000000,"state":"active","ping":61},{"user_id":562,"name":"gromit","steam_id":76561198037746805,"connected_time":794000000000,"state":"active","ping":90},{"user_id":561,"name":"Crowzes","steam_id":76561199122716635,"connected_time":795000000000,"state":"active","ping":93},{"user_id":576,"name":"Fox","steam_id":76561198210081927,"connected_time":92000000000,"state":"active","ping":73},{"user_id":564,"name":"snake oil salesmen","steam_id":76561198083700067,"connected_time":743000000000,"state":"active","ping":90},{"user_id":571,"name":"goooot","steam_id":76561198155591052,"connected_time":615000000000,"state":"active","ping":52},{"user_id":577,"name":"Da Baby","steam_id":76561199025980167,"connected_time":62000000000,"state":"active","ping":72},{"user_id":558,"name":"Can you sign my profile","steam_id":76561198799210771,"connected_time":848000000000,"state":"active","ping":87},{"user_id":575,"name":"Quit your job, become emo goth","steam_id":76561198140531755,"connected_time":180000000000,"state":"active","ping":74},{"user_id":572,"name":"TheVandive","steam_id":76561199014510667,"connected_time":488000000000,"state":"active","ping":142},{"user_id":485,"name":"Spinch","steam_id":76561198296224166,"connected_time":8261000000000,"state":"active","ping":79},{"user_id":573,"name":"cousin boy","steam_id":76561198012955043,"connected_time":432000000000,"state":"active","ping":186},{"user_id":486,"name":"Publo","steam_id":76561198161777140,"connected_time":8259000000000,"state":"active","ping":52},{"user_id":570,"name":"RatLord69","steam_id":76561199116799872,"connected_time":661000000000,"state":"active","ping":84},{"user_id":537,"name":"Panda Loser","steam_id":76561198828745176,"connected_time":2637000000000,"state":"active","ping":94},{"user_id":546,"name":"Woozy","steam_id":76561198008220735,"connected_time":1174000000000,"state":"active","ping":82}]},{"server_id":5,"name":"Uncletopia | Frankfurt | 1 | All Maps","name_short":"frk-1","host":"frk-1.de.uncletopia.com","port":27015,"enabled":true,"region":"eu","cc":"de","latitude":50.110924,"longitude":8.682127,"reserved":0,"last_update":"0001-01-01T00:00:00Z","name_a2s":"Uncletopia | Frankfurt | 1 | All Maps","protocol":17,"map":"pl_swiftwater_final1","folder":"tf","game":"Team Fortress","app_id":440,"player_count":0,"max_players":24,"Bots":0,"server_type":"Dedicated","server_os":"Linux","password":true,"vac":true,"version":"7932396","steam_id":85568392924469989,"keywords":["nocrits","nodmgspread","payload","uncletopia"],"game_id":440,"stv_port":27016,"stv_name":"Uncletopia | Frankfurt | 1 | All Maps | STV","players":null},{"server_id":110,"name":"Uncletopia | Frankfurt | 2 | All Maps","name_short":"frk-2","host":"frk-1.de.uncletopia.com","port":27025,"enabled":true,"region":"eu","cc":"de","latitude":50.110924,"longitude":8.682127,"reserved":0,"last_update":"0001-01-01T00:00:00Z","name_a2s":"Uncletopia | Frankfurt | 2 | All Maps","protocol":17,"map":"pl_snowycoast","folder":"tf","game":"Team Fortress","app_id":440,"player_count":0,"max_players":24,"Bots":0,"server_type":"Dedicated","server_os":"Linux","password":true,"vac":true,"version":"7932396","steam_id":85568392924469990,"keywords":["nocrits","nodmgspread","payload","uncletopia"],"game_id":440,"stv_port":27026,"stv_name":"Uncletopia | Frankfurt | 2 | All Maps | STV","players":null},{"server_id":308,"name":"Uncletopia | Frankfurt | 3 | All Maps","name_short":"frk-3","host":"frk-1.de.uncletopia.com","port":27035,"enabled":true,"region":"eu","cc":"de","latitude":50.110924,"longitude":8.682127,"reserved":0,"last_update":"0001-01-01T00:00:00Z","name_a2s":"Uncletopia | Frankfurt | 3 | All Maps","protocol":17,"map":"cp_sunshine","folder":"tf","game":"Team Fortress","app_id":440,"player_count":0,"max_players":24,"Bots":0,"server_type":"Dedicated","server_os":"Linux","password":true,"vac":true,"version":"7932396","steam_id":85568392924504274,"keywords":["cp","nocrits","nodmgspread","uncletopia"],"game_id":440,"stv_port":27036,"stv_name":"Uncletopia | Frankfurt | 3 | All Maps | STV","players":null},{"server_id":309,"name":"Uncletopia | Frankfurt | 4 | All Maps","name_short":"frk-4","host":"frk-1.de.uncletopia.com","port":27045,"enabled":true,"region":"eu","cc":"de","latitude":50.110924,"longitude":8.682127,"reserved":0,"last_update":"0001-01-01T00:00:00Z","name_a2s":"Uncletopia | Frankfurt | 4 | All Maps","protocol":17,"map":"koth_lakeside_final","folder":"tf","game":"Team Fortress","app_id":440,"player_count":0,"max_players":24,"Bots":0,"server_type":"Dedicated","server_os":"Linux","password":true,"vac":true,"version":"7932396","steam_id":85568392924504275,"keywords":["cp","nocrits","nodmgspread","uncletopia"],"game_id":440,"stv_port":27046,"stv_name":"Uncletopia | Frankfurt | 4 | All Maps | STV","players":null},{"server_id":310,"name":"Uncletopia | Frankfurt | 5 | All Maps","name_short":"frk-5","host":"frk-1.de.uncletopia.com","port":27055,"enabled":true,"region":"eu","cc":"de","latitude":50.110924,"longitude":8.682127,"reserved":0,"last_update":"0001-01-01T00:00:00Z","name_a2s":"Uncletopia | Frankfurt | 5 | All Maps","protocol":17,"map":"pl_swiftwater_final1","folder":"tf","game":"Team Fortress","app_id":440,"player_count":0,"max_players":24,"Bots":0,"server_type":"Dedicated","server_os":"Linux","password":true,"vac":true,"version":"7932396","steam_id":85568392924504277,"keywords":["nocrits","nodmgspread","payload","uncletopia"],"game_id":440,"stv_port":27056,"stv_name":"Uncletopia | Frankfurt | 5 | All Maps | STV","players":null},{"server_id":311,"name":"Uncletopia | Frankfurt | 6 | All Maps","name_short":"frk-6","host":"frk-1.de.uncletopia.com","port":27065,"enabled":true,"region":"eu","cc":"de","latitude":50.110924,"longitude":8.682127,"reserved":0,"last_update":"0001-01-01T00:00:00Z","name_a2s":"Uncletopia | Frankfurt | 6 | All Maps","protocol":17,"map":"pl_badwater","folder":"tf","game":"Team Fortress","app_id":440,"player_count":0,"max_players":24,"Bots":0,"server_type":"Dedicated","server_os":"Linux","password":true,"vac":true,"version":"7932396","steam_id":85568392924504278,"keywords":["nocrits","nodmgspread","payload","uncletopia"],"game_id":440,"stv_port":27066,"stv_name":"Uncletopia | Frankfurt | 6 | All Maps | STV","players":null},{"server_id":23,"name":"Uncletopia | Frankfurt | 7 | Stopwatch Beta","name_short":"frk-7","host":"frk-1.de.uncletopia.com","port":27075,"enabled":true,"region":"eu","cc":"de","latitude":50.110924,"longitude":8.682127,"reserved":0,"last_update":"0001-01-01T00:00:00Z","name_a2s":"Uncletopia | Frankfurt | 7 | Stopwatch Beta","protocol":17,"map":"pl_snowycoast","folder":"tf","game":"Team Fortress","app_id":440,"player_count":0,"max_players":24,"Bots":0,"server_type":"Dedicated","server_os":"Linux","password":true,"vac":true,"version":"7932396","steam_id":85568392924742827,"keywords":["nocrits","nodmgspread","payload","uncletopia"],"game_id":440,"stv_port":27076,"stv_name":"Uncletopia | Frankfurt | 7 | Stopwatch Beta | STV","players":null},{"server_id":24,"name":"Uncletopia | Frankfurt | 8 | Community","name_short":"frk-8","host":"frk-1.de.uncletopia.com","port":27085,"enabled":true,"region":"eu","cc":"de","latitude":50.110924,"longitude":8.682127,"reserved":0,"last_update":"0001-01-01T00:00:00Z","name_a2s":"Uncletopia | Frankfurt | 8 | Community","protocol":17,"map":"workshop/pl_vigil_rc9.ugc1266210012","folder":"tf","game":"Team Fortress","app_id":440,"player_count":1,"max_players":24,"Bots":0,"server_type":"Dedicated","server_os":"Linux","password":true,"vac":true,"version":"7932396","steam_id":85568392924742828,"keywords":["nocrits","nodmgspread","payload","uncletopia"],"game_id":440,"stv_port":27086,"stv_name":"Uncletopia | Frankfurt | 8 | Community | STV","players":[{"user_id":3,"name":"ANGELFISH","steam_id":76561198027536466,"connected_time":846000000000,"state":"active","ping":81}]},{"server_id":202,"name":"Uncletopia | Hong Kong | 1 | All Maps","name_short":"hgk-1","host":"hgk-1.hk.uncletopia.com","port":27015,"enabled":true,"region":"asia","cc":"hk","latitude":22.302711,"longitude":114.177216,"reserved":0,"last_update":"0001-01-01T00:00:00Z","name_a2s":"Uncletopia | Hong Kong | 1 | All Maps","protocol":17,"map":"plr_hightower","folder":"tf","game":"Team Fortress","app_id":440,"player_count":7,"max_players":24,"Bots":0,"server_type":"Dedicated","server_os":"Linux","password":true,"vac":true,"version":"7932396","steam_id":85568392924494504,"keywords":["nocrits","nodmgspread","payload","uncletopia"],"game_id":440,"stv_port":27016,"stv_name":"Uncletopia | Hong Kong | 1 | All Maps | STV","players":[{"user_id":5,"name":"3rwynM","steam_id":76561198288311270,"connected_time":1542000000000,"state":"active","ping":109},{"user_id":12,"name":"screw it","steam_id":76561198188905629,"connected_time":296000000000,"state":"active","ping":62},{"user_id":7,"name":"jarell","steam_id":76561198271534653,"connected_time":1168000000000,"state":"active","ping":54},{"user_id":8,"name":"TheRobot_140","steam_id":76561199107847802,"connected_time":1119000000000,"state":"active","ping":150},{"user_id":9,"name":"GamerGaming14","steam_id":76561199231294382,"connected_time":982000000000,"state":"active","ping":117},{"user_id":11,"name":"kappa","steam_id":76561198060373158,"connected_time":635000000000,"state":"active","ping":88},{"user_id":13,"name":"☁ dink","steam_id":76561198309134502,"connected_time":1000000000,"state":"spawning","ping":82}]},{"server_id":1,"name":"Uncletopia | Los Angeles | 1 | All Maps","name_short":"lax-1","host":"lax-1.us.uncletopia.com","port":27015,"enabled":true,"region":"us-west","cc":"us","latitude":33.94279,"longitude":-118.41004,"reserved":0,"last_update":"0001-01-01T00:00:00Z","name_a2s":"Uncletopia | Los Angeles | 1 | All Maps","protocol":17,"map":"pl_barnblitz","folder":"tf","game":"Team Fortress","app_id":440,"player_count":18,"max_players":24,"Bots":0,"server_type":"Dedicated","server_os":"Linux","password":true,"vac":true,"version":"7932396","steam_id":85568392924469991,"keywords":["nocrits","nodmgspread","payload","uncletopia"],"game_id":440,"stv_port":27016,"stv_name":"Uncletopia | Los Angeles | 1 | All Maps | STV","players":[{"user_id":499,"name":"The Foolish Samurai","steam_id":76561198094494945,"connected_time":1865000000000,"state":"active","ping":73},{"user_id":504,"name":"T _ T","steam_id":76561198041907345,"connected_time":1230000000000,"state":"active","ping":56},{"user_id":492,"name":"blood bath","steam_id":76561199001918194,"connected_time":2149000000000,"state":"active","ping":56},{"user_id":513,"name":"Rareven_Kind","steam_id":76561198274517904,"connected_time":2000000000,"state":"spawning","ping":82},{"user_id":507,"name":"[ G R * T T Y ]","steam_id":76561198048986218,"connected_time":1181000000000,"state":"active","ping":61},{"user_id":505,"name":"Chiaki Nanami","steam_id":76561198164782653,"connected_time":1229000000000,"state":"active","ping":122},{"user_id":457,"name":"Uluyo","steam_id":76561198065857148,"connected_time":3775000000000,"state":"active","ping":66},{"user_id":491,"name":"DarkMewMew","steam_id":76561199471715552,"connected_time":2149000000000,"state":"active","ping":69},{"user_id":510,"name":"CherryPieRed2023","steam_id":76561198998007496,"connected_time":651000000000,"state":"active","ping":75},{"user_id":508,"name":"Moomin","steam_id":76561198072726213,"connected_time":929000000000,"state":"active","ping":43},{"user_id":466,"name":"JACK BRUNO","steam_id":76561198027957690,"connected_time":3520000000000,"state":"active","ping":68},{"user_id":464,"name":"The Soviet Lobster","steam_id":76561198822062399,"connected_time":3680000000000,"state":"active","ping":54},{"user_id":509,"name":"social distance warrior","steam_id":76561198128992994,"connected_time":925000000000,"state":"active","ping":73},{"user_id":502,"name":"Amogous Supreme","steam_id":76561198025476774,"connected_time":1596000000000,"state":"active","ping":70},{"user_id":506,"name":"gerg","steam_id":76561197997127387,"connected_time":1227000000000,"state":"active","ping":58},{"user_id":512,"name":"Darkspiral","steam_id":76561198080807559,"connected_time":147000000000,"state":"active","ping":46},{"user_id":478,"name":"Whisper!","steam_id":76561198119609795,"connected_time":3071000000000,"state":"active","ping":48},{"user_id":354,"name":"californjoe","steam_id":76561197965047795,"connected_time":8577000000000,"state":"active","ping":52}]},{"server_id":112,"name":"Uncletopia | Los Angeles | 2 | All Maps","name_short":"lax-2","host":"lax-1.us.uncletopia.com","port":27025,"enabled":true,"region":"us-west","cc":"us","latitude":33.94279,"longitude":-118.41004,"reserved":0,"last_update":"0001-01-01T00:00:00Z","name_a2s":"Uncletopia | Los Angeles | 2 | All Maps","protocol":17,"map":"pl_upward","folder":"tf","game":"Team Fortress","app_id":440,"player_count":24,"max_players":24,"Bots":0,"server_type":"Dedicated","server_os":"Linux","password":true,"vac":true,"version":"7932396","steam_id":85568392924469992,"keywords":["nocrits","nodmgspread","payload","uncletopia"],"game_id":440,"stv_port":27026,"stv_name":"Uncletopia | Los Angeles | 2 | All Maps | STV","players":[{"user_id":406,"name":"Pro Box","steam_id":76561198035990809,"connected_time":143000000000,"state":"active","ping":176},{"user_id":393,"name":"creepycrawler","steam_id":76561198352016831,"connected_time":637000000000,"state":"active","ping":105},{"user_id":350,"name":"a_lilypup","steam_id":76561198163640324,"connected_time":3148000000000,"state":"active","ping":47},{"user_id":392,"name":"zaza2k","steam_id":76561198393760567,"connected_time":637000000000,"state":"active","ping":48},{"user_id":401,"name":"Jack from Jack in The Box","steam_id":76561199083594971,"connected_time":307000000000,"state":"active","ping":49},{"user_id":402,"name":"Sgt Senpai","steam_id":76561198019394381,"connected_time":300000000000,"state":"active","ping":113},{"user_id":395,"name":"The Benefactor","steam_id":76561198307247913,"connected_time":518000000000,"state":"active","ping":52},{"user_id":386,"name":"Raian","steam_id":76561199138048671,"connected_time":1004000000000,"state":"active","ping":43},{"user_id":407,"name":"moopmop","steam_id":76561198065224965,"connected_time":136000000000,"state":"active","ping":56},{"user_id":404,"name":"God Damn Wookie","steam_id":76561198049274160,"connected_time":223000000000,"state":"active","ping":97},{"user_id":387,"name":"UnusualTofu","steam_id":76561198060103750,"connected_time":933000000000,"state":"active","ping":56},{"user_id":359,"name":"StarGuyVI","steam_id":76561199366304746,"connected_time":3046000000000,"state":"active","ping":108},{"user_id":396,"name":"sleepy","steam_id":76561199008634102,"connected_time":464000000000,"state":"active","ping":87},{"user_id":397,"name":"Brandon_411","steam_id":76561198024522909,"connected_time":440000000000,"state":"active","ping":61},{"user_id":366,"name":"Jokezonyu","steam_id":76561198213167893,"connected_time":2369000000000,"state":"active","ping":68},{"user_id":381,"name":"Adam Levine (Real)","steam_id":76561199199257149,"connected_time":1402000000000,"state":"active","ping":119},{"user_id":375,"name":"Taffy","steam_id":76561198276612538,"connected_time":1497000000000,"state":"active","ping":59},{"user_id":408,"name":"YouCantSpellNutritionW/OutNUT","steam_id":76561198060588059,"connected_time":104000000000,"state":"active","ping":49},{"user_id":399,"name":"I Am Not A Spy","steam_id":76561198041501132,"connected_time":355000000000,"state":"active","ping":100},{"user_id":400,"name":"Artic_Ryuu","steam_id":76561198182194918,"connected_time":338000000000,"state":"active","ping":42},{"user_id":388,"name":"soppy sopster","steam_id":76561198419896433,"connected_time":883000000000,"state":"active","ping":77},{"user_id":403,"name":"Trippy","steam_id":76561199090730294,"connected_time":292000000000,"state":"active","ping":75},{"user_id":373,"name":"Dennis","steam_id":76561198090531755,"connected_time":1678000000000,"state":"active","ping":77},{"user_id":409,"name":"vioxynteris","steam_id":76561198161428666,"connected_time":99000000000,"state":"active","ping":35}]},{"server_id":324,"name":"Uncletopia | Los Angeles | 3 | All Maps","name_short":"lax-3","host":"lax-1.us.uncletopia.com","port":27035,"enabled":true,"region":"us-west","cc":"us","latitude":33.94279,"longitude":-118.41004,"reserved":0,"last_update":"0001-01-01T00:00:00Z","name_a2s":"Uncletopia | Los Angeles | 3 | All Maps","protocol":17,"map":"cp_mountainlab","folder":"tf","game":"Team Fortress","app_id":440,"player_count":0,"max_players":24,"Bots":0,"server_type":"Dedicated","server_os":"Linux","password":true,"vac":true,"version":"7932396","steam_id":85568392924510198,"keywords":["cp","nocrits","nodmgspread","uncletopia"],"game_id":440,"stv_port":27036,"stv_name":"Uncletopia | Los Angeles | 3 | All Maps | STV","players":null},{"server_id":25,"name":"Uncletopia | Los Angeles | 4 | Stopwatch Beta","name_short":"lax-4","host":"lax-1.us.uncletopia.com","port":27045,"enabled":true,"region":"us-west","cc":"us","latitude":33.94279,"longitude":-118.41004,"reserved":0,"last_update":"0001-01-01T00:00:00Z","name_a2s":"Uncletopia | Los Angeles | 4 | Stopwatch Beta","protocol":17,"map":"pl_swiftwater_final1","folder":"tf","game":"Team Fortress","app_id":440,"player_count":0,"max_players":24,"Bots":0,"server_type":"Dedicated","server_os":"Linux","password":true,"vac":true,"version":"7932396","steam_id":85568392924510199,"keywords":["nocrits","nodmgspread","payload","uncletopia"],"game_id":440,"stv_port":27046,"stv_name":"Uncletopia | Los Angeles | 4 | Stopwatch Beta | STV","players":null},{"server_id":11,"name":"Uncletopia | London | 1 | All Maps","name_short":"lon-1","host":"lon-1.uk.uncletopia.com","port":27015,"enabled":true,"region":"eu","cc":"gb","latitude":51.509865,"longitude":-0.118092,"reserved":0,"last_update":"0001-01-01T00:00:00Z","name_a2s":"Uncletopia | London | 1 | All Maps","protocol":17,"map":"koth_viaduct","folder":"tf","game":"Team Fortress","app_id":440,"player_count":0,"max_players":24,"Bots":0,"server_type":"Dedicated","server_os":"Linux","password":true,"vac":true,"version":"7932396","steam_id":85568392924367362,"keywords":["cp","nocrits","nodmgspread","uncletopia"],"game_id":440,"stv_port":27016,"stv_name":"Uncletopia | London | 1 | All Maps | STV","players":null},{"server_id":114,"name":"Uncletopia | London | 2 | All Maps","name_short":"lon-2","host":"lon-1.uk.uncletopia.com","port":27025,"enabled":true,"region":"eu","cc":"gb","latitude":51.509865,"longitude":-0.118092,"reserved":0,"last_update":"0001-01-01T00:00:00Z","name_a2s":"Uncletopia | London | 2 | All Maps","protocol":17,"map":"cp_sunshine","folder":"tf","game":"Team Fortress","app_id":440,"player_count":0,"max_players":24,"Bots":0,"server_type":"Dedicated","server_os":"Linux","password":true,"vac":true,"version":"7932396","steam_id":85568392924470941,"keywords":["cp","nocrits","nodmgspread","uncletopia"],"game_id":440,"stv_port":27026,"stv_name":"Uncletopia | London | 2 | All Maps | STV","players":null},{"server_id":320,"name":"Uncletopia | London | 3 | All Maps","name_short":"lon-3","host":"lon-1.uk.uncletopia.com","port":27035,"enabled":true,"region":"eu","cc":"gb","latitude":51.509865,"longitude":-0.118092,"reserved":0,"last_update":"0001-01-01T00:00:00Z","name_a2s":"Uncletopia | London | 3 | All Maps","protocol":17,"map":"pl_frontier_final","folder":"tf","game":"Team Fortress","app_id":440,"player_count":0,"max_players":24,"Bots":0,"server_type":"Dedicated","server_os":"Linux","password":true,"vac":true,"version":"7932396","steam_id":85568392924510192,"keywords":["nocrits","nodmgspread","payload","uncletopia"],"game_id":440,"stv_port":27036,"stv_name":"Uncletopia | London | 3 | All Maps | STV","players":null},{"server_id":321,"name":"Uncletopia | London | 4 | All Maps","name_short":"lon-4","host":"lon-1.uk.uncletopia.com","port":27045,"enabled":true,"region":"eu","cc":"gb","latitude":51.509865,"longitude":-0.118092,"reserved":0,"last_update":"0001-01-01T00:00:00Z","name_a2s":"Uncletopia | London | 4 | All Maps","protocol":17,"map":"pl_snowycoast","folder":"tf","game":"Team Fortress","app_id":440,"player_count":0,"max_players":24,"Bots":0,"server_type":"Dedicated","server_os":"Linux","password":true,"vac":true,"version":"7932396","steam_id":85568392924510193,"keywords":["nocrits","nodmgspread","payload","uncletopia"],"game_id":440,"stv_port":27046,"stv_name":"Uncletopia | London | 4 | All Maps | STV","players":null},{"server_id":21,"name":"Uncletopia | London | 5 | All Maps","name_short":"lon-5","host":"lon-1.uk.uncletopia.com","port":27055,"enabled":true,"region":"eu","cc":"gb","latitude":51.509865,"longitude":-0.118092,"reserved":0,"last_update":"0001-01-01T00:00:00Z","name_a2s":"Uncletopia | London | 5 | All Maps","protocol":17,"map":"cp_altitude","folder":"tf","game":"Team Fortress","app_id":440,"player_count":0,"max_players":24,"Bots":0,"server_type":"Dedicated","server_os":"Linux","password":true,"vac":true,"version":"7932396","steam_id":85568392924742829,"keywords":["cp","nocrits","nodmgspread","uncletopia"],"game_id":440,"stv_port":27056,"stv_name":"Uncletopia | London | 5 | All Maps | STV","players":null},{"server_id":22,"name":"Uncletopia | London | 6 | All Maps","name_short":"lon-6","host":"lon-1.uk.uncletopia.com","port":27065,"enabled":true,"region":"eu","cc":"gb","latitude":51.509865,"longitude":-0.118092,"reserved":0,"last_update":"0001-01-01T00:00:00Z","name_a2s":"Uncletopia | London | 6 | All Maps","protocol":17,"map":"cp_mountainlab","folder":"tf","game":"Team Fortress","app_id":440,"player_count":0,"max_players":24,"Bots":0,"server_type":"Dedicated","server_os":"Linux","password":true,"vac":true,"version":"7932396","steam_id":85568392924742830,"keywords":["cp","nocrits","nodmgspread","uncletopia"],"game_id":440,"stv_port":27066,"stv_name":"Uncletopia | London | 6 | All Maps | STV","players":null},{"server_id":40,"name":"Uncletopia | London | 7 | No Payload","name_short":"lon-7","host":"lon-1.uk.uncletopia.com","port":27075,"enabled":true,"region":"eu","cc":"gb","latitude":51.509865,"longitude":-0.118092,"reserved":0,"last_update":"0001-01-01T00:00:00Z","name_a2s":"Uncletopia | London | 7 | No Payload","protocol":17,"map":"koth_cascade","folder":"tf","game":"Team Fortress","app_id":440,"player_count":0,"max_players":24,"Bots":0,"server_type":"Dedicated","server_os":"Linux","password":true,"vac":true,"version":"7932396","steam_id":85568392924964314,"keywords":["cp","nocrits","nodmgspread","uncletopia"],"game_id":440,"stv_port":27076,"stv_name":"Uncletopia | London | 7 | No Payload | STV","players":null},{"server_id":41,"name":"Uncletopia | London | 8 | Community","name_short":"lon-8","host":"lon-1.uk.uncletopia.com","port":27085,"enabled":true,"region":"eu","cc":"gb","latitude":51.509865,"longitude":-0.118092,"reserved":0,"last_update":"0001-01-01T00:00:00Z","name_a2s":"Uncletopia | London | 8 | Community","protocol":17,"map":"cp_process_final","folder":"tf","game":"Team Fortress","app_id":440,"player_count":0,"max_players":24,"Bots":0,"server_type":"Dedicated","server_os":"Linux","password":true,"vac":true,"version":"7932396","steam_id":85568392924964315,"keywords":["cp","nocrits","nodmgspread","uncletopia"],"game_id":440,"stv_port":27086,"stv_name":"Uncletopia | London | 8 | Community | STV","players":null},{"server_id":300,"name":"Uncletopia | Montréal | 1 | All Maps","name_short":"mtl-1","host":"mtl-1.ca.uncletopia.com","port":27015,"enabled":true,"region":"us-east","cc":"ca","latitude":45.50889,"longitude":-73.56167,"reserved":0,"last_update":"0001-01-01T00:00:00Z","name_a2s":"Uncletopia | Montréal | 1 | All Maps","protocol":17,"map":"pl_upward","folder":"tf","game":"Team Fortress","app_id":440,"player_count":0,"max_players":24,"Bots":0,"server_type":"Dedicated","server_os":"Linux","password":true,"vac":true,"version":"7932396","steam_id":85568392924500087,"keywords":["nocrits","nodmgspread","payload","uncletopia"],"game_id":440,"stv_port":27016,"stv_name":"Uncletopia | Montréal | 1 | All Maps | STV","players":null},{"server_id":301,"name":"Uncletopia | Montréal | 2 | All Maps","name_short":"mtl-2","host":"mtl-1.ca.uncletopia.com","port":27025,"enabled":true,"region":"us-east","cc":"ca","latitude":45.50889,"longitude":-73.56167,"reserved":0,"last_update":"0001-01-01T00:00:00Z","name_a2s":"Uncletopia | Montréal | 2 | All Maps","protocol":17,"map":"koth_highpass","folder":"tf","game":"Team Fortress","app_id":440,"player_count":0,"max_players":24,"Bots":0,"server_type":"Dedicated","server_os":"Linux","password":true,"vac":true,"version":"7932396","steam_id":85568392924500088,"keywords":["cp","nocrits","nodmgspread","uncletopia"],"game_id":440,"stv_port":27026,"stv_name":"Uncletopia | Montréal | 2 | All Maps | STV","players":null},{"server_id":302,"name":"Uncletopia | Montréal | 3 | All Maps","name_short":"mtl-3","host":"mtl-1.ca.uncletopia.com","port":27035,"enabled":true,"region":"us-east","cc":"ca","latitude":45.50889,"longitude":-73.56167,"reserved":0,"last_update":"0001-01-01T00:00:00Z","name_a2s":"Uncletopia | Montréal | 3 | All Maps","protocol":17,"map":"koth_lakeside_final","folder":"tf","game":"Team Fortress","app_id":440,"player_count":0,"max_players":24,"Bots":0,"server_type":"Dedicated","server_os":"Linux","password":true,"vac":true,"version":"7932396","steam_id":85568392924500089,"keywords":["cp","nocrits","nodmgspread","uncletopia"],"game_id":440,"stv_port":27036,"stv_name":"Uncletopia | Montréal | 3 | All Maps | STV","players":null},{"server_id":303,"name":"Uncletopia | Montréal | 4 | No Payload","name_short":"mtl-4","host":"mtl-1.ca.uncletopia.com","port":27045,"enabled":true,"region":"us-east","cc":"ca","latitude":45.50889,"longitude":-73.56167,"reserved":0,"last_update":"0001-01-01T00:00:00Z","name_a2s":"Uncletopia | Montréal | 4 | No Payload","protocol":17,"map":"cp_gullywash_final1","folder":"tf","game":"Team Fortress","app_id":440,"player_count":0,"max_players":24,"Bots":0,"server_type":"Dedicated","server_os":"Linux","password":true,"vac":true,"version":"7932396","steam_id":85568392924500090,"keywords":["cp","nocrits","nodmgspread","uncletopia"],"game_id":440,"stv_port":27046,"stv_name":"Uncletopia | Montréal | 4 | No Payload | STV","players":null},{"server_id":13,"name":"Uncletopia | New York City | 1 | All Maps","name_short":"nyc-1","host":"nyc-1.us.uncletopia.com","port":27015,"enabled":true,"region":"us-east","cc":"us","latitude":40.73061,"longitude":-73.93524,"reserved":0,"last_update":"0001-01-01T00:00:00Z","name_a2s":"Uncletopia | New York City | 1 | All Maps","protocol":17,"map":"pl_badwater","folder":"tf","game":"Team Fortress","app_id":440,"player_count":24,"max_players":24,"Bots":0,"server_type":"Dedicated","server_os":"Linux","password":true,"vac":true,"version":"7932396","steam_id":85568392924469993,"keywords":["nocrits","nodmgspread","payload","uncletopia"],"game_id":440,"stv_port":27016,"stv_name":"Uncletopia | New York City | 1 | All Maps | STV","players":[{"user_id":356,"name":"for the king","steam_id":76561197973488858,"connected_time":1837000000000,"state":"active","ping":47},{"user_id":365,"name":"Quirinus","steam_id":76561198011516889,"connected_time":1211000000000,"state":"active","ping":61},{"user_id":338,"name":"Meh","steam_id":76561198078187920,"connected_time":2851000000000,"state":"active","ping":95},{"user_id":357,"name":"SomeRandomMail","steam_id":76561199002913110,"connected_time":1816000000000,"state":"active","ping":110},{"user_id":368,"name":"Kingpin","steam_id":76561198362916241,"connected_time":867000000000,"state":"active","ping":75},{"user_id":369,"name":"St. Michael","steam_id":76561198037611052,"connected_time":834000000000,"state":"active","ping":71},{"user_id":340,"name":"hashmap","steam_id":76561198043794014,"connected_time":2689000000000,"state":"active","ping":61},{"user_id":370,"name":"good job!","steam_id":76561198102681457,"connected_time":698000000000,"state":"active","ping":87},{"user_id":381,"name":"Gentoo Linux Gaming","steam_id":76561197999657118,"connected_time":100000000000,"state":"active","ping":67},{"user_id":366,"name":"Ludde Flor","steam_id":76561198374707938,"connected_time":1178000000000,"state":"active","ping":151},{"user_id":371,"name":"JUST ONE PEPSI","steam_id":76561198084334538,"connected_time":695000000000,"state":"active","ping":58},{"user_id":351,"name":"mendokusai","steam_id":76561197965022076,"connected_time":2221000000000,"state":"active","ping":53},{"user_id":359,"name":"Pho","steam_id":76561198306515742,"connected_time":1801000000000,"state":"active","ping":122},{"user_id":382,"name":"self sufficient kitten","steam_id":76561197960592612,"connected_time":10000000000,"state":"active","ping":124},{"user_id":372,"name":"Walmart Employee","steam_id":76561198840373909,"connected_time":678000000000,"state":"active","ping":102},{"user_id":373,"name":"Bird of Paradise","steam_id":76561198891152046,"connected_time":663000000000,"state":"active","ping":97},{"user_id":379,"name":"Buck","steam_id":76561198064244796,"connected_time":224000000000,"state":"active","ping":57},{"user_id":313,"name":"concrete_car","steam_id":76561198388207363,"connected_time":4177000000000,"state":"active","ping":67},{"user_id":326,"name":"Average Caber Fan","steam_id":76561199451299044,"connected_time":3691000000000,"state":"active","ping":87},{"user_id":328,"name":"Miami \"The Cunnysseur\" Zeal","steam_id":76561198124558226,"connected_time":3647000000000,"state":"active","ping":121},{"user_id":335,"name":"Virtual Zorua","steam_id":76561198196180302,"connected_time":3278000000000,"state":"active","ping":62},{"user_id":362,"name":"jim awesome","steam_id":76561198337486020,"connected_time":1735000000000,"state":"active","ping":123},{"user_id":375,"name":"incredirocks","steam_id":76561198061079993,"connected_time":576000000000,"state":"active","ping":63},{"user_id":376,"name":"Wild Boy","steam_id":76561198202279348,"connected_time":487000000000,"state":"active","ping":85}]},{"server_id":14,"name":"Uncletopia | New York City | 2 | All Maps","name_short":"nyc-2","host":"nyc-1.us.uncletopia.com","port":27025,"enabled":true,"region":"us-east","cc":"us","latitude":40.73061,"longitude":-73.93524,"reserved":0,"last_update":"0001-01-01T00:00:00Z","name_a2s":"Uncletopia | New York City | 2 | All Maps","protocol":17,"map":"pl_borneo","folder":"tf","game":"Team Fortress","app_id":440,"player_count":11,"max_players":24,"Bots":0,"server_type":"Dedicated","server_os":"Linux","password":true,"vac":true,"version":"7932396","steam_id":85568392924469994,"keywords":["nocrits","nodmgspread","payload","uncletopia"],"game_id":440,"stv_port":27026,"stv_name":"Uncletopia | New York City | 2 | All Maps | STV","players":[{"user_id":205,"name":"obamascout","steam_id":76561199073972797,"connected_time":2141000000000,"state":"active","ping":116},{"user_id":219,"name":"Nica's Dream","steam_id":76561198028617381,"connected_time":34000000000,"state":"active","ping":62},{"user_id":216,"name":"Zirael","steam_id":76561198057143358,"connected_time":996000000000,"state":"active","ping":63},{"user_id":183,"name":"SHADY SWEATER SALESMAN","steam_id":76561198014616865,"connected_time":4148000000000,"state":"active","ping":41},{"user_id":196,"name":"feel alive","steam_id":76561198173047169,"connected_time":3360000000000,"state":"active","ping":40},{"user_id":210,"name":"crackedpulsa","steam_id":76561198079621240,"connected_time":1814000000000,"state":"active","ping":73},{"user_id":215,"name":"The Blind People","steam_id":76561198008387855,"connected_time":1201000000000,"state":"active","ping":44},{"user_id":211,"name":"Weary","steam_id":76561198145767546,"connected_time":1785000000000,"state":"active","ping":69},{"user_id":187,"name":"penis balls irl","steam_id":76561198301585642,"connected_time":3835000000000,"state":"active","ping":46},{"user_id":155,"name":"Valkyrie","steam_id":76561198998403448,"connected_time":5732000000000,"state":"active","ping":164},{"user_id":180,"name":"Frog","steam_id":76561198170199881,"connected_time":4480000000000,"state":"active","ping":70}]},{"server_id":15,"name":"Uncletopia | New York City | 3 | Stopwatch Beta","name_short":"nyc-3","host":"nyc-1.us.uncletopia.com","port":27035,"enabled":true,"region":"us-east","cc":"us","latitude":40.73061,"longitude":-73.93524,"reserved":0,"last_update":"0001-01-01T00:00:00Z","name_a2s":"Uncletopia | New York City | 3 | Stopwatch Beta","protocol":17,"map":"workshop/koth_product_final.ugc454272353","folder":"tf","game":"Team Fortress","app_id":440,"player_count":0,"max_players":24,"Bots":0,"server_type":"Dedicated","server_os":"Linux","password":true,"vac":true,"version":"7932396","steam_id":85568392924742820,"keywords":["cp","nocrits","nodmgspread","uncletopia"],"game_id":440,"stv_port":27036,"stv_name":"Uncletopia | New York City | 3 | Stopwatch Beta | STV","players":null},{"server_id":16,"name":"Uncletopia | New York City | 4 | Community","name_short":"nyc-4","host":"nyc-1.us.uncletopia.com","port":27045,"enabled":true,"region":"us-east","cc":"us","latitude":40.73061,"longitude":-73.93524,"reserved":0,"last_update":"0001-01-01T00:00:00Z","name_a2s":"Uncletopia | New York City | 4 | Community","protocol":17,"map":"workshop/pl_emerge_rc2.ugc888027758","folder":"tf","game":"Team Fortress","app_id":440,"player_count":0,"max_players":24,"Bots":0,"server_type":"Dedicated","server_os":"Linux","password":true,"vac":true,"version":"7932396","steam_id":85568392924742821,"keywords":["nocrits","nodmgspread","payload","uncletopia"],"game_id":440,"stv_port":27046,"stv_name":"Uncletopia | New York City | 4 | Community | STV","players":null},{"server_id":142,"name":"Uncletopia | São Paulo | 1 | All Maps","name_short":"sao-1","host":"sao-1.br.uncletopia.com","port":27015,"enabled":true,"region":"sa","cc":"br","latitude":-23.533773,"longitude":-46.62529,"reserved":0,"last_update":"0001-01-01T00:00:00Z","name_a2s":"Uncletopia | São Paulo | 1 | All Maps","protocol":17,"map":"koth_lakeside_final","folder":"tf","game":"Team Fortress","app_id":440,"player_count":0,"max_players":24,"Bots":0,"server_type":"Dedicated","server_os":"Linux","password":true,"vac":true,"version":"7932396","steam_id":85568392924469996,"keywords":["cp","nocrits","nodmgspread","uncletopia"],"game_id":440,"stv_port":27016,"stv_name":"Uncletopia | São Paulo | 1 | All Maps | STV","players":null},{"server_id":143,"name":"Uncletopia | São Paulo | 2 | All Maps","name_short":"sao-2","host":"sao-2.br.uncletopia.com","port":27015,"enabled":true,"region":"sa","cc":"br","latitude":-23.533773,"longitude":-46.62529,"reserved":0,"last_update":"0001-01-01T00:00:00Z","name_a2s":"Uncletopia | São Paulo | 2 | All Maps","protocol":17,"map":"plr_nightfall_final","folder":"tf","game":"Team Fortress","app_id":440,"player_count":0,"max_players":24,"Bots":0,"server_type":"Dedicated","server_os":"Linux","password":true,"vac":true,"version":"7932396","steam_id":85568392924485349,"keywords":["nocrits","nodmgspread","payload","uncletopia"],"game_id":440,"stv_port":27016,"stv_name":"Uncletopia | São Paulo | 2 | All Maps | STV","players":null},{"server_id":7,"name":"Uncletopia | Seattle | 1 | All Maps","name_short":"sea-1","host":"sea-1.us.uncletopia.com","port":27015,"enabled":true,"region":"us-west","cc":"us","latitude":47.608013,"longitude":-122.33517,"reserved":0,"last_update":"0001-01-01T00:00:00Z","name_a2s":"Uncletopia | Seattle | 1 | All Maps","protocol":17,"map":"pl_borneo","folder":"tf","game":"Team Fortress","app_id":440,"player_count":24,"max_players":24,"Bots":0,"server_type":"Dedicated","server_os":"Linux","password":true,"vac":true,"version":"7932396","steam_id":85568392924469997,"keywords":["nocrits","nodmgspread","payload","uncletopia"],"game_id":440,"stv_port":27016,"stv_name":"Uncletopia | Seattle | 1 | All Maps | STV","players":[{"user_id":446,"name":"The Dick Drainer","steam_id":76561198887041407,"connected_time":396000000000,"state":"active","ping":83},{"user_id":447,"name":"Chocc-_-","steam_id":76561198068070211,"connected_time":318000000000,"state":"active","ping":85},{"user_id":391,"name":"lili","steam_id":76561199391478575,"connected_time":6203000000000,"state":"active","ping":67},{"user_id":370,"name":"NEBULA","steam_id":76561198086878595,"connected_time":8003000000000,"state":"active","ping":72},{"user_id":438,"name":"quaq","steam_id":76561198059604047,"connected_time":1679000000000,"state":"active","ping":34},{"user_id":431,"name":"goldhed","steam_id":76561198051751133,"connected_time":2338000000000,"state":"active","ping":57},{"user_id":445,"name":"Drapph","steam_id":76561199384213314,"connected_time":786000000000,"state":"active","ping":122},{"user_id":441,"name":"lavender","steam_id":76561199069518286,"connected_time":1142000000000,"state":"active","ping":72},{"user_id":430,"name":"mega","steam_id":76561198089520959,"connected_time":2468000000000,"state":"active","ping":115},{"user_id":408,"name":"Arsonist Goose","steam_id":76561198147441830,"connected_time":4485000000000,"state":"active","ping":70},{"user_id":357,"name":"oo","steam_id":76561198119626492,"connected_time":8712000000000,"state":"active","ping":84},{"user_id":437,"name":"Dcoyotzi","steam_id":76561199124707627,"connected_time":1900000000000,"state":"active","ping":81},{"user_id":444,"name":"femmefatale","steam_id":76561198083749380,"connected_time":1056000000000,"state":"active","ping":51},{"user_id":426,"name":"rat gets the cheese","steam_id":76561198031234032,"connected_time":2594000000000,"state":"active","ping":90},{"user_id":439,"name":"g h o s t","steam_id":76561198061341744,"connected_time":1274000000000,"state":"active","ping":77},{"user_id":409,"name":"oil","steam_id":76561198099980149,"connected_time":4484000000000,"state":"active","ping":74},{"user_id":436,"name":"gorlab","steam_id":76561198025089694,"connected_time":1929000000000,"state":"active","ping":63},{"user_id":432,"name":"lusty","steam_id":76561198138478947,"connected_time":2333000000000,"state":"active","ping":43},{"user_id":433,"name":"lil uzi squirt","steam_id":76561198045926594,"connected_time":2311000000000,"state":"active","ping":84},{"user_id":384,"name":"Twitch.tv/Jinx_VM","steam_id":76561198280150602,"connected_time":6834000000000,"state":"active","ping":57},{"user_id":434,"name":"jorts","steam_id":76561199041179985,"connected_time":2138000000000,"state":"active","ping":50},{"user_id":440,"name":"Ducks","steam_id":76561198130038345,"connected_time":1274000000000,"state":"active","ping":71},{"user_id":393,"name":"smeasly","steam_id":76561198028718812,"connected_time":6202000000000,"state":"active","ping":41},{"user_id":415,"name":"rorywashere /ᐠ - ˕ -マ Ⳋ","steam_id":76561198065825165,"connected_time":4389000000000,"state":"active","ping":99}]},{"server_id":119,"name":"Uncletopia | Seattle | 2 | All Maps","name_short":"sea-2","host":"sea-1.us.uncletopia.com","port":27025,"enabled":true,"region":"us-west","cc":"us","latitude":47.608013,"longitude":-122.33517,"reserved":0,"last_update":"0001-01-01T00:00:00Z","name_a2s":"Uncletopia | Seattle | 2 | All Maps","protocol":17,"map":"pl_pier","folder":"tf","game":"Team Fortress","app_id":440,"player_count":24,"max_players":24,"Bots":0,"server_type":"Dedicated","server_os":"Linux","password":true,"vac":true,"version":"7932396","steam_id":85568392924469998,"keywords":["nocrits","nodmgspread","payload","uncletopia"],"game_id":440,"stv_port":27026,"stv_name":"Uncletopia | Seattle | 2 | All Maps | STV","players":[{"user_id":518,"name":"rad killl raccoon","steam_id":76561198980975595,"connected_time":1063000000000,"state":"active","ping":64},{"user_id":528,"name":"Mikey Decoy","steam_id":76561198070496601,"connected_time":456000000000,"state":"active","ping":44},{"user_id":500,"name":"SvicidalBug","steam_id":76561198221390504,"connected_time":2581000000000,"state":"active","ping":66},{"user_id":475,"name":"Facepalm","steam_id":76561198001935226,"connected_time":3517000000000,"state":"active","ping":74},{"user_id":519,"name":"Layne Backindacutt","steam_id":76561198025020072,"connected_time":1011000000000,"state":"active","ping":58},{"user_id":520,"name":"TricKstA","steam_id":76561197988143298,"connected_time":977000000000,"state":"active","ping":55},{"user_id":521,"name":"Zorlovo","steam_id":76561198006443283,"connected_time":960000000000,"state":"active","ping":97},{"user_id":524,"name":"BuncusBeffer","steam_id":76561198285936616,"connected_time":806000000000,"state":"active","ping":81},{"user_id":486,"name":"Pancake Lizard","steam_id":76561198057311158,"connected_time":2893000000000,"state":"active","ping":46},{"user_id":488,"name":"Hepl","steam_id":76561198069481135,"connected_time":2859000000000,"state":"active","ping":63},{"user_id":490,"name":"CurryWeek","steam_id":76561198050890046,"connected_time":2819000000000,"state":"active","ping":48},{"user_id":509,"name":"R.Y.","steam_id":76561199384459715,"connected_time":2357000000000,"state":"active","ping":114},{"user_id":522,"name":"Mr. Carfox","steam_id":76561198041664428,"connected_time":946000000000,"state":"active","ping":66},{"user_id":492,"name":"moneymoneyganggang464","steam_id":76561199228490429,"connected_time":2771000000000,"state":"active","ping":90},{"user_id":493,"name":"FluffiestTail (She/Her)","steam_id":76561198061209061,"connected_time":2753000000000,"state":"active","ping":56},{"user_id":501,"name":"Dreamzapp","steam_id":76561199084936632,"connected_time":2547000000000,"state":"active","ping":102},{"user_id":495,"name":"motherfucker 2.0","steam_id":76561198141189209,"connected_time":2735000000000,"state":"active","ping":105},{"user_id":527,"name":"SAP","steam_id":76561198005186905,"connected_time":581000000000,"state":"active","ping":63},{"user_id":502,"name":":3","steam_id":76561198909415646,"connected_time":2519000000000,"state":"active","ping":76},{"user_id":507,"name":"Branz","steam_id":76561198076632143,"connected_time":2454000000000,"state":"active","ping":93},{"user_id":505,"name":"Clumsy","steam_id":76561198056345245,"connected_time":2495000000000,"state":"active","ping":119},{"user_id":515,"name":"bishiro","steam_id":76561198129564488,"connected_time":1928000000000,"state":"active","ping":59},{"user_id":529,"name":"Mr. Baseball","steam_id":76561198112635823,"connected_time":236000000000,"state":"active","ping":62},{"user_id":526,"name":"spiderland","steam_id":76561198335992132,"connected_time":740000000000,"state":"active","ping":56}]},{"server_id":406,"name":"Uncletopia | Seattle | 3 | Stopwatch Beta","name_short":"sea-3","host":"sea-1.us.uncletopia.com","port":27035,"enabled":true,"region":"us-west","cc":"us","latitude":47.608013,"longitude":-122.33517,"reserved":0,"last_update":"0001-01-01T00:00:00Z","name_a2s":"Uncletopia | Seattle | 3 | Stopwatch Beta","protocol":17,"map":"workshop/koth_product_final.ugc454272353","folder":"tf","game":"Team Fortress","app_id":440,"player_count":6,"max_players":24,"Bots":0,"server_type":"Dedicated","server_os":"Linux","password":true,"vac":true,"version":"7932396","steam_id":85568392924515217,"keywords":["cp","nocrits","nodmgspread","uncletopia"],"game_id":440,"stv_port":27036,"stv_name":"Uncletopia | Seattle | 3 | Stopwatch Beta | STV","players":[{"user_id":418,"name":"Elite_Friendly","steam_id":76561198819972127,"connected_time":993000000000,"state":"active","ping":60},{"user_id":397,"name":"sadie poppet","steam_id":76561197990818183,"connected_time":2332000000000,"state":"active","ping":40},{"user_id":420,"name":"Tripll-L","steam_id":76561197998077437,"connected_time":645000000000,"state":"active","ping":60},{"user_id":342,"name":"Chronic Bad At Game Disease","steam_id":76561198179387139,"connected_time":5592000000000,"state":"active","ping":60},{"user_id":390,"name":"IonicMist","steam_id":76561198047105563,"connected_time":2888000000000,"state":"active","ping":60},{"user_id":313,"name":"Raptor Jesus","steam_id":76561198078664132,"connected_time":7781000000000,"state":"active","ping":42}]},{"server_id":17,"name":"Uncletopia | San Francisco | 1 | All Maps","name_short":"sfo-1","host":"sfo-1.us.uncletopia.com","port":27015,"enabled":true,"region":"us-west","cc":"us","latitude":37.77397,"longitude":-122.4313,"reserved":0,"last_update":"0001-01-01T00:00:00Z","name_a2s":"Uncletopia | San Francisco | 1 | All Maps","protocol":17,"map":"pl_swiftwater_final1","folder":"tf","game":"Team Fortress","app_id":440,"player_count":0,"max_players":24,"Bots":0,"server_type":"Dedicated","server_os":"Linux","password":true,"vac":true,"version":"7932396","steam_id":85568392924469999,"keywords":["nocrits","nodmgspread","payload","uncletopia"],"game_id":440,"stv_port":27016,"stv_name":"Uncletopia | San Francisco | 1 | All Maps | STV","players":null},{"server_id":18,"name":"Uncletopia | San Francisco | 2 | All Maps","name_short":"sfo-2","host":"sfo-1.us.uncletopia.com","port":27025,"enabled":true,"region":"us-west","cc":"us","latitude":37.77397,"longitude":-122.4313,"reserved":0,"last_update":"0001-01-01T00:00:00Z","name_a2s":"Uncletopia | San Francisco | 2 | All Maps","protocol":17,"map":"cp_dustbowl","folder":"tf","game":"Team Fortress","app_id":440,"player_count":20,"max_players":24,"Bots":0,"server_type":"Dedicated","server_os":"Linux","password":true,"vac":true,"version":"7932396","steam_id":85568392924470000,"keywords":["cp","nocrits","nodmgspread","uncletopia"],"game_id":440,"stv_port":27026,"stv_name":"Uncletopia | San Francisco | 2 | All Maps | STV","players":[{"user_id":196,"name":"Pheesh","steam_id":76561199227830838,"connected_time":1712000000000,"state":"active","ping":76},{"user_id":200,"name":"Zizen","steam_id":76561199011832069,"connected_time":1459000000000,"state":"active","ping":54},{"user_id":202,"name":"E P H E M E R A L","steam_id":76561198128614882,"connected_time":1196000000000,"state":"active","ping":99},{"user_id":193,"name":"Shamrock Shake Oct.10.2020 @8pm","steam_id":76561198833313201,"connected_time":1834000000000,"state":"active","ping":68},{"user_id":215,"name":"Team Fartpiss Poo","steam_id":76561199163591880,"connected_time":449000000000,"state":"active","ping":128},{"user_id":208,"name":"There is a hot muffler up my as","steam_id":76561198213863907,"connected_time":734000000000,"state":"active","ping":106},{"user_id":204,"name":"ImmuneToPeas","steam_id":76561198342411594,"connected_time":1063000000000,"state":"active","ping":65},{"user_id":205,"name":"riSygneD","steam_id":76561198331618687,"connected_time":978000000000,"state":"active","ping":45},{"user_id":214,"name":"Scrampled Aigs","steam_id":76561198014526583,"connected_time":499000000000,"state":"active","ping":104},{"user_id":211,"name":"lol","steam_id":76561198026491738,"connected_time":606000000000,"state":"active","ping":60},{"user_id":176,"name":"BIGGS","steam_id":76561198057399996,"connected_time":3410000000000,"state":"active","ping":59},{"user_id":212,"name":"MegaBron James","steam_id":76561198066091050,"connected_time":564000000000,"state":"active","ping":68},{"user_id":213,"name":"juicyfruit3319","steam_id":76561199125945183,"connected_time":561000000000,"state":"active","ping":73},{"user_id":216,"name":"Vandhoming","steam_id":76561198183775386,"connected_time":445000000000,"state":"active","ping":96},{"user_id":217,"name":"Artyom","steam_id":76561198152149679,"connected_time":433000000000,"state":"active","ping":59},{"user_id":151,"name":"BrightOrangeMango","steam_id":76561198023144607,"connected_time":5276000000000,"state":"active","ping":70},{"user_id":218,"name":"Surprise Garlic Bread Party","steam_id":76561197995246546,"connected_time":384000000000,"state":"active","ping":56},{"user_id":219,"name":"boof","steam_id":76561198053901968,"connected_time":270000000000,"state":"active","ping":100},{"user_id":220,"name":"HanakoToast","steam_id":76561198045233131,"connected_time":198000000000,"state":"active","ping":73},{"user_id":187,"name":"nori_420","steam_id":76561199117134203,"connected_time":2860000000000,"state":"active","ping":63}]},{"server_id":19,"name":"Uncletopia | San Francisco | 3 | Stopwatch Beta","name_short":"sfo-3","host":"sfo-1.us.uncletopia.com","port":27035,"enabled":true,"region":"us-west","cc":"us","latitude":37.77397,"longitude":-122.4313,"reserved":0,"last_update":"0001-01-01T00:00:00Z","name_a2s":"Uncletopia | San Francisco | 3 | Stopwatch Beta","protocol":17,"map":"koth_highpass","folder":"tf","game":"Team Fortress","app_id":440,"player_count":0,"max_players":24,"Bots":0,"server_type":"Dedicated","server_os":"Linux","password":true,"vac":true,"version":"7932396","steam_id":85568392924742824,"keywords":["cp","nocrits","nodmgspread","uncletopia"],"game_id":440,"stv_port":27036,"stv_name":"Uncletopia | San Francisco | 3 | Stopwatch Beta | STV","players":null},{"server_id":20,"name":"Uncletopia | San Francisco | 4 | Community","name_short":"sfo-4","host":"sfo-1.us.uncletopia.com","port":27045,"enabled":true,"region":"us-west","cc":"us","latitude":37.77397,"longitude":-122.4313,"reserved":0,"last_update":"0001-01-01T00:00:00Z","name_a2s":"Uncletopia | San Francisco | 4 | Community","protocol":17,"map":"workshop/pl_badwater_pro_v12.ugc2142942074","folder":"tf","game":"Team Fortress","app_id":440,"player_count":24,"max_players":24,"Bots":0,"server_type":"Dedicated","server_os":"Linux","password":true,"vac":true,"version":"7932396","steam_id":85568392924742826,"keywords":["nocrits","nodmgspread","payload","uncletopia"],"game_id":440,"stv_port":27046,"stv_name":"Uncletopia | San Francisco | 4 | Community | STV","players":[{"user_id":26,"name":"Karen","steam_id":76561198309442440,"connected_time":4066000000000,"state":"active","ping":74},{"user_id":6,"name":"-ThiccMarcos","steam_id":76561198277151165,"connected_time":5288000000000,"state":"active","ping":85},{"user_id":7,"name":"mango","steam_id":76561198121529858,"connected_time":5266000000000,"state":"active","ping":71},{"user_id":76,"name":"Ewan","steam_id":76561198817585729,"connected_time":1559000000000,"state":"active","ping":102},{"user_id":46,"name":"♥ur :3 medic gf♥ (51ref/hr)","steam_id":76561198816778484,"connected_time":2965000000000,"state":"active","ping":69},{"user_id":91,"name":"Woodstock","steam_id":76561198041442667,"connected_time":216000000000,"state":"active","ping":62},{"user_id":82,"name":"auto","steam_id":76561199088095017,"connected_time":789000000000,"state":"active","ping":53},{"user_id":33,"name":"Goldensliv","steam_id":76561198161673891,"connected_time":3622000000000,"state":"active","ping":47},{"user_id":83,"name":"xjlm","steam_id":76561198043497260,"connected_time":785000000000,"state":"active","ping":80},{"user_id":73,"name":"Feel the bern","steam_id":76561198078824519,"connected_time":1662000000000,"state":"active","ping":84},{"user_id":34,"name":"Sprit ♥","steam_id":76561198268780781,"connected_time":3615000000000,"state":"active","ping":91},{"user_id":25,"name":"BoX_hEaD101","steam_id":76561198200875467,"connected_time":4258000000000,"state":"active","ping":71},{"user_id":84,"name":"chocolat3823","steam_id":76561199249875689,"connected_time":727000000000,"state":"active","ping":48},{"user_id":85,"name":"venomew2","steam_id":76561198327081077,"connected_time":662000000000,"state":"active","ping":88},{"user_id":86,"name":"Ian","steam_id":76561198159334435,"connected_time":650000000000,"state":"active","ping":176},{"user_id":58,"name":"Mr. DeLarge","steam_id":76561198336820066,"connected_time":2278000000000,"state":"active","ping":80},{"user_id":88,"name":"Point then Click","steam_id":76561198076133259,"connected_time":642000000000,"state":"active","ping":58},{"user_id":79,"name":"Maddex","steam_id":76561198397934395,"connected_time":1303000000000,"state":"active","ping":85},{"user_id":89,"name":"Thundersky09","steam_id":76561198076249424,"connected_time":634000000000,"state":"active","ping":70},{"user_id":43,"name":"Mr Pokey","steam_id":76561197993269087,"connected_time":3001000000000,"state":"active","ping":74},{"user_id":44,"name":"Aquiles Baeza","steam_id":76561198081053203,"connected_time":2980000000000,"state":"active","ping":80},{"user_id":65,"name":"TheRealChizz","steam_id":76561198016055769,"connected_time":2053000000000,"state":"active","ping":57},{"user_id":92,"name":"cream team","steam_id":76561198139043953,"connected_time":9000000000,"state":"spawning","ping":140},{"user_id":90,"name":"Dynamo","steam_id":76561198057875639,"connected_time":615000000000,"state":"active","ping":64}]},{"server_id":141,"name":"Uncletopia | Sydney | 1 | All Maps","name_short":"syd-1","host":"syd-1.au.uncletopia.com","port":27015,"enabled":true,"region":"au","cc":"au","latitude":-33.865143,"longitude":151.2099,"reserved":0,"last_update":"0001-01-01T00:00:00Z","name_a2s":"Uncletopia | Sydney | 1 | All Maps","protocol":17,"map":"pl_badwater","folder":"tf","game":"Team Fortress","app_id":440,"player_count":24,"max_players":24,"Bots":0,"server_type":"Dedicated","server_os":"Linux","password":true,"vac":true,"version":"7932396","steam_id":85568392924470001,"keywords":["nocrits","nodmgspread","payload","uncletopia"],"game_id":440,"stv_port":27016,"stv_name":"Uncletopia | Sydney | 1 | All Maps | STV","players":[{"user_id":153,"name":"trash","steam_id":76561198110764631,"connected_time":1483000000000,"state":"active","ping":45},{"user_id":110,"name":"CheeseFlag126","steam_id":76561199262769917,"connected_time":5894000000000,"state":"active","ping":63},{"user_id":157,"name":"garnish master","steam_id":76561197996551827,"connected_time":1077000000000,"state":"active","ping":47},{"user_id":172,"name":"using a laptop","steam_id":76561199445302425,"connected_time":720000000000,"state":"active","ping":158},{"user_id":169,"name":"TR(ash)ISH [She/Her]","steam_id":76561198857353689,"connected_time":757000000000,"state":"active","ping":58},{"user_id":159,"name":"The Throngler","steam_id":76561198119304370,"connected_time":1020000000000,"state":"active","ping":56},{"user_id":170,"name":"AmethystDragon10","steam_id":76561198412979983,"connected_time":733000000000,"state":"active","ping":79},{"user_id":156,"name":"Chops","steam_id":76561198071178936,"connected_time":1410000000000,"state":"active","ping":100},{"user_id":165,"name":"Zort","steam_id":76561198056414289,"connected_time":837000000000,"state":"active","ping":66},{"user_id":26,"name":"Unnaturally Bad","steam_id":76561198383320315,"connected_time":11011000000000,"state":"active","ping":68},{"user_id":161,"name":"FascismSalad","steam_id":76561198262410973,"connected_time":902000000000,"state":"active","ping":53},{"user_id":177,"name":"you've left me be Wilbur'd","steam_id":76561198301282416,"connected_time":146000000000,"state":"active","ping":104},{"user_id":166,"name":"steejans99","steam_id":76561198826471583,"connected_time":834000000000,"state":"active","ping":103},{"user_id":148,"name":"former romeo","steam_id":76561198031293430,"connected_time":1703000000000,"state":"active","ping":81},{"user_id":139,"name":"theory haver","steam_id":76561198133867907,"connected_time":2931000000000,"state":"active","ping":70},{"user_id":178,"name":"what_happy","steam_id":76561198971334734,"connected_time":134000000000,"state":"active","ping":70},{"user_id":171,"name":"infernoraz","steam_id":76561198117582261,"connected_time":731000000000,"state":"active","ping":45},{"user_id":167,"name":"skull","steam_id":76561198946903165,"connected_time":816000000000,"state":"active","ping":42},{"user_id":135,"name":"meatenschlappen","steam_id":76561198048064049,"connected_time":3494000000000,"state":"active","ping":74},{"user_id":176,"name":"Didgereedank","steam_id":76561198043068128,"connected_time":493000000000,"state":"active","ping":44},{"user_id":136,"name":"the final boss of sleeping","steam_id":76561198067978287,"connected_time":3450000000000,"state":"active","ping":97},{"user_id":85,"name":"Marzell","steam_id":76561198151276153,"connected_time":7143000000000,"state":"active","ping":93},{"user_id":146,"name":"speed bomb","steam_id":76561198277363788,"connected_time":2560000000000,"state":"active","ping":74},{"user_id":128,"name":"sf/k","steam_id":76561198047758776,"connected_time":4513000000000,"state":"active","ping":41}]},{"server_id":123,"name":"Uncletopia | Sydney | 2 | All Maps","name_short":"syd-2","host":"syd-1.au.uncletopia.com","port":27025,"enabled":true,"region":"au","cc":"au","latitude":-33.865143,"longitude":151.2099,"reserved":0,"last_update":"0001-01-01T00:00:00Z","name_a2s":"Uncletopia | Sydney | 2 | All Maps","protocol":17,"map":"pl_borneo","folder":"tf","game":"Team Fortress","app_id":440,"player_count":0,"max_players":24,"Bots":0,"server_type":"Dedicated","server_os":"Linux","password":true,"vac":true,"version":"7932396","steam_id":85568392924470002,"keywords":["nocrits","nodmgspread","payload","uncletopia"],"game_id":440,"stv_port":27026,"stv_name":"Uncletopia | Sydney | 2 | All Maps | STV","players":null},{"server_id":395,"name":"Uncletopia | Sydney | 3 | All Maps","name_short":"syd-3","host":"syd-1.au.uncletopia.com","port":27035,"enabled":true,"region":"au","cc":"au","latitude":-33.865143,"longitude":151.2099,"reserved":0,"last_update":"0001-01-01T00:00:00Z","name_a2s":"Uncletopia | Sydney | 3 | All Maps","protocol":17,"map":"koth_lakeside_final","folder":"tf","game":"Team Fortress","app_id":440,"player_count":0,"max_players":24,"Bots":0,"server_type":"Dedicated","server_os":"Linux","password":true,"vac":true,"version":"7932396","steam_id":85568392925194467,"keywords":["cp","nocrits","nodmgspread","uncletopia"],"game_id":440,"stv_port":27036,"stv_name":"Uncletopia | Sydney | 3 | All Maps | STV","players":null},{"server_id":396,"name":"Uncletopia | Sydney | 4 | All Maps","name_short":"syd-4","host":"syd-1.au.uncletopia.com","port":27045,"enabled":true,"region":"au","cc":"au","latitude":-33.865143,"longitude":151.2099,"reserved":0,"last_update":"0001-01-01T00:00:00Z","name_a2s":"Uncletopia | Sydney | 4 | All Maps","protocol":17,"map":"pl_upward","folder":"tf","game":"Team Fortress","app_id":440,"player_count":4,"max_players":24,"Bots":0,"server_type":"Dedicated","server_os":"Linux","password":true,"vac":true,"version":"7932396","steam_id":85568392925397958,"keywords":["nocrits","nodmgspread","payload","uncletopia"],"game_id":440,"stv_port":27046,"stv_name":"Uncletopia | Sydney | 4 | All Maps | STV","players":[{"user_id":23,"name":"The_Green_Jelly","steam_id":76561198381061704,"connected_time":728000000000,"state":"active","ping":91},{"user_id":24,"name":"Okie Dokie","steam_id":76561198125237921,"connected_time":693000000000,"state":"active","ping":43},{"user_id":26,"name":"hlxy","steam_id":76561198010576179,"connected_time":514000000000,"state":"active","ping":60},{"user_id":19,"name":"spy main (not toxic)","steam_id":76561199457260036,"connected_time":1827000000000,"state":"active","ping":178}]},{"server_id":58,"name":"Uncletopia | Sydney | 5 | Stopwatch Beta","name_short":"syd-5","host":"syd-1.au.uncletopia.com","port":27055,"enabled":true,"region":"au","cc":"au","latitude":-33.865143,"longitude":151.2099,"reserved":0,"last_update":"0001-01-01T00:00:00Z","name_a2s":"Uncletopia | Sydney | 5 | Stopwatch Beta","protocol":17,"map":"pl_pier","folder":"tf","game":"Team Fortress","app_id":440,"player_count":0,"max_players":24,"Bots":0,"server_type":"Dedicated","server_os":"Linux","password":true,"vac":true,"version":"7932396","steam_id":85568392925397959,"keywords":["nocrits","nodmgspread","payload","uncletopia"],"game_id":440,"stv_port":27056,"stv_name":"Uncletopia | Sydney | 5 | Stopwatch Beta | STV","players":null},{"server_id":59,"name":"Uncletopia | Sydney | 6 | Community","name_short":"syd-6","host":"syd-1.au.uncletopia.com","port":27065,"enabled":true,"region":"au","cc":"au","latitude":-33.865143,"longitude":151.2099,"reserved":0,"last_update":"0001-01-01T00:00:00Z","name_a2s":"Uncletopia | Sydney | 6 | Community","protocol":17,"map":"pl_frontier_final","folder":"tf","game":"Team Fortress","app_id":440,"player_count":0,"max_players":24,"Bots":0,"server_type":"Dedicated","server_os":"Linux","password":true,"vac":true,"version":"7932396","steam_id":85568392925397960,"keywords":["nocrits","nodmgspread","payload","uncletopia"],"game_id":440,"stv_port":27066,"stv_name":"Uncletopia | Sydney | 6 | Community | STV","players":null},{"server_id":49,"name":"Uncletopia | Warsaw | 1 | All Maps","name_short":"waw-1","host":"waw-1.pl.uncletopia.com","port":27015,"enabled":true,"region":"eu","cc":"pl","latitude":52.2297,"longitude":21.017532,"reserved":0,"last_update":"0001-01-01T00:00:00Z","name_a2s":"","protocol":0,"map":"","folder":"","game":"","app_id":0,"player_count":0,"max_players":0,"Bots":0,"server_type":"","server_os":"","password":false,"vac":false,"version":"","steam_id":0,"keywords":null,"game_id":0,"stv_port":0,"stv_name":"","players":null},{"server_id":50,"name":"Uncletopia | Warsaw | 2 | All Maps","name_short":"waw-2","host":"waw-1.pl.uncletopia.com","port":27025,"enabled":true,"region":"eu","cc":"pl","latitude":52.2297,"longitude":21.017532,"reserved":0,"last_update":"0001-01-01T00:00:00Z","name_a2s":"Uncletopia | Warsaw | 2 | All Maps","protocol":17,"map":"koth_highpass","folder":"tf","game":"Team Fortress","app_id":440,"player_count":0,"max_players":24,"Bots":0,"server_type":"Dedicated","server_os":"Linux","password":true,"vac":true,"version":"7932396","steam_id":85568392925397851,"keywords":["cp","nocrits","nodmgspread","uncletopia"],"game_id":440,"stv_port":27026,"stv_name":"Uncletopia | Warsaw | 2 | All Maps | STV","players":null},{"server_id":51,"name":"Uncletopia | Warsaw | 3 | All Maps","name_short":"waw-3","host":"waw-1.pl.uncletopia.com","port":27035,"enabled":true,"region":"eu","cc":"pl","latitude":52.2297,"longitude":21.017532,"reserved":0,"last_update":"0001-01-01T00:00:00Z","name_a2s":"Uncletopia | Warsaw | 3 | All Maps","protocol":17,"map":"pl_badwater","folder":"tf","game":"Team Fortress","app_id":440,"player_count":0,"max_players":24,"Bots":0,"server_type":"Dedicated","server_os":"Linux","password":true,"vac":true,"version":"7932396","steam_id":85568392925397852,"keywords":["nocrits","nodmgspread","payload","uncletopia"],"game_id":440,"stv_port":27036,"stv_name":"Uncletopia | Warsaw | 3 | All Maps | STV","players":null},{"server_id":52,"name":"Uncletopia | Warsaw | 4 | All Maps","name_short":"waw-4","host":"waw-1.pl.uncletopia.com","port":27045,"enabled":true,"region":"eu","cc":"pl","latitude":52.2297,"longitude":21.017532,"reserved":0,"last_update":"0001-01-01T00:00:00Z","name_a2s":"Uncletopia | Warsaw | 4 | All Maps","protocol":17,"map":"koth_cascade","folder":"tf","game":"Team Fortress","app_id":440,"player_count":0,"max_players":24,"Bots":0,"server_type":"Dedicated","server_os":"Linux","password":true,"vac":true,"version":"7932396","steam_id":85568392925397853,"keywords":["cp","nocrits","nodmgspread","uncletopia"],"game_id":440,"stv_port":27046,"stv_name":"Uncletopia | Warsaw | 4 | All Maps | STV","players":null},{"server_id":53,"name":"Uncletopia | Warsaw | 5 | Stopwatch Beta","name_short":"waw-5","host":"waw-1.pl.uncletopia.com","port":27055,"enabled":true,"region":"eu","cc":"pl","latitude":52.2297,"longitude":21.017532,"reserved":0,"last_update":"0001-01-01T00:00:00Z","name_a2s":"Uncletopia | Warsaw | 5 | Stopwatch Beta","protocol":17,"map":"cp_altitude","folder":"tf","game":"Team Fortress","app_id":440,"player_count":0,"max_players":24,"Bots":0,"server_type":"Dedicated","server_os":"Linux","password":true,"vac":true,"version":"7932396","steam_id":85568392925397854,"keywords":["cp","nocrits","nodmgspread","uncletopia"],"game_id":440,"stv_port":27056,"stv_name":"Uncletopia | Warsaw | 5 | Stopwatch Beta | STV","players":null},{"server_id":54,"name":"Uncletopia | Warsaw | 6 | Community","name_short":"waw-6","host":"waw-1.pl.uncletopia.com","port":27065,"enabled":true,"region":"eu","cc":"pl","latitude":52.2297,"longitude":21.017532,"reserved":0,"last_update":"0001-01-01T00:00:00Z","name_a2s":"Uncletopia | Warsaw | 6 | Community","protocol":17,"map":"pl_upward","folder":"tf","game":"Team Fortress","app_id":440,"player_count":0,"max_players":24,"Bots":0,"server_type":"Dedicated","server_os":"Linux","password":true,"vac":true,"version":"7932396","steam_id":85568392925397856,"keywords":["nocrits","nodmgspread","payload","uncletopia"],"game_id":440,"stv_port":27066,"stv_name":"Uncletopia | Warsaw | 6 | Community | STV","players":null}]}