{"status":true,"message":"","result":[{"server_id":9,"name":"Uncletopia | Atlanta | 1 | All Maps","name_short":"atl-1","host":"atl-1.us.uncletopia.com","port":27015,"enabled":true,"region":"us-east","cc":"us","latitude":33.753746,"longitude":-84.38633,"reserved":0,"last_update":"0001-01-01T00:00:00Z","name_a2s":"Uncletopia | Atlanta | 1 | All Maps","protocol":17,"map":"cp_gorge","folder":"tf","game":"Team Fortress","app_id":440,"player_count":24,"max_players":24,"Bots":0,"server_type":"Dedicated","server_os":"Linux","password":true,"vac":true,"version":"7961495","steam_id":85568392924469982,"keywords":["cp","nocrits","nodmgspread","uncletopia"],"game_id":440,"stv_port":27016,"stv_name":"Uncletopia | Atlanta | 1 | All Maps | STV","players":null},{"server_id":104,"name":"Uncletopia | Atlanta | 2 | All Maps","name_short":"atl-2","host":"atl-1.us.uncletopia.com","port":27025,"enabled":true,"region":"us-east","cc":"us","latitude":33.753746,"longitude":-84.38633,"reserved":0,"last_update":"0001-01-01T00:00:00Z","name_a2s":"Uncletopia | Atlanta | 2 | All Maps","protocol":17,"map":"koth_viaduct","folder":"tf","game":"Team Fortress","app_id":440,"player_count":5,"max_players":24,"Bots":0,"server_type":"Dedicated","server_os":"Linux","password":true,"vac":true,"version":"7961495","steam_id":85568392924469983,"keywords":["cp","nocrits","nodmgspread","uncletopia"],"game_id":440,"stv_port":27026,"stv_name":"Uncletopia | Atlanta | 2 | All Maps | STV","players":null},{"server_id":400,"name":"Uncletopia | Atlanta | 3 | Stopwatch","name_short":"atl-3","host":"atl-1.us.uncletopia.com","port":27035,"enabled":true,"region":"us-east","cc":"us","latitude":33.753746,"longitude":-84.38633,"reserved":0,"last_update":"0001-01-01T00:00:00Z","name_a2s":"Uncletopia | Atlanta | 3 | Stopwatch","protocol":17,"map":"koth_highpass","folder":"tf","game":"Team Fortress","app_id":440,"player_count":0,"max_players":24,"Bots":0,"server_type":"Dedicated","server_os":"Linux","password":true,"vac":true,"version":"7961495","steam_id":85568392924515187,"keywords":["cp","nocrits","nodmgspread","uncletopia"],"game_id":440,"stv_port":27036,"stv_name":"Uncletopia | Atlanta | 3 | Stopwatch | STV","players":null},{"server_id":401,"name":"Uncletopia | Atlanta | 4 | Community","name_short":"atl-4","host":"atl-1.us.uncletopia.com","port":27045,"enabled":true,"region":"us-east","cc":"us","latitude":33.753746,"longitude":-84.38633,"reserved":0,"last_update":"0001-01-01T00:00:00Z","name_a2s":"Uncletopia | Atlanta | 4 | Community","protocol":17,"map":"koth_product_final","folder":"tf","game":"Team Fortress","app_id":440,"player_count":3,"max_players":24,"Bots":0,"server_type":"Dedicated","server_os":"Linux","password":true,"vac":true,"version":"7961495","steam_id":85568392924515188,"keywords":["cp","nocrits","nodmgspread","uncletopia"],"game_id":440,"stv_port":27046,"stv_name":"Uncletopia | Atlanta | 4 | Community | STV","players":null},{"server_id":2,"name":"Uncletopia | Chicago | 1 | All Maps","name_short":"chi-1","host":"chi-1.us.uncletopia.com","port":27015,"enabled":true,"region":"us-central","cc":"us","latitude":41.881832,"longitude":-87.62318,"reserved":0,"last_update":"0001-01-01T00:00:00Z","name_a2s":"Uncletopia | Chicago | 1 | All Maps","protocol":17,"map":"pl_upward","folder":"tf","game":"Team Fortress","app_id":440,"player_count":24,"max_players":24,"Bots":0,"server_type":"Dedicated","server_os":"Linux","password":true,"vac":true,"version":"7961495","steam_id":85568392924469984,"keywords":["nocrits","nodmgspread","payload","uncletopia"],"game_id":440,"stv_port":27016,"stv_name":"Uncletopia | Chicago | 1 | All Maps | STV","players":[{"user_id":331,"name":"Panda","steam_id":76561198397291137,"connected_time":188000000000,"state":"active","ping":58},{"user_id":282,"name":"Gummy","steam_id":76561198098801598,"connected_time":3087000000000,"state":"active","ping":69},{"user_id":301,"name":"Celestial Bodies","steam_id":76561198212572955,"connected_time":2205000000000,"state":"active","ping":78},{"user_id":317,"name":"Dynamite-DC","steam_id":76561198132300175,"connected_time":975000000000,"state":"active","ping":76},{"user_id":327,"name":"reis","steam_id":76561199232952016,"connected_time":404000000000,"state":"active","ping":180},{"user_id":330,"name":"Komada337","steam_id":76561198153971124,"connected_time":196000000000,"state":"active","ping":74},{"user_id":320,"name":"Owl Pacino","steam_id":76561197979970666,"connected_time":876000000000,"state":"active","ping":55},{"user_id":281,"name":"Dillo","steam_id":76561198131497687,"connected_time":3166000000000,"state":"active","ping":71},{"user_id":321,"name":"Autumn, The Only Good Season","steam_id":76561198103496593,"connected_time":865000000000,"state":"active","ping":63},{"user_id":311,"name":"Nephi","steam_id":76561198031525122,"connected_time":1674000000000,"state":"active","ping":84},{"user_id":315,"name":"ATL1 Lavender","steam_id":76561198825997674,"connected_time":1417000000000,"state":"active","ping":68},{"user_id":299,"name":"Ursus Ludius","steam_id":76561198025470722,"connected_time":2309000000000,"state":"active","ping":90},{"user_id":322,"name":"meo ‚ô•","steam_id":76561197992719272,"connected_time":864000000000,"state":"active","ping":52},{"user_id":305,"name":"man of the hour","steam_id":76561198264601809,"connected_time":1956000000000,"state":"active","ping":78},{"user_id":310,"name":"GhostBerb","steam_id":76561198087908151,"connected_time":1715000000000,"state":"active","ping":86},{"user_id":334,"name":"VisibleForce","steam_id":76561198104178938,"connected_time":171000000000,"state":"active","ping":78},{"user_id":323,"name":"Fields","steam_id":76561197985545953,"connected_time":853000000000,"state":"active","ping":74},{"user_id":329,"name":"Burp 2600","steam_id":76561198044480181,"connected_time":342000000000,"state":"active","ping":49},{"user_id":294,"name":"iluvtopoo","steam_id":76561198843522498,"connected_time":2445000000000,"state":"active","ping":102},{"user_id":295,"name":"ultralisk52","steam_id":76561198051666604,"connected_time":2415000000000,"state":"active","ping":62},{"user_id":332,"name":"Mr. Bitches","steam_id":76561198011514727,"connected_time":187000000000,"state":"active","ping":83},{"user_id":333,"name":"prosciutto","steam_id":76561198882758067,"connected_time":175000000000,"state":"active","ping":44},{"user_id":326,"name":"Mr. Aristotle","steam_id":76561198003506123,"connected_time":845000000000,"state":"active","ping":59},{"user_id":297,"name":"Master Oogway","steam_id":76561198051869638,"connected_time":2394000000000,"state":"active","ping":60}]},{"server_id":106,"name":"Uncletopia | Chicago | 2 | All Maps","name_short":"chi-2","host":"chi-1.us.uncletopia.com","port":27025,"enabled":true,"region":"us-central","cc":"us","latitude":41.881832,"longitude":-87.62318,"reserved":0,"last_update":"0001-01-01T00:00:00Z","name_a2s":"Uncletopia | Chicago | 2 | All Maps","protocol":17,"map":"pl_badwater","folder":"tf","game":"Team Fortress","app_id":440,"player_count":24,"max_players":24,"Bots":0,"server_type":"Dedicated","server_os":"Linux","password":true,"vac":true,"version":"7961495","steam_id":85568392924469985,"keywords":["nocrits","nodmgspread","payload","uncletopia"],"game_id":440,"stv_port":27026,"stv_name":"Uncletopia | Chicago | 2 | All Maps | STV","players":[{"user_id":175,"name":"honked off the bobo","steam_id":76561198123287268,"connected_time":4591000000000,"state":"active","ping":45},{"user_id":216,"name":"daffodil","steam_id":76561198049480053,"connected_time":1560000000000,"state":"active","ping":59},{"user_id":211,"name":"Acehay14","steam_id":76561198052373291,"connected_time":1829000000000,"state":"active","ping":66},{"user_id":210,"name":"Ripheart","steam_id":76561198089661561,"connected_time":1842000000000,"state":"active","ping":44},{"user_id":219,"name":"Fitts1099","steam_id":76561198044986906,"connected_time":1054000000000,"state":"active","ping":53},{"user_id":212,"name":"sunny","steam_id":76561198069380992,"connected_time":1777000000000,"state":"active","ping":84},{"user_id":53,"name":"Evan","steam_id":76561197972292926,"connected_time":10992000000000,"state":"active","ping":71},{"user_id":198,"name":"MedicMilkshakesMakeMyDay","steam_id":76561199252532149,"connected_time":2479000000000,"state":"active","ping":118},{"user_id":188,"name":"Swash","steam_id":76561197969421355,"connected_time":4068000000000,"state":"active","ping":74},{"user_id":213,"name":"King Crust of Crustmus","steam_id":76561198160930421,"connected_time":1724000000000,"state":"active","ping":73},{"user_id":174,"name":"rico \"tristen\" suave","steam_id":76561198093252989,"connected_time":4788000000000,"state":"active","ping":99},{"user_id":209,"name":"Park","steam_id":76561198057222814,"connected_time":1975000000000,"state":"active","ping":66},{"user_id":204,"name":"Word To Your Mothership","steam_id":76561198034329138,"connected_time":2298000000000,"state":"active","ping":101},{"user_id":217,"name":"Adam (Cursed Confetti Creature)","steam_id":76561198317690197,"connected_time":1432000000000,"state":"active","ping":49},{"user_id":220,"name":"stardust","steam_id":76561198413930183,"connected_time":993000000000,"state":"active","ping":65},{"user_id":218,"name":"npc energy","steam_id":76561198035342207,"connected_time":1103000000000,"state":"active","ping":56},{"user_id":111,"name":"Jerk Tryhard (roleplay)","steam_id":76561199470538309,"connected_time":6996000000000,"state":"active","ping":60},{"user_id":202,"name":"Moodflame","steam_id":76561199079466529,"connected_time":2326000000000,"state":"active","ping":118},{"user_id":191,"name":"terrapieseven","steam_id":76561198072062415,"connected_time":3564000000000,"state":"active","ping":80},{"user_id":222,"name":"MedRed‚Ñ¢ #IATAH","steam_id":76561198002962970,"connected_time":442000000000,"state":"active","ping":94},{"user_id":56,"name":"Yeti","steam_id":76561198035450920,"connected_time":10971000000000,"state":"active","ping":79},{"user_id":163,"name":"ly","steam_id":76561198062922146,"connected_time":5032000000000,"state":"active","ping":78},{"user_id":190,"name":"Lia_Rein","steam_id":76561198151569597,"connected_time":3901000000000,"state":"active","ping":147},{"user_id":124,"name":"Avenging Spirit","steam_id":76561198119572121,"connected_time":6136000000000,"state":"active","ping":60}]},{"server_id":402,"name":"Uncletopia | Chicago | 3 | All Maps","name_short":"chi-3","host":"chi-1.us.uncletopia.com","port":27035,"enabled":true,"region":"us-central","cc":"us","latitude":41.881832,"longitude":-87.62318,"reserved":0,"last_update":"0001-01-01T00:00:00Z","name_a2s":"Uncletopia | Chicago | 3 | All Maps","protocol":17,"map":"cp_snakewater_final1","folder":"tf","game":"Team Fortress","app_id":440,"player_count":24,"max_players":24,"Bots":0,"server_type":"Dedicated","server_os":"Linux","password":true,"vac":true,"version":"7961495","steam_id":85568392924515191,"keywords":["cp","nocrits","nodmgspread","uncletopia"],"game_id":440,"stv_port":27036,"stv_name":"Uncletopia | Chicago | 3 | All Maps | STV","players":[{"user_id":356,"name":"toastman","steam_id":76561198207073088,"connected_time":1491000000000,"state":"active","ping":72},{"user_id":357,"name":"Waffle","steam_id":76561199000034608,"connected_time":1481000000000,"state":"active","ping":58},{"user_id":358,"name":"the headphones you lost","steam_id":76561199201098634,"connected_time":1462000000000,"state":"active","ping":59},{"user_id":376,"name":"P.C. Baby","steam_id":76561198067011379,"connected_time":296000000000,"state":"active","ping":111},{"user_id":330,"name":"Bag","steam_id":76561198152890989,"connected_time":2670000000000,"state":"active","ping":137},{"user_id":373,"name":"VerrucktMedic","steam_id":76561198093144226,"connected_time":601000000000,"state":"active","ping":71},{"user_id":368,"name":"cart","steam_id":76561198253731826,"connected_time":1187000000000,"state":"active","ping":72},{"user_id":374,"name":"maleficent ‚∏∏","steam_id":76561198177893343,"connected_time":456000000000,"state":"active","ping":76},{"user_id":334,"name":"Winzinf","steam_id":76561198026152232,"connected_time":2269000000000,"state":"active","ping":80},{"user_id":378,"name":"your friendly neighborhood f2p","steam_id":76561198199790246,"connected_time":129000000000,"state":"active","ping":99},{"user_id":377,"name":"D_Doxxed","steam_id":76561198276498805,"connected_time":233000000000,"state":"active","ping":99},{"user_id":324,"name":"time","steam_id":76561198281948574,"connected_time":2895000000000,"state":"active","ping":62},{"user_id":252,"name":"Killbasa","steam_id":76561198064868400,"connected_time":8122000000000,"state":"active","ping":69},{"user_id":363,"name":"Andrestor","steam_id":76561198005934930,"connected_time":1396000000000,"state":"active","ping":127},{"user_id":371,"name":"St. Michael","steam_id":76561198037611052,"connected_time":671000000000,"state":"active","ping":65},{"user_id":354,"name":"Lizard","steam_id":76561198045389407,"connected_time":1610000000000,"state":"active","ping":98},{"user_id":364,"name":"nao","steam_id":76561198073982533,"connected_time":1385000000000,"state":"active","ping":108},{"user_id":365,"name":"Moofins","steam_id":76561198050291949,"connected_time":1332000000000,"state":"active","ping":79},{"user_id":326,"name":"zenoga","steam_id":76561198201545159,"connected_time":2882000000000,"state":"active","ping":56},{"user_id":328,"name":"Lucon","steam_id":76561198067147724,"connected_time":2779000000000,"state":"active","ping":55},{"user_id":366,"name":"I Like Cheese","steam_id":76561198006265659,"connected_time":1328000000000,"state":"active","ping":79},{"user_id":367,"name":"IRules2244","steam_id":76561198351648815,"connected_time":1313000000000,"state":"active","ping":50},{"user_id":314,"name":"Û†Ä°Û†Ä°Û†Ä°Û†Ä°Û†Ä°Û†Ä°Û†Ä°\ufffd\ufffd\ufffd","steam_id":76561198040561757,"connected_time":3841000000000,"state":"active","ping":46},{"user_id":372,"name":"Gorgon Freeman","steam_id":76561198000367036,"connected_time":648000000000,"state":"active","ping":55}]},{"server_id":403,"name":"Uncletopia | Chicago | 4 | All Maps","name_short":"chi-4","host":"chi-1.us.uncletopia.com","port":27045,"enabled":true,"region":"us-central","cc":"us","latitude":41.881832,"longitude":-87.62318,"reserved":0,"last_update":"0001-01-01T00:00:00Z","name_a2s":"Uncletopia | Chicago | 4 | All Maps","protocol":17,"map":"pl_upward","folder":"tf","game":"Team Fortress","app_id":440,"player_count":21,"max_players":24,"Bots":0,"server_type":"Dedicated","server_os":"Linux","password":true,"vac":true,"version":"7961495","steam_id":85568392924515193,"keywords":["nocrits","nodmgspread","payload","uncletopia"],"game_id":440,"stv_port":27046,"stv_name":"Uncletopia | Chicago | 4 | All Maps | STV","players":[{"user_id":375,"name":"MrMan","steam_id":76561198029343598,"connected_time":509000000000,"state":"active","ping":60},{"user_id":354,"name":"my name jeff","steam_id":76561198179816898,"connected_time":1211000000000,"state":"active","ping":70},{"user_id":377,"name":"Gazoo","steam_id":76561198107354756,"connected_time":196000000000,"state":"active","ping":76},{"user_id":348,"name":"sheep","steam_id":76561198172943006,"connected_time":1932000000000,"state":"active","ping":45},{"user_id":380,"name":"Joculatrix","steam_id":76561198012795457,"connected_time":80000000000,"state":"active","ping":68},{"user_id":353,"name":"Aaron","steam_id":76561198091157802,"connected_time":1495000000000,"state":"active","ping":67},{"user_id":381,"name":"Sheev Palpatine","steam_id":76561198252332430,"connected_time":6000000000,"state":"spawning","ping":70},{"user_id":370,"name":"swan","steam_id":76561198012569200,"connected_time":916000000000,"state":"active","ping":75},{"user_id":372,"name":"Kirby.exe","steam_id":76561198242714582,"connected_time":778000000000,"state":"active","ping":60},{"user_id":382,"name":"GruntRule","steam_id":76561198039987143,"connected_time":3000000000,"state":"spawning","ping":64},{"user_id":371,"name":"Toasty","steam_id":76561198851752154,"connected_time":788000000000,"state":"active","ping":42},{"user_id":362,"name":"HalfDead","steam_id":76561198049700226,"connected_time":1120000000000,"state":"active","ping":78},{"user_id":363,"name":"Synell","steam_id":76561198053232523,"connected_time":1109000000000,"state":"active","ping":70},{"user_id":379,"name":"Frost","steam_id":76561198421292489,"connected_time":87000000000,"state":"active","ping":42},{"user_id":364,"name":"Lawn Mower","steam_id":76561199029189825,"connected_time":1096000000000,"state":"active","ping":67},{"user_id":378,"name":"femtofarad‚Ñ¢","steam_id":76561198308583053,"connected_time":196000000000,"state":"active","ping":86},{"user_id":373,"name":"lexi","steam_id":76561198176299759,"connected_time":769000000000,"state":"active","ping":78},{"user_id":345,"name":"Alteraxia","steam_id":76561198213333961,"connected_time":2030000000000,"state":"active","ping":75},{"user_id":366,"name":"Deltaco","steam_id":76561198094572694,"connected_time":1065000000000,"state":"active","ping":108},{"user_id":374,"name":"Elevator","steam_id":76561198974286387,"connected_time":734000000000,"state":"active","ping":69},{"user_id":324,"name":"Mr_Frosty","steam_id":76561199380389079,"connected_time":4323000000000,"state":"active","ping":85}]},{"server_id":36,"name":"Uncletopia | Chicago | 5 | All Maps","name_short":"chi-5","host":"chi-2.us.uncletopia.com","port":27015,"enabled":true,"region":"us-central","cc":"us","latitude":41.881832,"longitude":-87.62318,"reserved":0,"last_update":"0001-01-01T00:00:00Z","name_a2s":"Uncletopia | Chicago | 5 | All Maps","protocol":17,"map":"pl_frontier_final","folder":"tf","game":"Team Fortress","app_id":440,"player_count":23,"max_players":24,"Bots":0,"server_type":"Dedicated","server_os":"Linux","password":true,"vac":true,"version":"7961495","steam_id":85568392924866362,"keywords":["nocrits","nodmgspread","payload","uncletopia"],"game_id":440,"stv_port":27016,"stv_name":"Uncletopia | Chicago | 5 | All Maps | STV","players":[{"user_id":76,"name":"Dogmanlover37","steam_id":76561199012323846,"connected_time":2397000000000,"state":"active","ping":68},{"user_id":26,"name":"Oog","steam_id":76561198306720684,"connected_time":5063000000000,"state":"active","ping":88},{"user_id":83,"name":"Ctwee","steam_id":76561198239355084,"connected_time":1717000000000,"state":"active","ping":64},{"user_id":75,"name":"Sketchdude","steam_id":76561198428554205,"connected_time":2563000000000,"state":"active","ping":96},{"user_id":104,"name":"MemeLord69","steam_id":76561198444197673,"connected_time":472000000000,"state":"active","ping":94},{"user_id":78,"name":"Rivulet","steam_id":76561198897122890,"connected_time":2014000000000,"state":"active","ping":58},{"user_id":106,"name":"Silverkeys","steam_id":76561197986012496,"connected_time":376000000000,"state":"active","ping":69},{"user_id":103,"name":"ShmixyTheBishop","steam_id":76561199281919953,"connected_time":800000000000,"state":"active","ping":91},{"user_id":81,"name":"Dimentioof","steam_id":76561198945867866,"connected_time":1962000000000,"state":"active","ping":102},{"user_id":82,"name":"nonamewastaken1","steam_id":76561199061078132,"connected_time":1889000000000,"state":"active","ping":95},{"user_id":101,"name":"grailed scammer","steam_id":76561198150382695,"connected_time":1378000000000,"state":"active","ping":75},{"user_id":86,"name":"Boot Mcstink","steam_id":76561199226873917,"connected_time":1687000000000,"state":"active","ping":83},{"user_id":87,"name":"Cuttle's Fish","steam_id":76561198280483257,"connected_time":1630000000000,"state":"active","ping":60},{"user_id":92,"name":"That Medic Main","steam_id":76561199466397930,"connected_time":1510000000000,"state":"active","ping":252},{"user_id":93,"name":"VivianDawn","steam_id":76561198292292930,"connected_time":1465000000000,"state":"active","ping":61},{"user_id":96,"name":"milk then cereal","steam_id":76561198047168548,"connected_time":1446000000000,"state":"active","ping":93},{"user_id":95,"name":"Mr. Klauk","steam_id":76561199085666301,"connected_time":1451000000000,"state":"active","ping":70},{"user_id":69,"name":"Sunvaar","steam_id":76561198852679851,"connected_time":2857000000000,"state":"active","ping":78},{"user_id":102,"name":"saangel241","steam_id":76561199388621336,"connected_time":977000000000,"state":"active","ping":81},{"user_id":98,"name":"Kool-Aid Jammer","steam_id":76561198036032168,"connected_time":1423000000000,"state":"active","ping":47},{"user_id":107,"name":"AkimboAoki","steam_id":76561198158323058,"connected_time":298000000000,"state":"active","ping":93},{"user_id":57,"name":"Hovg9000","steam_id":76561199191556710,"connected_time":3785000000000,"state":"active","ping":80},{"user_id":65,"name":"PageBoiSkull","steam_id":76561198237353578,"connected_time":3310000000000,"state":"active","ping":114}]},{"server_id":37,"name":"Uncletopia | Chicago | 6 | All Maps","name_short":"chi-6","host":"chi-2.us.uncletopia.com","port":27025,"enabled":true,"region":"us-central","cc":"us","latitude":41.881832,"longitude":-87.62318,"reserved":0,"last_update":"0001-01-01T00:00:00Z","name_a2s":"Uncletopia | Chicago | 6 | All Maps","protocol":17,"map":"pl_barnblitz","folder":"tf","game":"Team Fortress","app_id":440,"player_count":24,"max_players":24,"Bots":0,"server_type":"Dedicated","server_os":"Linux","password":true,"vac":true,"version":"7961495","steam_id":85568392924866363,"keywords":["nocrits","nodmgspread","payload","uncletopia"],"game_id":440,"stv_port":27026,"stv_name":"Uncletopia | Chicago | 6 | All Maps | STV","players":[{"user_id":291,"name":"canofspaghettios","steam_id":76561198124204246,"connected_time":2310000000000,"state":"active","ping":59},{"user_id":286,"name":"stiGGy","steam_id":76561198049311931,"connected_time":2656000000000,"state":"active","ping":75},{"user_id":298,"name":"Ta5K","steam_id":76561198939558155,"connected_time":1641000000000,"state":"active","ping":49},{"user_id":303,"name":"Xplicitt","steam_id":76561198005555084,"connected_time":949000000000,"state":"active","ping":85},{"user_id":295,"name":"1998 Volvo S70 T5","steam_id":76561198258615044,"connected_time":1934000000000,"state":"active","ping":67},{"user_id":306,"name":"sirsmit1","steam_id":76561199129778001,"connected_time":876000000000,"state":"active","ping":83},{"user_id":315,"name":"BlueZombieBlood","steam_id":76561198123590661,"connected_time":252000000000,"state":"active","ping":156},{"user_id":265,"name":"D","steam_id":76561198292908619,"connected_time":3771000000000,"state":"active","ping":68},{"user_id":314,"name":"-TA- atlas ·ï¶(√≤_√≥Àá)·ï§","steam_id":76561198398383076,"connected_time":334000000000,"state":"active","ping":84},{"user_id":305,"name":"Yeagle","steam_id":76561199086620299,"connected_time":913000000000,"state":"active","ping":81},{"user_id":302,"name":"tA.CHRONIC","steam_id":76561197960760990,"connected_time":955000000000,"state":"active","ping":53},{"user_id":297,"name":"Soy King","steam_id":76561198263025614,"connected_time":1791000000000,"state":"active","ping":108},{"user_id":285,"name":"shunlin","steam_id":76561198109885889,"connected_time":2670000000000,"state":"active","ping":90},{"user_id":288,"name":"Jo-Bro","steam_id":76561198179902529,"connected_time":2368000000000,"state":"active","ping":67},{"user_id":311,"name":"zoeythesobble","steam_id":76561199012685740,"connected_time":669000000000,"state":"active","ping":64},{"user_id":255,"name":"Shulin","steam_id":76561198101840527,"connected_time":5042000000000,"state":"active","ping":104},{"user_id":215,"name":"corntent","steam_id":76561198824847948,"connected_time":7090000000000,"state":"active","ping":64},{"user_id":245,"name":"‡πñ€£€úMagic","steam_id":76561199272962550,"connected_time":5333000000000,"state":"active","ping":61},{"user_id":294,"name":"Jeff","steam_id":76561198050929005,"connected_time":2290000000000,"state":"active","ping":62},{"user_id":312,"name":"6t26j","steam_id":76561198278282836,"connected_time":579000000000,"state":"active","ping":54},{"user_id":319,"name":"127.0.0.7","steam_id":76561198871530383,"connected_time":2000000000,"state":"spawning","ping":52},{"user_id":309,"name":"the keebler","steam_id":76561199486326945,"connected_time":829000000000,"state":"active","ping":81},{"user_id":284,"name":"Jill the Owl","steam_id":76561197999210583,"connected_time":2928000000000,"state":"active","ping":81},{"user_id":317,"name":"SKOOKS","steam_id":76561198080567237,"connected_time":226000000000,"state":"active","ping":77}]},{"server_id":38,"name":"Uncletopia | Chicago | 7 | Stopwatch","name_short":"chi-7","host":"chi-2.us.uncletopia.com","port":27035,"enabled":true,"region":"us-central","cc":"us","latitude":41.881832,"longitude":-87.62318,"reserved":0,"last_update":"0001-01-01T00:00:00Z","name_a2s":"Uncletopia | Chicago | 7 | Stopwatch","protocol":17,"map":"workshop/koth_clearcut_b15.ugc2107050255","folder":"tf","game":"Team Fortress","app_id":440,"player_count":0,"max_players":24,"Bots":0,"server_type":"Dedicated","server_os":"Linux","password":true,"vac":true,"version":"7961495","steam_id":85568392924866364,"keywords":["cp","nocrits","nodmgspread","uncletopia"],"game_id":440,"stv_port":27036,"stv_name":"Uncletopia | Chicago | 7 | Stopwatch | STV","players":null},{"server_id":39,"name":"Uncletopia | Chicago | 8 | Community","name_short":"chi-8","host":"chi-2.us.uncletopia.com","port":27045,"enabled":true,"region":"us-central","cc":"us","latitude":41.881832,"longitude":-87.62318,"reserved":0,"last_update":"0001-01-01T00:00:00Z","name_a2s":"Uncletopia | Chicago | 8 | Community","protocol":17,"map":"workshop/pl_emerge_rc2.ugc888027758","folder":"tf","game":"Team Fortress","app_id":440,"player_count":1,"max_players":24,"Bots":0,"server_type":"Dedicated","server_os":"Linux","password":true,"vac":true,"version":"7961495","steam_id":85568392924866365,"keywords":["nocrits","nodmgspread","payload","uncletopia"],"game_id":440,"stv_port":27046,"stv_name":"Uncletopia | Chicago | 8 | Community | STV","players":[{"user_id":17,"name":"moaiiii","steam_id":76561199426876656,"connected_time":235000000000,"state":"active","ping":82}]},{"server_id":8,"name":"Uncletopia | Dallas | 1 | All Maps","name_short":"dal-1","host":"dal-1.us.uncletopia.com","port":27015,"enabled":true,"region":"us-central","cc":"us","latitude":32.779167,"longitude":-96.80889,"reserved":0,"last_update":"0001-01-01T00:00:00Z","name_a2s":"Uncletopia | Dallas | 1 | All Maps","protocol":17,"map":"cp_altitude","folder":"tf","game":"Team Fortress","app_id":440,"player_count":24,"max_players":24,"Bots":0,"server_type":"Dedicated","server_os":"Linux","password":true,"vac":true,"version":"7961495","steam_id":85568392924469986,"keywords":["cp","nocrits","nodmgspread","uncletopia"],"game_id":440,"stv_port":27016,"stv_name":"Uncletopia | Dallas | 1 | All Maps | STV","players":[{"user_id":468,"name":"Pop","steam_id":76561199012562851,"connected_time":1861000000000,"state":"active","ping":92},{"user_id":495,"name":"Drilly22","steam_id":76561198068838338,"connected_time":135000000000,"state":"active","ping":60},{"user_id":486,"name":"Dreamzapp","steam_id":76561199084936632,"connected_time":701000000000,"state":"active","ping":97},{"user_id":445,"name":"Heathcliff","steam_id":76561198044288534,"connected_time":3369000000000,"state":"active","ping":93},{"user_id":489,"name":"otter","steam_id":76561198217769961,"connected_time":490000000000,"state":"active","ping":83},{"user_id":440,"name":"Darling","steam_id":76561198127525888,"connected_time":3725000000000,"state":"active","ping":56},{"user_id":479,"name":"makotothompson","steam_id":76561199012033756,"connected_time":1237000000000,"state":"active","ping":76},{"user_id":490,"name":"tempest_542","steam_id":76561199068134621,"connected_time":486000000000,"state":"active","ping":74},{"user_id":328,"name":"Gelliterate","steam_id":76561198107233070,"connected_time":14856000000000,"state":"active","ping":54},{"user_id":481,"name":"Smug","steam_id":76561198448205229,"connected_time":1102000000000,"state":"active","ping":72},{"user_id":457,"name":"webaline  =Ôºæ‚óè ‚ãè ‚óèÔºæ=","steam_id":76561199052450127,"connected_time":2994000000000,"state":"active","ping":80},{"user_id":466,"name":"k3ramb1t","steam_id":76561198097880352,"connected_time":1994000000000,"state":"active","ping":102},{"user_id":487,"name":"Tendiest","steam_id":76561199380483790,"connected_time":623000000000,"state":"active","ping":75},{"user_id":491,"name":"Vordus","steam_id":76561198999615409,"connected_time":485000000000,"state":"active","ping":82},{"user_id":469,"name":"Odie","steam_id":76561198087958159,"connected_time":1858000000000,"state":"active","ping":91},{"user_id":488,"name":"HH","steam_id":76561198002302818,"connected_time":589000000000,"state":"active","ping":86},{"user_id":492,"name":"rotisserieturtle309","steam_id":76561198044536529,"connected_time":468000000000,"state":"active","ping":99},{"user_id":496,"name":"Valen","steam_id":76561198142031999,"connected_time":34000000000,"state":"spawning","ping":43},{"user_id":476,"name":"Dr.Zarann","steam_id":76561198163952958,"connected_time":1311000000000,"state":"active","ping":78},{"user_id":453,"name":"deathbringer22","steam_id":76561198318466600,"connected_time":3158000000000,"state":"active","ping":75},{"user_id":458,"name":"OwningTundra2","steam_id":76561198936893224,"connected_time":2811000000000,"state":"active","ping":66},{"user_id":493,"name":"dawdle","steam_id":76561198063422759,"connected_time":447000000000,"state":"active","ping":75},{"user_id":455,"name":"Crazy Hungarian","steam_id":76561198025498172,"connected_time":3081000000000,"state":"active","ping":110},{"user_id":494,"name":"Rebeller ‚ôõ","steam_id":76561198267449799,"connected_time":420000000000,"state":"active","ping":88}]},{"server_id":108,"name":"Uncletopia | Dallas | 2 | All Maps","name_short":"dal-2","host":"dal-1.us.uncletopia.com","port":27025,"enabled":true,"region":"us-central","cc":"us","latitude":32.779167,"longitude":-96.80889,"reserved":0,"last_update":"0001-01-01T00:00:00Z","name_a2s":"Uncletopia | Dallas | 2 | All Maps","protocol":17,"map":"pl_upward","folder":"tf","game":"Team Fortress","app_id":440,"player_count":24,"max_players":24,"Bots":0,"server_type":"Dedicated","server_os":"Linux","password":true,"vac":true,"version":"7961495","steam_id":85568392924469988,"keywords":["nocrits","nodmgspread","payload","uncletopia"],"game_id":440,"stv_port":27026,"stv_name":"Uncletopia | Dallas | 2 | All Maps | STV","players":[{"user_id":252,"name":"El Bondin","steam_id":76561198820792434,"connected_time":2184000000000,"state":"active","ping":104},{"user_id":269,"name":"King Cotton","steam_id":76561198292444376,"connected_time":573000000000,"state":"active","ping":70},{"user_id":270,"name":"YOU WHAT?!","steam_id":76561198418679471,"connected_time":513000000000,"state":"active","ping":68},{"user_id":266,"name":"Galactamarx","steam_id":76561198028065755,"connected_time":854000000000,"state":"active","ping":70},{"user_id":222,"name":"Robo Boss","steam_id":76561199067098696,"connected_time":5208000000000,"state":"active","ping":82},{"user_id":271,"name":"donkley kong","steam_id":76561199067637033,"connected_time":507000000000,"state":"active","ping":105},{"user_id":272,"name":"JellyBeanBrainz","steam_id":76561198052510482,"connected_time":479000000000,"state":"active","ping":97},{"user_id":230,"name":"yuhma reyor","steam_id":76561198453203619,"connected_time":4015000000000,"state":"active","ping":75},{"user_id":152,"name":"Û†Å≥ ‚ÅßArgo","steam_id":76561198353725622,"connected_time":11597000000000,"state":"active","ping":95},{"user_id":193,"name":"shiggy-","steam_id":76561198443298608,"connected_time":7206000000000,"state":"active","ping":80},{"user_id":161,"name":"kyso","steam_id":76561199011185438,"connected_time":10344000000000,"state":"active","ping":65},{"user_id":273,"name":"chimpin","steam_id":76561198858089300,"connected_time":440000000000,"state":"active","ping":103},{"user_id":274,"name":"carrot cake","steam_id":76561198055174915,"connected_time":440000000000,"state":"active","ping":90},{"user_id":160,"name":"sammy","steam_id":76561199001307670,"connected_time":10776000000000,"state":"active","ping":114},{"user_id":279,"name":"Gigacheat","steam_id":76561198862843572,"connected_time":163000000000,"state":"active","ping":90},{"user_id":265,"name":"Oxygen User","steam_id":76561199111975528,"connected_time":1005000000000,"state":"active","ping":104},{"user_id":264,"name":"Bacon","steam_id":76561199078407152,"connected_time":1124000000000,"state":"active","ping":83},{"user_id":164,"name":"im gonna schmutz","steam_id":76561198185980055,"connected_time":10267000000000,"state":"active","ping":76},{"user_id":278,"name":"celestia ludenberg","steam_id":76561199196437823,"connected_time":246000000000,"state":"active","ping":103},{"user_id":256,"name":"frank","steam_id":76561198137777483,"connected_time":2135000000000,"state":"active","ping":90},{"user_id":249,"name":"i invented poop","steam_id":76561199044252053,"connected_time":2502000000000,"state":"active","ping":104},{"user_id":218,"name":"mterbay","steam_id":76561198023473264,"connected_time":5778000000000,"state":"active","ping":69},{"user_id":216,"name":"Phos","steam_id":76561198122339506,"connected_time":5904000000000,"state":"active","ping":71},{"user_id":277,"name":"Thilo","steam_id":76561197987278784,"connected_time":350000000000,"state":"active","ping":89}]},{"server_id":404,"name":"Uncletopia | Dallas | 3 | All Maps","name_short":"dal-3","host":"dal-1.us.uncletopia.com","port":27035,"enabled":true,"region":"us-central","cc":"us","latitude":32.779167,"longitude":-96.80889,"reserved":0,"last_update":"0001-01-01T00:00:00Z","name_a2s":"Uncletopia | Dallas | 3 | All Maps","protocol":17,"map":"pl_snowycoast","folder":"tf","game":"Team Fortress","app_id":440,"player_count":24,"max_players":24,"Bots":0,"server_type":"Dedicated","server_os":"Linux","password":true,"vac":true,"version":"7961495","steam_id":85568392924515219,"keywords":["nocrits","nodmgspread","payload","uncletopia"],"game_id":440,"stv_port":27036,"stv_name":"Uncletopia | Dallas | 3 | All Maps | STV","players":[{"user_id":241,"name":"TheCoolCable","steam_id":76561198115418637,"connected_time":240000000000,"state":"active","ping":92},{"user_id":220,"name":"CourierZero","steam_id":76561198118449828,"connected_time":1692000000000,"state":"active","ping":86},{"user_id":207,"name":"Flap","steam_id":76561198078889633,"connected_time":2735000000000,"state":"active","ping":79},{"user_id":238,"name":"Texas guy","steam_id":76561198082315370,"connected_time":625000000000,"state":"active","ping":84},{"user_id":227,"name":"Zasqwitch","steam_id":76561199366592058,"connected_time":1059000000000,"state":"active","ping":103},{"user_id":228,"name":"Shagbark","steam_id":76561198173447342,"connected_time":1002000000000,"state":"active","ping":102},{"user_id":209,"name":"Soju","steam_id":76561198044130442,"connected_time":2597000000000,"state":"active","ping":60},{"user_id":237,"name":"Swaganometry","steam_id":76561198880490872,"connected_time":746000000000,"state":"active","ping":114},{"user_id":239,"name":"Spaghettios","steam_id":76561198070323656,"connected_time":596000000000,"state":"active","ping":55},{"user_id":88,"name":"GLG.Liz","steam_id":76561198021957956,"connected_time":10682000000000,"state":"active","ping":51},{"user_id":229,"name":"neon_nexu","steam_id":76561199052185019,"connected_time":996000000000,"state":"active","ping":124},{"user_id":124,"name":"DiabetesMan","steam_id":76561198075668940,"connected_time":7898000000000,"state":"active","ping":88},{"user_id":212,"name":"Juice Box","steam_id":76561198322284568,"connected_time":2462000000000,"state":"active","ping":54},{"user_id":221,"name":"Lazyguy","steam_id":76561198816236652,"connected_time":1683000000000,"state":"active","ping":188},{"user_id":240,"name":"ùöéùöüùöò","steam_id":76561198012107246,"connected_time":583000000000,"state":"active","ping":192},{"user_id":226,"name":"DJ","steam_id":76561198151152014,"connected_time":1333000000000,"state":"active","ping":86},{"user_id":232,"name":"han","steam_id":76561198058374130,"connected_time":887000000000,"state":"active","ping":75},{"user_id":224,"name":"derdds","steam_id":76561198034339940,"connected_time":1496000000000,"state":"active","ping":76},{"user_id":197,"name":"Copland OS","steam_id":76561198041800378,"connected_time":3769000000000,"state":"active","ping":84},{"user_id":233,"name":"JaHeeK","steam_id":76561198056928613,"connected_time":858000000000,"state":"active","ping":79},{"user_id":234,"name":"SimplePants","steam_id":76561198059434838,"connected_time":856000000000,"state":"active","ping":83},{"user_id":90,"name":"GLG MUTT","steam_id":76561198147785541,"connected_time":10645000000000,"state":"active","ping":63},{"user_id":225,"name":"tenshi fumo","steam_id":76561198084054568,"connected_time":1360000000000,"state":"active","ping":95},{"user_id":236,"name":"penser","steam_id":76561198798194358,"connected_time":795000000000,"state":"active","ping":101}]},{"server_id":405,"name":"Uncletopia | Dallas | 4 | Community","name_short":"dal-4","host":"dal-1.us.uncletopia.com","port":27045,"enabled":true,"region":"us-central","cc":"us","latitude":32.779167,"longitude":-96.80889,"reserved":0,"last_update":"0001-01-01T00:00:00Z","name_a2s":"Uncletopia | Dallas | 4 | Community","protocol":17,"map":"workshop/koth_bagel_rc6.ugc2514036946","folder":"tf","game":"Team Fortress","app_id":440,"player_count":22,"max_players":24,"Bots":0,"server_type":"Dedicated","server_os":"Linux","password":true,"vac":true,"version":"7961495","steam_id":85568392924515220,"keywords":["cp","nocrits","nodmgspread","uncletopia"],"game_id":440,"stv_port":27046,"stv_name":"Uncletopia | Dallas | 4 | Community | STV","players":[{"user_id":131,"name":":D","steam_id":76561199058243841,"connected_time":660000000000,"state":"active","ping":199},{"user_id":128,"name":"MantisToboggan","steam_id":76561197969447887,"connected_time":745000000000,"state":"active","ping":150},{"user_id":114,"name":"Ôº≤Ôº•Ôº§","steam_id":76561198030282308,"connected_time":2166000000000,"state":"active","ping":95},{"user_id":133,"name":"Gourmet Swain","steam_id":76561198046942967,"connected_time":643000000000,"state":"active","ping":109},{"user_id":132,"name":"Tukha","steam_id":76561198148345198,"connected_time":644000000000,"state":"active","ping":102},{"user_id":142,"name":"jizz gaming","steam_id":76561198984762462,"connected_time":465000000000,"state":"active","ping":89},{"user_id":109,"name":"Bombsgamer","steam_id":76561198350009050,"connected_time":2567000000000,"state":"active","ping":86},{"user_id":135,"name":"Engideer","steam_id":76561198145733164,"connected_time":607000000000,"state":"active","ping":47},{"user_id":119,"name":"Magnet Dood","steam_id":76561198364178746,"connected_time":1923000000000,"state":"active","ping":77},{"user_id":136,"name":"Xyverle","steam_id":76561198799726415,"connected_time":600000000000,"state":"active","ping":79},{"user_id":91,"name":"stampdawg","steam_id":76561198050500060,"connected_time":3751000000000,"state":"active","ping":98},{"user_id":144,"name":"Floor chicken nugget","steam_id":76561198840484105,"connected_time":317000000000,"state":"active","ping":76},{"user_id":98,"name":"Sergio_1Bit","steam_id":76561198798596945,"connected_time":3507000000000,"state":"active","ping":104},{"user_id":92,"name":"JambaJuice","steam_id":76561198806736231,"connected_time":3742000000000,"state":"active","ping":93},{"user_id":93,"name":"Froyo Ding Dong","steam_id":76561198379421700,"connected_time":3731000000000,"state":"active","ping":102},{"user_id":140,"name":"White_Wizard_Named_Corona","steam_id":76561198055652735,"connected_time":535000000000,"state":"active","ping":71},{"user_id":113,"name":"Dog","steam_id":76561198450992953,"connected_time":2248000000000,"state":"active","ping":93},{"user_id":138,"name":"Boredbombknight","steam_id":76561199124037552,"connected_time":546000000000,"state":"active","ping":82},{"user_id":139,"name":"Buttercup","steam_id":76561198030816577,"connected_time":541000000000,"state":"active","ping":63},{"user_id":101,"name":"RustyRacc","steam_id":76561198972157124,"connected_time":3416000000000,"state":"active","ping":72},{"user_id":141,"name":"Imagine Zetro","steam_id":76561198812842014,"connected_time":518000000000,"state":"active","ping":65},{"user_id":146,"name":"sex denier","steam_id":76561198069407799,"connected_time":262000000000,"state":"active","ping":75}]},{"server_id":5,"name":"Uncletopia | Frankfurt | 1 | All Maps","name_short":"frk-1","host":"frk-1.de.uncletopia.com","port":27015,"enabled":true,"region":"eu","cc":"de","latitude":50.110924,"longitude":8.682127,"reserved":0,"last_update":"0001-01-01T00:00:00Z","name_a2s":"Uncletopia | Frankfurt | 1 | All Maps","protocol":17,"map":"pl_borneo","folder":"tf","game":"Team Fortress","app_id":440,"player_count":20,"max_players":24,"Bots":0,"server_type":"Dedicated","server_os":"Linux","password":true,"vac":true,"version":"7961495","steam_id":85568392924469989,"keywords":["nocrits","nodmgspread","payload","uncletopia"],"game_id":440,"stv_port":27016,"stv_name":"Uncletopia | Frankfurt | 1 | All Maps | STV","players":[{"user_id":674,"name":"whatever","steam_id":76561198095943461,"connected_time":5000000000,"state":"spawning","ping":64},{"user_id":660,"name":"Fobos","steam_id":76561198026107581,"connected_time":463000000000,"state":"spawning","ping":186},{"user_id":663,"name":"bhalazs","steam_id":76561198248831634,"connected_time":236000000000,"state":"spawning","ping":98},{"user_id":671,"name":"The Butterman#SaveTF2","steam_id":76561198065057086,"connected_time":55000000000,"state":"spawning","ping":168},{"user_id":620,"name":"hot catguy","steam_id":76561198201418334,"connected_time":3497000000000,"state":"spawning","ping":78},{"user_id":644,"name":"combine","steam_id":76561198007909007,"connected_time":1136000000000,"state":"spawning","ping":131},{"user_id":672,"name":"dunduu","steam_id":76561198875240717,"connected_time":40000000000,"state":"spawning","ping":168},{"user_id":662,"name":"Superiumentarius","steam_id":76561198081642249,"connected_time":334000000000,"state":"spawning","ping":137},{"user_id":669,"name":"idarmed","steam_id":76561198420064361,"connected_time":101000000000,"state":"spawning","ping":260},{"user_id":595,"name":"Fish12 mh3","steam_id":76561198192204191,"connected_time":4694000000000,"state":"spawning","ping":153},{"user_id":659,"name":"√áodar","steam_id":76561198235518444,"connected_time":597000000000,"state":"spawning","ping":132},{"user_id":647,"name":"Risinger","steam_id":76561198079789688,"connected_time":951000000000,"state":"spawning","ping":98},{"user_id":650,"name":"BigSqueakis","steam_id":76561199467894254,"connected_time":868000000000,"state":"spawning","ping":242},{"user_id":645,"name":"Tichy‚òÜ","steam_id":76561198026218934,"connected_time":1125000000000,"state":"spawning","ping":113},{"user_id":619,"name":"Saab900","steam_id":76561198143529110,"connected_time":3580000000000,"state":"spawning","ping":104},{"user_id":673,"name":"Klorophyte","steam_id":76561198885112655,"connected_time":36000000000,"state":"spawning","ping":150},{"user_id":635,"name":"Proud Jojo Fan #TF2SP","steam_id":76561198847327216,"connected_time":2150000000000,"state":"spawning","ping":191},{"user_id":664,"name":"GEST","steam_id":76561198079167288,"connected_time":196000000000,"state":"spawning","ping":248},{"user_id":614,"name":"\u003e\u003c\u003e","steam_id":76561198152392309,"connected_time":3864000000000,"state":"spawning","ping":104},{"user_id":670,"name":"Joy","steam_id":76561198155314925,"connected_time":82000000000,"state":"spawning","ping":123}]},{"server_id":110,"name":"Uncletopia | Frankfurt | 2 | All Maps","name_short":"frk-2","host":"frk-1.de.uncletopia.com","port":27025,"enabled":true,"region":"eu","cc":"de","latitude":50.110924,"longitude":8.682127,"reserved":0,"last_update":"0001-01-01T00:00:00Z","name_a2s":"Uncletopia | Frankfurt | 2 | All Maps","protocol":17,"map":"cp_steel","folder":"tf","game":"Team Fortress","app_id":440,"player_count":21,"max_players":24,"Bots":0,"server_type":"Dedicated","server_os":"Linux","password":true,"vac":true,"version":"7961495","steam_id":85568392924469990,"keywords":["cp","nocrits","nodmgspread","uncletopia"],"game_id":440,"stv_port":27026,"stv_name":"Uncletopia | Frankfurt | 2 | All Maps | STV","players":[{"user_id":586,"name":"The Mighty Bob","steam_id":76561198085269574,"connected_time":87000000000,"state":"active","ping":71},{"user_id":558,"name":"BL√ÖHAJ","steam_id":76561197996473698,"connected_time":1744000000000,"state":"active","ping":43},{"user_id":550,"name":"Myia","steam_id":76561198087813206,"connected_time":2675000000000,"state":"active","ping":45},{"user_id":587,"name":"xavier","steam_id":76561198076494034,"connected_time":59000000000,"state":"active","ping":58},{"user_id":584,"name":"Ôº≠ÔΩÅÔΩÉÔΩâÔΩéÔΩîÔΩèÔΩìÔΩà","steam_id":76561198074294565,"connected_time":727000000000,"state":"active","ping":83},{"user_id":588,"name":"Bajas","steam_id":76561198179339326,"connected_time":56000000000,"state":"active","ping":76},{"user_id":562,"name":"Der ewige Boomer","steam_id":76561198254812703,"connected_time":1602000000000,"state":"active","ping":67},{"user_id":581,"name":"Hamedius","steam_id":76561199152512027,"connected_time":909000000000,"state":"active","ping":62},{"user_id":589,"name":"Gender Telecaster","steam_id":76561198106455841,"connected_time":53000000000,"state":"active","ping":73},{"user_id":590,"name":"Vershal Smershal","steam_id":76561198116223995,"connected_time":46000000000,"state":"active","ping":59},{"user_id":577,"name":"Burpman","steam_id":76561198022897937,"connected_time":1212000000000,"state":"active","ping":60},{"user_id":582,"name":"KaZa","steam_id":76561198106106803,"connected_time":902000000000,"state":"active","ping":75},{"user_id":591,"name":"Yangus","steam_id":76561198147796010,"connected_time":40000000000,"state":"active","ping":61},{"user_id":592,"name":"azzy","steam_id":76561198061293740,"connected_time":9000000000,"state":"spawning","ping":73},{"user_id":552,"name":"dotdotdot","steam_id":76561198057628751,"connected_time":2591000000000,"state":"active","ping":63},{"user_id":574,"name":"HetNet","steam_id":76561198207584963,"connected_time":1355000000000,"state":"active","ping":81},{"user_id":545,"name":"crimson","steam_id":76561198208349835,"connected_time":3201000000000,"state":"active","ping":71},{"user_id":570,"name":"ChPerette üéÆ","steam_id":76561198060004887,"connected_time":1532000000000,"state":"active","ping":45},{"user_id":583,"name":"w+m1","steam_id":76561198010428082,"connected_time":759000000000,"state":"active","ping":55},{"user_id":575,"name":"Finem Belli","steam_id":76561198227177976,"connected_time":1333000000000,"state":"active","ping":45},{"user_id":576,"name":"xTheDarkLight","steam_id":76561198239128298,"connected_time":1317000000000,"state":"active","ping":47}]},{"server_id":308,"name":"Uncletopia | Frankfurt | 3 | All Maps","name_short":"frk-3","host":"frk-1.de.uncletopia.com","port":27035,"enabled":true,"region":"eu","cc":"de","latitude":50.110924,"longitude":8.682127,"reserved":0,"last_update":"0001-01-01T00:00:00Z","name_a2s":"Uncletopia | Frankfurt | 3 | All Maps","protocol":17,"map":"cp_well","folder":"tf","game":"Team Fortress","app_id":440,"player_count":2,"max_players":24,"Bots":0,"server_type":"Dedicated","server_os":"Linux","password":true,"vac":true,"version":"7961495","steam_id":85568392924504274,"keywords":["cp","nocrits","nodmgspread","uncletopia"],"game_id":440,"stv_port":27036,"stv_name":"Uncletopia | Frankfurt | 3 | All Maps | STV","players":[{"user_id":364,"name":"mohemmedmokhter2005","steam_id":76561199197650506,"connected_time":1901000000000,"state":"connecting","ping":133},{"user_id":378,"name":"Rodak","steam_id":76561199135986344,"connected_time":613000000000,"state":"connecting","ping":65}]},{"server_id":309,"name":"Uncletopia | Frankfurt | 4 | All Maps","name_short":"frk-4","host":"frk-1.de.uncletopia.com","port":27045,"enabled":true,"region":"eu","cc":"de","latitude":50.110924,"longitude":8.682127,"reserved":0,"last_update":"0001-01-01T00:00:00Z","name_a2s":"Uncletopia | Frankfurt | 4 | All Maps","protocol":17,"map":"cp_dustbowl","folder":"tf","game":"Team Fortress","app_id":440,"player_count":22,"max_players":24,"Bots":0,"server_type":"Dedicated","server_os":"Linux","password":true,"vac":true,"version":"7961495","steam_id":85568392924504275,"keywords":["cp","nocrits","nodmgspread","uncletopia"],"game_id":440,"stv_port":27046,"stv_name":"Uncletopia | Frankfurt | 4 | All Maps | STV","players":[{"user_id":710,"name":"volkiano","steam_id":76561198319802031,"connected_time":555000000000,"state":"active","ping":60},{"user_id":707,"name":"Avarus","steam_id":76561198040324008,"connected_time":718000000000,"state":"active","ping":62},{"user_id":711,"name":"Basketball","steam_id":76561198412009389,"connected_time":551000000000,"state":"active","ping":60},{"user_id":702,"name":"Sir Sandvich","steam_id":76561198213908089,"connected_time":1065000000000,"state":"active","ping":81},{"user_id":722,"name":"tm`","steam_id":76561197993580412,"connected_time":19000000000,"state":"active","ping":50},{"user_id":713,"name":"shitreg","steam_id":76561198263260743,"connected_time":516000000000,"state":"active","ping":92},{"user_id":721,"name":"incoming","steam_id":76561199138214818,"connected_time":156000000000,"state":"active","ping":76},{"user_id":704,"name":"qScape9","steam_id":76561198237435634,"connected_time":1016000000000,"state":"active","ping":61},{"user_id":691,"name":"FilterSmoker","steam_id":76561198013766955,"connected_time":1539000000000,"state":"active","ping":68},{"user_id":688,"name":"T–Ωunde–≥Cu–ø—Ç","steam_id":76561198135091800,"connected_time":1683000000000,"state":"active","ping":61},{"user_id":669,"name":"Duxxy","steam_id":76561198086796116,"connected_time":3139000000000,"state":"active","ping":82},{"user_id":698,"name":"GrandpaHasan","steam_id":76561199481751418,"connected_time":1218000000000,"state":"active","ping":121},{"user_id":720,"name":"Francis","steam_id":76561198118506608,"connected_time":199000000000,"state":"active","ping":70},{"user_id":655,"name":"Turek","steam_id":76561198280066503,"connected_time":4080000000000,"state":"active","ping":71},{"user_id":717,"name":"spookjie","steam_id":76561198154860906,"connected_time":361000000000,"state":"active","ping":67},{"user_id":670,"name":"woop","steam_id":76561198985105074,"connected_time":3038000000000,"state":"active","ping":91},{"user_id":695,"name":"Dayyer v1","steam_id":76561198093916519,"connected_time":1321000000000,"state":"active","ping":55},{"user_id":718,"name":"Lord of Birds","steam_id":76561198268952995,"connected_time":353000000000,"state":"active","ping":70},{"user_id":701,"name":"Margaret Thatcher STD Catcher","steam_id":76561198160508351,"connected_time":1181000000000,"state":"active","ping":71},{"user_id":693,"name":"mos","steam_id":76561198970737500,"connected_time":1436000000000,"state":"active","ping":72},{"user_id":630,"name":"Xiqui","steam_id":76561198818386611,"connected_time":5915000000000,"state":"active","ping":81},{"user_id":644,"name":"BrownBreadMan","steam_id":76561199092834214,"connected_time":4772000000000,"state":"active","ping":59}]},{"server_id":310,"name":"Uncletopia | Frankfurt | 5 | All Maps","name_short":"frk-5","host":"frk-1.de.uncletopia.com","port":27055,"enabled":true,"region":"eu","cc":"de","latitude":50.110924,"longitude":8.682127,"reserved":0,"last_update":"0001-01-01T00:00:00Z","name_a2s":"Uncletopia | Frankfurt | 5 | All Maps","protocol":17,"map":"pl_badwater","folder":"tf","game":"Team Fortress","app_id":440,"player_count":21,"max_players":24,"Bots":0,"server_type":"Dedicated","server_os":"Linux","password":true,"vac":true,"version":"7961495","steam_id":85568392924504277,"keywords":["nocrits","nodmgspread","payload","uncletopia"],"game_id":440,"stv_port":27056,"stv_name":"Uncletopia | Frankfurt | 5 | All Maps | STV","players":[{"user_id":731,"name":"Boomer","steam_id":76561198108110738,"connected_time":1232000000000,"state":"active","ping":67},{"user_id":703,"name":"Mitrixie","steam_id":76561198842023498,"connected_time":2331000000000,"state":"active","ping":81},{"user_id":676,"name":"Himalaya","steam_id":76561198016644553,"connected_time":3654000000000,"state":"active","ping":72},{"user_id":694,"name":"Ham Merchant","steam_id":76561198389947352,"connected_time":2931000000000,"state":"active","ping":84},{"user_id":705,"name":"BaGoogly","steam_id":76561199477114157,"connected_time":2200000000000,"state":"active","ping":121},{"user_id":743,"name":"silver","steam_id":76561199000743883,"connected_time":813000000000,"state":"active","ping":177},{"user_id":651,"name":"NightRavens","steam_id":76561197994394586,"connected_time":5263000000000,"state":"active","ping":85},{"user_id":707,"name":"4xkhaledx4","steam_id":76561198817889693,"connected_time":2154000000000,"state":"active","ping":142},{"user_id":747,"name":"HelwiiHill","steam_id":76561198066730552,"connected_time":388000000000,"state":"active","ping":85},{"user_id":716,"name":"alpha","steam_id":76561198250491640,"connected_time":1927000000000,"state":"active","ping":54},{"user_id":745,"name":"Hey, I¬¥m Andy!","steam_id":76561198060337777,"connected_time":502000000000,"state":"active","ping":68},{"user_id":725,"name":"Ziy???","steam_id":76561197995765491,"connected_time":1684000000000,"state":"active","ping":60},{"user_id":688,"name":"mr","steam_id":76561199037541925,"connected_time":3177000000000,"state":"active","ping":74},{"user_id":733,"name":"MaTke","steam_id":76561198378170301,"connected_time":1200000000000,"state":"active","ping":69},{"user_id":710,"name":"Just Abdulaziz","steam_id":76561199066227804,"connected_time":2043000000000,"state":"active","ping":115},{"user_id":735,"name":"mud","steam_id":76561198141497461,"connected_time":1156000000000,"state":"active","ping":61},{"user_id":736,"name":"dum","steam_id":76561198053386482,"connected_time":1155000000000,"state":"active","ping":141},{"user_id":738,"name":"Tomex999","steam_id":76561198049587675,"connected_time":1002000000000,"state":"active","ping":75},{"user_id":737,"name":"‚ù§G a n K","steam_id":76561199125995565,"connected_time":1068000000000,"state":"active","ping":67},{"user_id":724,"name":"Sand","steam_id":76561198103761268,"connected_time":1754000000000,"state":"active","ping":47},{"user_id":722,"name":"[503. ]captain swiftfingers","steam_id":76561198043684517,"connected_time":1827000000000,"state":"active","ping":60}]},{"server_id":311,"name":"Uncletopia | Frankfurt | 6 | All Maps","name_short":"frk-6","host":"frk-1.de.uncletopia.com","port":27065,"enabled":true,"region":"eu","cc":"de","latitude":50.110924,"longitude":8.682127,"reserved":0,"last_update":"0001-01-01T00:00:00Z","name_a2s":"Uncletopia | Frankfurt | 6 | All Maps","protocol":17,"map":"pl_frontier_final","folder":"tf","game":"Team Fortress","app_id":440,"player_count":24,"max_players":24,"Bots":0,"server_type":"Dedicated","server_os":"Linux","password":true,"vac":true,"version":"7961495","steam_id":85568392924504278,"keywords":["nocrits","nodmgspread","payload","uncletopia"],"game_id":440,"stv_port":27066,"stv_name":"Uncletopia | Frankfurt | 6 | All Maps | STV","players":[{"user_id":348,"name":"CiVillain","steam_id":76561198059617732,"connected_time":1661000000000,"state":"active","ping":58},{"user_id":340,"name":"Economic crisis","steam_id":76561198063562843,"connected_time":2407000000000,"state":"active","ping":57},{"user_id":338,"name":"baballe","steam_id":76561198302448192,"connected_time":2619000000000,"state":"active","ping":40},{"user_id":350,"name":"tone","steam_id":76561197975301462,"connected_time":1653000000000,"state":"active","ping":88},{"user_id":364,"name":"Phalcon","steam_id":76561197987051394,"connected_time":110000000000,"state":"active","ping":75},{"user_id":361,"name":"the grongle","steam_id":76561198989398023,"connected_time":386000000000,"state":"active","ping":105},{"user_id":285,"name":"Jyghc","steam_id":76561198405980575,"connected_time":6323000000000,"state":"active","ping":55},{"user_id":352,"name":"666sammy","steam_id":76561198016607625,"connected_time":1568000000000,"state":"active","ping":86},{"user_id":351,"name":"Deckard","steam_id":76561198004704647,"connected_time":1584000000000,"state":"active","ping":74},{"user_id":301,"name":"Thug Shaker Central","steam_id":76561199065155403,"connected_time":5051000000000,"state":"active","ping":59},{"user_id":349,"name":"El Wiwi","steam_id":76561198134378108,"connected_time":1656000000000,"state":"active","ping":85},{"user_id":353,"name":"pirate","steam_id":76561198281068152,"connected_time":1549000000000,"state":"active","ping":90},{"user_id":362,"name":"dr. coom","steam_id":76561198172193711,"connected_time":374000000000,"state":"active","ping":44},{"user_id":306,"name":"Eric Catman","steam_id":76561198802117294,"connected_time":4378000000000,"state":"active","ping":82},{"user_id":279,"name":"YourLocalStukaPilot","steam_id":76561199096682977,"connected_time":6820000000000,"state":"active","ping":107},{"user_id":363,"name":"NeiroüëΩ·ó©YY ·í™·ó∞·ó©O","steam_id":76561198046743985,"connected_time":279000000000,"state":"active","ping":79},{"user_id":354,"name":"MpJens","steam_id":76561198000347669,"connected_time":1359000000000,"state":"active","ping":49},{"user_id":365,"name":"DarthMurloc_OW","steam_id":76561198075577711,"connected_time":103000000000,"state":"active","ping":75},{"user_id":329,"name":"Lorincel","steam_id":76561198314022154,"connected_time":2939000000000,"state":"active","ping":84},{"user_id":356,"name":"Mr. Watch","steam_id":76561198276103501,"connected_time":1294000000000,"state":"active","ping":86},{"user_id":359,"name":"Jeryx","steam_id":76561197995602803,"connected_time":741000000000,"state":"active","ping":93},{"user_id":357,"name":"Industrial Revolution","steam_id":76561198230811124,"connected_time":1256000000000,"state":"active","ping":57},{"user_id":358,"name":"Monsteh","steam_id":76561198325898181,"connected_time":1256000000000,"state":"active","ping":72},{"user_id":337,"name":"rooliman","steam_id":76561198107767058,"connected_time":2652000000000,"state":"active","ping":90}]},{"server_id":23,"name":"Uncletopia | Frankfurt | 7 | Stopwatch","name_short":"frk-7","host":"frk-1.de.uncletopia.com","port":27075,"enabled":true,"region":"eu","cc":"de","latitude":50.110924,"longitude":8.682127,"reserved":0,"last_update":"0001-01-01T00:00:00Z","name_a2s":"Uncletopia | Frankfurt | 7 | Stopwatch","protocol":17,"map":"workshop/pl_summercoast_rc8e.ugc1761528829","folder":"tf","game":"Team Fortress","app_id":440,"player_count":0,"max_players":24,"Bots":0,"server_type":"Dedicated","server_os":"Linux","password":true,"vac":true,"version":"7961495","steam_id":85568392924742827,"keywords":["nocrits","nodmgspread","payload","uncletopia"],"game_id":440,"stv_port":27076,"stv_name":"Uncletopia | Frankfurt | 7 | Stopwatch | STV","players":null},{"server_id":24,"name":"Uncletopia | Frankfurt | 8 | Community","name_short":"frk-8","host":"frk-1.de.uncletopia.com","port":27085,"enabled":true,"region":"eu","cc":"de","latitude":50.110924,"longitude":8.682127,"reserved":0,"last_update":"0001-01-01T00:00:00Z","name_a2s":"Uncletopia | Frankfurt | 8 | Community","protocol":17,"map":"workshop/pl_emerge_rc2.ugc888027758","folder":"tf","game":"Team Fortress","app_id":440,"player_count":0,"max_players":24,"Bots":0,"server_type":"Dedicated","server_os":"Linux","password":true,"vac":true,"version":"7961495","steam_id":85568392924742828,"keywords":["nocrits","nodmgspread","payload","uncletopia"],"game_id":440,"stv_port":27086,"stv_name":"Uncletopia | Frankfurt | 8 | Community | STV","players":null},{"server_id":202,"name":"Uncletopia | Hong Kong | 1 | All Maps","name_short":"hgk-1","host":"hgk-1.hk.uncletopia.com","port":27015,"enabled":true,"region":"asia","cc":"hk","latitude":22.302711,"longitude":114.177216,"reserved":0,"last_update":"0001-01-01T00:00:00Z","name_a2s":"Uncletopia | Hong Kong | 1 | All Maps","protocol":17,"map":"cp_snakewater_final1","folder":"tf","game":"Team Fortress","app_id":440,"player_count":0,"max_players":24,"Bots":0,"server_type":"Dedicated","server_os":"Linux","password":true,"vac":true,"version":"7961495","steam_id":85568392924494504,"keywords":["cp","nocrits","nodmgspread","uncletopia"],"game_id":440,"stv_port":27016,"stv_name":"Uncletopia | Hong Kong | 1 | All Maps | STV","players":null},{"server_id":1,"name":"Uncletopia | Los Angeles | 1 | All Maps","name_short":"lax-1","host":"lax-1.us.uncletopia.com","port":27015,"enabled":true,"region":"us-west","cc":"us","latitude":33.94279,"longitude":-118.41004,"reserved":0,"last_update":"0001-01-01T00:00:00Z","name_a2s":"Uncletopia | Los Angeles | 1 | All Maps","protocol":17,"map":"koth_badlands","folder":"tf","game":"Team Fortress","app_id":440,"player_count":24,"max_players":24,"Bots":0,"server_type":"Dedicated","server_os":"Linux","password":true,"vac":true,"version":"7961495","steam_id":85568392924469991,"keywords":["cp","nocrits","nodmgspread","uncletopia"],"game_id":440,"stv_port":27016,"stv_name":"Uncletopia | Los Angeles | 1 | All Maps | STV","players":[{"user_id":260,"name":"Jomdac","steam_id":76561198150447896,"connected_time":699000000000,"state":"active","ping":55},{"user_id":255,"name":"GreenBlah","steam_id":76561198009178916,"connected_time":815000000000,"state":"active","ping":73},{"user_id":182,"name":"https://bad-dragon.com","steam_id":76561198086760958,"connected_time":5424000000000,"state":"active","ping":165},{"user_id":262,"name":"-L","steam_id":76561198046074220,"connected_time":591000000000,"state":"active","ping":30},{"user_id":234,"name":"i cant aim","steam_id":76561198065873462,"connected_time":1853000000000,"state":"active","ping":44},{"user_id":257,"name":"dewey","steam_id":76561198132791511,"connected_time":798000000000,"state":"active","ping":53},{"user_id":270,"name":"Hashbrowncow","steam_id":76561198272021902,"connected_time":280000000000,"state":"active","ping":51},{"user_id":235,"name":"Oktayey","steam_id":76561198143213426,"connected_time":1791000000000,"state":"active","ping":53},{"user_id":271,"name":"pop7585","steam_id":76561198149021193,"connected_time":125000000000,"state":"active","ping":116},{"user_id":225,"name":"BrockSpread","steam_id":76561198145924402,"connected_time":2708000000000,"state":"active","ping":73},{"user_id":196,"name":"SneakySneak","steam_id":76561198064847921,"connected_time":4371000000000,"state":"active","ping":96},{"user_id":273,"name":"f2p player (no way)","steam_id":76561199491666080,"connected_time":29000000000,"state":"active","ping":90},{"user_id":250,"name":"S√°bado Gigante","steam_id":76561197994685971,"connected_time":1168000000000,"state":"active","ping":51},{"user_id":251,"name":"Grim","steam_id":76561198016978310,"connected_time":1162000000000,"state":"active","ping":66},{"user_id":243,"name":"mrthugpug1732","steam_id":76561198881200768,"connected_time":1468000000000,"state":"active","ping":59},{"user_id":259,"name":"BaconSimp","steam_id":76561198391337747,"connected_time":746000000000,"state":"active","ping":75},{"user_id":239,"name":"Facehurt","steam_id":76561198028504034,"connected_time":1676000000000,"state":"active","ping":90},{"user_id":240,"name":"SendPie","steam_id":76561198195718925,"connected_time":1669000000000,"state":"active","ping":61},{"user_id":269,"name":"LarryOfAllTrades","steam_id":76561198325492137,"connected_time":382000000000,"state":"active","ping":64},{"user_id":274,"name":"what're ya buyin","steam_id":76561199277633460,"connected_time":13000000000,"state":"spawning","ping":44},{"user_id":265,"name":"Mr. Pockets","steam_id":76561198053657771,"connected_time":555000000000,"state":"active","ping":57},{"user_id":266,"name":"cielael","steam_id":76561198043971956,"connected_time":546000000000,"state":"active","ping":48},{"user_id":267,"name":"danny screamo","steam_id":76561198064312388,"connected_time":522000000000,"state":"active","ping":69},{"user_id":249,"name":"LoverOfFishOil","steam_id":76561198880149623,"connected_time":1335000000000,"state":"active","ping":55}]},{"server_id":112,"name":"Uncletopia | Los Angeles | 2 | All Maps","name_short":"lax-2","host":"lax-1.us.uncletopia.com","port":27025,"enabled":true,"region":"us-west","cc":"us","latitude":33.94279,"longitude":-118.41004,"reserved":0,"last_update":"0001-01-01T00:00:00Z","name_a2s":"Uncletopia | Los Angeles | 2 | All Maps","protocol":17,"map":"pl_pier","folder":"tf","game":"Team Fortress","app_id":440,"player_count":0,"max_players":24,"Bots":0,"server_type":"Dedicated","server_os":"Linux","password":true,"vac":true,"version":"7961495","steam_id":85568392924469992,"keywords":["nocrits","nodmgspread","payload","uncletopia"],"game_id":440,"stv_port":27026,"stv_name":"Uncletopia | Los Angeles | 2 | All Maps | STV","players":null},{"server_id":324,"name":"Uncletopia | Los Angeles | 3 | All Maps","name_short":"lax-3","host":"lax-1.us.uncletopia.com","port":27035,"enabled":true,"region":"us-west","cc":"us","latitude":33.94279,"longitude":-118.41004,"reserved":0,"last_update":"0001-01-01T00:00:00Z","name_a2s":"Uncletopia | Los Angeles | 3 | All Maps","protocol":17,"map":"cp_dustbowl","folder":"tf","game":"Team Fortress","app_id":440,"player_count":0,"max_players":24,"Bots":0,"server_type":"Dedicated","server_os":"Linux","password":true,"vac":true,"version":"7961495","steam_id":85568392924510198,"keywords":["cp","nocrits","nodmgspread","uncletopia"],"game_id":440,"stv_port":27036,"stv_name":"Uncletopia | Los Angeles | 3 | All Maps | STV","players":null},{"server_id":25,"name":"Uncletopia | Los Angeles | 4 | Stopwatch","name_short":"lax-4","host":"lax-1.us.uncletopia.com","port":27045,"enabled":true,"region":"us-west","cc":"us","latitude":33.94279,"longitude":-118.41004,"reserved":0,"last_update":"0001-01-01T00:00:00Z","name_a2s":"Uncletopia | Los Angeles | 4 | Stopwatch","protocol":17,"map":"pl_barnblitz","folder":"tf","game":"Team Fortress","app_id":440,"player_count":0,"max_players":24,"Bots":0,"server_type":"Dedicated","server_os":"Linux","password":true,"vac":true,"version":"7961495","steam_id":85568392924510199,"keywords":["nocrits","nodmgspread","payload","uncletopia"],"game_id":440,"stv_port":27046,"stv_name":"Uncletopia | Los Angeles | 4 | Stopwatch | STV","players":null},{"server_id":11,"name":"Uncletopia | London | 1 | All Maps","name_short":"lon-1","host":"lon-1.uk.uncletopia.com","port":27015,"enabled":true,"region":"eu","cc":"gb","latitude":51.509865,"longitude":-0.118092,"reserved":0,"last_update":"0001-01-01T00:00:00Z","name_a2s":"Uncletopia | London | 1 | All Maps","protocol":17,"map":"pl_upward","folder":"tf","game":"Team Fortress","app_id":440,"player_count":24,"max_players":24,"Bots":0,"server_type":"Dedicated","server_os":"Linux","password":true,"vac":true,"version":"7961495","steam_id":85568392924367362,"keywords":["nocrits","nodmgspread","payload","uncletopia"],"game_id":440,"stv_port":27016,"stv_name":"Uncletopia | London | 1 | All Maps | STV","players":[{"user_id":709,"name":"trite","steam_id":76561197983765323,"connected_time":3560000000000,"state":"active","ping":55},{"user_id":723,"name":"get off my lawn","steam_id":76561198281175098,"connected_time":2473000000000,"state":"active","ping":52},{"user_id":746,"name":"Marquis de Hoto","steam_id":76561198080687708,"connected_time":419000000000,"state":"active","ping":75},{"user_id":684,"name":"Slifer the Samurai Furry","steam_id":76561198062255803,"connected_time":6559000000000,"state":"active","ping":87},{"user_id":747,"name":"Nishimura","steam_id":76561198440837262,"connected_time":321000000000,"state":"active","ping":50},{"user_id":730,"name":"beebo","steam_id":76561199120277007,"connected_time":2012000000000,"state":"active","ping":102},{"user_id":738,"name":"Minimi","steam_id":76561198873850443,"connected_time":1246000000000,"state":"active","ping":39},{"user_id":722,"name":"Prome","steam_id":76561199050383942,"connected_time":2510000000000,"state":"active","ping":56},{"user_id":742,"name":"Faustino","steam_id":76561198061771785,"connected_time":940000000000,"state":"active","ping":70},{"user_id":734,"name":"Terminally Online Weeb [Dexgod]","steam_id":76561198017130786,"connected_time":1413000000000,"state":"active","ping":135},{"user_id":687,"name":"SOPHIIEE","steam_id":76561198443798981,"connected_time":6321000000000,"state":"active","ping":51},{"user_id":698,"name":"Mygod561","steam_id":76561198798799068,"connected_time":4868000000000,"state":"active","ping":33},{"user_id":748,"name":"TinyGrunt16","steam_id":76561199064951235,"connected_time":295000000000,"state":"active","ping":132},{"user_id":708,"name":"Aaron","steam_id":76561197990046953,"connected_time":3584000000000,"state":"active","ping":59},{"user_id":732,"name":"Cabbch","steam_id":76561198045955679,"connected_time":1597000000000,"state":"active","ping":45},{"user_id":743,"name":"R0mulone","steam_id":76561198352513792,"connected_time":874000000000,"state":"active","ping":62},{"user_id":726,"name":"Ye","steam_id":76561198354719262,"connected_time":2385000000000,"state":"active","ping":94},{"user_id":701,"name":"Purps","steam_id":76561198053886680,"connected_time":3865000000000,"state":"active","ping":46},{"user_id":744,"name":"GoblinGaming","steam_id":76561198360395476,"connected_time":684000000000,"state":"active","ping":55},{"user_id":736,"name":"King Goomba","steam_id":76561198146467813,"connected_time":1301000000000,"state":"active","ping":65},{"user_id":739,"name":"Sicmendor ...","steam_id":76561197962107049,"connected_time":1062000000000,"state":"active","ping":72},{"user_id":700,"name":"CubityFirst","steam_id":76561198107654171,"connected_time":4301000000000,"state":"active","ping":49},{"user_id":712,"name":"Corvax","steam_id":76561198127439185,"connected_time":3450000000000,"state":"active","ping":57},{"user_id":719,"name":"BreadBubbles","steam_id":76561198174332826,"connected_time":2724000000000,"state":"active","ping":52}]},{"server_id":114,"name":"Uncletopia | London | 2 | All Maps","name_short":"lon-2","host":"lon-1.uk.uncletopia.com","port":27025,"enabled":true,"region":"eu","cc":"gb","latitude":51.509865,"longitude":-0.118092,"reserved":0,"last_update":"0001-01-01T00:00:00Z","name_a2s":"Uncletopia | London | 2 | All Maps","protocol":17,"map":"cp_altitude","folder":"tf","game":"Team Fortress","app_id":440,"player_count":0,"max_players":24,"Bots":0,"server_type":"Dedicated","server_os":"Linux","password":true,"vac":true,"version":"7961495","steam_id":85568392924470941,"keywords":["cp","nocrits","nodmgspread","uncletopia"],"game_id":440,"stv_port":27026,"stv_name":"Uncletopia | London | 2 | All Maps | STV","players":null},{"server_id":320,"name":"Uncletopia | London | 3 | All Maps","name_short":"lon-3","host":"lon-1.uk.uncletopia.com","port":27035,"enabled":true,"region":"eu","cc":"gb","latitude":51.509865,"longitude":-0.118092,"reserved":0,"last_update":"0001-01-01T00:00:00Z","name_a2s":"Uncletopia | London | 3 | All Maps","protocol":17,"map":"pl_badwater","folder":"tf","game":"Team Fortress","app_id":440,"player_count":24,"max_players":24,"Bots":0,"server_type":"Dedicated","server_os":"Linux","password":true,"vac":true,"version":"7961495","steam_id":85568392924510192,"keywords":["nocrits","nodmgspread","payload","uncletopia"],"game_id":440,"stv_port":27036,"stv_name":"Uncletopia | London | 3 | All Maps | STV","players":[{"user_id":345,"name":"Hyppy ja liipasin pohjaan :D","steam_id":76561198080669698,"connected_time":2713000000000,"state":"active","ping":100},{"user_id":353,"name":"The Lady","steam_id":76561198029895809,"connected_time":1380000000000,"state":"active","ping":82},{"user_id":351,"name":"Charlie Kelly","steam_id":76561198211599767,"connected_time":1889000000000,"state":"active","ping":54},{"user_id":328,"name":"God","steam_id":76561199049925843,"connected_time":3519000000000,"state":"active","ping":110},{"user_id":356,"name":"TomNoSocks","steam_id":76561198114071046,"connected_time":702000000000,"state":"active","ping":60},{"user_id":357,"name":"Stupid Sexy Flanders #Save tf2","steam_id":76561198136311983,"connected_time":639000000000,"state":"active","ping":131},{"user_id":339,"name":"Voks_","steam_id":76561198159687785,"connected_time":3092000000000,"state":"active","ping":64},{"user_id":315,"name":"Cataleptic","steam_id":76561197997966949,"connected_time":4084000000000,"state":"active","ping":59},{"user_id":305,"name":"clcraven","steam_id":76561198004637699,"connected_time":4379000000000,"state":"active","ping":59},{"user_id":350,"name":"sarii ‚òÜ","steam_id":76561199155102111,"connected_time":2116000000000,"state":"active","ping":80},{"user_id":330,"name":"sjor Mikic","steam_id":76561199219053205,"connected_time":3463000000000,"state":"active","ping":139},{"user_id":294,"name":"marty","steam_id":76561198082934864,"connected_time":4785000000000,"state":"active","ping":59},{"user_id":358,"name":"BenteBent","steam_id":76561198297920637,"connected_time":639000000000,"state":"active","ping":34},{"user_id":363,"name":"Crazy Ivan","steam_id":76561197993072059,"connected_time":579000000000,"state":"active","ping":130},{"user_id":364,"name":"Sonofawesker","steam_id":76561198149753537,"connected_time":396000000000,"state":"active","ping":53},{"user_id":332,"name":"Baked.","steam_id":76561198011531333,"connected_time":3445000000000,"state":"active","ping":107},{"user_id":334,"name":"Mono","steam_id":76561198114569493,"connected_time":3380000000000,"state":"active","ping":42},{"user_id":352,"name":"Baked Beans Gaming","steam_id":76561199177778966,"connected_time":1758000000000,"state":"active","ping":46},{"user_id":354,"name":"froglids","steam_id":76561198045466919,"connected_time":997000000000,"state":"active","ping":73},{"user_id":272,"name":"Mr_Pulse_","steam_id":76561198095001602,"connected_time":6683000000000,"state":"active","ping":107},{"user_id":360,"name":"iswaxan","steam_id":76561199214988157,"connected_time":631000000000,"state":"active","ping":79},{"user_id":347,"name":"Finn","steam_id":76561198179960193,"connected_time":2675000000000,"state":"active","ping":37},{"user_id":366,"name":"noel","steam_id":76561198128280883,"connected_time":335000000000,"state":"active","ping":129},{"user_id":342,"name":"Foggi","steam_id":76561198050078642,"connected_time":2959000000000,"state":"active","ping":58}]},{"server_id":321,"name":"Uncletopia | London | 4 | All Maps","name_short":"lon-4","host":"lon-1.uk.uncletopia.com","port":27045,"enabled":true,"region":"eu","cc":"gb","latitude":51.509865,"longitude":-0.118092,"reserved":0,"last_update":"0001-01-01T00:00:00Z","name_a2s":"Uncletopia | London | 4 | All Maps","protocol":17,"map":"pl_badwater","folder":"tf","game":"Team Fortress","app_id":440,"player_count":0,"max_players":24,"Bots":0,"server_type":"Dedicated","server_os":"Linux","password":true,"vac":true,"version":"7961495","steam_id":85568392924510193,"keywords":["nocrits","nodmgspread","payload","uncletopia"],"game_id":440,"stv_port":27046,"stv_name":"Uncletopia | London | 4 | All Maps | STV","players":null},{"server_id":21,"name":"Uncletopia | London | 5 | All Maps","name_short":"lon-5","host":"lon-1.uk.uncletopia.com","port":27055,"enabled":true,"region":"eu","cc":"gb","latitude":51.509865,"longitude":-0.118092,"reserved":0,"last_update":"0001-01-01T00:00:00Z","name_a2s":"Uncletopia | London | 5 | All Maps","protocol":17,"map":"pl_pier","folder":"tf","game":"Team Fortress","app_id":440,"player_count":24,"max_players":24,"Bots":0,"server_type":"Dedicated","server_os":"Linux","password":true,"vac":true,"version":"7961495","steam_id":85568392924742829,"keywords":["nocrits","nodmgspread","payload","uncletopia"],"game_id":440,"stv_port":27056,"stv_name":"Uncletopia | London | 5 | All Maps | STV","players":[{"user_id":464,"name":"Jouppi","steam_id":76561198063725468,"connected_time":829000000000,"state":"active","ping":95},{"user_id":470,"name":"Borat","steam_id":76561198122226417,"connected_time":195000000000,"state":"active","ping":38},{"user_id":466,"name":"Fallen_Scholar","steam_id":76561198055468709,"connected_time":493000000000,"state":"active","ping":61},{"user_id":461,"name":"ÔΩÑÔΩÖÔΩìÔΩãÔΩíÔΩÅÔΩô","steam_id":76561198805536170,"connected_time":1117000000000,"state":"active","ping":77},{"user_id":316,"name":"phxntom.","steam_id":76561198835696469,"connected_time":10373000000000,"state":"active","ping":87},{"user_id":468,"name":"cuddle","steam_id":76561198805181599,"connected_time":236000000000,"state":"active","ping":53},{"user_id":436,"name":"abdpocoyo","steam_id":76561198094321481,"connected_time":3046000000000,"state":"active","ping":59},{"user_id":445,"name":"Dreamy Snoozer","steam_id":76561198268184742,"connected_time":2400000000000,"state":"active","ping":55},{"user_id":457,"name":"HereComesDarius","steam_id":76561199087615999,"connected_time":1491000000000,"state":"active","ping":41},{"user_id":446,"name":"drwhut","steam_id":76561198070218857,"connected_time":2340000000000,"state":"active","ping":45},{"user_id":447,"name":"Starly","steam_id":76561198055771921,"connected_time":2171000000000,"state":"active","ping":57},{"user_id":459,"name":"Zerfesh","steam_id":76561198117534358,"connected_time":1300000000000,"state":"active","ping":96},{"user_id":448,"name":"Ludwig","steam_id":76561198438861026,"connected_time":2155000000000,"state":"active","ping":57},{"user_id":435,"name":"ru+","steam_id":76561198103740209,"connected_time":3205000000000,"state":"active","ping":51},{"user_id":422,"name":"OakeySmokey","steam_id":76561198029525313,"connected_time":4095000000000,"state":"active","ping":55},{"user_id":472,"name":"Granny","steam_id":76561198335585737,"connected_time":172000000000,"state":"active","ping":50},{"user_id":460,"name":"Zu","steam_id":76561198054192354,"connected_time":1291000000000,"state":"active","ping":47},{"user_id":469,"name":"Comfy Chair","steam_id":76561198310462086,"connected_time":224000000000,"state":"active","ping":55},{"user_id":449,"name":"harryhux","steam_id":76561198228052940,"connected_time":2142000000000,"state":"active","ping":36},{"user_id":450,"name":"spes-marine42","steam_id":76561199404806029,"connected_time":2108000000000,"state":"active","ping":88},{"user_id":471,"name":"I_Forgot_My_Name","steam_id":76561198173424578,"connected_time":185000000000,"state":"active","ping":80},{"user_id":438,"name":"shr1mple","steam_id":76561198173537027,"connected_time":2865000000000,"state":"active","ping":46},{"user_id":473,"name":"_Starlight_","steam_id":76561197993885738,"connected_time":167000000000,"state":"active","ping":79},{"user_id":474,"name":"Û†Å≥‚Åß‚Åß Kruthal","steam_id":76561198245726582,"connected_time":163000000000,"state":"active","ping":79}]},{"server_id":22,"name":"Uncletopia | London | 6 | All Maps","name_short":"lon-6","host":"lon-1.uk.uncletopia.com","port":27065,"enabled":true,"region":"eu","cc":"gb","latitude":51.509865,"longitude":-0.118092,"reserved":0,"last_update":"0001-01-01T00:00:00Z","name_a2s":"Uncletopia | London | 6 | All Maps","protocol":17,"map":"cp_process_final","folder":"tf","game":"Team Fortress","app_id":440,"player_count":0,"max_players":24,"Bots":0,"server_type":"Dedicated","server_os":"Linux","password":true,"vac":true,"version":"7961495","steam_id":85568392924742830,"keywords":["cp","nocrits","nodmgspread","uncletopia"],"game_id":440,"stv_port":27066,"stv_name":"Uncletopia | London | 6 | All Maps | STV","players":null},{"server_id":40,"name":"Uncletopia | London | 7 | Stopwatch","name_short":"lon-7","host":"lon-1.uk.uncletopia.com","port":27075,"enabled":true,"region":"eu","cc":"gb","latitude":51.509865,"longitude":-0.118092,"reserved":0,"last_update":"0001-01-01T00:00:00Z","name_a2s":"Uncletopia | London | 7 | Stopwatch","protocol":17,"map":"workshop/pl_badwater_pro_v12.ugc2142942074","folder":"tf","game":"Team Fortress","app_id":440,"player_count":0,"max_players":24,"Bots":0,"server_type":"Dedicated","server_os":"Linux","password":true,"vac":true,"version":"7961495","steam_id":85568392924964314,"keywords":["nocrits","nodmgspread","payload","uncletopia"],"game_id":440,"stv_port":27076,"stv_name":"Uncletopia | London | 7 | Stopwatch | STV","players":null},{"server_id":41,"name":"Uncletopia | London | 8 | Community","name_short":"lon-8","host":"lon-1.uk.uncletopia.com","port":27085,"enabled":true,"region":"eu","cc":"gb","latitude":51.509865,"longitude":-0.118092,"reserved":0,"last_update":"0001-01-01T00:00:00Z","name_a2s":"Uncletopia | London | 8 | Community","protocol":17,"map":"workshop/koth_synthetic_rc6a.ugc1549817316","folder":"tf","game":"Team Fortress","app_id":440,"player_count":0,"max_players":24,"Bots":0,"server_type":"Dedicated","server_os":"Linux","password":true,"vac":true,"version":"7961495","steam_id":85568392924964315,"keywords":["cp","nocrits","nodmgspread","uncletopia"],"game_id":440,"stv_port":27086,"stv_name":"Uncletopia | London | 8 | Community | STV","players":null},{"server_id":300,"name":"Uncletopia | Montr√©al | 1 | All Maps","name_short":"mtl-1","host":"mtl-1.ca.uncletopia.com","port":27015,"enabled":true,"region":"us-east","cc":"ca","latitude":45.50889,"longitude":-73.56167,"reserved":0,"last_update":"0001-01-01T00:00:00Z","name_a2s":"","protocol":0,"map":"","folder":"","game":"","app_id":0,"player_count":6,"max_players":0,"Bots":0,"server_type":"","server_os":"","password":false,"vac":false,"version":"","steam_id":0,"keywords":null,"game_id":0,"stv_port":0,"stv_name":"","players":[{"user_id":223,"name":"XboxGold14dayfreetrial","steam_id":76561199087480628,"connected_time":800000000000,"state":"active","ping":110},{"user_id":233,"name":"lushtakular","steam_id":76561198840080823,"connected_time":26000000000,"state":"active","ping":72},{"user_id":224,"name":"YT_Redfox","steam_id":76561199264206499,"connected_time":790000000000,"state":"active","ping":59},{"user_id":220,"name":"KritAyah","steam_id":76561199472182973,"connected_time":1292000000000,"state":"active","ping":119},{"user_id":211,"name":"Wafflehead","steam_id":76561198053539741,"connected_time":5672000000000,"state":"active","ping":35},{"user_id":50,"name":"Noahthecrazy1","steam_id":76561199152995909,"connected_time":16746000000000,"state":"active","ping":59}]},{"server_id":301,"name":"Uncletopia | Montr√©al | 2 | ???","name_short":"mtl-2","host":"mtl-1.ca.uncletopia.com","port":27025,"enabled":true,"region":"us-east","cc":"ca","latitude":45.50889,"longitude":-73.56167,"reserved":0,"last_update":"0001-01-01T00:00:00Z","name_a2s":"","protocol":0,"map":"","folder":"","game":"","app_id":0,"player_count":0,"max_players":0,"Bots":0,"server_type":"","server_os":"","password":false,"vac":false,"version":"","steam_id":0,"keywords":null,"game_id":0,"stv_port":0,"stv_name":"","players":null},{"server_id":13,"name":"Uncletopia | New York City | 1 | All Maps","name_short":"nyc-1","host":"nyc-1.us.uncletopia.com","port":27015,"enabled":true,"region":"us-east","cc":"us","latitude":40.73061,"longitude":-73.93524,"reserved":0,"last_update":"0001-01-01T00:00:00Z","name_a2s":"Uncletopia | New York City | 1 | All Maps","protocol":17,"map":"pl_barnblitz","folder":"tf","game":"Team Fortress","app_id":440,"player_count":22,"max_players":24,"Bots":0,"server_type":"Dedicated","server_os":"Linux","password":true,"vac":true,"version":"7961495","steam_id":85568392924469993,"keywords":["nocrits","nodmgspread","payload","uncletopia"],"game_id":440,"stv_port":27016,"stv_name":"Uncletopia | New York City | 1 | All Maps | STV","players":[{"user_id":385,"name":"trappy (autism)","steam_id":76561198402801140,"connected_time":85000000000,"state":"active","ping":76},{"user_id":361,"name":"Shemply","steam_id":76561198193658910,"connected_time":2513000000000,"state":"active","ping":90},{"user_id":384,"name":"Idk","steam_id":76561198971629959,"connected_time":86000000000,"state":"active","ping":127},{"user_id":368,"name":"thank you","steam_id":76561198016826181,"connected_time":1813000000000,"state":"active","ping":62},{"user_id":381,"name":"rapscallion","steam_id":76561198188722751,"connected_time":695000000000,"state":"active","ping":108},{"user_id":387,"name":"playr","steam_id":76561198354622099,"connected_time":63000000000,"state":"active","ping":79},{"user_id":386,"name":"Anti fun enforcement","steam_id":76561199121285443,"connected_time":85000000000,"state":"active","ping":45},{"user_id":380,"name":"INFINITE","steam_id":76561197971285557,"connected_time":859000000000,"state":"active","ping":45},{"user_id":382,"name":"Julio Foolio","steam_id":76561198407122992,"connected_time":618000000000,"state":"active","ping":54},{"user_id":383,"name":"cellogamer","steam_id":76561198016937098,"connected_time":278000000000,"state":"active","ping":50},{"user_id":349,"name":"Mario2109","steam_id":76561198431842219,"connected_time":3147000000000,"state":"active","ping":43},{"user_id":337,"name":"--_Cook_--","steam_id":76561198080855748,"connected_time":3952000000000,"state":"active","ping":59},{"user_id":388,"name":"ContrivanCe","steam_id":76561197989083619,"connected_time":58000000000,"state":"active","ping":102},{"user_id":372,"name":"Rat under your floors","steam_id":76561198105613110,"connected_time":1745000000000,"state":"active","ping":61},{"user_id":377,"name":"NovaSc6ut","steam_id":76561198277163301,"connected_time":1157000000000,"state":"active","ping":85},{"user_id":373,"name":"CrazyKermitRubes","steam_id":76561198009065204,"connected_time":1720000000000,"state":"active","ping":60},{"user_id":287,"name":"rainmaker","steam_id":76561198172454407,"connected_time":7502000000000,"state":"active","ping":91},{"user_id":254,"name":"Hydroxianchaos","steam_id":76561198043786828,"connected_time":11108000000000,"state":"active","ping":38},{"user_id":389,"name":"Small tiny feet","steam_id":76561199141538581,"connected_time":58000000000,"state":"active","ping":131},{"user_id":390,"name":"Hatz","steam_id":76561198023297378,"connected_time":48000000000,"state":"active","ping":36},{"user_id":302,"name":"Reality Loser","steam_id":76561198001541433,"connected_time":6884000000000,"state":"active","ping":74},{"user_id":324,"name":"Ian","steam_id":76561199078852180,"connected_time":5308000000000,"state":"active","ping":57}]},{"server_id":14,"name":"Uncletopia | New York City | 2 | All Maps","name_short":"nyc-2","host":"nyc-1.us.uncletopia.com","port":27025,"enabled":true,"region":"us-east","cc":"us","latitude":40.73061,"longitude":-73.93524,"reserved":0,"last_update":"0001-01-01T00:00:00Z","name_a2s":"Uncletopia | New York City | 2 | All Maps","protocol":17,"map":"koth_sawmill","folder":"tf","game":"Team Fortress","app_id":440,"player_count":24,"max_players":24,"Bots":0,"server_type":"Dedicated","server_os":"Linux","password":true,"vac":true,"version":"7961495","steam_id":85568392924469994,"keywords":["cp","nocrits","nodmgspread","uncletopia"],"game_id":440,"stv_port":27026,"stv_name":"Uncletopia | New York City | 2 | All Maps | STV","players":[{"user_id":413,"name":"bookreader","steam_id":76561198978568007,"connected_time":613000000000,"state":"active","ping":35},{"user_id":411,"name":"fazecumshot69","steam_id":76561199248475270,"connected_time":711000000000,"state":"active","ping":133},{"user_id":297,"name":"NamelessBear‚Ñ¢","steam_id":76561198014564006,"connected_time":9485000000000,"state":"active","ping":56},{"user_id":392,"name":"KBoneski ‚ô°","steam_id":76561198307409065,"connected_time":1852000000000,"state":"active","ping":88},{"user_id":374,"name":"A_Malebolgia","steam_id":76561198097722818,"connected_time":3079000000000,"state":"active","ping":84},{"user_id":380,"name":"the pest","steam_id":76561198826298849,"connected_time":2560000000000,"state":"active","ping":91},{"user_id":400,"name":"Okpar","steam_id":76561199221067945,"connected_time":1283000000000,"state":"active","ping":89},{"user_id":399,"name":"Primal","steam_id":76561197983118203,"connected_time":1486000000000,"state":"active","ping":62},{"user_id":383,"name":"BU   O","steam_id":76561198871738546,"connected_time":2436000000000,"state":"active","ping":62},{"user_id":410,"name":"Bashirider","steam_id":76561198260522253,"connected_time":773000000000,"state":"active","ping":53},{"user_id":384,"name":"twigwolf4","steam_id":76561198146446356,"connected_time":2424000000000,"state":"active","ping":63},{"user_id":356,"name":"Sunmist","steam_id":76561198027784824,"connected_time":4389000000000,"state":"active","ping":52},{"user_id":385,"name":"vastrobotmax","steam_id":76561198417110724,"connected_time":2403000000000,"state":"active","ping":72},{"user_id":414,"name":"murderous deer","steam_id":76561198350832152,"connected_time":348000000000,"state":"active","ping":56},{"user_id":407,"name":"Great","steam_id":76561198895516433,"connected_time":1223000000000,"state":"active","ping":58},{"user_id":394,"name":"Trent Alexander-Arnold","steam_id":76561199497166008,"connected_time":1657000000000,"state":"active","ping":47},{"user_id":395,"name":"BoxOfStaples","steam_id":76561198834773017,"connected_time":1627000000000,"state":"active","ping":102},{"user_id":387,"name":"Ask Nicely For Heals","steam_id":76561198138478907,"connected_time":2315000000000,"state":"active","ping":72},{"user_id":409,"name":"GO Dodgers","steam_id":76561198023737383,"connected_time":914000000000,"state":"active","ping":70},{"user_id":401,"name":"–ü–≤—Ç –î–∏–Ω–≥–æ","steam_id":76561198119683217,"connected_time":1269000000000,"state":"active","ping":80},{"user_id":368,"name":"epsilene","steam_id":76561198027468624,"connected_time":3456000000000,"state":"active","ping":42},{"user_id":396,"name":"sock","steam_id":76561199117597830,"connected_time":1597000000000,"state":"active","ping":65},{"user_id":398,"name":"PyroEagle","steam_id":76561198296434231,"connected_time":1565000000000,"state":"active","ping":87},{"user_id":403,"name":"that fat croc from donkey kong","steam_id":76561198159172495,"connected_time":1246000000000,"state":"active","ping":137}]},{"server_id":15,"name":"Uncletopia | New York City | 3 | Stopwatch","name_short":"nyc-3","host":"nyc-1.us.uncletopia.com","port":27035,"enabled":true,"region":"us-east","cc":"us","latitude":40.73061,"longitude":-73.93524,"reserved":0,"last_update":"0001-01-01T00:00:00Z","name_a2s":"Uncletopia | New York City | 3 | Stopwatch","protocol":17,"map":"workshop/koth_ashville_final.ugc2130459942","folder":"tf","game":"Team Fortress","app_id":440,"player_count":20,"max_players":24,"Bots":0,"server_type":"Dedicated","server_os":"Linux","password":true,"vac":true,"version":"7961495","steam_id":85568392924742820,"keywords":["cp","nocrits","nodmgspread","uncletopia"],"game_id":440,"stv_port":27036,"stv_name":"Uncletopia | New York City | 3 | Stopwatch | STV","players":[{"user_id":397,"name":"Asuka Langley","steam_id":76561198157732609,"connected_time":645000000000,"state":"active","ping":112},{"user_id":398,"name":"nav","steam_id":76561198872608266,"connected_time":603000000000,"state":"active","ping":66},{"user_id":381,"name":"Vapor Man","steam_id":76561198210173112,"connected_time":2104000000000,"state":"active","ping":110},{"user_id":406,"name":"IronStriker","steam_id":76561199059487122,"connected_time":169000000000,"state":"active","ping":105},{"user_id":409,"name":"Pork Soda","steam_id":76561198119575082,"connected_time":42000000000,"state":"active","ping":60},{"user_id":408,"name":"Lunacy","steam_id":76561198400892015,"connected_time":120000000000,"state":"active","ping":86},{"user_id":410,"name":"BarrowBaron","steam_id":76561198013633236,"connected_time":26000000000,"state":"spawning","ping":75},{"user_id":343,"name":"(‚óî) Neville","steam_id":76561198025637970,"connected_time":4872000000000,"state":"active","ping":60},{"user_id":366,"name":"SomeRandomCat","steam_id":76561199107044061,"connected_time":3083000000000,"state":"active","ping":89},{"user_id":380,"name":"/G/ blake's disciple","steam_id":76561198207987376,"connected_time":2353000000000,"state":"active","ping":73},{"user_id":411,"name":"googa","steam_id":76561198133130452,"connected_time":15000000000,"state":"active","ping":143},{"user_id":396,"name":"XxHollowninjaxX","steam_id":76561199054048217,"connected_time":817000000000,"state":"active","ping":89},{"user_id":404,"name":"Dreysidel","steam_id":76561198056496183,"connected_time":217000000000,"state":"active","ping":62},{"user_id":354,"name":"Room_237","steam_id":76561199135081315,"connected_time":4306000000000,"state":"active","ping":66},{"user_id":405,"name":"Heartgold","steam_id":76561199062592062,"connected_time":199000000000,"state":"active","ping":96},{"user_id":394,"name":"Toripollo","steam_id":76561198251665862,"connected_time":1458000000000,"state":"active","ping":103},{"user_id":378,"name":"GiraffeMan","steam_id":76561198042104084,"connected_time":2445000000000,"state":"active","ping":59},{"user_id":313,"name":"N00SE","steam_id":76561198211473307,"connected_time":5777000000000,"state":"active","ping":75},{"user_id":395,"name":"Thequirka (regular trackpad use","steam_id":76561198968058652,"connected_time":1456000000000,"state":"active","ping":123},{"user_id":401,"name":"8UC33","steam_id":76561198027690865,"connected_time":475000000000,"state":"active","ping":81}]},{"server_id":16,"name":"Uncletopia | New York City | 4 | Community","name_short":"nyc-4","host":"nyc-1.us.uncletopia.com","port":27045,"enabled":true,"region":"us-east","cc":"us","latitude":40.73061,"longitude":-73.93524,"reserved":0,"last_update":"0001-01-01T00:00:00Z","name_a2s":"Uncletopia | New York City | 4 | Community","protocol":17,"map":"workshop/koth_bagel_rc6.ugc2514036946","folder":"tf","game":"Team Fortress","app_id":440,"player_count":0,"max_players":24,"Bots":0,"server_type":"Dedicated","server_os":"Linux","password":true,"vac":true,"version":"7961495","steam_id":85568392924742821,"keywords":["cp","nocrits","nodmgspread","uncletopia"],"game_id":440,"stv_port":27046,"stv_name":"Uncletopia | New York City | 4 | Community | STV","players":null},{"server_id":142,"name":"Uncletopia | S√£o Paulo | 1 | All Maps","name_short":"sao-1","host":"sao-1.br.uncletopia.com","port":27015,"enabled":true,"region":"sa","cc":"br","latitude":-23.533773,"longitude":-46.62529,"reserved":0,"last_update":"0001-01-01T00:00:00Z","name_a2s":"Uncletopia | S√£o Paulo | 1 | All Maps","protocol":17,"map":"koth_highpass","folder":"tf","game":"Team Fortress","app_id":440,"player_count":6,"max_players":24,"Bots":0,"server_type":"Dedicated","server_os":"Linux","password":true,"vac":true,"version":"7961495","steam_id":85568392924469996,"keywords":["cp","nocrits","nodmgspread","uncletopia"],"game_id":440,"stv_port":27016,"stv_name":"Uncletopia | S√£o Paulo | 1 | All Maps | STV","players":[{"user_id":25,"name":"angelgamer","steam_id":76561198127572302,"connected_time":1456000000000,"state":"active","ping":105},{"user_id":26,"name":"„ÉØ„É≥„Ç´","steam_id":76561199060636633,"connected_time":1000000000000,"state":"active","ping":136},{"user_id":27,"name":"admouse","steam_id":76561198251951784,"connected_time":370000000000,"state":"active","ping":33},{"user_id":28,"name":"Meth","steam_id":76561199077281700,"connected_time":355000000000,"state":"active","ping":328},{"user_id":29,"name":"matheus_whatsapp","steam_id":76561199359501901,"connected_time":260000000000,"state":"active","ping":33},{"user_id":30,"name":"Molina","steam_id":76561197999741409,"connected_time":35000000000,"state":"active","ping":45}]},{"server_id":143,"name":"Uncletopia | S√£o Paulo | 2 | Community","name_short":"sao-2","host":"sao-2.br.uncletopia.com","port":27015,"enabled":true,"region":"sa","cc":"br","latitude":-23.533773,"longitude":-46.62529,"reserved":0,"last_update":"0001-01-01T00:00:00Z","name_a2s":"Uncletopia | S√£o Paulo | 2 | Community","protocol":17,"map":"workshop/koth_product_final.ugc454272353","folder":"tf","game":"Team Fortress","app_id":440,"player_count":0,"max_players":24,"Bots":0,"server_type":"Dedicated","server_os":"Linux","password":true,"vac":true,"version":"7961495","steam_id":85568392924485349,"keywords":["cp","nocrits","nodmgspread","uncletopia"],"game_id":440,"stv_port":27016,"stv_name":"Uncletopia | S√£o Paulo | 2 | Community | STV","players":null},{"server_id":7,"name":"Uncletopia | Seattle | 1 | All Maps","name_short":"sea-1","host":"sea-1.us.uncletopia.com","port":27015,"enabled":true,"region":"us-west","cc":"us","latitude":47.608013,"longitude":-122.33517,"reserved":0,"last_update":"0001-01-01T00:00:00Z","name_a2s":"Uncletopia | Seattle | 1 | All Maps","protocol":17,"map":"cp_dustbowl","folder":"tf","game":"Team Fortress","app_id":440,"player_count":24,"max_players":24,"Bots":0,"server_type":"Dedicated","server_os":"Linux","password":true,"vac":true,"version":"7961495","steam_id":85568392924469997,"keywords":["cp","nocrits","nodmgspread","uncletopia"],"game_id":440,"stv_port":27016,"stv_name":"Uncletopia | Seattle | 1 | All Maps | STV","players":[{"user_id":412,"name":"Thunder","steam_id":76561198097721532,"connected_time":3874000000000,"state":"active","ping":72},{"user_id":419,"name":"Apollo","steam_id":76561198162364702,"connected_time":2806000000000,"state":"active","ping":45},{"user_id":449,"name":"Mitchell","steam_id":76561197972922328,"connected_time":830000000000,"state":"active","ping":75},{"user_id":440,"name":"The Super Mario Bros. Movie","steam_id":76561198871692156,"connected_time":1165000000000,"state":"active","ping":48},{"user_id":441,"name":"viedoamges","steam_id":76561198025295263,"connected_time":1146000000000,"state":"active","ping":125},{"user_id":452,"name":"Sir-Samuraialot","steam_id":76561198885712212,"connected_time":772000000000,"state":"active","ping":124},{"user_id":434,"name":"ZEKKER","steam_id":76561197967968980,"connected_time":1623000000000,"state":"active","ping":37},{"user_id":425,"name":"EdxTheFig","steam_id":76561198108650109,"connected_time":2501000000000,"state":"active","ping":70},{"user_id":436,"name":"SandyMany","steam_id":76561198183098099,"connected_time":1194000000000,"state":"active","ping":47},{"user_id":458,"name":"Pirate Gaming","steam_id":76561199247095754,"connected_time":308000000000,"state":"active","ping":87},{"user_id":447,"name":"Yakashama","steam_id":76561198204869719,"connected_time":920000000000,"state":"active","ping":42},{"user_id":459,"name":"greens beans","steam_id":76561198153611491,"connected_time":126000000000,"state":"active","ping":44},{"user_id":435,"name":"Renz","steam_id":76561198118995036,"connected_time":1423000000000,"state":"active","ping":42},{"user_id":423,"name":"Skoad","steam_id":76561198104650528,"connected_time":2680000000000,"state":"active","ping":76},{"user_id":397,"name":"Grand","steam_id":76561198290143399,"connected_time":4747000000000,"state":"active","ping":74},{"user_id":454,"name":"Veyrm","steam_id":76561199030699229,"connected_time":712000000000,"state":"active","ping":59},{"user_id":410,"name":"Rustyorion","steam_id":76561198439186347,"connected_time":3968000000000,"state":"active","ping":54},{"user_id":448,"name":"dab","steam_id":76561197997990613,"connected_time":839000000000,"state":"active","ping":99},{"user_id":438,"name":"jacix3 [silly doggie :3]","steam_id":76561198205004165,"connected_time":1179000000000,"state":"active","ping":58},{"user_id":439,"name":"Peppy","steam_id":76561198866629645,"connected_time":1178000000000,"state":"active","ping":58},{"user_id":455,"name":"vibes","steam_id":76561198050561115,"connected_time":635000000000,"state":"active","ping":70},{"user_id":411,"name":"Chuckles_Tuckles","steam_id":76561198962754911,"connected_time":3935000000000,"state":"active","ping":93},{"user_id":445,"name":"‚Üü ‚Üü callie ‚Üü ‚Üü","steam_id":76561198058199952,"connected_time":976000000000,"state":"active","ping":43},{"user_id":422,"name":"onionman0106","steam_id":76561199067766868,"connected_time":2734000000000,"state":"active","ping":41}]},{"server_id":119,"name":"Uncletopia | Seattle | 2 | All Maps","name_short":"sea-2","host":"sea-1.us.uncletopia.com","port":27025,"enabled":true,"region":"us-west","cc":"us","latitude":47.608013,"longitude":-122.33517,"reserved":0,"last_update":"0001-01-01T00:00:00Z","name_a2s":"Uncletopia | Seattle | 2 | All Maps","protocol":17,"map":"koth_viaduct","folder":"tf","game":"Team Fortress","app_id":440,"player_count":21,"max_players":24,"Bots":0,"server_type":"Dedicated","server_os":"Linux","password":true,"vac":true,"version":"7961495","steam_id":85568392924469998,"keywords":["cp","nocrits","nodmgspread","uncletopia"],"game_id":440,"stv_port":27026,"stv_name":"Uncletopia | Seattle | 2 | All Maps | STV","players":[{"user_id":107,"name":"Shroomish","steam_id":76561199109440924,"connected_time":2049000000000,"state":"active","ping":49},{"user_id":125,"name":"SkobeBeef","steam_id":76561198078638948,"connected_time":158000000000,"state":"active","ping":55},{"user_id":84,"name":"SnoDot","steam_id":76561198062209970,"connected_time":2973000000000,"state":"active","ping":33},{"user_id":118,"name":"Gloomy","steam_id":76561198053742522,"connected_time":863000000000,"state":"active","ping":45},{"user_id":127,"name":"MayKaye","steam_id":76561199016092265,"connected_time":142000000000,"state":"active","ping":81},{"user_id":120,"name":"death snail","steam_id":76561198093053238,"connected_time":636000000000,"state":"active","ping":38},{"user_id":35,"name":"Big Juicy","steam_id":76561198018062350,"connected_time":6672000000000,"state":"active","ping":51},{"user_id":124,"name":"......","steam_id":76561198067612741,"connected_time":162000000000,"state":"active","ping":46},{"user_id":105,"name":"Interrobang","steam_id":76561198385044529,"connected_time":2139000000000,"state":"active","ping":119},{"user_id":128,"name":"don't get mad","steam_id":76561198064662875,"connected_time":104000000000,"state":"active","ping":66},{"user_id":91,"name":"metal man","steam_id":76561198813843267,"connected_time":2813000000000,"state":"active","ping":61},{"user_id":129,"name":"cool beans (dang greg)","steam_id":76561198321591685,"connected_time":98000000000,"state":"active","ping":74},{"user_id":130,"name":"Rohi Mig","steam_id":76561198113623627,"connected_time":97000000000,"state":"active","ping":75},{"user_id":94,"name":"American freedom bird","steam_id":76561198366142388,"connected_time":2700000000000,"state":"active","ping":73},{"user_id":82,"name":"Pneumo.","steam_id":76561197987911883,"connected_time":3528000000000,"state":"active","ping":55},{"user_id":77,"name":"COOL master_9","steam_id":76561198073041151,"connected_time":3904000000000,"state":"active","ping":85},{"user_id":95,"name":"Bandit","steam_id":76561199087543553,"connected_time":2698000000000,"state":"active","ping":73},{"user_id":113,"name":"AXZIOM","steam_id":76561198255074952,"connected_time":1919000000000,"state":"active","ping":44},{"user_id":117,"name":"Sploonbabagoosecooties","steam_id":76561198139972201,"connected_time":1200000000000,"state":"active","ping":44},{"user_id":123,"name":"Dimple #TF2Center","steam_id":76561198980324190,"connected_time":236000000000,"state":"active","ping":46},{"user_id":69,"name":"camp3r","steam_id":76561197992870439,"connected_time":4472000000000,"state":"active","ping":42}]},{"server_id":406,"name":"Uncletopia | Seattle | 3 | Stopwatch","name_short":"sea-3","host":"sea-1.us.uncletopia.com","port":27035,"enabled":true,"region":"us-west","cc":"us","latitude":47.608013,"longitude":-122.33517,"reserved":0,"last_update":"0001-01-01T00:00:00Z","name_a2s":"Uncletopia | Seattle | 3 | Stopwatch","protocol":17,"map":"koth_lakeside_final","folder":"tf","game":"Team Fortress","app_id":440,"player_count":0,"max_players":24,"Bots":0,"server_type":"Dedicated","server_os":"Linux","password":true,"vac":true,"version":"7961495","steam_id":85568392924515217,"keywords":["cp","nocrits","nodmgspread","uncletopia"],"game_id":440,"stv_port":27036,"stv_name":"Uncletopia | Seattle | 3 | Stopwatch | STV","players":null},{"server_id":17,"name":"Uncletopia | San Francisco | 1 | All Maps","name_short":"sfo-1","host":"sfo-1.us.uncletopia.com","port":27015,"enabled":true,"region":"us-west","cc":"us","latitude":37.77397,"longitude":-122.4313,"reserved":0,"last_update":"0001-01-01T00:00:00Z","name_a2s":"Uncletopia | San Francisco | 1 | All Maps","protocol":17,"map":"pl_barnblitz","folder":"tf","game":"Team Fortress","app_id":440,"player_count":24,"max_players":24,"Bots":0,"server_type":"Dedicated","server_os":"Linux","password":true,"vac":true,"version":"7961495","steam_id":85568392924469999,"keywords":["nocrits","nodmgspread","payload","uncletopia"],"game_id":440,"stv_port":27016,"stv_name":"Uncletopia | San Francisco | 1 | All Maps | STV","players":[{"user_id":207,"name":"lime creator","steam_id":76561198074047574,"connected_time":706000000000,"state":"active","ping":54},{"user_id":210,"name":"Pixelated Pussy","steam_id":76561198002511088,"connected_time":634000000000,"state":"active","ping":67},{"user_id":193,"name":"one way ticket to cringeville","steam_id":76561198067107241,"connected_time":1247000000000,"state":"active","ping":68},{"user_id":195,"name":"fish (2:3)","steam_id":76561198134331073,"connected_time":1205000000000,"state":"active","ping":75},{"user_id":146,"name":"Ockulus","steam_id":76561199069638460,"connected_time":5560000000000,"state":"active","ping":54},{"user_id":197,"name":"Hunter","steam_id":76561198071823667,"connected_time":1184000000000,"state":"active","ping":73},{"user_id":188,"name":"Drapph","steam_id":76561199384213314,"connected_time":2574000000000,"state":"active","ping":112},{"user_id":28,"name":"Tang","steam_id":76561198121340574,"connected_time":11968000000000,"state":"active","ping":75},{"user_id":160,"name":"bluetacos","steam_id":76561198880622349,"connected_time":4828000000000,"state":"active","ping":69},{"user_id":183,"name":"Laventhey","steam_id":76561198977523626,"connected_time":2974000000000,"state":"active","ping":73},{"user_id":198,"name":"Funkmaster yee","steam_id":76561198037738918,"connected_time":1098000000000,"state":"active","ping":68},{"user_id":202,"name":"Chaptain","steam_id":76561198452725739,"connected_time":1006000000000,"state":"active","ping":69},{"user_id":191,"name":"nella","steam_id":76561198079349621,"connected_time":2074000000000,"state":"active","ping":61},{"user_id":205,"name":"legostevey","steam_id":76561198803087661,"connected_time":833000000000,"state":"active","ping":75},{"user_id":57,"name":"A UsedNom","steam_id":76561198402832756,"connected_time":10905000000000,"state":"active","ping":39},{"user_id":200,"name":"choi","steam_id":76561198053669887,"connected_time":1077000000000,"state":"active","ping":74},{"user_id":179,"name":"cookypuss","steam_id":76561197961275239,"connected_time":3019000000000,"state":"active","ping":64},{"user_id":177,"name":"Maid 'n' China","steam_id":76561198423392976,"connected_time":3315000000000,"state":"active","ping":54},{"user_id":212,"name":"Kid named download","steam_id":76561199192074448,"connected_time":210000000000,"state":"active","ping":125},{"user_id":201,"name":"ÿßŸÑÿßÿ´ŸÜŸäŸÜ ŸÅŸä ŸÜŸáÿßŸäÿ™\ufffd","steam_id":76561198836526350,"connected_time":1075000000000,"state":"active","ping":111},{"user_id":159,"name":"boffo","steam_id":76561198096978718,"connected_time":4849000000000,"state":"active","ping":98},{"user_id":209,"name":"Flops","steam_id":76561197961030141,"connected_time":681000000000,"state":"active","ping":60},{"user_id":206,"name":"jxh300","steam_id":76561199196579894,"connected_time":797000000000,"state":"active","ping":107},{"user_id":180,"name":"Grant \"b4nny\" Vincent","steam_id":76561198141283242,"connected_time":3015000000000,"state":"active","ping":60}]},{"server_id":18,"name":"Uncletopia | San Francisco | 2 | All Maps","name_short":"sfo-2","host":"sfo-1.us.uncletopia.com","port":27025,"enabled":true,"region":"us-west","cc":"us","latitude":37.77397,"longitude":-122.4313,"reserved":0,"last_update":"0001-01-01T00:00:00Z","name_a2s":"Uncletopia | San Francisco | 2 | All Maps","protocol":17,"map":"cp_sunshine","folder":"tf","game":"Team Fortress","app_id":440,"player_count":0,"max_players":24,"Bots":0,"server_type":"Dedicated","server_os":"Linux","password":true,"vac":true,"version":"7961495","steam_id":85568392924470000,"keywords":["cp","nocrits","nodmgspread","uncletopia"],"game_id":440,"stv_port":27026,"stv_name":"Uncletopia | San Francisco | 2 | All Maps | STV","players":null},{"server_id":19,"name":"Uncletopia | San Francisco | 3 | Stopwatch","name_short":"sfo-3","host":"sfo-1.us.uncletopia.com","port":27035,"enabled":true,"region":"us-west","cc":"us","latitude":37.77397,"longitude":-122.4313,"reserved":0,"last_update":"0001-01-01T00:00:00Z","name_a2s":"Uncletopia | San Francisco | 3 | Stopwatch","protocol":17,"map":"pl_pier","folder":"tf","game":"Team Fortress","app_id":440,"player_count":0,"max_players":24,"Bots":0,"server_type":"Dedicated","server_os":"Linux","password":true,"vac":true,"version":"7961495","steam_id":85568392924742824,"keywords":["nocrits","nodmgspread","payload","uncletopia"],"game_id":440,"stv_port":27036,"stv_name":"Uncletopia | San Francisco | 3 | Stopwatch | STV","players":null},{"server_id":20,"name":"Uncletopia | San Francisco | 4 | Community","name_short":"sfo-4","host":"sfo-1.us.uncletopia.com","port":27045,"enabled":true,"region":"us-west","cc":"us","latitude":37.77397,"longitude":-122.4313,"reserved":0,"last_update":"0001-01-01T00:00:00Z","name_a2s":"Uncletopia | San Francisco | 4 | Community","protocol":17,"map":"workshop/koth_bagel_rc6.ugc2514036946","folder":"tf","game":"Team Fortress","app_id":440,"player_count":0,"max_players":24,"Bots":0,"server_type":"Dedicated","server_os":"Linux","password":true,"vac":true,"version":"7961495","steam_id":85568392924742826,"keywords":["cp","nocrits","nodmgspread","uncletopia"],"game_id":440,"stv_port":27046,"stv_name":"Uncletopia | San Francisco | 4 | Community | STV","players":null},{"server_id":141,"name":"Uncletopia | Sydney | 1 | All Maps","name_short":"syd-1","host":"syd-1.au.uncletopia.com","port":27015,"enabled":true,"region":"au","cc":"au","latitude":-33.865143,"longitude":151.2099,"reserved":0,"last_update":"0001-01-01T00:00:00Z","name_a2s":"Uncletopia | Sydney | 1 | All Maps","protocol":17,"map":"koth_viaduct","folder":"tf","game":"Team Fortress","app_id":440,"player_count":0,"max_players":24,"Bots":0,"server_type":"Dedicated","server_os":"Linux","password":true,"vac":true,"version":"7961495","steam_id":85568392924470001,"keywords":["cp","nocrits","nodmgspread","uncletopia"],"game_id":440,"stv_port":27016,"stv_name":"Uncletopia | Sydney | 1 | All Maps | STV","players":null},{"server_id":123,"name":"Uncletopia | Sydney | 2 | All Maps","name_short":"syd-2","host":"syd-1.au.uncletopia.com","port":27025,"enabled":true,"region":"au","cc":"au","latitude":-33.865143,"longitude":151.2099,"reserved":0,"last_update":"0001-01-01T00:00:00Z","name_a2s":"Uncletopia | Sydney | 2 | All Maps","protocol":17,"map":"koth_lakeside_final","folder":"tf","game":"Team Fortress","app_id":440,"player_count":0,"max_players":24,"Bots":0,"server_type":"Dedicated","server_os":"Linux","password":true,"vac":true,"version":"7961495","steam_id":85568392924470002,"keywords":["cp","nocrits","nodmgspread","uncletopia"],"game_id":440,"stv_port":27026,"stv_name":"Uncletopia | Sydney | 2 | All Maps | STV","players":null},{"server_id":395,"name":"Uncletopia | Sydney | 3 | All Maps","name_short":"syd-3","host":"syd-1.au.uncletopia.com","port":27035,"enabled":true,"region":"au","cc":"au","latitude":-33.865143,"longitude":151.2099,"reserved":0,"last_update":"0001-01-01T00:00:00Z","name_a2s":"Uncletopia | Sydney | 3 | All Maps","protocol":17,"map":"pl_frontier_final","folder":"tf","game":"Team Fortress","app_id":440,"player_count":0,"max_players":24,"Bots":0,"server_type":"Dedicated","server_os":"Linux","password":true,"vac":true,"version":"7961495","steam_id":85568392925194467,"keywords":["nocrits","nodmgspread","payload","uncletopia"],"game_id":440,"stv_port":27036,"stv_name":"Uncletopia | Sydney | 3 | All Maps | STV","players":null},{"server_id":396,"name":"Uncletopia | Sydney | 4 | All Maps","name_short":"syd-4","host":"syd-1.au.uncletopia.com","port":27045,"enabled":true,"region":"au","cc":"au","latitude":-33.865143,"longitude":151.2099,"reserved":0,"last_update":"0001-01-01T00:00:00Z","name_a2s":"Uncletopia | Sydney | 4 | All Maps","protocol":17,"map":"cp_process_final","folder":"tf","game":"Team Fortress","app_id":440,"player_count":0,"max_players":24,"Bots":0,"server_type":"Dedicated","server_os":"Linux","password":true,"vac":true,"version":"7961495","steam_id":85568392925397958,"keywords":["cp","nocrits","nodmgspread","uncletopia"],"game_id":440,"stv_port":27046,"stv_name":"Uncletopia | Sydney | 4 | All Maps | STV","players":null},{"server_id":58,"name":"Uncletopia | Sydney | 5 | Stopwatch","name_short":"syd-5","host":"syd-1.au.uncletopia.com","port":27055,"enabled":true,"region":"au","cc":"au","latitude":-33.865143,"longitude":151.2099,"reserved":0,"last_update":"0001-01-01T00:00:00Z","name_a2s":"Uncletopia | Sydney | 5 | Stopwatch","protocol":17,"map":"pl_frontier_final","folder":"tf","game":"Team Fortress","app_id":440,"player_count":0,"max_players":24,"Bots":0,"server_type":"Dedicated","server_os":"Linux","password":true,"vac":true,"version":"7961495","steam_id":85568392925397959,"keywords":["nocrits","nodmgspread","payload","uncletopia"],"game_id":440,"stv_port":27056,"stv_name":"Uncletopia | Sydney | 5 | Stopwatch | STV","players":null},{"server_id":59,"name":"Uncletopia | Sydney | 6 | Community","name_short":"syd-6","host":"syd-1.au.uncletopia.com","port":27065,"enabled":true,"region":"au","cc":"au","latitude":-33.865143,"longitude":151.2099,"reserved":0,"last_update":"0001-01-01T00:00:00Z","name_a2s":"Uncletopia | Sydney | 6 | Community","protocol":17,"map":"workshop/koth_kemptown_rc1.ugc767410655","folder":"tf","game":"Team Fortress","app_id":440,"player_count":1,"max_players":24,"Bots":0,"server_type":"Dedicated","server_os":"Linux","password":true,"vac":true,"version":"7961495","steam_id":85568392925397960,"keywords":["cp","nocrits","nodmgspread","uncletopia"],"game_id":440,"stv_port":27066,"stv_name":"Uncletopia | Sydney | 6 | Community | STV","players":[{"user_id":3,"name":"Cyborgcupine","steam_id":76561198257389366,"connected_time":339000000000,"state":"active","ping":77}]},{"server_id":49,"name":"Uncletopia | Warsaw | 1 | All Maps","name_short":"waw-1","host":"waw-1.pl.uncletopia.com","port":27015,"enabled":true,"region":"eu","cc":"pl","latitude":52.2297,"longitude":21.017532,"reserved":0,"last_update":"0001-01-01T00:00:00Z","name_a2s":"Uncletopia | Warsaw | 1 | All Maps","protocol":17,"map":"pl_badwater","folder":"tf","game":"Team Fortress","app_id":440,"player_count":0,"max_players":24,"Bots":0,"server_type":"Dedicated","server_os":"Linux","password":true,"vac":true,"version":"7961495","steam_id":85568392925397850,"keywords":["nocrits","nodmgspread","payload","uncletopia"],"game_id":440,"stv_port":27016,"stv_name":"Uncletopia | Warsaw | 1 | All Maps | STV","players":null},{"server_id":50,"name":"Uncletopia | Warsaw | 2 | All Maps","name_short":"waw-2","host":"waw-1.pl.uncletopia.com","port":27025,"enabled":true,"region":"eu","cc":"pl","latitude":52.2297,"longitude":21.017532,"reserved":0,"last_update":"0001-01-01T00:00:00Z","name_a2s":"Uncletopia | Warsaw | 2 | All Maps","protocol":17,"map":"cp_mountainlab","folder":"tf","game":"Team Fortress","app_id":440,"player_count":0,"max_players":24,"Bots":0,"server_type":"Dedicated","server_os":"Linux","password":true,"vac":true,"version":"7961495","steam_id":85568392925397851,"keywords":["cp","nocrits","nodmgspread","uncletopia"],"game_id":440,"stv_port":27026,"stv_name":"Uncletopia | Warsaw | 2 | All Maps | STV","players":null},{"server_id":51,"name":"Uncletopia | Warsaw | 3 | All Maps","name_short":"waw-3","host":"waw-1.pl.uncletopia.com","port":27035,"enabled":true,"region":"eu","cc":"pl","latitude":52.2297,"longitude":21.017532,"reserved":0,"last_update":"0001-01-01T00:00:00Z","name_a2s":"Uncletopia | Warsaw | 3 | All Maps","protocol":17,"map":"cp_mountainlab","folder":"tf","game":"Team Fortress","app_id":440,"player_count":0,"max_players":24,"Bots":0,"server_type":"Dedicated","server_os":"Linux","password":true,"vac":true,"version":"7961495","steam_id":85568392925397852,"keywords":["cp","nocrits","nodmgspread","uncletopia"],"game_id":440,"stv_port":27036,"stv_name":"Uncletopia | Warsaw | 3 | All Maps | STV","players":null},{"server_id":52,"name":"Uncletopia | Warsaw | 4 | All Maps","name_short":"waw-4","host":"waw-1.pl.uncletopia.com","port":27045,"enabled":true,"region":"eu","cc":"pl","latitude":52.2297,"longitude":21.017532,"reserved":0,"last_update":"0001-01-01T00:00:00Z","name_a2s":"Uncletopia | Warsaw | 4 | All Maps","protocol":17,"map":"pl_snowycoast","folder":"tf","game":"Team Fortress","app_id":440,"player_count":0,"max_players":24,"Bots":0,"server_type":"Dedicated","server_os":"Linux","password":true,"vac":true,"version":"7961495","steam_id":85568392925397853,"keywords":["nocrits","nodmgspread","payload","uncletopia"],"game_id":440,"stv_port":27046,"stv_name":"Uncletopia | Warsaw | 4 | All Maps | STV","players":null},{"server_id":53,"name":"Uncletopia | Warsaw | 5 | Stopwatch","name_short":"waw-5","host":"waw-1.pl.uncletopia.com","port":27055,"enabled":true,"region":"eu","cc":"pl","latitude":52.2297,"longitude":21.017532,"reserved":0,"last_update":"0001-01-01T00:00:00Z","name_a2s":"Uncletopia | Warsaw | 5 | Stopwatch","protocol":17,"map":"workshop/cp_reckoner_rc6.ugc674719999","folder":"tf","game":"Team Fortress","app_id":440,"player_count":0,"max_players":24,"Bots":0,"server_type":"Dedicated","server_os":"Linux","password":true,"vac":true,"version":"7961495","steam_id":85568392925397854,"keywords":["cp","nocrits","nodmgspread","uncletopia"],"game_id":440,"stv_port":27056,"stv_name":"Uncletopia | Warsaw | 5 | Stopwatch | STV","players":null},{"server_id":54,"name":"Uncletopia | Warsaw | 6 | Community","name_short":"waw-6","host":"waw-1.pl.uncletopia.com","port":27065,"enabled":true,"region":"eu","cc":"pl","latitude":52.2297,"longitude":21.017532,"reserved":0,"last_update":"0001-01-01T00:00:00Z","name_a2s":"Uncletopia | Warsaw | 6 | Community","protocol":17,"map":"workshop/cp_hazyfort_rc6.ugc1365963729","folder":"tf","game":"Team Fortress","app_id":440,"player_count":0,"max_players":24,"Bots":0,"server_type":"Dedicated","server_os":"Linux","password":true,"vac":true,"version":"7961495","steam_id":85568392925397856,"keywords":["cp","nocrits","nodmgspread","uncletopia"],"game_id":440,"stv_port":27066,"stv_name":"Uncletopia | Warsaw | 6 | Community | STV","players":null}]}