{"status":true,"message":"","result":[{"server_id":9,"name":"Uncletopia | Atlanta | 1 | All Maps","name_short":"atl-1","host":"atl-1.us.uncletopia.com","port":27015,"enabled":true,"region":"us-east","cc":"us","latitude":33.753746,"longitude":-84.38633,"reserved":0,"last_update":"0001-01-01T00:00:00Z","name_a2s":"Uncletopia | Atlanta | 1 | All Maps","protocol":17,"map":"pl_borneo","folder":"tf","game":"Team Fortress","app_id":440,"player_count":24,"max_players":24,"Bots":0,"server_type":"Dedicated","server_os":"Linux","password":true,"vac":true,"version":"7742253","steam_id":85568392924469982,"keywords":["nocrits","nodmgspread","payload","uncletopia"],"game_id":440,"stv_port":27016,"stv_name":"Uncletopia | Atlanta | 1 | All Maps | STV","players":[{"user_id":3,"name":"newyears.jimmy.2014","steam_id":76561199177672325,"connected_time":3589000000000,"state":"active","ping":38},{"user_id":4,"name":"Trusty","steam_id":76561198035444237,"connected_time":3413000000000,"state":"active","ping":65},{"user_id":8,"name":"the-willy12","steam_id":76561199145029672,"connected_time":2053000000000,"state":"active","ping":83},{"user_id":34,"name":"Snow☆","steam_id":76561198031290573,"connected_time":1221000000000,"state":"active","ping":51},{"user_id":35,"name":"Geejohn Fiddlewhopper","steam_id":76561199048394020,"connected_time":1176000000000,"state":"active","ping":79},{"user_id":45,"name":"NoBoreGaming","steam_id":76561198044244547,"connected_time":117000000000,"state":"active","ping":78},{"user_id":42,"name":"bear","steam_id":76561198083276946,"connected_time":347000000000,"state":"active","ping":64},{"user_id":29,"name":"Unbind E","steam_id":76561199163159040,"connected_time":1392000000000,"state":"active","ping":68},{"user_id":13,"name":"Arrotive","steam_id":76561199166019849,"connected_time":1739000000000,"state":"active","ping":62},{"user_id":27,"name":"Clanker","steam_id":76561198164315915,"connected_time":1428000000000,"state":"active","ping":66},{"user_id":15,"name":"troshgad","steam_id":76561198052030002,"connected_time":1677000000000,"state":"active","ping":65},{"user_id":16,"name":"Arxzert","steam_id":76561199275406250,"connected_time":1672000000000,"state":"active","ping":72},{"user_id":17,"name":"Unwavering Flavor","steam_id":76561198053306065,"connected_time":1658000000000,"state":"active","ping":72},{"user_id":18,"name":"Borat Voice My Wife","steam_id":76561198020474727,"connected_time":1620000000000,"state":"active","ping":57},{"user_id":19,"name":"Dzhoshua","steam_id":76561198071915251,"connected_time":1602000000000,"state":"active","ping":81},{"user_id":20,"name":"Gooster","steam_id":76561198255311543,"connected_time":1571000000000,"state":"active","ping":83},{"user_id":43,"name":"Binky Den","steam_id":76561198164035863,"connected_time":343000000000,"state":"active","ping":76},{"user_id":38,"name":"ShinyOrion (She/Her)","steam_id":76561198408378321,"connected_time":862000000000,"state":"active","ping":77},{"user_id":24,"name":"CRAZY engineer","steam_id":76561198887937902,"connected_time":1513000000000,"state":"active","ping":54},{"user_id":44,"name":"DavidB","steam_id":76561198045916255,"connected_time":328000000000,"state":"active","ping":72},{"user_id":41,"name":"Toripollo","steam_id":76561198251665862,"connected_time":675000000000,"state":"active","ping":87},{"user_id":31,"name":"SLiPpeRyJoe.nosound","steam_id":76561197977206359,"connected_time":1372000000000,"state":"active","ping":74},{"user_id":32,"name":"Lanky Kong","steam_id":76561198142455488,"connected_time":1346000000000,"state":"active","ping":55},{"user_id":33,"name":"Gingoguy","steam_id":76561198088931297,"connected_time":1308000000000,"state":"active","ping":74}]},{"server_id":400,"name":"Uncletopia | Atlanta | 3 | Stopwatch Beta","name_short":"atl-3","host":"atl-1.us.uncletopia.com","port":27035,"enabled":true,"region":"us-east","cc":"us","latitude":33.753746,"longitude":-84.38633,"reserved":0,"last_update":"0001-01-01T00:00:00Z","name_a2s":"Uncletopia | Atlanta | 3 | Stopwatch Beta","protocol":17,"map":"pl_pier","folder":"tf","game":"Team Fortress","app_id":440,"player_count":0,"max_players":24,"Bots":0,"server_type":"Dedicated","server_os":"Linux","password":true,"vac":true,"version":"7742253","steam_id":85568392924515187,"keywords":["nocrits","nodmgspread","payload","uncletopia"],"game_id":440,"stv_port":27036,"stv_name":"Uncletopia | Atlanta | 3 | Stopwatch Beta | STV","players":null},{"server_id":401,"name":"Uncletopia | Atlanta | 4 | No Payload","name_short":"atl-4","host":"atl-1.us.uncletopia.com","port":27045,"enabled":true,"region":"us-east","cc":"us","latitude":33.753746,"longitude":-84.38633,"reserved":0,"last_update":"0001-01-01T00:00:00Z","name_a2s":"Uncletopia | Atlanta | 4 | No Payload","protocol":17,"map":"pl_pier","folder":"tf","game":"Team Fortress","app_id":440,"player_count":0,"max_players":24,"Bots":0,"server_type":"Dedicated","server_os":"Linux","password":true,"vac":true,"version":"7723704","steam_id":85568392924515188,"keywords":["nocrits","nodmgspread","payload","uncletopia"],"game_id":440,"stv_port":27046,"stv_name":"Uncletopia | Atlanta | 4 | No Payload | STV","players":null},{"server_id":2,"name":"Uncletopia | Chicago | 1 | All Maps","name_short":"chi-1","host":"chi-1.us.uncletopia.com","port":27015,"enabled":true,"region":"us-central","cc":"us","latitude":41.881832,"longitude":-87.62318,"reserved":0,"last_update":"0001-01-01T00:00:00Z","name_a2s":"Uncletopia | Chicago | 1 | All Maps","protocol":17,"map":"pl_barnblitz","folder":"tf","game":"Team Fortress","app_id":440,"player_count":0,"max_players":24,"Bots":0,"server_type":"Dedicated","server_os":"Linux","password":true,"vac":true,"version":"7742253","steam_id":85568392924469984,"keywords":["nocrits","nodmgspread","payload","uncletopia"],"game_id":440,"stv_port":27016,"stv_name":"Uncletopia | Chicago | 1 | All Maps | STV","players":null},{"server_id":106,"name":"Uncletopia | Chicago | 2 | All Maps","name_short":"chi-2","host":"chi-1.us.uncletopia.com","port":27025,"enabled":true,"region":"us-central","cc":"us","latitude":41.881832,"longitude":-87.62318,"reserved":0,"last_update":"0001-01-01T00:00:00Z","name_a2s":"Uncletopia | Chicago | 2 | All Maps","protocol":17,"map":"pl_snowycoast","folder":"tf","game":"Team Fortress","app_id":440,"player_count":0,"max_players":24,"Bots":0,"server_type":"Dedicated","server_os":"Linux","password":true,"vac":true,"version":"7742253","steam_id":85568392924469985,"keywords":["nocrits","nodmgspread","payload","uncletopia"],"game_id":440,"stv_port":27026,"stv_name":"Uncletopia | Chicago | 2 | All Maps | STV","players":null},{"server_id":402,"name":"Uncletopia | Chicago | 3 | All Maps","name_short":"chi-3","host":"chi-1.us.uncletopia.com","port":27035,"enabled":true,"region":"us-central","cc":"us","latitude":41.881832,"longitude":-87.62318,"reserved":0,"last_update":"0001-01-01T00:00:00Z","name_a2s":"Uncletopia | Chicago | 3 | All Maps","protocol":17,"map":"koth_viaduct","folder":"tf","game":"Team Fortress","app_id":440,"player_count":13,"max_players":24,"Bots":0,"server_type":"Dedicated","server_os":"Linux","password":true,"vac":true,"version":"7742253","steam_id":85568392924515191,"keywords":["cp","nocrits","nodmgspread","uncletopia"],"game_id":440,"stv_port":27036,"stv_name":"Uncletopia | Chicago | 3 | All Maps | STV","players":[{"user_id":7,"name":"manbearswineflu","steam_id":76561198083945137,"connected_time":905000000000,"state":"active","ping":53},{"user_id":4,"name":"Heroofchaos","steam_id":76561199106660090,"connected_time":1030000000000,"state":"active","ping":63},{"user_id":5,"name":"Redbows22","steam_id":76561199452479390,"connected_time":1004000000000,"state":"active","ping":74},{"user_id":6,"name":"the entire country of scotland","steam_id":76561198272712911,"connected_time":989000000000,"state":"active","ping":77},{"user_id":8,"name":"Rugbmilk","steam_id":76561199389283507,"connected_time":736000000000,"state":"active","ping":60},{"user_id":9,"name":"Tank_guy1498","steam_id":76561198103210665,"connected_time":687000000000,"state":"active","ping":60},{"user_id":10,"name":"Room_237","steam_id":76561199135081315,"connected_time":448000000000,"state":"active","ping":81},{"user_id":11,"name":"blazzeh","steam_id":76561198053407069,"connected_time":427000000000,"state":"active","ping":83},{"user_id":12,"name":"Souper Scott","steam_id":76561198045518926,"connected_time":368000000000,"state":"active","ping":53},{"user_id":17,"name":"richard clock","steam_id":76561198048455671,"connected_time":163000000000,"state":"active","ping":47},{"user_id":15,"name":"mixelmaster8","steam_id":76561198873846318,"connected_time":219000000000,"state":"active","ping":60},{"user_id":16,"name":"Drop a Draco","steam_id":76561198120735848,"connected_time":179000000000,"state":"active","ping":204},{"user_id":18,"name":"Adam (Cursed Confetti Creature)","steam_id":76561198317690197,"connected_time":109000000000,"state":"active","ping":43}]},{"server_id":403,"name":"Uncletopia | Chicago | 4 | All Maps","name_short":"chi-4","host":"chi-1.us.uncletopia.com","port":27045,"enabled":true,"region":"us-central","cc":"us","latitude":41.881832,"longitude":-87.62318,"reserved":0,"last_update":"0001-01-01T00:00:00Z","name_a2s":"Uncletopia | Chicago | 4 | All Maps","protocol":17,"map":"pl_upward","folder":"tf","game":"Team Fortress","app_id":440,"player_count":0,"max_players":24,"Bots":0,"server_type":"Dedicated","server_os":"Linux","password":true,"vac":true,"version":"7742253","steam_id":85568392924515193,"keywords":["nocrits","nodmgspread","payload","uncletopia"],"game_id":440,"stv_port":27046,"stv_name":"Uncletopia | Chicago | 4 | All Maps | STV","players":null},{"server_id":36,"name":"Uncletopia | Chicago | 5 | All Maps","name_short":"chi-5","host":"chi-2.us.uncletopia.com","port":27015,"enabled":true,"region":"us-central","cc":"us","latitude":41.881832,"longitude":-87.62318,"reserved":0,"last_update":"0001-01-01T00:00:00Z","name_a2s":"Uncletopia | Chicago | 5 | All Maps","protocol":17,"map":"koth_highpass","folder":"tf","game":"Team Fortress","app_id":440,"player_count":0,"max_players":24,"Bots":0,"server_type":"Dedicated","server_os":"Linux","password":true,"vac":true,"version":"7742253","steam_id":85568392924866362,"keywords":["cp","nocrits","nodmgspread","uncletopia"],"game_id":440,"stv_port":27016,"stv_name":"Uncletopia | Chicago | 5 | All Maps | STV","players":null},{"server_id":37,"name":"Uncletopia | Chicago | 6 | All Maps","name_short":"chi-6","host":"chi-2.us.uncletopia.com","port":27025,"enabled":true,"region":"us-central","cc":"us","latitude":41.881832,"longitude":-87.62318,"reserved":0,"last_update":"0001-01-01T00:00:00Z","name_a2s":"Uncletopia | Chicago | 6 | All Maps","protocol":17,"map":"koth_lakeside_final","folder":"tf","game":"Team Fortress","app_id":440,"player_count":0,"max_players":24,"Bots":0,"server_type":"Dedicated","server_os":"Linux","password":true,"vac":true,"version":"7742253","steam_id":85568392924866363,"keywords":["cp","nocrits","nodmgspread","uncletopia"],"game_id":440,"stv_port":27026,"stv_name":"Uncletopia | Chicago | 6 | All Maps | STV","players":null},{"server_id":38,"name":"Uncletopia | Chicago | 7 | Stopwatch Beta","name_short":"chi-7","host":"chi-2.us.uncletopia.com","port":27035,"enabled":true,"region":"us-central","cc":"us","latitude":41.881832,"longitude":-87.62318,"reserved":0,"last_update":"0001-01-01T00:00:00Z","name_a2s":"Uncletopia | Chicago | 7 | Stopwatch Beta","protocol":17,"map":"koth_lakeside_final","folder":"tf","game":"Team Fortress","app_id":440,"player_count":0,"max_players":24,"Bots":0,"server_type":"Dedicated","server_os":"Linux","password":true,"vac":true,"version":"7742253","steam_id":85568392924866364,"keywords":["cp","nocrits","nodmgspread","uncletopia"],"game_id":440,"stv_port":27036,"stv_name":"Uncletopia | Chicago | 7 | Stopwatch Beta | STV","players":null},{"server_id":39,"name":"Uncletopia | Chicago | 8 | Community","name_short":"chi-8","host":"chi-2.us.uncletopia.com","port":27045,"enabled":true,"region":"us-central","cc":"us","latitude":41.881832,"longitude":-87.62318,"reserved":0,"last_update":"0001-01-01T00:00:00Z","name_a2s":"Uncletopia | Chicago | 8 | Community","protocol":17,"map":"koth_lakeside_final","folder":"tf","game":"Team Fortress","app_id":440,"player_count":0,"max_players":24,"Bots":0,"server_type":"Dedicated","server_os":"Linux","password":true,"vac":true,"version":"7742253","steam_id":85568392924866365,"keywords":["cp","nocrits","nodmgspread","uncletopia"],"game_id":440,"stv_port":27046,"stv_name":"Uncletopia | Chicago | 8 | Community | STV","players":null},{"server_id":8,"name":"Uncletopia | Dallas | 1 | All Maps","name_short":"dal-1","host":"dal-1.us.uncletopia.com","port":27015,"enabled":true,"region":"us-central","cc":"us","latitude":32.779167,"longitude":-96.80889,"reserved":0,"last_update":"0001-01-01T00:00:00Z","name_a2s":"Uncletopia | Dallas | 1 | All Maps","protocol":17,"map":"cp_foundry","folder":"tf","game":"Team Fortress","app_id":440,"player_count":24,"max_players":24,"Bots":0,"server_type":"Dedicated","server_os":"Linux","password":true,"vac":true,"version":"7742253","steam_id":85568392924469986,"keywords":["cp","nocrits","nodmgspread","uncletopia"],"game_id":440,"stv_port":27016,"stv_name":"Uncletopia | Dallas | 1 | All Maps | STV","players":[{"user_id":101,"name":"James","steam_id":76561198098325427,"connected_time":1877000000000,"state":"active","ping":60},{"user_id":90,"name":"Astrocircuit","steam_id":76561198014437544,"connected_time":2850000000000,"state":"active","ping":85},{"user_id":104,"name":"exTrEmE2055","steam_id":76561198199687529,"connected_time":1864000000000,"state":"active","ping":81},{"user_id":114,"name":"eli","steam_id":76561198253198869,"connected_time":844000000000,"state":"active","ping":98},{"user_id":113,"name":"Pine Tree","steam_id":76561198112323877,"connected_time":991000000000,"state":"active","ping":95},{"user_id":95,"name":"YungKeet","steam_id":76561198293854963,"connected_time":2351000000000,"state":"active","ping":54},{"user_id":106,"name":"Mr. Pink","steam_id":76561198065858172,"connected_time":1581000000000,"state":"active","ping":82},{"user_id":119,"name":"Obamacare","steam_id":76561198018894553,"connected_time":486000000000,"state":"active","ping":55},{"user_id":44,"name":"tacofever","steam_id":76561198010966507,"connected_time":6422000000000,"state":"active","ping":77},{"user_id":115,"name":"Byzidean","steam_id":76561198061185744,"connected_time":801000000000,"state":"active","ping":78},{"user_id":116,"name":"Squiliam Fancyson","steam_id":76561199029458936,"connected_time":788000000000,"state":"active","ping":74},{"user_id":110,"name":"Ahsoka :)","steam_id":76561198982584470,"connected_time":1185000000000,"state":"active","ping":60},{"user_id":94,"name":"jumbo shrimp","steam_id":76561199085931379,"connected_time":2417000000000,"state":"active","ping":81},{"user_id":98,"name":"A Rhino with Coronavirus","steam_id":76561197999451366,"connected_time":2175000000000,"state":"active","ping":94},{"user_id":121,"name":"♥Mossbuckets♥","steam_id":76561198365188929,"connected_time":388000000000,"state":"active","ping":68},{"user_id":117,"name":"qwertyuiop[]\\asdfghjkl;","steam_id":76561198119826352,"connected_time":716000000000,"state":"active","ping":52},{"user_id":83,"name":"I don't blast air around here","steam_id":76561198039763676,"connected_time":3219000000000,"state":"active","ping":77},{"user_id":78,"name":"Yukihana","steam_id":76561198348354629,"connected_time":4010000000000,"state":"active","ping":74},{"user_id":118,"name":"Snowsano","steam_id":76561198070316994,"connected_time":672000000000,"state":"active","ping":79},{"user_id":92,"name":"Waffle Wannabe","steam_id":76561198064510650,"connected_time":2839000000000,"state":"active","ping":90},{"user_id":109,"name":"A Feline Witch","steam_id":76561198073434502,"connected_time":1440000000000,"state":"active","ping":100},{"user_id":97,"name":"Foomfa","steam_id":76561198007033616,"connected_time":2322000000000,"state":"active","ping":56},{"user_id":87,"name":"Elias","steam_id":76561198106431732,"connected_time":2866000000000,"state":"active","ping":77},{"user_id":120,"name":"TheOtherBrush","steam_id":76561199048222977,"connected_time":485000000000,"state":"active","ping":87}]},{"server_id":108,"name":"Uncletopia | Dallas | 2 | All Maps","name_short":"dal-2","host":"dal-1.us.uncletopia.com","port":27025,"enabled":true,"region":"us-central","cc":"us","latitude":32.779167,"longitude":-96.80889,"reserved":0,"last_update":"0001-01-01T00:00:00Z","name_a2s":"Uncletopia | Dallas | 2 | All Maps","protocol":17,"map":"koth_viaduct","folder":"tf","game":"Team Fortress","app_id":440,"player_count":1,"max_players":24,"Bots":0,"server_type":"Dedicated","server_os":"Linux","password":true,"vac":true,"version":"7742253","steam_id":85568392924469988,"keywords":["cp","nocrits","nodmgspread","uncletopia"],"game_id":440,"stv_port":27026,"stv_name":"Uncletopia | Dallas | 2 | All Maps | STV","players":[{"user_id":3,"name":"mernineadam07","steam_id":76561199379978966,"connected_time":124000000000,"state":"active","ping":86}]},{"server_id":5,"name":"Uncletopia | Frankfurt | 1 | All Maps","name_short":"frk-1","host":"frk-1.de.uncletopia.com","port":27015,"enabled":true,"region":"eu","cc":"de","latitude":50.110924,"longitude":8.682127,"reserved":0,"last_update":"0001-01-01T00:00:00Z","name_a2s":"Uncletopia | Frankfurt | 1 | All Maps","protocol":17,"map":"pl_barnblitz","folder":"tf","game":"Team Fortress","app_id":440,"player_count":24,"max_players":24,"Bots":0,"server_type":"Dedicated","server_os":"Linux","password":true,"vac":true,"version":"7742253","steam_id":85568392924469989,"keywords":["nocrits","nodmgspread","payload","uncletopia"],"game_id":440,"stv_port":27016,"stv_name":"Uncletopia | Frankfurt | 1 | All Maps | STV","players":[{"user_id":364,"name":"...","steam_id":76561198969234594,"connected_time":719000000000,"state":"active","ping":61},{"user_id":363,"name":"Giovine Killjoy","steam_id":76561198059375315,"connected_time":746000000000,"state":"active","ping":64},{"user_id":275,"name":"LetMeTie","steam_id":76561198194923081,"connected_time":6724000000000,"state":"active","ping":84},{"user_id":346,"name":"FORESKIN","steam_id":76561199068731584,"connected_time":2391000000000,"state":"active","ping":48},{"user_id":354,"name":"Monke","steam_id":76561198066994468,"connected_time":1825000000000,"state":"active","ping":61},{"user_id":369,"name":"Despair","steam_id":76561198259487481,"connected_time":366000000000,"state":"active","ping":69},{"user_id":366,"name":"Pirateer","steam_id":76561198017114970,"connected_time":560000000000,"state":"active","ping":57},{"user_id":350,"name":"Bones","steam_id":76561198065081225,"connected_time":1965000000000,"state":"active","ping":49},{"user_id":361,"name":"gary","steam_id":76561198051623751,"connected_time":935000000000,"state":"active","ping":68},{"user_id":358,"name":"jt7","steam_id":76561198073655162,"connected_time":1326000000000,"state":"active","ping":64},{"user_id":332,"name":"Mi Manchi","steam_id":76561198171573129,"connected_time":3611000000000,"state":"active","ping":60},{"user_id":254,"name":"Dolcelatte","steam_id":76561198038501770,"connected_time":7619000000000,"state":"active","ping":46},{"user_id":370,"name":"kgf","steam_id":76561198181442259,"connected_time":310000000000,"state":"active","ping":60},{"user_id":331,"name":"somehow danced","steam_id":76561198128250460,"connected_time":3625000000000,"state":"active","ping":93},{"user_id":355,"name":"Bajas","steam_id":76561198179339326,"connected_time":1813000000000,"state":"active","ping":75},{"user_id":371,"name":"ScrepoOn","steam_id":76561198094858786,"connected_time":61000000000,"state":"spawning","ping":96},{"user_id":279,"name":"Fruit","steam_id":76561198346687933,"connected_time":6622000000000,"state":"active","ping":60},{"user_id":336,"name":"real shellos hours","steam_id":76561198058012525,"connected_time":3164000000000,"state":"active","ping":73},{"user_id":353,"name":"Joe12000","steam_id":76561198160817969,"connected_time":1913000000000,"state":"active","ping":60},{"user_id":307,"name":"dunduu","steam_id":76561198875240717,"connected_time":5009000000000,"state":"active","ping":61},{"user_id":359,"name":"Animatic","steam_id":76561198186421601,"connected_time":1191000000000,"state":"active","ping":168},{"user_id":342,"name":"festry","steam_id":76561198873296090,"connected_time":2782000000000,"state":"active","ping":64},{"user_id":360,"name":"Clitorina","steam_id":76561198077570815,"connected_time":1183000000000,"state":"active","ping":59}]},{"server_id":110,"name":"Uncletopia | Frankfurt | 2 | All Maps","name_short":"frk-2","host":"frk-1.de.uncletopia.com","port":27025,"enabled":true,"region":"eu","cc":"de","latitude":50.110924,"longitude":8.682127,"reserved":0,"last_update":"0001-01-01T00:00:00Z","name_a2s":"Uncletopia | Frankfurt | 2 | All Maps","protocol":17,"map":"pl_borneo","folder":"tf","game":"Team Fortress","app_id":440,"player_count":23,"max_players":24,"Bots":0,"server_type":"Dedicated","server_os":"Linux","password":true,"vac":true,"version":"7742253","steam_id":85568392924469990,"keywords":["nocrits","nodmgspread","payload","uncletopia"],"game_id":440,"stv_port":27026,"stv_name":"Uncletopia | Frankfurt | 2 | All Maps | STV","players":[{"user_id":140,"name":"Jorge","steam_id":76561198267317192,"connected_time":454000000000,"state":"active","ping":89},{"user_id":135,"name":"Coac","steam_id":76561198085265740,"connected_time":538000000000,"state":"active","ping":60},{"user_id":147,"name":"Daddy Donovan","steam_id":76561198140938904,"connected_time":396000000000,"state":"active","ping":60},{"user_id":120,"name":"FaceShackle","steam_id":76561198038371397,"connected_time":2107000000000,"state":"active","ping":42},{"user_id":82,"name":"punk","steam_id":76561199053880024,"connected_time":5605000000000,"state":"active","ping":45},{"user_id":100,"name":"simn","steam_id":76561198159182269,"connected_time":3906000000000,"state":"active","ping":52},{"user_id":59,"name":"Baklava Enjoyer","steam_id":76561198990679631,"connected_time":6748000000000,"state":"active","ping":73},{"user_id":152,"name":"obi","steam_id":76561198040154461,"connected_time":19000000000,"state":"active","ping":67},{"user_id":117,"name":"Taskyy","steam_id":76561198134901175,"connected_time":2287000000000,"state":"active","ping":70},{"user_id":141,"name":"polish lunatic","steam_id":76561198126524735,"connected_time":449000000000,"state":"active","ping":67},{"user_id":142,"name":"Tobi lft 6v6","steam_id":76561198049890080,"connected_time":436000000000,"state":"active","ping":51},{"user_id":148,"name":"Thors","steam_id":76561197968739075,"connected_time":386000000000,"state":"active","ping":45},{"user_id":144,"name":"I was good before.","steam_id":76561198187045217,"connected_time":418000000000,"state":"active","ping":67},{"user_id":119,"name":"Solid","steam_id":76561198357049292,"connected_time":2175000000000,"state":"active","ping":90},{"user_id":145,"name":"Pazvante","steam_id":76561198070578458,"connected_time":410000000000,"state":"active","ping":61},{"user_id":129,"name":"Norbert Hallelujah","steam_id":76561198137876982,"connected_time":1345000000000,"state":"active","ping":120},{"user_id":130,"name":"nobody","steam_id":76561198180637374,"connected_time":1101000000000,"state":"active","ping":89},{"user_id":153,"name":"cream gravy","steam_id":76561198973069177,"connected_time":15000000000,"state":"active","ping":50},{"user_id":151,"name":"Mage","steam_id":76561198147713667,"connected_time":337000000000,"state":"active","ping":110},{"user_id":112,"name":"unknown","steam_id":76561198062107879,"connected_time":2859000000000,"state":"active","ping":75},{"user_id":150,"name":"Fisherman James","steam_id":76561198004502230,"connected_time":377000000000,"state":"active","ping":41},{"user_id":97,"name":"disturbing polish father","steam_id":76561198126398022,"connected_time":4400000000000,"state":"active","ping":66},{"user_id":81,"name":"sugcs","steam_id":76561199032984087,"connected_time":5643000000000,"state":"active","ping":48}]},{"server_id":308,"name":"Uncletopia | Frankfurt | 3 | All Maps","name_short":"frk-3","host":"frk-1.de.uncletopia.com","port":27035,"enabled":true,"region":"eu","cc":"de","latitude":50.110924,"longitude":8.682127,"reserved":0,"last_update":"0001-01-01T00:00:00Z","name_a2s":"Uncletopia | Frankfurt | 3 | All Maps","protocol":17,"map":"pl_borneo","folder":"tf","game":"Team Fortress","app_id":440,"player_count":1,"max_players":24,"Bots":0,"server_type":"Dedicated","server_os":"Linux","password":true,"vac":true,"version":"7742253","steam_id":85568392924504274,"keywords":["nocrits","nodmgspread","payload","uncletopia"],"game_id":440,"stv_port":27036,"stv_name":"Uncletopia | Frankfurt | 3 | All Maps | STV","players":[{"user_id":16,"name":"jelly donut","steam_id":76561198102947221,"connected_time":721000000000,"state":"active","ping":74}]},{"server_id":309,"name":"Uncletopia | Frankfurt | 4 | All Maps","name_short":"frk-4","host":"frk-1.de.uncletopia.com","port":27045,"enabled":true,"region":"eu","cc":"de","latitude":50.110924,"longitude":8.682127,"reserved":0,"last_update":"0001-01-01T00:00:00Z","name_a2s":"Uncletopia | Frankfurt | 4 | All Maps","protocol":17,"map":"koth_cascade","folder":"tf","game":"Team Fortress","app_id":440,"player_count":2,"max_players":24,"Bots":0,"server_type":"Dedicated","server_os":"Linux","password":true,"vac":true,"version":"7742253","steam_id":85568392924504275,"keywords":["cp","nocrits","nodmgspread","uncletopia"],"game_id":440,"stv_port":27046,"stv_name":"Uncletopia | Frankfurt | 4 | All Maps | STV","players":[{"user_id":13,"name":"Fyann","steam_id":76561199139052789,"connected_time":823000000000,"state":"active","ping":63},{"user_id":14,"name":"Sportsmann Ede","steam_id":76561199186985228,"connected_time":805000000000,"state":"active","ping":62}]},{"server_id":310,"name":"Uncletopia | Frankfurt | 5 | All Maps","name_short":"frk-5","host":"frk-1.de.uncletopia.com","port":27055,"enabled":true,"region":"eu","cc":"de","latitude":50.110924,"longitude":8.682127,"reserved":0,"last_update":"0001-01-01T00:00:00Z","name_a2s":"Uncletopia | Frankfurt | 5 | All Maps","protocol":17,"map":"cp_steel","folder":"tf","game":"Team Fortress","app_id":440,"player_count":24,"max_players":24,"Bots":0,"server_type":"Dedicated","server_os":"Linux","password":true,"vac":true,"version":"7742253","steam_id":85568392924504277,"keywords":["cp","nocrits","nodmgspread","uncletopia"],"game_id":440,"stv_port":27056,"stv_name":"Uncletopia | Frankfurt | 5 | All Maps | STV","players":[{"user_id":259,"name":"R3inis","steam_id":76561199030393569,"connected_time":1303000000000,"state":"active","ping":66},{"user_id":252,"name":"Bruschetta","steam_id":76561198251927162,"connected_time":2356000000000,"state":"active","ping":54},{"user_id":272,"name":"Assassin","steam_id":76561199016050401,"connected_time":832000000000,"state":"active","ping":127},{"user_id":249,"name":"YourPersonalH8R","steam_id":76561198078706435,"connected_time":2436000000000,"state":"active","ping":75},{"user_id":223,"name":"Akero","steam_id":76561198857883916,"connected_time":4078000000000,"state":"active","ping":84},{"user_id":267,"name":"Arandomguy","steam_id":76561199188341914,"connected_time":1027000000000,"state":"active","ping":47},{"user_id":277,"name":"SaltyCupcakes","steam_id":76561198256386417,"connected_time":411000000000,"state":"active","ping":60},{"user_id":243,"name":"where is my egg?","steam_id":76561198172542535,"connected_time":2752000000000,"state":"active","ping":81},{"user_id":276,"name":"default","steam_id":76561198186182298,"connected_time":460000000000,"state":"active","ping":56},{"user_id":275,"name":"bruhson","steam_id":76561198321624388,"connected_time":754000000000,"state":"active","ping":115},{"user_id":264,"name":"blurst of times","steam_id":76561197972325640,"connected_time":1074000000000,"state":"active","ping":54},{"user_id":219,"name":"Löysä Masa","steam_id":76561198343396172,"connected_time":4354000000000,"state":"active","ping":91},{"user_id":240,"name":"NickiCheetah","steam_id":76561198980540766,"connected_time":3163000000000,"state":"active","ping":61},{"user_id":206,"name":"soap lore","steam_id":76561198058879767,"connected_time":4979000000000,"state":"active","ping":62},{"user_id":222,"name":"PhantomStriker","steam_id":76561199116689935,"connected_time":4179000000000,"state":"active","ping":64},{"user_id":271,"name":"Parigonicalus","steam_id":76561198044637492,"connected_time":872000000000,"state":"active","ping":82},{"user_id":255,"name":"subway vergil","steam_id":76561199110064166,"connected_time":2327000000000,"state":"active","ping":86},{"user_id":241,"name":"Guru","steam_id":76561198093853069,"connected_time":2916000000000,"state":"active","ping":59},{"user_id":258,"name":"typicalcrimson","steam_id":76561198295439747,"connected_time":1322000000000,"state":"active","ping":77},{"user_id":274,"name":"Soerlssoelssöen","steam_id":76561197993060585,"connected_time":801000000000,"state":"active","ping":71},{"user_id":265,"name":"sweeterthy","steam_id":76561198356325792,"connected_time":1069000000000,"state":"active","ping":105},{"user_id":225,"name":"A fish and sea","steam_id":76561198194745827,"connected_time":4061000000000,"state":"active","ping":50},{"user_id":224,"name":"WHUSSKEY","steam_id":76561198137827441,"connected_time":4075000000000,"state":"active","ping":59},{"user_id":257,"name":"♫★Xriasp★♫","steam_id":76561198104721321,"connected_time":1891000000000,"state":"active","ping":90}]},{"server_id":311,"name":"Uncletopia | Frankfurt | 6 | All Maps","name_short":"frk-6","host":"frk-1.de.uncletopia.com","port":27065,"enabled":true,"region":"eu","cc":"de","latitude":50.110924,"longitude":8.682127,"reserved":0,"last_update":"0001-01-01T00:00:00Z","name_a2s":"Uncletopia | Frankfurt | 6 | All Maps","protocol":17,"map":"pl_badwater","folder":"tf","game":"Team Fortress","app_id":440,"player_count":24,"max_players":24,"Bots":0,"server_type":"Dedicated","server_os":"Linux","password":true,"vac":true,"version":"7742253","steam_id":85568392924504278,"keywords":["nocrits","nodmgspread","payload","uncletopia"],"game_id":440,"stv_port":27066,"stv_name":"Uncletopia | Frankfurt | 6 | All Maps | STV","players":[{"user_id":43,"name":"cloud","steam_id":76561198179768931,"connected_time":1277000000000,"state":"active","ping":65},{"user_id":60,"name":"Lyra","steam_id":76561198043601838,"connected_time":164000000000,"state":"active","ping":60},{"user_id":14,"name":"Pan Pan","steam_id":76561199074670515,"connected_time":2192000000000,"state":"active","ping":90},{"user_id":52,"name":"TKN_Paps997","steam_id":76561198419868465,"connected_time":1093000000000,"state":"active","ping":81},{"user_id":45,"name":"4","steam_id":76561197964945192,"connected_time":1228000000000,"state":"active","ping":51},{"user_id":58,"name":"killercupcake","steam_id":76561198079730284,"connected_time":304000000000,"state":"active","ping":61},{"user_id":17,"name":"Chrikin","steam_id":76561198416301532,"connected_time":2031000000000,"state":"active","ping":119},{"user_id":18,"name":"Joe Byron","steam_id":76561198044465070,"connected_time":1997000000000,"state":"active","ping":85},{"user_id":61,"name":"yuh","steam_id":76561199005555839,"connected_time":149000000000,"state":"active","ping":72},{"user_id":62,"name":"Dr.Sees [F2P]","steam_id":76561199219233587,"connected_time":143000000000,"state":"active","ping":82},{"user_id":21,"name":"stormcrow","steam_id":76561198030259899,"connected_time":1966000000000,"state":"active","ping":74},{"user_id":63,"name":"r06u3","steam_id":76561198254099253,"connected_time":125000000000,"state":"active","ping":183},{"user_id":47,"name":"JeanCorben","steam_id":76561197965133561,"connected_time":1188000000000,"state":"active","ping":45},{"user_id":24,"name":"mirinda fan","steam_id":76561198156034191,"connected_time":1935000000000,"state":"active","ping":126},{"user_id":41,"name":"Xayir","steam_id":76561198079566786,"connected_time":1549000000000,"state":"active","ping":66},{"user_id":64,"name":"Kahvi","steam_id":76561198723244199,"connected_time":118000000000,"state":"active","ping":86},{"user_id":28,"name":"aph","steam_id":76561198057722639,"connected_time":1880000000000,"state":"active","ping":66},{"user_id":30,"name":"Miatthew","steam_id":76561198034102895,"connected_time":1841000000000,"state":"active","ping":60},{"user_id":31,"name":"Hexagon","steam_id":76561198151205758,"connected_time":1824000000000,"state":"active","ping":45},{"user_id":65,"name":"Bell","steam_id":76561199454586928,"connected_time":98000000000,"state":"active","ping":131},{"user_id":33,"name":"Dark_Prelate","steam_id":76561199065671442,"connected_time":1807000000000,"state":"active","ping":54},{"user_id":34,"name":"Social Credit Stealer","steam_id":76561198128412123,"connected_time":1779000000000,"state":"active","ping":186},{"user_id":57,"name":"mole","steam_id":76561198057766853,"connected_time":442000000000,"state":"active","ping":51},{"user_id":66,"name":"Nakano","steam_id":76561198866569125,"connected_time":96000000000,"state":"spawning","ping":93}]},{"server_id":23,"name":"Uncletopia | Frankfurt | 7 | Stopwatch Beta","name_short":"frk-7","host":"frk-1.de.uncletopia.com","port":27075,"enabled":true,"region":"eu","cc":"de","latitude":50.110924,"longitude":8.682127,"reserved":0,"last_update":"0001-01-01T00:00:00Z","name_a2s":"Uncletopia | Frankfurt | 7 | Stopwatch Beta","protocol":17,"map":"workshop/pl_summercoast_rc8e.ugc1761528829","folder":"tf","game":"Team Fortress","app_id":440,"player_count":0,"max_players":24,"Bots":0,"server_type":"Dedicated","server_os":"Linux","password":true,"vac":true,"version":"7742253","steam_id":85568392924742827,"keywords":["nocrits","nodmgspread","payload","uncletopia"],"game_id":440,"stv_port":27076,"stv_name":"Uncletopia | Frankfurt | 7 | Stopwatch Beta | STV","players":null},{"server_id":24,"name":"Uncletopia | Frankfurt | 8 | Community","name_short":"frk-8","host":"frk-1.de.uncletopia.com","port":27085,"enabled":true,"region":"eu","cc":"de","latitude":50.110924,"longitude":8.682127,"reserved":0,"last_update":"0001-01-01T00:00:00Z","name_a2s":"Uncletopia | Frankfurt | 8 | Community","protocol":17,"map":"workshop/koth_ashville_final.ugc2130459942","folder":"tf","game":"Team Fortress","app_id":440,"player_count":24,"max_players":24,"Bots":0,"server_type":"Dedicated","server_os":"Linux","password":true,"vac":true,"version":"7742253","steam_id":85568392924742828,"keywords":["cp","nocrits","nodmgspread","uncletopia"],"game_id":440,"stv_port":27086,"stv_name":"Uncletopia | Frankfurt | 8 | Community | STV","players":[{"user_id":65,"name":"Luke SpyWalker","steam_id":76561198008643276,"connected_time":8644000000000,"state":"active","ping":60},{"user_id":137,"name":"Guy with squares as username","steam_id":76561198269524918,"connected_time":4806000000000,"state":"active","ping":54},{"user_id":198,"name":"muppi","steam_id":76561198067765324,"connected_time":2363000000000,"state":"active","ping":71},{"user_id":220,"name":"silicon based life form","steam_id":76561199127121346,"connected_time":344000000000,"state":"active","ping":62},{"user_id":215,"name":"TiredTomato","steam_id":76561198057335668,"connected_time":1102000000000,"state":"active","ping":59},{"user_id":152,"name":"TheBeardedM1G","steam_id":76561198040208946,"connected_time":4434000000000,"state":"active","ping":59},{"user_id":199,"name":"loonies in the hall","steam_id":76561198216544293,"connected_time":2358000000000,"state":"active","ping":65},{"user_id":204,"name":"Jonathan","steam_id":76561198087988880,"connected_time":1848000000000,"state":"active","ping":55},{"user_id":213,"name":"LycanPaws","steam_id":76561198356747137,"connected_time":1257000000000,"state":"active","ping":120},{"user_id":139,"name":"Мякиш(хлебный)","steam_id":76561199223895282,"connected_time":4796000000000,"state":"active","ping":91},{"user_id":130,"name":"Fat Pigeon","steam_id":76561198817940142,"connected_time":5169000000000,"state":"active","ping":52},{"user_id":201,"name":"Viliamd1","steam_id":76561198055703857,"connected_time":2263000000000,"state":"active","ping":62},{"user_id":171,"name":"Crocodile","steam_id":76561197984680667,"connected_time":3692000000000,"state":"active","ping":67},{"user_id":173,"name":"EZPK","steam_id":76561197987474355,"connected_time":3653000000000,"state":"active","ping":53},{"user_id":187,"name":"fresh crepes","steam_id":76561198083789826,"connected_time":3087000000000,"state":"active","ping":70},{"user_id":134,"name":"SoupER","steam_id":76561198063056668,"connected_time":5103000000000,"state":"active","ping":45},{"user_id":203,"name":"Warzard","steam_id":76561199154051413,"connected_time":2137000000000,"state":"active","ping":191},{"user_id":221,"name":"jery","steam_id":76561199246023003,"connected_time":239000000000,"state":"active","ping":72},{"user_id":185,"name":"Braderzzz009","steam_id":76561198815895618,"connected_time":3128000000000,"state":"active","ping":71},{"user_id":214,"name":"boglin","steam_id":76561198101977091,"connected_time":1179000000000,"state":"active","ping":102},{"user_id":189,"name":"Senator Armstrong","steam_id":76561198984346408,"connected_time":3075000000000,"state":"active","ping":68},{"user_id":178,"name":"HOI","steam_id":76561198061182117,"connected_time":3519000000000,"state":"active","ping":69},{"user_id":209,"name":"waddle dork","steam_id":76561198297349985,"connected_time":1342000000000,"state":"active","ping":56},{"user_id":208,"name":"The Gimp","steam_id":76561198013999654,"connected_time":1504000000000,"state":"active","ping":80}]},{"server_id":202,"name":"Uncletopia | Hong Kong | 1 | All Maps","name_short":"hgk-1","host":"hgk-1.hk.uncletopia.com","port":27015,"enabled":true,"region":"asia","cc":"hk","latitude":22.302711,"longitude":114.177216,"reserved":0,"last_update":"0001-01-01T00:00:00Z","name_a2s":"Uncletopia | Hong Kong | 1 | All Maps","protocol":17,"map":"cp_dustbowl","folder":"tf","game":"Team Fortress","app_id":440,"player_count":23,"max_players":24,"Bots":0,"server_type":"Dedicated","server_os":"Linux","password":true,"vac":true,"version":"7742253","steam_id":85568392924494504,"keywords":["cp","nocrits","nodmgspread","uncletopia"],"game_id":440,"stv_port":27016,"stv_name":"Uncletopia | Hong Kong | 1 | All Maps | STV","players":[{"user_id":633,"name":"쿠키","steam_id":76561197997220367,"connected_time":7651000000000,"state":"active","ping":39},{"user_id":689,"name":"AmaiToxic","steam_id":76561199122491157,"connected_time":2549000000000,"state":"active","ping":113},{"user_id":706,"name":"Vladimir Spencer Pootis","steam_id":76561198144686119,"connected_time":1900000000000,"state":"active","ping":76},{"user_id":715,"name":"FAQ","steam_id":76561198068689092,"connected_time":674000000000,"state":"active","ping":88},{"user_id":666,"name":"v1.","steam_id":76561198037571054,"connected_time":4960000000000,"state":"active","ping":37},{"user_id":716,"name":"twitch.tv/vision515","steam_id":76561198065293729,"connected_time":672000000000,"state":"active","ping":153},{"user_id":724,"name":"Peter Python","steam_id":76561198353760830,"connected_time":66000000000,"state":"active","ping":125},{"user_id":691,"name":"bocchi the cock sucka","steam_id":76561198169178491,"connected_time":2429000000000,"state":"active","ping":40},{"user_id":710,"name":"OH GREAT HEAVENS!","steam_id":76561199174449723,"connected_time":1218000000000,"state":"active","ping":137},{"user_id":717,"name":"没有冰淇淋哈哈","steam_id":76561199158327323,"connected_time":664000000000,"state":"active","ping":119},{"user_id":708,"name":"gkfhww","steam_id":76561199445694770,"connected_time":1641000000000,"state":"active","ping":124},{"user_id":591,"name":"RedBee (Femboy Nurse 雙)","steam_id":76561198976736971,"connected_time":10511000000000,"state":"active","ping":41},{"user_id":714,"name":"base64","steam_id":76561198006373587,"connected_time":749000000000,"state":"active","ping":49},{"user_id":709,"name":"U SUX","steam_id":76561199171910074,"connected_time":1597000000000,"state":"active","ping":78},{"user_id":721,"name":"Owmyn","steam_id":76561199239651098,"connected_time":415000000000,"state":"active","ping":292},{"user_id":553,"name":"TomCat","steam_id":76561198133744053,"connected_time":12218000000000,"state":"active","ping":112},{"user_id":643,"name":"n3bukadnedzar","steam_id":76561198108308709,"connected_time":7216000000000,"state":"active","ping":104},{"user_id":670,"name":"Isda","steam_id":76561198871392299,"connected_time":3640000000000,"state":"active","ping":80},{"user_id":685,"name":"Othopeus","steam_id":76561198283534382,"connected_time":2787000000000,"state":"active","ping":68},{"user_id":683,"name":"ratfucker47","steam_id":76561198413116920,"connected_time":2819000000000,"state":"active","ping":85},{"user_id":688,"name":"floating pussy homing missle","steam_id":76561198262120562,"connected_time":2563000000000,"state":"active","ping":83},{"user_id":665,"name":"lettuce at 58p","steam_id":76561199401283123,"connected_time":4963000000000,"state":"active","ping":82},{"user_id":696,"name":"Protester","steam_id":76561198400698408,"connected_time":2356000000000,"state":"active","ping":91}]},{"server_id":1,"name":"Uncletopia | Los Angeles | 1 | All Maps","name_short":"lax-1","host":"lax-1.us.uncletopia.com","port":27015,"enabled":true,"region":"us-west","cc":"us","latitude":33.94279,"longitude":-118.41004,"reserved":0,"last_update":"0001-01-01T00:00:00Z","name_a2s":"Uncletopia | Los Angeles | 1 | All Maps","protocol":17,"map":"cp_dustbowl","folder":"tf","game":"Team Fortress","app_id":440,"player_count":0,"max_players":24,"Bots":0,"server_type":"Dedicated","server_os":"Linux","password":true,"vac":true,"version":"7742253","steam_id":85568392924469991,"keywords":["cp","nocrits","nodmgspread","uncletopia"],"game_id":440,"stv_port":27016,"stv_name":"Uncletopia | Los Angeles | 1 | All Maps | STV","players":null},{"server_id":112,"name":"Uncletopia | Los Angeles | 2 | All Maps","name_short":"lax-2","host":"lax-1.us.uncletopia.com","port":27025,"enabled":true,"region":"us-west","cc":"us","latitude":33.94279,"longitude":-118.41004,"reserved":0,"last_update":"0001-01-01T00:00:00Z","name_a2s":"Uncletopia | Los Angeles | 2 | All Maps","protocol":17,"map":"pl_frontier_final","folder":"tf","game":"Team Fortress","app_id":440,"player_count":0,"max_players":24,"Bots":0,"server_type":"Dedicated","server_os":"Linux","password":true,"vac":true,"version":"7742253","steam_id":85568392924469992,"keywords":["nocrits","nodmgspread","payload","uncletopia"],"game_id":440,"stv_port":27026,"stv_name":"Uncletopia | Los Angeles | 2 | All Maps | STV","players":null},{"server_id":324,"name":"Uncletopia | Los Angeles | 3 | All Maps","name_short":"lax-3","host":"lax-1.us.uncletopia.com","port":27035,"enabled":true,"region":"us-west","cc":"us","latitude":33.94279,"longitude":-118.41004,"reserved":0,"last_update":"0001-01-01T00:00:00Z","name_a2s":"Uncletopia | Los Angeles | 3 | All Maps","protocol":17,"map":"cp_snakewater_final1","folder":"tf","game":"Team Fortress","app_id":440,"player_count":0,"max_players":24,"Bots":0,"server_type":"Dedicated","server_os":"Linux","password":true,"vac":true,"version":"7742253","steam_id":85568392924510198,"keywords":["cp","nocrits","nodmgspread","uncletopia"],"game_id":440,"stv_port":27036,"stv_name":"Uncletopia | Los Angeles | 3 | All Maps | STV","players":null},{"server_id":25,"name":"Uncletopia | Los Angeles | 4 | Stopwatch Beta","name_short":"lax-4","host":"lax-1.us.uncletopia.com","port":27045,"enabled":true,"region":"us-west","cc":"us","latitude":33.94279,"longitude":-118.41004,"reserved":0,"last_update":"0001-01-01T00:00:00Z","name_a2s":"Uncletopia | Los Angeles | 4 | Stopwatch Beta","protocol":17,"map":"cp_snakewater_final1","folder":"tf","game":"Team Fortress","app_id":440,"player_count":0,"max_players":24,"Bots":0,"server_type":"Dedicated","server_os":"Linux","password":true,"vac":true,"version":"7742253","steam_id":85568392924510199,"keywords":["cp","nocrits","nodmgspread","uncletopia"],"game_id":440,"stv_port":27046,"stv_name":"Uncletopia | Los Angeles | 4 | Stopwatch Beta | STV","players":null},{"server_id":11,"name":"Uncletopia | London | 1 | All Maps","name_short":"lon-1","host":"lon-1.uk.uncletopia.com","port":27015,"enabled":true,"region":"eu","cc":"gb","latitude":51.509865,"longitude":-0.118092,"reserved":0,"last_update":"0001-01-01T00:00:00Z","name_a2s":"Uncletopia | London | 1 | All Maps","protocol":17,"map":"pl_upward","folder":"tf","game":"Team Fortress","app_id":440,"player_count":23,"max_players":24,"Bots":0,"server_type":"Dedicated","server_os":"Linux","password":true,"vac":true,"version":"7742253","steam_id":85568392924367362,"keywords":["nocrits","nodmgspread","payload","uncletopia"],"game_id":440,"stv_port":27016,"stv_name":"Uncletopia | London | 1 | All Maps | STV","players":[{"user_id":125,"name":"Accident","steam_id":76561198115160396,"connected_time":772000000000,"state":"active","ping":70},{"user_id":118,"name":"Phil","steam_id":76561198056877069,"connected_time":937000000000,"state":"active","ping":59},{"user_id":133,"name":"DoctorTopLeL","steam_id":76561198088533595,"connected_time":334000000000,"state":"active","ping":105},{"user_id":135,"name":"I know where you live","steam_id":76561198065283641,"connected_time":309000000000,"state":"active","ping":90},{"user_id":128,"name":"razetime","steam_id":76561198093904557,"connected_time":555000000000,"state":"active","ping":179},{"user_id":77,"name":"Virgil","steam_id":76561198248786778,"connected_time":4318000000000,"state":"active","ping":120},{"user_id":137,"name":"el'bingel","steam_id":76561199069243192,"connected_time":307000000000,"state":"active","ping":58},{"user_id":117,"name":"Daoloth, Render of the Veils","steam_id":76561198115106008,"connected_time":953000000000,"state":"active","ping":36},{"user_id":106,"name":"Fred","steam_id":76561198107137362,"connected_time":1771000000000,"state":"active","ping":46},{"user_id":138,"name":"doomfist main","steam_id":76561198971043935,"connected_time":283000000000,"state":"active","ping":75},{"user_id":127,"name":"MG TF 2004!","steam_id":76561198042975907,"connected_time":600000000000,"state":"active","ping":54},{"user_id":139,"name":"Belemonguin","steam_id":76561198084706411,"connected_time":280000000000,"state":"active","ping":85},{"user_id":140,"name":"DIE SCOUT BRAUT","steam_id":76561198134575280,"connected_time":275000000000,"state":"active","ping":68},{"user_id":44,"name":"Kapitan Polska","steam_id":76561197968069413,"connected_time":6068000000000,"state":"active","ping":72},{"user_id":141,"name":"Rambi","steam_id":76561199058078505,"connected_time":223000000000,"state":"active","ping":158},{"user_id":130,"name":"Making Coffee","steam_id":76561198138281039,"connected_time":514000000000,"state":"active","ping":67},{"user_id":126,"name":"Exe_Red","steam_id":76561198154952759,"connected_time":688000000000,"state":"active","ping":86},{"user_id":142,"name":"lawrencefishdom","steam_id":76561199190918059,"connected_time":199000000000,"state":"active","ping":51},{"user_id":145,"name":"Burrito","steam_id":76561198023919089,"connected_time":18000000000,"state":"spawning","ping":104},{"user_id":144,"name":"|20BB)\u003eMach","steam_id":76561198952487564,"connected_time":81000000000,"state":"active","ping":92},{"user_id":123,"name":"Fire","steam_id":76561198156047154,"connected_time":877000000000,"state":"active","ping":60},{"user_id":124,"name":"Kringleberg","steam_id":76561198154904107,"connected_time":855000000000,"state":"active","ping":79},{"user_id":114,"name":"Jedi doggo","steam_id":76561198360026202,"connected_time":1404000000000,"state":"active","ping":68}]},{"server_id":114,"name":"Uncletopia | London | 2 | All Maps","name_short":"lon-2","host":"lon-1.uk.uncletopia.com","port":27025,"enabled":true,"region":"eu","cc":"gb","latitude":51.509865,"longitude":-0.118092,"reserved":0,"last_update":"0001-01-01T00:00:00Z","name_a2s":"Uncletopia | London | 2 | All Maps","protocol":17,"map":"cp_dustbowl","folder":"tf","game":"Team Fortress","app_id":440,"player_count":24,"max_players":24,"Bots":0,"server_type":"Dedicated","server_os":"Linux","password":true,"vac":true,"version":"7742253","steam_id":85568392924470941,"keywords":["cp","nocrits","nodmgspread","uncletopia"],"game_id":440,"stv_port":27026,"stv_name":"Uncletopia | London | 2 | All Maps | STV","players":[{"user_id":445,"name":"risco1bolota","steam_id":76561198323074603,"connected_time":1073000000000,"state":"active","ping":81},{"user_id":415,"name":"ekin","steam_id":76561198076219289,"connected_time":2610000000000,"state":"active","ping":45},{"user_id":430,"name":"Echo of Abyss","steam_id":76561198981841782,"connected_time":1888000000000,"state":"active","ping":65},{"user_id":431,"name":"Blo","steam_id":76561198161651469,"connected_time":1784000000000,"state":"active","ping":50},{"user_id":450,"name":"Mads Mikkelsen","steam_id":76561198083482001,"connected_time":632000000000,"state":"active","ping":60},{"user_id":416,"name":"adolf rizzler","steam_id":76561198015876799,"connected_time":2599000000000,"state":"active","ping":66},{"user_id":418,"name":"Taez","steam_id":76561198261820803,"connected_time":2580000000000,"state":"active","ping":76},{"user_id":402,"name":"God´s Cock","steam_id":76561198058947923,"connected_time":3496000000000,"state":"active","ping":60},{"user_id":424,"name":":)","steam_id":76561198103988618,"connected_time":2186000000000,"state":"active","ping":60},{"user_id":435,"name":"some edgy nickname","steam_id":76561198040241299,"connected_time":1608000000000,"state":"active","ping":75},{"user_id":454,"name":"RazOverdrive","steam_id":76561198000794210,"connected_time":321000000000,"state":"active","ping":62},{"user_id":436,"name":"Stümpy","steam_id":76561198255904077,"connected_time":1607000000000,"state":"active","ping":63},{"user_id":420,"name":"Taekio","steam_id":76561198158934992,"connected_time":2514000000000,"state":"active","ping":76},{"user_id":455,"name":"burial","steam_id":76561198009115060,"connected_time":208000000000,"state":"active","ping":83},{"user_id":443,"name":"rat performance","steam_id":76561198065854668,"connected_time":1324000000000,"state":"active","ping":39},{"user_id":427,"name":"spy gaming","steam_id":76561198410955546,"connected_time":2004000000000,"state":"active","ping":89},{"user_id":453,"name":"Shiny Klawf","steam_id":76561198248380406,"connected_time":445000000000,"state":"active","ping":48},{"user_id":403,"name":"sin","steam_id":76561198193416785,"connected_time":3477000000000,"state":"active","ping":50},{"user_id":456,"name":"drwin.","steam_id":76561199044922641,"connected_time":109000000000,"state":"active","ping":80},{"user_id":452,"name":"Posho","steam_id":76561198062396436,"connected_time":570000000000,"state":"active","ping":45},{"user_id":432,"name":"Borat","steam_id":76561198122226417,"connected_time":1654000000000,"state":"active","ping":43},{"user_id":442,"name":"padillacampos","steam_id":76561198161923970,"connected_time":1386000000000,"state":"active","ping":64},{"user_id":405,"name":"doodgie","steam_id":76561198264934115,"connected_time":3446000000000,"state":"active","ping":49},{"user_id":412,"name":"rulla runt","steam_id":76561198010662796,"connected_time":3078000000000,"state":"active","ping":44}]},{"server_id":320,"name":"Uncletopia | London | 3 | All Maps","name_short":"lon-3","host":"lon-1.uk.uncletopia.com","port":27035,"enabled":true,"region":"eu","cc":"gb","latitude":51.509865,"longitude":-0.118092,"reserved":0,"last_update":"0001-01-01T00:00:00Z","name_a2s":"Uncletopia | London | 3 | All Maps","protocol":17,"map":"pl_badwater","folder":"tf","game":"Team Fortress","app_id":440,"player_count":23,"max_players":24,"Bots":0,"server_type":"Dedicated","server_os":"Linux","password":true,"vac":true,"version":"7742253","steam_id":85568392924510192,"keywords":["nocrits","nodmgspread","payload","uncletopia"],"game_id":440,"stv_port":27036,"stv_name":"Uncletopia | London | 3 | All Maps | STV","players":[{"user_id":152,"name":"lolimsogreat21","steam_id":76561199052033788,"connected_time":893000000000,"state":"active","ping":82},{"user_id":157,"name":"petr.kadera","steam_id":76561198310852145,"connected_time":778000000000,"state":"active","ping":77},{"user_id":37,"name":"Penis Contortionist","steam_id":76561198073663784,"connected_time":9061000000000,"state":"active","ping":33},{"user_id":167,"name":"d-_-b","steam_id":76561199412527837,"connected_time":78000000000,"state":"active","ping":42},{"user_id":168,"name":"Vel0city","steam_id":76561198049687798,"connected_time":42000000000,"state":"active","ping":47},{"user_id":78,"name":"LAMC","steam_id":76561199066888917,"connected_time":7378000000000,"state":"active","ping":58},{"user_id":136,"name":"degu","steam_id":76561198180823942,"connected_time":3048000000000,"state":"active","ping":85},{"user_id":103,"name":"SuperJagops","steam_id":76561198034689716,"connected_time":5836000000000,"state":"active","ping":110},{"user_id":150,"name":"Cryspoeth47","steam_id":76561198892776023,"connected_time":1388000000000,"state":"active","ping":129},{"user_id":154,"name":"wheelie bin","steam_id":76561198040040328,"connected_time":847000000000,"state":"active","ping":44},{"user_id":162,"name":"night.s","steam_id":76561198326287823,"connected_time":714000000000,"state":"active","ping":76},{"user_id":128,"name":"RIFT","steam_id":76561198991622379,"connected_time":3125000000000,"state":"active","ping":38},{"user_id":124,"name":"MtnDew The Learning Pyromain","steam_id":76561199100059743,"connected_time":3861000000000,"state":"active","ping":107},{"user_id":149,"name":"=flashpoint=","steam_id":76561197976774456,"connected_time":1524000000000,"state":"active","ping":44},{"user_id":170,"name":"juginjr","steam_id":76561198134899981,"connected_time":6000000000,"state":"spawning","ping":63},{"user_id":140,"name":"KFC Enjoyer","steam_id":76561198840259819,"connected_time":2591000000000,"state":"active","ping":45},{"user_id":110,"name":"Jasperatus","steam_id":76561198196733750,"connected_time":5566000000000,"state":"active","ping":73},{"user_id":165,"name":"LeonIsMooi","steam_id":76561198041524085,"connected_time":338000000000,"state":"active","ping":55},{"user_id":156,"name":"Octopixel","steam_id":76561198346310753,"connected_time":801000000000,"state":"active","ping":69},{"user_id":159,"name":"wise ukrainian shaman","steam_id":76561198989398023,"connected_time":775000000000,"state":"active","ping":109},{"user_id":161,"name":"abigail","steam_id":76561198132932617,"connected_time":751000000000,"state":"active","ping":47},{"user_id":108,"name":"Flare","steam_id":76561198039098320,"connected_time":5645000000000,"state":"active","ping":47},{"user_id":147,"name":"moon","steam_id":76561199212557251,"connected_time":1649000000000,"state":"active","ping":108}]},{"server_id":321,"name":"Uncletopia | London | 4 | All Maps","name_short":"lon-4","host":"lon-1.uk.uncletopia.com","port":27045,"enabled":true,"region":"eu","cc":"gb","latitude":51.509865,"longitude":-0.118092,"reserved":0,"last_update":"0001-01-01T00:00:00Z","name_a2s":"Uncletopia | London | 4 | All Maps","protocol":17,"map":"koth_highpass","folder":"tf","game":"Team Fortress","app_id":440,"player_count":1,"max_players":24,"Bots":0,"server_type":"Dedicated","server_os":"Linux","password":true,"vac":true,"version":"7742253","steam_id":85568392924510193,"keywords":["cp","nocrits","nodmgspread","uncletopia"],"game_id":440,"stv_port":27046,"stv_name":"Uncletopia | London | 4 | All Maps | STV","players":[{"user_id":7,"name":"average f2p","steam_id":76561199136308055,"connected_time":1459000000000,"state":"active","ping":43}]},{"server_id":21,"name":"Uncletopia | London | 5 | All Maps","name_short":"lon-5","host":"lon-1.uk.uncletopia.com","port":27055,"enabled":true,"region":"eu","cc":"gb","latitude":51.509865,"longitude":-0.118092,"reserved":0,"last_update":"0001-01-01T00:00:00Z","name_a2s":"Uncletopia | London | 5 | All Maps","protocol":17,"map":"cp_process_final","folder":"tf","game":"Team Fortress","app_id":440,"player_count":23,"max_players":24,"Bots":0,"server_type":"Dedicated","server_os":"Linux","password":true,"vac":true,"version":"7742253","steam_id":85568392924742829,"keywords":["cp","nocrits","nodmgspread","uncletopia"],"game_id":440,"stv_port":27056,"stv_name":"Uncletopia | London | 5 | All Maps | STV","players":[{"user_id":18,"name":"Agro | KritzKast","steam_id":76561197970498549,"connected_time":2798000000000,"state":"active","ping":45},{"user_id":14,"name":"Keelan","steam_id":76561198013665543,"connected_time":2874000000000,"state":"active","ping":60},{"user_id":55,"name":"Mogwai","steam_id":76561198078832314,"connected_time":1552000000000,"state":"active","ping":91},{"user_id":56,"name":"Niako","steam_id":76561198078370703,"connected_time":1513000000000,"state":"active","ping":63},{"user_id":17,"name":"Mingo","steam_id":76561199191245650,"connected_time":2821000000000,"state":"active","ping":89},{"user_id":65,"name":"Dedu","steam_id":76561198132191324,"connected_time":495000000000,"state":"active","ping":46},{"user_id":70,"name":"Eing","steam_id":76561198253125820,"connected_time":80000000000,"state":"active","ping":45},{"user_id":67,"name":"GamingDoggoWoef","steam_id":76561199011619663,"connected_time":350000000000,"state":"active","ping":52},{"user_id":66,"name":"Fruzo","steam_id":76561197988382114,"connected_time":406000000000,"state":"active","ping":56},{"user_id":60,"name":"Old Hat","steam_id":76561197994673297,"connected_time":1437000000000,"state":"active","ping":53},{"user_id":24,"name":"Lord Odment","steam_id":76561198044354976,"connected_time":2694000000000,"state":"active","ping":92},{"user_id":57,"name":"pinkerton","steam_id":76561198083103830,"connected_time":1509000000000,"state":"active","ping":113},{"user_id":62,"name":".Aq","steam_id":76561198043376092,"connected_time":1298000000000,"state":"active","ping":94},{"user_id":27,"name":"Graf von Scyth","steam_id":76561198198497733,"connected_time":2586000000000,"state":"active","ping":34},{"user_id":33,"name":"Huuvi","steam_id":76561198265451304,"connected_time":2486000000000,"state":"active","ping":90},{"user_id":43,"name":"Smag","steam_id":76561198153675141,"connected_time":2301000000000,"state":"active","ping":41},{"user_id":30,"name":"Bepperman","steam_id":76561198397517828,"connected_time":2508000000000,"state":"active","ping":53},{"user_id":48,"name":"TirN","steam_id":76561198113262166,"connected_time":1832000000000,"state":"active","ping":90},{"user_id":69,"name":"Slazaa","steam_id":76561197993252446,"connected_time":317000000000,"state":"active","ping":55},{"user_id":58,"name":"L-L-L-L-LANDSPEED","steam_id":76561198104896547,"connected_time":1508000000000,"state":"active","ping":85},{"user_id":40,"name":"Инспектор Атас","steam_id":76561199175688390,"connected_time":2364000000000,"state":"active","ping":87},{"user_id":50,"name":"wertiop","steam_id":76561198260627072,"connected_time":1774000000000,"state":"active","ping":80},{"user_id":61,"name":"emeradik","steam_id":76561199195558370,"connected_time":1375000000000,"state":"active","ping":122}]},{"server_id":22,"name":"Uncletopia | London | 6 | All Maps","name_short":"lon-6","host":"lon-1.uk.uncletopia.com","port":27065,"enabled":true,"region":"eu","cc":"gb","latitude":51.509865,"longitude":-0.118092,"reserved":0,"last_update":"0001-01-01T00:00:00Z","name_a2s":"Uncletopia | London | 6 | All Maps","protocol":17,"map":"koth_highpass","folder":"tf","game":"Team Fortress","app_id":440,"player_count":0,"max_players":24,"Bots":0,"server_type":"Dedicated","server_os":"Linux","password":true,"vac":true,"version":"7742253","steam_id":85568392924742830,"keywords":["cp","nocrits","nodmgspread","uncletopia"],"game_id":440,"stv_port":27066,"stv_name":"Uncletopia | London | 6 | All Maps | STV","players":null},{"server_id":40,"name":"Uncletopia | London | 7 | No Payload","name_short":"lon-7","host":"lon-1.uk.uncletopia.com","port":27075,"enabled":true,"region":"eu","cc":"gb","latitude":51.509865,"longitude":-0.118092,"reserved":0,"last_update":"0001-01-01T00:00:00Z","name_a2s":"Uncletopia | London | 7 | No Payload","protocol":17,"map":"koth_viaduct","folder":"tf","game":"Team Fortress","app_id":440,"player_count":0,"max_players":24,"Bots":0,"server_type":"Dedicated","server_os":"Linux","password":true,"vac":true,"version":"7742253","steam_id":85568392924964314,"keywords":["cp","nocrits","nodmgspread","uncletopia"],"game_id":440,"stv_port":27076,"stv_name":"Uncletopia | London | 7 | No Payload | STV","players":null},{"server_id":41,"name":"Uncletopia | London | 8 | Community","name_short":"lon-8","host":"lon-1.uk.uncletopia.com","port":27085,"enabled":true,"region":"eu","cc":"gb","latitude":51.509865,"longitude":-0.118092,"reserved":0,"last_update":"0001-01-01T00:00:00Z","name_a2s":"Uncletopia | London | 8 | Community","protocol":17,"map":"cp_altitude","folder":"tf","game":"Team Fortress","app_id":440,"player_count":0,"max_players":24,"Bots":0,"server_type":"Dedicated","server_os":"Linux","password":true,"vac":true,"version":"7742253","steam_id":85568392924964315,"keywords":["cp","nocrits","nodmgspread","uncletopia"],"game_id":440,"stv_port":27086,"stv_name":"Uncletopia | London | 8 | Community | STV","players":null},{"server_id":300,"name":"Uncletopia | Montréal | 1 | All Maps","name_short":"mtl-1","host":"mtl-1.ca.uncletopia.com","port":27015,"enabled":true,"region":"us-east","cc":"ca","latitude":45.50889,"longitude":-73.56167,"reserved":0,"last_update":"0001-01-01T00:00:00Z","name_a2s":"Uncletopia | Montréal | 1 | All Maps","protocol":17,"map":"cp_snakewater_final1","folder":"tf","game":"Team Fortress","app_id":440,"player_count":0,"max_players":24,"Bots":0,"server_type":"Dedicated","server_os":"Linux","password":true,"vac":true,"version":"7742253","steam_id":85568392924500087,"keywords":["cp","nocrits","nodmgspread","uncletopia"],"game_id":440,"stv_port":27016,"stv_name":"Uncletopia | Montréal | 1 | All Maps | STV","players":null},{"server_id":301,"name":"Uncletopia | Montréal | 2 | All Maps","name_short":"mtl-2","host":"mtl-1.ca.uncletopia.com","port":27025,"enabled":true,"region":"us-east","cc":"ca","latitude":45.50889,"longitude":-73.56167,"reserved":0,"last_update":"0001-01-01T00:00:00Z","name_a2s":"Uncletopia | Montréal | 2 | All Maps","protocol":17,"map":"koth_highpass","folder":"tf","game":"Team Fortress","app_id":440,"player_count":0,"max_players":24,"Bots":0,"server_type":"Dedicated","server_os":"Linux","password":true,"vac":true,"version":"7742253","steam_id":85568392924500088,"keywords":["cp","nocrits","nodmgspread","uncletopia"],"game_id":440,"stv_port":27026,"stv_name":"Uncletopia | Montréal | 2 | All Maps | STV","players":null},{"server_id":302,"name":"Uncletopia | Montréal | 3 | All Maps","name_short":"mtl-3","host":"mtl-1.ca.uncletopia.com","port":27035,"enabled":true,"region":"us-east","cc":"ca","latitude":45.50889,"longitude":-73.56167,"reserved":0,"last_update":"0001-01-01T00:00:00Z","name_a2s":"Uncletopia | Montréal | 3 | All Maps","protocol":17,"map":"cp_mountainlab","folder":"tf","game":"Team Fortress","app_id":440,"player_count":0,"max_players":24,"Bots":0,"server_type":"Dedicated","server_os":"Linux","password":true,"vac":true,"version":"7742253","steam_id":85568392924500089,"keywords":["cp","nocrits","nodmgspread","uncletopia"],"game_id":440,"stv_port":27036,"stv_name":"Uncletopia | Montréal | 3 | All Maps | STV","players":null},{"server_id":303,"name":"Uncletopia | Montréal | 4 | No Payload","name_short":"mtl-4","host":"mtl-1.ca.uncletopia.com","port":27045,"enabled":true,"region":"us-east","cc":"ca","latitude":45.50889,"longitude":-73.56167,"reserved":0,"last_update":"0001-01-01T00:00:00Z","name_a2s":"Uncletopia | Montréal | 4 | No Payload","protocol":17,"map":"cp_snakewater_final1","folder":"tf","game":"Team Fortress","app_id":440,"player_count":0,"max_players":24,"Bots":0,"server_type":"Dedicated","server_os":"Linux","password":true,"vac":true,"version":"7742253","steam_id":85568392924500090,"keywords":["cp","nocrits","nodmgspread","uncletopia"],"game_id":440,"stv_port":27046,"stv_name":"Uncletopia | Montréal | 4 | No Payload | STV","players":null},{"server_id":13,"name":"Uncletopia | New York City | 1 | All Maps","name_short":"nyc-1","host":"nyc-1.us.uncletopia.com","port":27015,"enabled":true,"region":"us-east","cc":"us","latitude":40.73061,"longitude":-73.93524,"reserved":0,"last_update":"0001-01-01T00:00:00Z","name_a2s":"Uncletopia | New York City | 1 | All Maps","protocol":17,"map":"cp_mountainlab","folder":"tf","game":"Team Fortress","app_id":440,"player_count":0,"max_players":24,"Bots":0,"server_type":"Dedicated","server_os":"Linux","password":true,"vac":true,"version":"7742253","steam_id":85568392924469993,"keywords":["cp","nocrits","nodmgspread","uncletopia"],"game_id":440,"stv_port":27016,"stv_name":"Uncletopia | New York City | 1 | All Maps | STV","players":null},{"server_id":14,"name":"Uncletopia | New York City | 2 | All Maps","name_short":"nyc-2","host":"nyc-1.us.uncletopia.com","port":27025,"enabled":true,"region":"us-east","cc":"us","latitude":40.73061,"longitude":-73.93524,"reserved":0,"last_update":"0001-01-01T00:00:00Z","name_a2s":"Uncletopia | New York City | 2 | All Maps","protocol":17,"map":"pl_badwater","folder":"tf","game":"Team Fortress","app_id":440,"player_count":0,"max_players":24,"Bots":0,"server_type":"Dedicated","server_os":"Linux","password":true,"vac":true,"version":"7742253","steam_id":85568392924469994,"keywords":["nocrits","nodmgspread","payload","uncletopia"],"game_id":440,"stv_port":27026,"stv_name":"Uncletopia | New York City | 2 | All Maps | STV","players":null},{"server_id":15,"name":"Uncletopia | New York City | 3 | Stopwatch Beta","name_short":"nyc-3","host":"nyc-1.us.uncletopia.com","port":27035,"enabled":true,"region":"us-east","cc":"us","latitude":40.73061,"longitude":-73.93524,"reserved":0,"last_update":"0001-01-01T00:00:00Z","name_a2s":"Uncletopia | New York City | 3 | Stopwatch Beta","protocol":17,"map":"pl_pier","folder":"tf","game":"Team Fortress","app_id":440,"player_count":0,"max_players":24,"Bots":0,"server_type":"Dedicated","server_os":"Linux","password":true,"vac":true,"version":"7742253","steam_id":85568392924742820,"keywords":["nocrits","nodmgspread","payload","uncletopia"],"game_id":440,"stv_port":27036,"stv_name":"Uncletopia | New York City | 3 | Stopwatch Beta | STV","players":null},{"server_id":16,"name":"Uncletopia | New York City | 4 | Community","name_short":"nyc-4","host":"nyc-1.us.uncletopia.com","port":27045,"enabled":true,"region":"us-east","cc":"us","latitude":40.73061,"longitude":-73.93524,"reserved":0,"last_update":"0001-01-01T00:00:00Z","name_a2s":"Uncletopia | New York City | 4 | Community","protocol":17,"map":"koth_viaduct","folder":"tf","game":"Team Fortress","app_id":440,"player_count":0,"max_players":24,"Bots":0,"server_type":"Dedicated","server_os":"Linux","password":true,"vac":true,"version":"7742253","steam_id":85568392924742821,"keywords":["cp","nocrits","nodmgspread","uncletopia"],"game_id":440,"stv_port":27046,"stv_name":"Uncletopia | New York City | 4 | Community | STV","players":null},{"server_id":142,"name":"Uncletopia | São Paulo | 1 | All Maps","name_short":"sao-1","host":"sao-1.br.uncletopia.com","port":27015,"enabled":true,"region":"sa","cc":"br","latitude":-23.533773,"longitude":-46.62529,"reserved":0,"last_update":"0001-01-01T00:00:00Z","name_a2s":"Uncletopia | São Paulo | 1 | All Maps","protocol":17,"map":"koth_viaduct","folder":"tf","game":"Team Fortress","app_id":440,"player_count":0,"max_players":24,"Bots":0,"server_type":"Dedicated","server_os":"Linux","password":true,"vac":true,"version":"7742253","steam_id":85568392924469996,"keywords":["cp","nocrits","nodmgspread","uncletopia"],"game_id":440,"stv_port":27016,"stv_name":"Uncletopia | São Paulo | 1 | All Maps | STV","players":null},{"server_id":143,"name":"Uncletopia | São Paulo | 2 | All Maps","name_short":"sao-2","host":"sao-2.br.uncletopia.com","port":27015,"enabled":true,"region":"sa","cc":"br","latitude":-23.533773,"longitude":-46.62529,"reserved":0,"last_update":"0001-01-01T00:00:00Z","name_a2s":"Uncletopia | São Paulo | 2 | All Maps","protocol":17,"map":"koth_viaduct","folder":"tf","game":"Team Fortress","app_id":440,"player_count":0,"max_players":24,"Bots":0,"server_type":"Dedicated","server_os":"Linux","password":true,"vac":true,"version":"7742253","steam_id":85568392924485349,"keywords":["cp","nocrits","nodmgspread","uncletopia"],"game_id":440,"stv_port":27016,"stv_name":"Uncletopia | São Paulo | 2 | All Maps | STV","players":null},{"server_id":7,"name":"Uncletopia | Seattle | 1 | All Maps","name_short":"sea-1","host":"sea-1.us.uncletopia.com","port":27015,"enabled":true,"region":"us-west","cc":"us","latitude":47.608013,"longitude":-122.33517,"reserved":0,"last_update":"0001-01-01T00:00:00Z","name_a2s":"Uncletopia | Seattle | 1 | All Maps","protocol":17,"map":"pl_frontier_final","folder":"tf","game":"Team Fortress","app_id":440,"player_count":0,"max_players":24,"Bots":0,"server_type":"Dedicated","server_os":"Linux","password":true,"vac":true,"version":"7742253","steam_id":85568392924469997,"keywords":["nocrits","nodmgspread","payload","uncletopia"],"game_id":440,"stv_port":27016,"stv_name":"Uncletopia | Seattle | 1 | All Maps | STV","players":null},{"server_id":119,"name":"Uncletopia | Seattle | 2 | All Maps","name_short":"sea-2","host":"sea-1.us.uncletopia.com","port":27025,"enabled":true,"region":"us-west","cc":"us","latitude":47.608013,"longitude":-122.33517,"reserved":0,"last_update":"0001-01-01T00:00:00Z","name_a2s":"Uncletopia | Seattle | 2 | All Maps","protocol":17,"map":"cp_sunshine","folder":"tf","game":"Team Fortress","app_id":440,"player_count":0,"max_players":24,"Bots":0,"server_type":"Dedicated","server_os":"Linux","password":true,"vac":true,"version":"7742253","steam_id":85568392924469998,"keywords":["cp","nocrits","nodmgspread","uncletopia"],"game_id":440,"stv_port":27026,"stv_name":"Uncletopia | Seattle | 2 | All Maps | STV","players":null},{"server_id":406,"name":"Uncletopia | Seattle | 3 | Stopwatch Beta","name_short":"sea-3","host":"sea-1.us.uncletopia.com","port":27035,"enabled":true,"region":"us-west","cc":"us","latitude":47.608013,"longitude":-122.33517,"reserved":0,"last_update":"0001-01-01T00:00:00Z","name_a2s":"Uncletopia | Seattle | 3 | Stopwatch Beta","protocol":17,"map":"cp_altitude","folder":"tf","game":"Team Fortress","app_id":440,"player_count":0,"max_players":24,"Bots":0,"server_type":"Dedicated","server_os":"Linux","password":true,"vac":true,"version":"7742253","steam_id":85568392924515217,"keywords":["cp","nocrits","nodmgspread","uncletopia"],"game_id":440,"stv_port":27036,"stv_name":"Uncletopia | Seattle | 3 | Stopwatch Beta | STV","players":null},{"server_id":17,"name":"Uncletopia | San Francisco | 1 | All Maps","name_short":"sfo-1","host":"sfo-1.us.uncletopia.com","port":27015,"enabled":true,"region":"us-west","cc":"us","latitude":37.77397,"longitude":-122.4313,"reserved":0,"last_update":"0001-01-01T00:00:00Z","name_a2s":"Uncletopia | San Francisco | 1 | All Maps","protocol":17,"map":"pl_snowycoast","folder":"tf","game":"Team Fortress","app_id":440,"player_count":0,"max_players":24,"Bots":0,"server_type":"Dedicated","server_os":"Linux","password":true,"vac":true,"version":"7742253","steam_id":85568392924469999,"keywords":["nocrits","nodmgspread","payload","uncletopia"],"game_id":440,"stv_port":27016,"stv_name":"Uncletopia | San Francisco | 1 | All Maps | STV","players":null},{"server_id":18,"name":"Uncletopia | San Francisco | 2 | All Maps","name_short":"sfo-2","host":"sfo-1.us.uncletopia.com","port":27025,"enabled":true,"region":"us-west","cc":"us","latitude":37.77397,"longitude":-122.4313,"reserved":0,"last_update":"0001-01-01T00:00:00Z","name_a2s":"Uncletopia | San Francisco | 2 | All Maps","protocol":17,"map":"cp_altitude","folder":"tf","game":"Team Fortress","app_id":440,"player_count":0,"max_players":24,"Bots":0,"server_type":"Dedicated","server_os":"Linux","password":true,"vac":true,"version":"7742253","steam_id":85568392924470000,"keywords":["cp","nocrits","nodmgspread","uncletopia"],"game_id":440,"stv_port":27026,"stv_name":"Uncletopia | San Francisco | 2 | All Maps | STV","players":null},{"server_id":19,"name":"Uncletopia | San Francisco | 3 | Stopwatch Beta","name_short":"sfo-3","host":"sfo-1.us.uncletopia.com","port":27035,"enabled":true,"region":"us-west","cc":"us","latitude":37.77397,"longitude":-122.4313,"reserved":0,"last_update":"0001-01-01T00:00:00Z","name_a2s":"Uncletopia | San Francisco | 3 | Stopwatch Beta","protocol":17,"map":"cp_snakewater_final1","folder":"tf","game":"Team Fortress","app_id":440,"player_count":0,"max_players":24,"Bots":0,"server_type":"Dedicated","server_os":"Linux","password":true,"vac":true,"version":"7742253","steam_id":85568392924742824,"keywords":["cp","nocrits","nodmgspread","uncletopia"],"game_id":440,"stv_port":27036,"stv_name":"Uncletopia | San Francisco | 3 | Stopwatch Beta | STV","players":null},{"server_id":20,"name":"Uncletopia | San Francisco | 4 | Community","name_short":"sfo-4","host":"sfo-1.us.uncletopia.com","port":27045,"enabled":true,"region":"us-west","cc":"us","latitude":37.77397,"longitude":-122.4313,"reserved":0,"last_update":"0001-01-01T00:00:00Z","name_a2s":"Uncletopia | San Francisco | 4 | Community","protocol":17,"map":"cp_dustbowl","folder":"tf","game":"Team Fortress","app_id":440,"player_count":0,"max_players":24,"Bots":0,"server_type":"Dedicated","server_os":"Linux","password":true,"vac":true,"version":"7742253","steam_id":85568392924742826,"keywords":["cp","nocrits","nodmgspread","uncletopia"],"game_id":440,"stv_port":27046,"stv_name":"Uncletopia | San Francisco | 4 | Community | STV","players":null},{"server_id":141,"name":"Uncletopia | Sydney | 1 | All Maps","name_short":"syd-1","host":"syd-1.au.uncletopia.com","port":27015,"enabled":true,"region":"au","cc":"au","latitude":-33.865143,"longitude":151.2099,"reserved":0,"last_update":"0001-01-01T00:00:00Z","name_a2s":"Uncletopia | Sydney | 1 | All Maps","protocol":17,"map":"cp_dustbowl","folder":"tf","game":"Team Fortress","app_id":440,"player_count":8,"max_players":24,"Bots":0,"server_type":"Dedicated","server_os":"Linux","password":true,"vac":true,"version":"7742253","steam_id":85568392924470001,"keywords":["cp","nocrits","nodmgspread","uncletopia"],"game_id":440,"stv_port":27016,"stv_name":"Uncletopia | Sydney | 1 | All Maps | STV","players":[{"user_id":226,"name":"BOT Gary","steam_id":76561198376950841,"connected_time":6574000000000,"state":"active","ping":82},{"user_id":243,"name":"Bluetoes","steam_id":76561199075662989,"connected_time":2074000000000,"state":"active","ping":62},{"user_id":228,"name":"Androw","steam_id":76561198878280232,"connected_time":6532000000000,"state":"active","ping":62},{"user_id":235,"name":"Twisted","steam_id":76561199041669880,"connected_time":5460000000000,"state":"active","ping":54},{"user_id":230,"name":"Emetium","steam_id":76561198863655165,"connected_time":6453000000000,"state":"active","ping":54},{"user_id":242,"name":"theeg","steam_id":76561198985005836,"connected_time":2208000000000,"state":"active","ping":44},{"user_id":246,"name":"bird","steam_id":76561199387854647,"connected_time":39000000000,"state":"active","ping":72},{"user_id":247,"name":"uncle fungus","steam_id":76561199089531604,"connected_time":32000000000,"state":"active","ping":56}]},{"server_id":123,"name":"Uncletopia | Sydney | 2 | All Maps","name_short":"syd-2","host":"syd-1.au.uncletopia.com","port":27025,"enabled":true,"region":"au","cc":"au","latitude":-33.865143,"longitude":151.2099,"reserved":0,"last_update":"0001-01-01T00:00:00Z","name_a2s":"Uncletopia | Sydney | 2 | All Maps","protocol":17,"map":"pl_snowycoast","folder":"tf","game":"Team Fortress","app_id":440,"player_count":8,"max_players":24,"Bots":0,"server_type":"Dedicated","server_os":"Linux","password":true,"vac":true,"version":"7742253","steam_id":85568392924470002,"keywords":["nocrits","nodmgspread","payload","uncletopia"],"game_id":440,"stv_port":27026,"stv_name":"Uncletopia | Sydney | 2 | All Maps | STV","players":[{"user_id":861,"name":"johnny sins","steam_id":76561199375656301,"connected_time":116000000000,"state":"active","ping":60},{"user_id":857,"name":"Goblin","steam_id":76561198170243851,"connected_time":774000000000,"state":"active","ping":50},{"user_id":819,"name":"ron paul enthusiast","steam_id":76561198273752755,"connected_time":3381000000000,"state":"active","ping":56},{"user_id":855,"name":"Bigrichard","steam_id":76561198032092945,"connected_time":921000000000,"state":"active","ping":71},{"user_id":843,"name":"BIGNATE","steam_id":76561199207791519,"connected_time":1782000000000,"state":"active","ping":75},{"user_id":814,"name":"awesome_Frog-05","steam_id":76561198088812090,"connected_time":3676000000000,"state":"active","ping":80},{"user_id":846,"name":"Lord Doljonijiarnimorinar","steam_id":76561198043118684,"connected_time":1361000000000,"state":"active","ping":51},{"user_id":730,"name":"cade is sleepy","steam_id":76561198126719182,"connected_time":9924000000000,"state":"active","ping":50}]},{"server_id":395,"name":"Uncletopia | Sydney | 3 | All Maps","name_short":"syd-3","host":"syd-1.au.uncletopia.com","port":27035,"enabled":true,"region":"au","cc":"au","latitude":-33.865143,"longitude":151.2099,"reserved":0,"last_update":"0001-01-01T00:00:00Z","name_a2s":"Uncletopia | Sydney | 3 | All Maps","protocol":17,"map":"koth_viaduct","folder":"tf","game":"Team Fortress","app_id":440,"player_count":0,"max_players":24,"Bots":0,"server_type":"Dedicated","server_os":"Linux","password":true,"vac":true,"version":"7742253","steam_id":85568392925194467,"keywords":["cp","nocrits","nodmgspread","uncletopia"],"game_id":440,"stv_port":27036,"stv_name":"Uncletopia | Sydney | 3 | All Maps | STV","players":null},{"server_id":396,"name":"Uncletopia | Sydney | 4 | All Maps","name_short":"syd-4","host":"syd-1.au.uncletopia.com","port":27045,"enabled":true,"region":"au","cc":"au","latitude":-33.865143,"longitude":151.2099,"reserved":0,"last_update":"0001-01-01T00:00:00Z","name_a2s":"Uncletopia | Sydney | 4 | All Maps","protocol":17,"map":"cp_mountainlab","folder":"tf","game":"Team Fortress","app_id":440,"player_count":0,"max_players":24,"Bots":0,"server_type":"Dedicated","server_os":"Linux","password":true,"vac":true,"version":"7742253","steam_id":85568392925397958,"keywords":["cp","nocrits","nodmgspread","uncletopia"],"game_id":440,"stv_port":27046,"stv_name":"Uncletopia | Sydney | 4 | All Maps | STV","players":null},{"server_id":58,"name":"Uncletopia | Sydney | 5 | Stopwatch Beta","name_short":"syd-5","host":"syd-1.au.uncletopia.com","port":27055,"enabled":true,"region":"au","cc":"au","latitude":-33.865143,"longitude":151.2099,"reserved":0,"last_update":"0001-01-01T00:00:00Z","name_a2s":"Uncletopia | Sydney | 5 | Stopwatch Beta","protocol":17,"map":"workshop/pl_badwater_pro_v12.ugc2142942074","folder":"tf","game":"Team Fortress","app_id":440,"player_count":0,"max_players":24,"Bots":0,"server_type":"Dedicated","server_os":"Linux","password":true,"vac":true,"version":"7742253","steam_id":85568392925397959,"keywords":["nocrits","nodmgspread","payload","uncletopia"],"game_id":440,"stv_port":27056,"stv_name":"Uncletopia | Sydney | 5 | Stopwatch Beta | STV","players":null},{"server_id":59,"name":"Uncletopia | Sydney | 6 | Community","name_short":"syd-6","host":"syd-1.au.uncletopia.com","port":27065,"enabled":true,"region":"au","cc":"au","latitude":-33.865143,"longitude":151.2099,"reserved":0,"last_update":"0001-01-01T00:00:00Z","name_a2s":"Uncletopia | Sydney | 6 | Community","protocol":17,"map":"workshop/koth_ashville_final.ugc2130459942","folder":"tf","game":"Team Fortress","app_id":440,"player_count":0,"max_players":24,"Bots":0,"server_type":"Dedicated","server_os":"Linux","password":true,"vac":true,"version":"7742253","steam_id":85568392925397960,"keywords":["cp","nocrits","nodmgspread","uncletopia"],"game_id":440,"stv_port":27066,"stv_name":"Uncletopia | Sydney | 6 | Community | STV","players":null},{"server_id":49,"name":"Uncletopia | Warsaw | 1 | All Maps","name_short":"waw-1","host":"waw-1.pl.uncletopia.com","port":27015,"enabled":true,"region":"eu","cc":"pl","latitude":52.2297,"longitude":21.017532,"reserved":0,"last_update":"0001-01-01T00:00:00Z","name_a2s":"","protocol":0,"map":"","folder":"","game":"","app_id":0,"player_count":0,"max_players":0,"Bots":0,"server_type":"","server_os":"","password":false,"vac":false,"version":"","steam_id":0,"keywords":null,"game_id":0,"stv_port":0,"stv_name":"","players":null},{"server_id":50,"name":"Uncletopia | Warsaw | 2 | All Maps","name_short":"waw-2","host":"waw-1.pl.uncletopia.com","port":27025,"enabled":true,"region":"eu","cc":"pl","latitude":52.2297,"longitude":21.017532,"reserved":0,"last_update":"0001-01-01T00:00:00Z","name_a2s":"Uncletopia | Warsaw | 2 | All Maps","protocol":17,"map":"koth_viaduct","folder":"tf","game":"Team Fortress","app_id":440,"player_count":0,"max_players":24,"Bots":0,"server_type":"Dedicated","server_os":"Linux","password":true,"vac":true,"version":"7742253","steam_id":85568392925397851,"keywords":["cp","nocrits","nodmgspread","uncletopia"],"game_id":440,"stv_port":27026,"stv_name":"Uncletopia | Warsaw | 2 | All Maps | STV","players":null},{"server_id":51,"name":"Uncletopia | Warsaw | 3 | All Maps","name_short":"waw-3","host":"waw-1.pl.uncletopia.com","port":27035,"enabled":true,"region":"eu","cc":"pl","latitude":52.2297,"longitude":21.017532,"reserved":0,"last_update":"0001-01-01T00:00:00Z","name_a2s":"Uncletopia | Warsaw | 3 | All Maps","protocol":17,"map":"koth_harvest_final","folder":"tf","game":"Team Fortress","app_id":440,"player_count":0,"max_players":24,"Bots":0,"server_type":"Dedicated","server_os":"Linux","password":true,"vac":true,"version":"7742253","steam_id":85568392925397852,"keywords":["cp","nocrits","nodmgspread","uncletopia"],"game_id":440,"stv_port":27036,"stv_name":"Uncletopia | Warsaw | 3 | All Maps | STV","players":null},{"server_id":52,"name":"Uncletopia | Warsaw | 4 | All Maps","name_short":"waw-4","host":"waw-1.pl.uncletopia.com","port":27045,"enabled":true,"region":"eu","cc":"pl","latitude":52.2297,"longitude":21.017532,"reserved":0,"last_update":"0001-01-01T00:00:00Z","name_a2s":"Uncletopia | Warsaw | 4 | All Maps","protocol":17,"map":"cp_sunshine","folder":"tf","game":"Team Fortress","app_id":440,"player_count":0,"max_players":24,"Bots":0,"server_type":"Dedicated","server_os":"Linux","password":true,"vac":true,"version":"7742253","steam_id":85568392925397853,"keywords":["cp","nocrits","nodmgspread","uncletopia"],"game_id":440,"stv_port":27046,"stv_name":"Uncletopia | Warsaw | 4 | All Maps | STV","players":null},{"server_id":53,"name":"Uncletopia | Warsaw | 5 | Stopwatch Beta","name_short":"waw-5","host":"waw-1.pl.uncletopia.com","port":27055,"enabled":true,"region":"eu","cc":"pl","latitude":52.2297,"longitude":21.017532,"reserved":0,"last_update":"0001-01-01T00:00:00Z","name_a2s":"Uncletopia | Warsaw | 5 | Stopwatch Beta","protocol":17,"map":"pl_swiftwater_final1","folder":"tf","game":"Team Fortress","app_id":440,"player_count":0,"max_players":24,"Bots":0,"server_type":"Dedicated","server_os":"Linux","password":true,"vac":true,"version":"7742253","steam_id":85568392925397854,"keywords":["nocrits","nodmgspread","payload","uncletopia"],"game_id":440,"stv_port":27056,"stv_name":"Uncletopia | Warsaw | 5 | Stopwatch Beta | STV","players":null},{"server_id":54,"name":"Uncletopia | Warsaw | 6 | Community","name_short":"waw-6","host":"waw-1.pl.uncletopia.com","port":27065,"enabled":true,"region":"eu","cc":"pl","latitude":52.2297,"longitude":21.017532,"reserved":0,"last_update":"0001-01-01T00:00:00Z","name_a2s":"Uncletopia | Warsaw | 6 | Community","protocol":17,"map":"workshop/pl_vigil_rc9.ugc1266210012","folder":"tf","game":"Team Fortress","app_id":440,"player_count":0,"max_players":24,"Bots":0,"server_type":"Dedicated","server_os":"Linux","password":true,"vac":true,"version":"7742253","steam_id":85568392925397856,"keywords":["nocrits","nodmgspread","payload","uncletopia"],"game_id":440,"stv_port":27066,"stv_name":"Uncletopia | Warsaw | 6 | Community | STV","players":null}]}