{"status":true,"message":"","result":[{"server_id":9,"name":"Uncletopia | Atlanta | 1 | All Maps","name_short":"atl-1","host":"atl-1.us.uncletopia.com","port":27015,"enabled":true,"region":"us-east","cc":"us","latitude":33.753746,"longitude":-84.38633,"reserved":0,"last_update":"0001-01-01T00:00:00Z","name_a2s":"Uncletopia | Atlanta | 1 | All Maps","protocol":17,"map":"ctf_landfall","folder":"tf","game":"Team Fortress","app_id":440,"player_count":23,"max_players":24,"Bots":0,"server_type":"Dedicated","server_os":"Linux","password":true,"vac":true,"version":"7961495","steam_id":85568392924469982,"keywords":["ctf","nocrits","nodmgspread","uncletopia"],"game_id":440,"stv_port":27016,"stv_name":"Uncletopia | Atlanta | 1 | All Maps | STV","players":null},{"server_id":104,"name":"Uncletopia | Atlanta | 2 | All Maps","name_short":"atl-2","host":"atl-1.us.uncletopia.com","port":27025,"enabled":true,"region":"us-east","cc":"us","latitude":33.753746,"longitude":-84.38633,"reserved":0,"last_update":"0001-01-01T00:00:00Z","name_a2s":"Uncletopia | Atlanta | 2 | All Maps","protocol":17,"map":"pl_pier","folder":"tf","game":"Team Fortress","app_id":440,"player_count":23,"max_players":24,"Bots":0,"server_type":"Dedicated","server_os":"Linux","password":true,"vac":true,"version":"7961495","steam_id":85568392924469983,"keywords":["nocrits","nodmgspread","payload","uncletopia"],"game_id":440,"stv_port":27026,"stv_name":"Uncletopia | Atlanta | 2 | All Maps | STV","players":null},{"server_id":400,"name":"Uncletopia | Atlanta | 3 | Stopwatch","name_short":"atl-3","host":"atl-1.us.uncletopia.com","port":27035,"enabled":true,"region":"us-east","cc":"us","latitude":33.753746,"longitude":-84.38633,"reserved":0,"last_update":"0001-01-01T00:00:00Z","name_a2s":"Uncletopia | Atlanta | 3 | Stopwatch","protocol":17,"map":"pl_vigil_rc10","folder":"tf","game":"Team Fortress","app_id":440,"player_count":0,"max_players":24,"Bots":0,"server_type":"Dedicated","server_os":"Linux","password":true,"vac":true,"version":"7961495","steam_id":85568392924515187,"keywords":["nocrits","nodmgspread","payload","uncletopia"],"game_id":440,"stv_port":27036,"stv_name":"Uncletopia | Atlanta | 3 | Stopwatch | STV","players":null},{"server_id":401,"name":"Uncletopia | Atlanta | 4 | Community","name_short":"atl-4","host":"atl-1.us.uncletopia.com","port":27045,"enabled":true,"region":"us-east","cc":"us","latitude":33.753746,"longitude":-84.38633,"reserved":0,"last_update":"0001-01-01T00:00:00Z","name_a2s":"Uncletopia | Atlanta | 4 | Community","protocol":17,"map":"koth_slaughter_rc1","folder":"tf","game":"Team Fortress","app_id":440,"player_count":0,"max_players":24,"Bots":0,"server_type":"Dedicated","server_os":"Linux","password":true,"vac":true,"version":"7961495","steam_id":85568392924515188,"keywords":["cp","nocrits","nodmgspread","uncletopia"],"game_id":440,"stv_port":27046,"stv_name":"Uncletopia | Atlanta | 4 | Community | STV","players":null},{"server_id":2,"name":"Uncletopia | Chicago | 1 | All Maps","name_short":"chi-1","host":"chi-1.us.uncletopia.com","port":27015,"enabled":true,"region":"us-central","cc":"us","latitude":41.881832,"longitude":-87.62318,"reserved":0,"last_update":"0001-01-01T00:00:00Z","name_a2s":"Uncletopia | Chicago | 1 | All Maps","protocol":17,"map":"pl_swiftwater_final1","folder":"tf","game":"Team Fortress","app_id":440,"player_count":23,"max_players":24,"Bots":0,"server_type":"Dedicated","server_os":"Linux","password":true,"vac":true,"version":"7961495","steam_id":85568392924469984,"keywords":["nocrits","nodmgspread","payload","uncletopia"],"game_id":440,"stv_port":27016,"stv_name":"Uncletopia | Chicago | 1 | All Maps | STV","players":[{"user_id":542,"name":"Enstabanger","steam_id":76561198140736928,"connected_time":743000000000,"state":"active","ping":96},{"user_id":546,"name":"Cognac","steam_id":76561198989778413,"connected_time":284000000000,"state":"active","ping":49},{"user_id":511,"name":"Lyathan","steam_id":76561198062773218,"connected_time":2670000000000,"state":"active","ping":67},{"user_id":544,"name":"Looking for BBW in stanfield nc","steam_id":76561199207371234,"connected_time":718000000000,"state":"active","ping":86},{"user_id":525,"name":"M0929","steam_id":76561198233878008,"connected_time":1872000000000,"state":"active","ping":75},{"user_id":509,"name":"aiden","steam_id":76561198449527009,"connected_time":2978000000000,"state":"active","ping":84},{"user_id":518,"name":"what the freak","steam_id":76561198080754727,"connected_time":1985000000000,"state":"active","ping":79},{"user_id":536,"name":"GhostBerb","steam_id":76561198087908151,"connected_time":1522000000000,"state":"active","ping":75},{"user_id":537,"name":"man of the hour","steam_id":76561198264601809,"connected_time":1125000000000,"state":"active","ping":72},{"user_id":545,"name":"JJ Z","steam_id":76561198995601389,"connected_time":711000000000,"state":"active","ping":79},{"user_id":519,"name":"God","steam_id":76561198131089513,"connected_time":1985000000000,"state":"active","ping":58},{"user_id":533,"name":"Carton","steam_id":76561198989473391,"connected_time":1610000000000,"state":"active","ping":66},{"user_id":538,"name":"Re-Loaded_Game","steam_id":76561199097136515,"connected_time":1116000000000,"state":"active","ping":103},{"user_id":524,"name":"Franticraven177","steam_id":76561198334105579,"connected_time":1894000000000,"state":"active","ping":85},{"user_id":539,"name":"Dry Bones","steam_id":76561198341537452,"connected_time":795000000000,"state":"active","ping":77},{"user_id":468,"name":"fish","steam_id":76561199008362890,"connected_time":6169000000000,"state":"active","ping":73},{"user_id":517,"name":"richard clock","steam_id":76561198048455671,"connected_time":2024000000000,"state":"active","ping":56},{"user_id":526,"name":"MoKo","steam_id":76561198025808618,"connected_time":1827000000000,"state":"active","ping":89},{"user_id":493,"name":"DrD","steam_id":76561198067266383,"connected_time":4726000000000,"state":"active","ping":84},{"user_id":496,"name":"Bobbn","steam_id":76561198876124683,"connected_time":4644000000000,"state":"active","ping":78},{"user_id":540,"name":"rontu","steam_id":76561199072955534,"connected_time":791000000000,"state":"active","ping":56},{"user_id":498,"name":"Astoriae!","steam_id":76561199090168858,"connected_time":4319000000000,"state":"active","ping":72},{"user_id":528,"name":"beta central","steam_id":76561198301876831,"connected_time":1806000000000,"state":"active","ping":60}]},{"server_id":106,"name":"Uncletopia | Chicago | 2 | All Maps","name_short":"chi-2","host":"chi-1.us.uncletopia.com","port":27025,"enabled":true,"region":"us-central","cc":"us","latitude":41.881832,"longitude":-87.62318,"reserved":0,"last_update":"0001-01-01T00:00:00Z","name_a2s":"Uncletopia | Chicago | 2 | All Maps","protocol":17,"map":"pl_barnblitz","folder":"tf","game":"Team Fortress","app_id":440,"player_count":24,"max_players":24,"Bots":0,"server_type":"Dedicated","server_os":"Linux","password":true,"vac":true,"version":"7961495","steam_id":85568392924469985,"keywords":["nocrits","nodmgspread","payload","uncletopia"],"game_id":440,"stv_port":27026,"stv_name":"Uncletopia | Chicago | 2 | All Maps | STV","players":[{"user_id":448,"name":"I shovel mayonnaise in mouth","steam_id":76561199123118241,"connected_time":4342000000000,"state":"active","ping":110},{"user_id":438,"name":"chesterwnimitz","steam_id":76561198062664377,"connected_time":4484000000000,"state":"active","ping":75},{"user_id":473,"name":"Amari","steam_id":76561198272446730,"connected_time":2095000000000,"state":"active","ping":56},{"user_id":454,"name":"DiamondEpsilon","steam_id":76561198203883311,"connected_time":4128000000000,"state":"active","ping":65},{"user_id":480,"name":"Mediocre Gaming","steam_id":76561199230467980,"connected_time":603000000000,"state":"active","ping":63},{"user_id":475,"name":"Ringo x Seiran","steam_id":76561198357437908,"connected_time":1243000000000,"state":"active","ping":70},{"user_id":476,"name":"Nathan","steam_id":76561199132214008,"connected_time":1212000000000,"state":"active","ping":100},{"user_id":436,"name":"wwhg","steam_id":76561198140658919,"connected_time":4507000000000,"state":"active","ping":70},{"user_id":484,"name":"Zymiren","steam_id":76561198054985471,"connected_time":532000000000,"state":"active","ping":99},{"user_id":455,"name":"duneblaster0","steam_id":76561198040364680,"connected_time":3910000000000,"state":"active","ping":46},{"user_id":486,"name":"Pipnirsian","steam_id":76561198380976416,"connected_time":220000000000,"state":"active","ping":76},{"user_id":440,"name":"I'm a Fungi","steam_id":76561198061507741,"connected_time":4447000000000,"state":"active","ping":70},{"user_id":469,"name":"vv","steam_id":76561198134813102,"connected_time":2250000000000,"state":"active","ping":52},{"user_id":477,"name":"category 5 girl moment","steam_id":76561198972801541,"connected_time":1211000000000,"state":"active","ping":59},{"user_id":472,"name":"Kreacher |","steam_id":76561198061639792,"connected_time":2148000000000,"state":"active","ping":75},{"user_id":481,"name":"winrarFanatic","steam_id":76561198026538317,"connected_time":596000000000,"state":"active","ping":60},{"user_id":474,"name":"Discourse","steam_id":76561198984286678,"connected_time":1719000000000,"state":"active","ping":56},{"user_id":391,"name":"Mer","steam_id":76561198192171041,"connected_time":8010000000000,"state":"active","ping":112},{"user_id":457,"name":"CupFruit","steam_id":76561198983993193,"connected_time":3510000000000,"state":"active","ping":74},{"user_id":422,"name":"Terminally Online Weeb [Dexgod]","steam_id":76561198017130786,"connected_time":5414000000000,"state":"active","ping":83},{"user_id":485,"name":"Samthetic","steam_id":76561198285241928,"connected_time":265000000000,"state":"active","ping":87},{"user_id":447,"name":"yourlocalforecast","steam_id":76561198042243083,"connected_time":4390000000000,"state":"active","ping":66},{"user_id":483,"name":"Skyline","steam_id":76561199123685934,"connected_time":588000000000,"state":"active","ping":97},{"user_id":478,"name":"Hobo Joe","steam_id":76561198021453917,"connected_time":1108000000000,"state":"active","ping":70}]},{"server_id":402,"name":"Uncletopia | Chicago | 3 | All Maps","name_short":"chi-3","host":"chi-1.us.uncletopia.com","port":27035,"enabled":true,"region":"us-central","cc":"us","latitude":41.881832,"longitude":-87.62318,"reserved":0,"last_update":"0001-01-01T00:00:00Z","name_a2s":"Uncletopia | Chicago | 3 | All Maps","protocol":17,"map":"pl_frontier_final","folder":"tf","game":"Team Fortress","app_id":440,"player_count":24,"max_players":24,"Bots":0,"server_type":"Dedicated","server_os":"Linux","password":true,"vac":true,"version":"7961495","steam_id":85568392924515191,"keywords":["nocrits","nodmgspread","payload","uncletopia"],"game_id":440,"stv_port":27036,"stv_name":"Uncletopia | Chicago | 3 | All Maps | STV","players":[{"user_id":301,"name":"TheNightBeforeChristmas","steam_id":76561198143826450,"connected_time":1568000000000,"state":"active","ping":46},{"user_id":284,"name":"Sentry Gun","steam_id":76561198037803087,"connected_time":2908000000000,"state":"active","ping":70},{"user_id":298,"name":"GooniOoni","steam_id":76561198102154561,"connected_time":1783000000000,"state":"active","ping":66},{"user_id":259,"name":"paypur -rng","steam_id":76561198214370515,"connected_time":5108000000000,"state":"active","ping":69},{"user_id":305,"name":"Mint Jelly","steam_id":76561197991286751,"connected_time":1422000000000,"state":"active","ping":45},{"user_id":255,"name":"oppenheimer style","steam_id":76561198026664629,"connected_time":5210000000000,"state":"active","ping":49},{"user_id":304,"name":"BUT COME TUESDAY","steam_id":76561198119220289,"connected_time":1428000000000,"state":"active","ping":75},{"user_id":294,"name":"bluebird","steam_id":76561198065219155,"connected_time":2397000000000,"state":"active","ping":42},{"user_id":279,"name":"Banana Cat","steam_id":76561198016587535,"connected_time":2977000000000,"state":"active","ping":74},{"user_id":309,"name":"lili of the valley","steam_id":76561198253172399,"connected_time":1269000000000,"state":"active","ping":75},{"user_id":280,"name":"powerfulgoku","steam_id":76561198036309251,"connected_time":2966000000000,"state":"active","ping":69},{"user_id":237,"name":"the zoo","steam_id":76561198013732450,"connected_time":6702000000000,"state":"active","ping":50},{"user_id":310,"name":"Crunchy","steam_id":76561198060342804,"connected_time":833000000000,"state":"active","ping":80},{"user_id":210,"name":"[Bandit]","steam_id":76561197986919852,"connected_time":8298000000000,"state":"active","ping":93},{"user_id":307,"name":"Samrizo el Chorizo","steam_id":76561198009838162,"connected_time":1394000000000,"state":"active","ping":71},{"user_id":303,"name":"MrDudeMan","steam_id":76561198959351282,"connected_time":1434000000000,"state":"active","ping":73},{"user_id":292,"name":"Crazy Insane Proboscis Monkey","steam_id":76561198061011176,"connected_time":2523000000000,"state":"active","ping":94},{"user_id":273,"name":"SomeScuffedKid","steam_id":76561198086113234,"connected_time":4114000000000,"state":"active","ping":68},{"user_id":306,"name":"Bullshell","steam_id":76561198154430083,"connected_time":1417000000000,"state":"active","ping":82},{"user_id":253,"name":"Liebesträume","steam_id":76561198038862034,"connected_time":5401000000000,"state":"active","ping":95},{"user_id":308,"name":"Cornelius","steam_id":76561198123447388,"connected_time":1357000000000,"state":"active","ping":46},{"user_id":277,"name":"eat Pant","steam_id":76561197974965536,"connected_time":3679000000000,"state":"active","ping":61},{"user_id":302,"name":"rickyrickyricky","steam_id":76561198041765918,"connected_time":1537000000000,"state":"active","ping":81},{"user_id":312,"name":"JayRawgTV","steam_id":76561198044402840,"connected_time":626000000000,"state":"active","ping":71}]},{"server_id":403,"name":"Uncletopia | Chicago | 4 | All Maps","name_short":"chi-4","host":"chi-1.us.uncletopia.com","port":27045,"enabled":true,"region":"us-central","cc":"us","latitude":41.881832,"longitude":-87.62318,"reserved":0,"last_update":"0001-01-01T00:00:00Z","name_a2s":"Uncletopia | Chicago | 4 | All Maps","protocol":17,"map":"pl_snowycoast","folder":"tf","game":"Team Fortress","app_id":440,"player_count":24,"max_players":24,"Bots":0,"server_type":"Dedicated","server_os":"Linux","password":true,"vac":true,"version":"7961495","steam_id":85568392924515193,"keywords":["nocrits","nodmgspread","payload","uncletopia"],"game_id":440,"stv_port":27046,"stv_name":"Uncletopia | Chicago | 4 | All Maps | STV","players":[{"user_id":177,"name":"Boboblin","steam_id":76561199030131717,"connected_time":3116000000000,"state":"active","ping":96},{"user_id":206,"name":"Kentucky Fried Lullaby","steam_id":76561198047845399,"connected_time":1246000000000,"state":"active","ping":65},{"user_id":193,"name":"The Rock","steam_id":76561198433328517,"connected_time":2260000000000,"state":"active","ping":66},{"user_id":200,"name":"_SANDBLADE_","steam_id":76561199082847007,"connected_time":1673000000000,"state":"active","ping":72},{"user_id":209,"name":"Poodwecker","steam_id":76561198344264859,"connected_time":498000000000,"state":"active","ping":81},{"user_id":188,"name":"deadass1215","steam_id":76561199052886723,"connected_time":2549000000000,"state":"active","ping":122},{"user_id":218,"name":"CyborgHexapus4","steam_id":76561198160335724,"connected_time":399000000000,"state":"active","ping":104},{"user_id":194,"name":"Berb","steam_id":76561198193911899,"connected_time":1947000000000,"state":"active","ping":107},{"user_id":211,"name":"transbian disaster","steam_id":76561198407600762,"connected_time":490000000000,"state":"active","ping":95},{"user_id":208,"name":"My 600 lbs gaming","steam_id":76561198027968822,"connected_time":509000000000,"state":"active","ping":85},{"user_id":212,"name":"JellyParrot","steam_id":76561199190990163,"connected_time":485000000000,"state":"active","ping":71},{"user_id":213,"name":"BookBurner23","steam_id":76561198034771185,"connected_time":464000000000,"state":"active","ping":69},{"user_id":187,"name":"GuyGoom","steam_id":76561198254522178,"connected_time":2584000000000,"state":"active","ping":60},{"user_id":207,"name":"Tuffy","steam_id":76561198044179049,"connected_time":1060000000000,"state":"active","ping":66},{"user_id":214,"name":"IcyScrumpy","steam_id":76561198084605065,"connected_time":463000000000,"state":"active","ping":62},{"user_id":215,"name":"Peketo","steam_id":76561199104376294,"connected_time":461000000000,"state":"active","ping":65},{"user_id":219,"name":"The Notorious RBG","steam_id":76561198014275148,"connected_time":397000000000,"state":"active","ping":74},{"user_id":181,"name":"Epha","steam_id":76561198079379951,"connected_time":2868000000000,"state":"active","ping":66},{"user_id":216,"name":"MontellWilliams","steam_id":76561198172143015,"connected_time":437000000000,"state":"active","ping":69},{"user_id":204,"name":"She Pegs Me","steam_id":76561198099770390,"connected_time":1335000000000,"state":"active","ping":59},{"user_id":72,"name":"Mr_Frosty","steam_id":76561199380389079,"connected_time":10588000000000,"state":"active","ping":97},{"user_id":202,"name":"alfoam","steam_id":76561198353067162,"connected_time":1648000000000,"state":"active","ping":61},{"user_id":217,"name":"rumidog","steam_id":76561198046896005,"connected_time":437000000000,"state":"active","ping":89},{"user_id":220,"name":"Stoopnagle","steam_id":76561198011942560,"connected_time":340000000000,"state":"active","ping":90}]},{"server_id":36,"name":"Uncletopia | Chicago | 5 | All Maps","name_short":"chi-5","host":"chi-2.us.uncletopia.com","port":27015,"enabled":true,"region":"us-central","cc":"us","latitude":41.881832,"longitude":-87.62318,"reserved":0,"last_update":"0001-01-01T00:00:00Z","name_a2s":"Uncletopia | Chicago | 5 | All Maps","protocol":17,"map":"pl_pier","folder":"tf","game":"Team Fortress","app_id":440,"player_count":24,"max_players":24,"Bots":0,"server_type":"Dedicated","server_os":"Linux","password":true,"vac":true,"version":"7961495","steam_id":85568392924866362,"keywords":["nocrits","nodmgspread","payload","uncletopia"],"game_id":440,"stv_port":27016,"stv_name":"Uncletopia | Chicago | 5 | All Maps | STV","players":[{"user_id":403,"name":"Asanez3","steam_id":76561198037381436,"connected_time":1351000000000,"state":"active","ping":79},{"user_id":414,"name":"Comic","steam_id":76561198391882145,"connected_time":1205000000000,"state":"active","ping":36},{"user_id":434,"name":"sansa musa","steam_id":76561198163723555,"connected_time":301000000000,"state":"active","ping":61},{"user_id":392,"name":"zpalmtree","steam_id":76561198134307620,"connected_time":1880000000000,"state":"active","ping":70},{"user_id":430,"name":"YORCHspartan117","steam_id":76561198272955205,"connected_time":413000000000,"state":"active","ping":88},{"user_id":415,"name":"Ejaculation Zach","steam_id":76561198203765200,"connected_time":1182000000000,"state":"active","ping":62},{"user_id":436,"name":"harley","steam_id":76561198799384110,"connected_time":229000000000,"state":"active","ping":71},{"user_id":426,"name":"my name jeff","steam_id":76561198179816898,"connected_time":693000000000,"state":"active","ping":78},{"user_id":407,"name":"Skiddy","steam_id":76561198125942665,"connected_time":1313000000000,"state":"active","ping":76},{"user_id":408,"name":"sugoiboi48","steam_id":76561198060056280,"connected_time":1309000000000,"state":"active","ping":57},{"user_id":435,"name":"djungleskog","steam_id":76561199050193731,"connected_time":279000000000,"state":"active","ping":72},{"user_id":421,"name":"rudy","steam_id":76561198088712799,"connected_time":973000000000,"state":"active","ping":94},{"user_id":395,"name":"StudioMania (#SAVETF2)","steam_id":76561198211315795,"connected_time":1840000000000,"state":"active","ping":67},{"user_id":372,"name":"The One True Luke","steam_id":76561198180891187,"connected_time":3200000000000,"state":"active","ping":74},{"user_id":431,"name":"S1apSh0es","steam_id":76561198042663388,"connected_time":403000000000,"state":"active","ping":91},{"user_id":411,"name":"bejeweledmaster74","steam_id":76561198239286750,"connected_time":1265000000000,"state":"active","ping":64},{"user_id":437,"name":"Master Oogway","steam_id":76561198051869638,"connected_time":147000000000,"state":"active","ping":61},{"user_id":243,"name":"ZariaGalaxy","steam_id":76561198089441300,"connected_time":12660000000000,"state":"active","ping":77},{"user_id":412,"name":"rin","steam_id":76561198155841915,"connected_time":1244000000000,"state":"active","ping":76},{"user_id":384,"name":"Weerk","steam_id":76561199209543551,"connected_time":2483000000000,"state":"active","ping":84},{"user_id":402,"name":"2Fort Resident","steam_id":76561198046515716,"connected_time":1428000000000,"state":"active","ping":62},{"user_id":413,"name":"[NAME-REDACTED]","steam_id":76561198035682975,"connected_time":1226000000000,"state":"active","ping":76},{"user_id":438,"name":"I Bodyshot","steam_id":76561198031757460,"connected_time":103000000000,"state":"active","ping":72},{"user_id":388,"name":"creeeeeee","steam_id":76561198392539722,"connected_time":2221000000000,"state":"active","ping":82}]},{"server_id":37,"name":"Uncletopia | Chicago | 6 | All Maps","name_short":"chi-6","host":"chi-2.us.uncletopia.com","port":27025,"enabled":true,"region":"us-central","cc":"us","latitude":41.881832,"longitude":-87.62318,"reserved":0,"last_update":"0001-01-01T00:00:00Z","name_a2s":"Uncletopia | Chicago | 6 | All Maps","protocol":17,"map":"pl_swiftwater_final1","folder":"tf","game":"Team Fortress","app_id":440,"player_count":22,"max_players":24,"Bots":0,"server_type":"Dedicated","server_os":"Linux","password":true,"vac":true,"version":"7961495","steam_id":85568392924866363,"keywords":["nocrits","nodmgspread","payload","uncletopia"],"game_id":440,"stv_port":27026,"stv_name":"Uncletopia | Chicago | 6 | All Maps | STV","players":[{"user_id":405,"name":"Sergeant Joker #savetf2","steam_id":76561198854616604,"connected_time":27000000000,"state":"active","ping":111},{"user_id":402,"name":"npc energy","steam_id":76561198035342207,"connected_time":226000000000,"state":"active","ping":85},{"user_id":406,"name":"Seskova","steam_id":76561198090207032,"connected_time":20000000000,"state":"active","ping":144},{"user_id":301,"name":"Muselk","steam_id":76561199289676387,"connected_time":9475000000000,"state":"spawning","ping":75},{"user_id":392,"name":"Captain","steam_id":76561198155723294,"connected_time":1124000000000,"state":"spawning","ping":57},{"user_id":306,"name":"DonoC","steam_id":76561198274473338,"connected_time":8797000000000,"state":"spawning","ping":86},{"user_id":407,"name":"king sir glorious","steam_id":76561198115676070,"connected_time":17000000000,"state":"active","ping":108},{"user_id":399,"name":"pHsHy","steam_id":76561198013195018,"connected_time":348000000000,"state":"active","ping":97},{"user_id":403,"name":"Vox Vulpera","steam_id":76561198796227041,"connected_time":198000000000,"state":"spawning","ping":72},{"user_id":401,"name":"JohnnyBoi","steam_id":76561199082599937,"connected_time":287000000000,"state":"spawning","ping":93},{"user_id":360,"name":"averted","steam_id":76561198067784310,"connected_time":3884000000000,"state":"active","ping":65},{"user_id":394,"name":"SaV","steam_id":76561199104455523,"connected_time":1116000000000,"state":"spawning","ping":50},{"user_id":388,"name":"JJames","steam_id":76561198055687973,"connected_time":1176000000000,"state":"active","ping":469},{"user_id":390,"name":"TRIPLE AAARON","steam_id":76561198066835150,"connected_time":1143000000000,"state":"spawning","ping":57},{"user_id":387,"name":"Dongus","steam_id":76561197979056451,"connected_time":1181000000000,"state":"active","ping":124},{"user_id":408,"name":"KazmirlYT","steam_id":76561198116008410,"connected_time":5000000000,"state":"spawning","ping":103},{"user_id":397,"name":"Jrock","steam_id":76561198045715996,"connected_time":568000000000,"state":"active","ping":153},{"user_id":379,"name":"fresco","steam_id":76561199101199477,"connected_time":2173000000000,"state":"spawning","ping":71},{"user_id":398,"name":"potential racist","steam_id":76561198049371570,"connected_time":469000000000,"state":"active","ping":350},{"user_id":404,"name":"Eminem Guardian","steam_id":76561198064631314,"connected_time":135000000000,"state":"active","ping":308},{"user_id":371,"name":"MechaSixVII","steam_id":76561198014927379,"connected_time":3592000000000,"state":"spawning","ping":46},{"user_id":320,"name":"MEDEEVMEISTER1920","steam_id":76561198073630276,"connected_time":8036000000000,"state":"spawning","ping":54}]},{"server_id":38,"name":"Uncletopia | Chicago | 7 | Stopwatch","name_short":"chi-7","host":"chi-2.us.uncletopia.com","port":27035,"enabled":true,"region":"us-central","cc":"us","latitude":41.881832,"longitude":-87.62318,"reserved":0,"last_update":"0001-01-01T00:00:00Z","name_a2s":"Uncletopia | Chicago | 7 | Stopwatch","protocol":17,"map":"workshop/koth_product_final.ugc454272353","folder":"tf","game":"Team Fortress","app_id":440,"player_count":0,"max_players":24,"Bots":0,"server_type":"Dedicated","server_os":"Linux","password":true,"vac":true,"version":"7961495","steam_id":85568392924866364,"keywords":["cp","nocrits","nodmgspread","uncletopia"],"game_id":440,"stv_port":27036,"stv_name":"Uncletopia | Chicago | 7 | Stopwatch | STV","players":null},{"server_id":39,"name":"Uncletopia | Chicago | 8 | Community","name_short":"chi-8","host":"chi-2.us.uncletopia.com","port":27045,"enabled":true,"region":"us-central","cc":"us","latitude":41.881832,"longitude":-87.62318,"reserved":0,"last_update":"0001-01-01T00:00:00Z","name_a2s":"Uncletopia | Chicago | 8 | Community","protocol":17,"map":"workshop/cp_fulgur_rc2a.ugc2068252300","folder":"tf","game":"Team Fortress","app_id":440,"player_count":0,"max_players":24,"Bots":0,"server_type":"Dedicated","server_os":"Linux","password":true,"vac":true,"version":"7961495","steam_id":85568392924866365,"keywords":["cp","nocrits","nodmgspread","uncletopia"],"game_id":440,"stv_port":27046,"stv_name":"Uncletopia | Chicago | 8 | Community | STV","players":null},{"server_id":8,"name":"Uncletopia | Dallas | 1 | All Maps","name_short":"dal-1","host":"dal-1.us.uncletopia.com","port":27015,"enabled":true,"region":"us-central","cc":"us","latitude":32.779167,"longitude":-96.80889,"reserved":0,"last_update":"0001-01-01T00:00:00Z","name_a2s":"Uncletopia | Dallas | 1 | All Maps","protocol":17,"map":"koth_nucleus","folder":"tf","game":"Team Fortress","app_id":440,"player_count":24,"max_players":24,"Bots":0,"server_type":"Dedicated","server_os":"Linux","password":true,"vac":true,"version":"7961495","steam_id":85568392924469986,"keywords":["cp","nocrits","nodmgspread","uncletopia"],"game_id":440,"stv_port":27016,"stv_name":"Uncletopia | Dallas | 1 | All Maps | STV","players":[{"user_id":478,"name":"frank","steam_id":76561198137777483,"connected_time":622000000000,"state":"active","ping":88},{"user_id":479,"name":"penzfan","steam_id":76561198230422640,"connected_time":607000000000,"state":"active","ping":69},{"user_id":482,"name":"Gary Gaming","steam_id":76561198853378233,"connected_time":386000000000,"state":"active","ping":90},{"user_id":392,"name":"THRONGLER","steam_id":76561198198563466,"connected_time":6796000000000,"state":"active","ping":41},{"user_id":464,"name":"Gary Busey","steam_id":76561197970096950,"connected_time":1707000000000,"state":"active","ping":40},{"user_id":480,"name":"Lezabel","steam_id":76561198970753261,"connected_time":515000000000,"state":"active","ping":79},{"user_id":451,"name":"Uncle Ricky","steam_id":76561198152405141,"connected_time":3022000000000,"state":"active","ping":110},{"user_id":486,"name":"Who loves orange soda?","steam_id":76561198059808982,"connected_time":238000000000,"state":"active","ping":60},{"user_id":484,"name":"Herothroughtime","steam_id":76561198104355231,"connected_time":369000000000,"state":"active","ping":113},{"user_id":372,"name":"The Jar","steam_id":76561198146013385,"connected_time":8489000000000,"state":"active","ping":93},{"user_id":470,"name":"gung6n","steam_id":76561198099843841,"connected_time":1369000000000,"state":"active","ping":67},{"user_id":433,"name":"lker","steam_id":76561197976975075,"connected_time":4515000000000,"state":"active","ping":58},{"user_id":437,"name":"LampMan","steam_id":76561198079857527,"connected_time":4083000000000,"state":"active","ping":60},{"user_id":447,"name":"Zam","steam_id":76561198295713840,"connected_time":3279000000000,"state":"active","ping":59},{"user_id":475,"name":"firefly","steam_id":76561198151308698,"connected_time":857000000000,"state":"active","ping":49},{"user_id":430,"name":"^;;^","steam_id":76561198164460801,"connected_time":4636000000000,"state":"active","ping":114},{"user_id":459,"name":"PiolaCat","steam_id":76561199100535345,"connected_time":2665000000000,"state":"active","ping":143},{"user_id":463,"name":"Sweet Tooth","steam_id":76561198830158092,"connected_time":1712000000000,"state":"active","ping":81},{"user_id":485,"name":"another breloom","steam_id":76561198006938024,"connected_time":278000000000,"state":"active","ping":75},{"user_id":374,"name":"Bread Makes you Fat","steam_id":76561198985126532,"connected_time":8365000000000,"state":"active","ping":57},{"user_id":467,"name":"corned beef","steam_id":76561199366782761,"connected_time":1643000000000,"state":"active","ping":160},{"user_id":468,"name":"-π- BakaD","steam_id":76561197960559169,"connected_time":1610000000000,"state":"active","ping":83},{"user_id":487,"name":"[BALLS] r30848","steam_id":76561199123984543,"connected_time":209000000000,"state":"active","ping":55},{"user_id":477,"name":"speedy","steam_id":76561197974493959,"connected_time":632000000000,"state":"active","ping":105}]},{"server_id":108,"name":"Uncletopia | Dallas | 2 | All Maps","name_short":"dal-2","host":"dal-1.us.uncletopia.com","port":27025,"enabled":true,"region":"us-central","cc":"us","latitude":32.779167,"longitude":-96.80889,"reserved":0,"last_update":"0001-01-01T00:00:00Z","name_a2s":"Uncletopia | Dallas | 2 | All Maps","protocol":17,"map":"cp_dustbowl","folder":"tf","game":"Team Fortress","app_id":440,"player_count":24,"max_players":24,"Bots":0,"server_type":"Dedicated","server_os":"Linux","password":true,"vac":true,"version":"7961495","steam_id":85568392924469988,"keywords":["cp","nocrits","nodmgspread","uncletopia"],"game_id":440,"stv_port":27026,"stv_name":"Uncletopia | Dallas | 2 | All Maps | STV","players":[{"user_id":379,"name":"kid named weezer","steam_id":76561198813566335,"connected_time":1380000000000,"state":"active","ping":98},{"user_id":397,"name":"dalehunter","steam_id":76561199158974920,"connected_time":410000000000,"state":"active","ping":115},{"user_id":364,"name":"desgnation d drone corp","steam_id":76561199284838087,"connected_time":2134000000000,"state":"active","ping":69},{"user_id":374,"name":"thug shaker #enablecrits","steam_id":76561198081220016,"connected_time":1607000000000,"state":"active","ping":73},{"user_id":392,"name":"Spank McDugan","steam_id":76561198046401833,"connected_time":830000000000,"state":"active","ping":70},{"user_id":375,"name":"hl3 hot gay sex","steam_id":76561199122281764,"connected_time":1520000000000,"state":"active","ping":75},{"user_id":381,"name":"Legit_Jaxer","steam_id":76561198172234053,"connected_time":1303000000000,"state":"active","ping":106},{"user_id":398,"name":"RATATATATATA","steam_id":76561198288458595,"connected_time":320000000000,"state":"active","ping":84},{"user_id":350,"name":"mkl","steam_id":76561197986401685,"connected_time":3186000000000,"state":"active","ping":61},{"user_id":372,"name":"muck","steam_id":76561198120437909,"connected_time":1641000000000,"state":"active","ping":39},{"user_id":390,"name":"Oopsie Daisy ❋","steam_id":76561198042144492,"connected_time":972000000000,"state":"active","ping":64},{"user_id":385,"name":"Zimil","steam_id":76561199187045818,"connected_time":1124000000000,"state":"active","ping":117},{"user_id":395,"name":"We Go Crazy","steam_id":76561198209641359,"connected_time":624000000000,"state":"active","ping":72},{"user_id":403,"name":"i only ubercharge snipers","steam_id":76561198003995600,"connected_time":73000000000,"state":"active","ping":75},{"user_id":391,"name":"Aesede","steam_id":76561198002024762,"connected_time":950000000000,"state":"active","ping":123},{"user_id":399,"name":"Dip D. Stick","steam_id":76561198129943042,"connected_time":298000000000,"state":"active","ping":70},{"user_id":380,"name":".BL14","steam_id":76561198374604922,"connected_time":1349000000000,"state":"active","ping":41},{"user_id":396,"name":"White_Wizard_Named_Corona","steam_id":76561198055652735,"connected_time":543000000000,"state":"active","ping":64},{"user_id":400,"name":"C^a^L","steam_id":76561198241124222,"connected_time":288000000000,"state":"active","ping":90},{"user_id":402,"name":"Jonatello","steam_id":76561198045699189,"connected_time":129000000000,"state":"active","ping":109},{"user_id":389,"name":"Shattered Glass","steam_id":76561198116835391,"connected_time":1030000000000,"state":"active","ping":100},{"user_id":340,"name":"DOPEam1ne","steam_id":76561198112204774,"connected_time":3473000000000,"state":"active","ping":77},{"user_id":370,"name":"Vorpas Jabwak","steam_id":76561198112186064,"connected_time":1774000000000,"state":"active","ping":76},{"user_id":363,"name":"smetc","steam_id":76561198240696986,"connected_time":2309000000000,"state":"active","ping":82}]},{"server_id":404,"name":"Uncletopia | Dallas | 3 | All Maps","name_short":"dal-3","host":"dal-1.us.uncletopia.com","port":27035,"enabled":true,"region":"us-central","cc":"us","latitude":32.779167,"longitude":-96.80889,"reserved":0,"last_update":"0001-01-01T00:00:00Z","name_a2s":"Uncletopia | Dallas | 3 | All Maps","protocol":17,"map":"cp_sunshine","folder":"tf","game":"Team Fortress","app_id":440,"player_count":24,"max_players":24,"Bots":0,"server_type":"Dedicated","server_os":"Linux","password":true,"vac":true,"version":"7961495","steam_id":85568392924515219,"keywords":["cp","nocrits","nodmgspread","uncletopia"],"game_id":440,"stv_port":27036,"stv_name":"Uncletopia | Dallas | 3 | All Maps | STV","players":[{"user_id":269,"name":"Iron","steam_id":76561198247918478,"connected_time":837000000000,"state":"active","ping":113},{"user_id":257,"name":"TechnoBear2099","steam_id":76561198238863596,"connected_time":1080000000000,"state":"active","ping":47},{"user_id":283,"name":"monkaHeal","steam_id":76561198127039453,"connected_time":46000000000,"state":"active","ping":73},{"user_id":211,"name":"CDBeans","steam_id":76561198046990367,"connected_time":3974000000000,"state":"active","ping":112},{"user_id":278,"name":"Lunacy","steam_id":76561198400892015,"connected_time":531000000000,"state":"active","ping":77},{"user_id":259,"name":"Burrito Beater","steam_id":76561198800041544,"connected_time":1020000000000,"state":"active","ping":90},{"user_id":262,"name":"nbwingdinger","steam_id":76561198412627015,"connected_time":933000000000,"state":"active","ping":111},{"user_id":261,"name":"Whompert","steam_id":76561198042939624,"connected_time":946000000000,"state":"active","ping":94},{"user_id":279,"name":"Eclipse.","steam_id":76561199014132160,"connected_time":524000000000,"state":"active","ping":103},{"user_id":263,"name":"Stauxie","steam_id":76561198255030077,"connected_time":931000000000,"state":"active","ping":99},{"user_id":264,"name":"Khaki","steam_id":76561197991523078,"connected_time":913000000000,"state":"active","ping":63},{"user_id":280,"name":"Sparse","steam_id":76561198865084441,"connected_time":497000000000,"state":"active","ping":50},{"user_id":252,"name":"Egg Guzzler","steam_id":76561199109194893,"connected_time":1492000000000,"state":"active","ping":93},{"user_id":276,"name":"MensRightsActivist","steam_id":76561199482149729,"connected_time":711000000000,"state":"active","ping":82},{"user_id":267,"name":"BigBubble42","steam_id":76561198136286123,"connected_time":866000000000,"state":"active","ping":35},{"user_id":212,"name":"Sudo","steam_id":76561198123714026,"connected_time":3972000000000,"state":"active","ping":102},{"user_id":282,"name":"TRY NOT TO SMILE CHALLENGE","steam_id":76561197962607364,"connected_time":105000000000,"state":"active","ping":72},{"user_id":244,"name":"doughboy","steam_id":76561198219012928,"connected_time":1784000000000,"state":"active","ping":78},{"user_id":240,"name":"p4tty","steam_id":76561198201156046,"connected_time":1890000000000,"state":"active","ping":86},{"user_id":270,"name":"nonagon infinity","steam_id":76561198397662124,"connected_time":824000000000,"state":"active","ping":68},{"user_id":268,"name":"SomeRandomCat","steam_id":76561199107044061,"connected_time":859000000000,"state":"active","ping":53},{"user_id":277,"name":"TheAilingSword","steam_id":76561198250350844,"connected_time":676000000000,"state":"active","ping":55},{"user_id":274,"name":"cran","steam_id":76561198178840075,"connected_time":797000000000,"state":"active","ping":74},{"user_id":216,"name":"Wild Meep","steam_id":76561198199271438,"connected_time":3945000000000,"state":"active","ping":103}]},{"server_id":405,"name":"Uncletopia | Dallas | 4 | Community","name_short":"dal-4","host":"dal-1.us.uncletopia.com","port":27045,"enabled":true,"region":"us-central","cc":"us","latitude":32.779167,"longitude":-96.80889,"reserved":0,"last_update":"0001-01-01T00:00:00Z","name_a2s":"Uncletopia | Dallas | 4 | Community","protocol":17,"map":"workshop/cp_hazyfort_rc6.ugc1365963729","folder":"tf","game":"Team Fortress","app_id":440,"player_count":0,"max_players":24,"Bots":0,"server_type":"Dedicated","server_os":"Linux","password":true,"vac":true,"version":"7961495","steam_id":85568392924515220,"keywords":["cp","nocrits","nodmgspread","uncletopia"],"game_id":440,"stv_port":27046,"stv_name":"Uncletopia | Dallas | 4 | Community | STV","players":null},{"server_id":5,"name":"Uncletopia | Frankfurt | 1 | All Maps","name_short":"frk-1","host":"frk-1.de.uncletopia.com","port":27015,"enabled":true,"region":"eu","cc":"de","latitude":50.110924,"longitude":8.682127,"reserved":0,"last_update":"0001-01-01T00:00:00Z","name_a2s":"Uncletopia | Frankfurt | 1 | All Maps","protocol":17,"map":"cp_well","folder":"tf","game":"Team Fortress","app_id":440,"player_count":24,"max_players":24,"Bots":0,"server_type":"Dedicated","server_os":"Linux","password":true,"vac":true,"version":"7961495","steam_id":85568392924469989,"keywords":["cp","nocrits","nodmgspread","uncletopia"],"game_id":440,"stv_port":27016,"stv_name":"Uncletopia | Frankfurt | 1 | All Maps | STV","players":[{"user_id":483,"name":"_Shkoot","steam_id":76561198318170398,"connected_time":5366000000000,"state":"active","ping":45},{"user_id":563,"name":"Tusho","steam_id":76561198115447383,"connected_time":104000000000,"state":"active","ping":60},{"user_id":562,"name":"Qdarks","steam_id":76561198013391340,"connected_time":196000000000,"state":"active","ping":144},{"user_id":560,"name":"Frögg-Kät","steam_id":76561198263561004,"connected_time":385000000000,"state":"active","ping":60},{"user_id":525,"name":"Aiiden360","steam_id":76561198153073387,"connected_time":2421000000000,"state":"active","ping":67},{"user_id":561,"name":"Sunday","steam_id":76561198062930139,"connected_time":349000000000,"state":"active","ping":77},{"user_id":543,"name":"Deepo","steam_id":76561198347756595,"connected_time":1490000000000,"state":"active","ping":72},{"user_id":526,"name":"Soltixa","steam_id":76561198160400959,"connected_time":2364000000000,"state":"active","ping":65},{"user_id":544,"name":"Great recession of 2008","steam_id":76561198881151562,"connected_time":1438000000000,"state":"active","ping":95},{"user_id":557,"name":"Žydras","steam_id":76561198121646230,"connected_time":663000000000,"state":"active","ping":142},{"user_id":536,"name":"Lassie","steam_id":76561198131924713,"connected_time":1897000000000,"state":"active","ping":54},{"user_id":548,"name":"Brutausky :3","steam_id":76561198100767533,"connected_time":1263000000000,"state":"active","ping":69},{"user_id":513,"name":"r0la","steam_id":76561198128315340,"connected_time":2782000000000,"state":"active","ping":80},{"user_id":538,"name":"kurage","steam_id":76561198021221288,"connected_time":1821000000000,"state":"active","ping":56},{"user_id":540,"name":"GGlut","steam_id":76561198034281473,"connected_time":1736000000000,"state":"active","ping":45},{"user_id":541,"name":"Quodino Brostofaldo","steam_id":76561198258741488,"connected_time":1702000000000,"state":"active","ping":53},{"user_id":551,"name":"ArcX","steam_id":76561198805049375,"connected_time":934000000000,"state":"active","ping":51},{"user_id":555,"name":"toret","steam_id":76561199073501982,"connected_time":765000000000,"state":"active","ping":140},{"user_id":556,"name":"Judy Shoe","steam_id":76561198079102999,"connected_time":725000000000,"state":"active","ping":162},{"user_id":564,"name":"Tichy☆","steam_id":76561198026218934,"connected_time":85000000000,"state":"active","ping":48},{"user_id":565,"name":"kimharry573","steam_id":76561199498888140,"connected_time":75000000000,"state":"active","ping":83},{"user_id":559,"name":"roLab","steam_id":76561198002416756,"connected_time":645000000000,"state":"active","ping":78},{"user_id":566,"name":"bot or not? (guess)","steam_id":76561199036865103,"connected_time":63000000000,"state":"active","ping":98},{"user_id":448,"name":"xTheDarkLight","steam_id":76561198239128298,"connected_time":7786000000000,"state":"active","ping":48}]},{"server_id":110,"name":"Uncletopia | Frankfurt | 2 | All Maps","name_short":"frk-2","host":"frk-1.de.uncletopia.com","port":27025,"enabled":true,"region":"eu","cc":"de","latitude":50.110924,"longitude":8.682127,"reserved":0,"last_update":"0001-01-01T00:00:00Z","name_a2s":"Uncletopia | Frankfurt | 2 | All Maps","protocol":17,"map":"pl_goldrush","folder":"tf","game":"Team Fortress","app_id":440,"player_count":2,"max_players":24,"Bots":0,"server_type":"Dedicated","server_os":"Linux","password":true,"vac":true,"version":"7961495","steam_id":85568392924469990,"keywords":["nocrits","nodmgspread","payload","uncletopia"],"game_id":440,"stv_port":27026,"stv_name":"Uncletopia | Frankfurt | 2 | All Maps | STV","players":[{"user_id":344,"name":"Ade","steam_id":76561198974207724,"connected_time":10678000000000,"state":"active","ping":97},{"user_id":336,"name":"fynta","steam_id":76561198315371425,"connected_time":11544000000000,"state":"active","ping":57}]},{"server_id":308,"name":"Uncletopia | Frankfurt | 3 | All Maps","name_short":"frk-3","host":"frk-1.de.uncletopia.com","port":27035,"enabled":true,"region":"eu","cc":"de","latitude":50.110924,"longitude":8.682127,"reserved":0,"last_update":"0001-01-01T00:00:00Z","name_a2s":"Uncletopia | Frankfurt | 3 | All Maps","protocol":17,"map":"cp_mountainlab","folder":"tf","game":"Team Fortress","app_id":440,"player_count":0,"max_players":24,"Bots":0,"server_type":"Dedicated","server_os":"Linux","password":true,"vac":true,"version":"7961495","steam_id":85568392924504274,"keywords":["cp","nocrits","nodmgspread","uncletopia"],"game_id":440,"stv_port":27036,"stv_name":"Uncletopia | Frankfurt | 3 | All Maps | STV","players":null},{"server_id":309,"name":"Uncletopia | Frankfurt | 4 | All Maps","name_short":"frk-4","host":"frk-1.de.uncletopia.com","port":27045,"enabled":true,"region":"eu","cc":"de","latitude":50.110924,"longitude":8.682127,"reserved":0,"last_update":"0001-01-01T00:00:00Z","name_a2s":"Uncletopia | Frankfurt | 4 | All Maps","protocol":17,"map":"cp_sunshine","folder":"tf","game":"Team Fortress","app_id":440,"player_count":5,"max_players":24,"Bots":0,"server_type":"Dedicated","server_os":"Linux","password":true,"vac":true,"version":"7961495","steam_id":85568392924504275,"keywords":["cp","nocrits","nodmgspread","uncletopia"],"game_id":440,"stv_port":27046,"stv_name":"Uncletopia | Frankfurt | 4 | All Maps | STV","players":[{"user_id":736,"name":"Basil","steam_id":76561198046832312,"connected_time":3716000000000,"state":"active","ping":76},{"user_id":731,"name":"Mi cara","steam_id":76561198190771759,"connected_time":4307000000000,"state":"active","ping":223},{"user_id":740,"name":"matt_","steam_id":76561199121285443,"connected_time":2895000000000,"state":"active","ping":125},{"user_id":696,"name":"arrocyst","steam_id":76561199019880011,"connected_time":7218000000000,"state":"active","ping":110},{"user_id":719,"name":"Black Corvette","steam_id":76561198856943897,"connected_time":5289000000000,"state":"active","ping":91}]},{"server_id":310,"name":"Uncletopia | Frankfurt | 5 | All Maps","name_short":"frk-5","host":"frk-1.de.uncletopia.com","port":27055,"enabled":true,"region":"eu","cc":"de","latitude":50.110924,"longitude":8.682127,"reserved":0,"last_update":"0001-01-01T00:00:00Z","name_a2s":"Uncletopia | Frankfurt | 5 | All Maps","protocol":17,"map":"cp_altitude","folder":"tf","game":"Team Fortress","app_id":440,"player_count":17,"max_players":24,"Bots":0,"server_type":"Dedicated","server_os":"Linux","password":true,"vac":true,"version":"7961495","steam_id":85568392924504277,"keywords":["cp","nocrits","nodmgspread","uncletopia"],"game_id":440,"stv_port":27056,"stv_name":"Uncletopia | Frankfurt | 5 | All Maps | STV","players":[{"user_id":928,"name":"Rndm","steam_id":76561198176782867,"connected_time":1852000000000,"state":"active","ping":82},{"user_id":911,"name":"Ozzie","steam_id":76561197992915315,"connected_time":3513000000000,"state":"active","ping":75},{"user_id":929,"name":"foureyesfries","steam_id":76561198271831555,"connected_time":1831000000000,"state":"active","ping":58},{"user_id":930,"name":"Phalcon","steam_id":76561197987051394,"connected_time":1817000000000,"state":"active","ping":63},{"user_id":891,"name":"mighty bell toll","steam_id":76561198307037169,"connected_time":4996000000000,"state":"active","ping":68},{"user_id":947,"name":"REDA652","steam_id":76561198164733067,"connected_time":656000000000,"state":"active","ping":147},{"user_id":883,"name":"ywyw","steam_id":76561198088624259,"connected_time":5146000000000,"state":"active","ping":62},{"user_id":961,"name":"bubbleTea 60hz","steam_id":76561199487938189,"connected_time":17000000000,"state":"active","ping":46},{"user_id":890,"name":"IGNORANCE IS A BLESSING","steam_id":76561198798803845,"connected_time":5008000000000,"state":"active","ping":47},{"user_id":931,"name":"DarthMurloc_OW","steam_id":76561198075577711,"connected_time":1814000000000,"state":"active","ping":74},{"user_id":949,"name":"Shourai","steam_id":76561198201192634,"connected_time":635000000000,"state":"active","ping":60},{"user_id":914,"name":"AkioTohru","steam_id":76561198197606282,"connected_time":3439000000000,"state":"active","ping":78},{"user_id":934,"name":"Lord Odment","steam_id":76561198044354976,"connected_time":1659000000000,"state":"active","ping":105},{"user_id":959,"name":"Cleaner 0-1 | Ichinose Asuna","steam_id":76561198985309519,"connected_time":295000000000,"state":"active","ping":69},{"user_id":926,"name":"stun","steam_id":76561198276681691,"connected_time":2210000000000,"state":"active","ping":59},{"user_id":957,"name":"Mr. Fox","steam_id":76561198803610709,"connected_time":410000000000,"state":"active","ping":117},{"user_id":918,"name":"Jeryx","steam_id":76561197995602803,"connected_time":3232000000000,"state":"active","ping":56}]},{"server_id":311,"name":"Uncletopia | Frankfurt | 6 | All Maps","name_short":"frk-6","host":"frk-1.de.uncletopia.com","port":27065,"enabled":true,"region":"eu","cc":"de","latitude":50.110924,"longitude":8.682127,"reserved":0,"last_update":"0001-01-01T00:00:00Z","name_a2s":"Uncletopia | Frankfurt | 6 | All Maps","protocol":17,"map":"ctf_2fort","folder":"tf","game":"Team Fortress","app_id":440,"player_count":0,"max_players":24,"Bots":0,"server_type":"Dedicated","server_os":"Linux","password":true,"vac":true,"version":"7961495","steam_id":85568392924504278,"keywords":["ctf","nocrits","nodmgspread","uncletopia"],"game_id":440,"stv_port":27066,"stv_name":"Uncletopia | Frankfurt | 6 | All Maps | STV","players":null},{"server_id":23,"name":"Uncletopia | Frankfurt | 7 | Stopwatch","name_short":"frk-7","host":"frk-1.de.uncletopia.com","port":27075,"enabled":true,"region":"eu","cc":"de","latitude":50.110924,"longitude":8.682127,"reserved":0,"last_update":"0001-01-01T00:00:00Z","name_a2s":"Uncletopia | Frankfurt | 7 | Stopwatch","protocol":17,"map":"pl_borneo","folder":"tf","game":"Team Fortress","app_id":440,"player_count":0,"max_players":24,"Bots":0,"server_type":"Dedicated","server_os":"Linux","password":true,"vac":true,"version":"7961495","steam_id":85568392924742827,"keywords":["nocrits","nodmgspread","payload","uncletopia"],"game_id":440,"stv_port":27076,"stv_name":"Uncletopia | Frankfurt | 7 | Stopwatch | STV","players":null},{"server_id":24,"name":"Uncletopia | Frankfurt | 8 | Community","name_short":"frk-8","host":"frk-1.de.uncletopia.com","port":27085,"enabled":true,"region":"eu","cc":"de","latitude":50.110924,"longitude":8.682127,"reserved":0,"last_update":"0001-01-01T00:00:00Z","name_a2s":"Uncletopia | Frankfurt | 8 | Community","protocol":17,"map":"workshop/pl_boundary_final1.ugc456799153","folder":"tf","game":"Team Fortress","app_id":440,"player_count":0,"max_players":24,"Bots":0,"server_type":"Dedicated","server_os":"Linux","password":true,"vac":true,"version":"7961495","steam_id":85568392924742828,"keywords":["nocrits","nodmgspread","payload","uncletopia"],"game_id":440,"stv_port":27086,"stv_name":"Uncletopia | Frankfurt | 8 | Community | STV","players":null},{"server_id":202,"name":"Uncletopia | Hong Kong | 1 | All Maps","name_short":"hgk-1","host":"hgk-1.hk.uncletopia.com","port":27015,"enabled":true,"region":"asia","cc":"hk","latitude":22.302711,"longitude":114.177216,"reserved":0,"last_update":"0001-01-01T00:00:00Z","name_a2s":"Uncletopia | Hong Kong | 1 | All Maps","protocol":17,"map":"cp_snakewater_final1","folder":"tf","game":"Team Fortress","app_id":440,"player_count":0,"max_players":24,"Bots":0,"server_type":"Dedicated","server_os":"Linux","password":true,"vac":true,"version":"7961495","steam_id":85568392924494504,"keywords":["cp","nocrits","nodmgspread","uncletopia"],"game_id":440,"stv_port":27016,"stv_name":"Uncletopia | Hong Kong | 1 | All Maps | STV","players":null},{"server_id":1,"name":"Uncletopia | Los Angeles | 1 | All Maps","name_short":"lax-1","host":"lax-1.us.uncletopia.com","port":27015,"enabled":true,"region":"us-west","cc":"us","latitude":33.94279,"longitude":-118.41004,"reserved":0,"last_update":"0001-01-01T00:00:00Z","name_a2s":"Uncletopia | Los Angeles | 1 | All Maps","protocol":17,"map":"pl_swiftwater_final1","folder":"tf","game":"Team Fortress","app_id":440,"player_count":1,"max_players":24,"Bots":0,"server_type":"Dedicated","server_os":"Linux","password":true,"vac":true,"version":"7961495","steam_id":85568392924469991,"keywords":["nocrits","nodmgspread","payload","uncletopia"],"game_id":440,"stv_port":27016,"stv_name":"Uncletopia | Los Angeles | 1 | All Maps | STV","players":[{"user_id":239,"name":"Jam","steam_id":76561199215933024,"connected_time":2334000000000,"state":"active","ping":62}]},{"server_id":112,"name":"Uncletopia | Los Angeles | 2 | All Maps","name_short":"lax-2","host":"lax-1.us.uncletopia.com","port":27025,"enabled":true,"region":"us-west","cc":"us","latitude":33.94279,"longitude":-118.41004,"reserved":0,"last_update":"0001-01-01T00:00:00Z","name_a2s":"Uncletopia | Los Angeles | 2 | All Maps","protocol":17,"map":"pl_badwater","folder":"tf","game":"Team Fortress","app_id":440,"player_count":24,"max_players":24,"Bots":0,"server_type":"Dedicated","server_os":"Linux","password":true,"vac":true,"version":"7961495","steam_id":85568392924469992,"keywords":["nocrits","nodmgspread","payload","uncletopia"],"game_id":440,"stv_port":27026,"stv_name":"Uncletopia | Los Angeles | 2 | All Maps | STV","players":[{"user_id":268,"name":"Soviet Potato","steam_id":76561198068546113,"connected_time":1276000000000,"state":"active","ping":50},{"user_id":104,"name":"selvhat","steam_id":76561198114225509,"connected_time":11825000000000,"state":"active","ping":53},{"user_id":190,"name":"BitPieStudios","steam_id":76561198059216393,"connected_time":6474000000000,"state":"active","ping":47},{"user_id":241,"name":"Da Bird","steam_id":76561198215677985,"connected_time":3596000000000,"state":"active","ping":62},{"user_id":269,"name":"Dullahan","steam_id":76561198119668908,"connected_time":842000000000,"state":"active","ping":58},{"user_id":250,"name":"Pacemaker","steam_id":76561198046865217,"connected_time":3036000000000,"state":"active","ping":43},{"user_id":275,"name":"Klopo","steam_id":76561198871108633,"connected_time":531000000000,"state":"active","ping":44},{"user_id":203,"name":"Snoopy","steam_id":76561198273735974,"connected_time":5968000000000,"state":"active","ping":92},{"user_id":248,"name":"D(b) Hell","steam_id":76561198067869016,"connected_time":3156000000000,"state":"active","ping":96},{"user_id":264,"name":"c0wmanglr","steam_id":76561198025342064,"connected_time":1469000000000,"state":"active","ping":51},{"user_id":164,"name":"moe","steam_id":76561198929586245,"connected_time":7616000000000,"state":"active","ping":53},{"user_id":232,"name":"cycoone","steam_id":76561198059745285,"connected_time":4125000000000,"state":"active","ping":103},{"user_id":270,"name":"GreenApples","steam_id":76561198120559543,"connected_time":816000000000,"state":"active","ping":60},{"user_id":271,"name":"PandaWithHat2313","steam_id":76561199116285411,"connected_time":683000000000,"state":"active","ping":59},{"user_id":278,"name":"Link_Starr","steam_id":76561198133884015,"connected_time":91000000000,"state":"active","ping":62},{"user_id":249,"name":"this","steam_id":76561198170195505,"connected_time":3106000000000,"state":"active","ping":46},{"user_id":276,"name":"CPTforever","steam_id":76561198237767198,"connected_time":411000000000,"state":"active","ping":48},{"user_id":267,"name":"Moth Beam","steam_id":76561198005069202,"connected_time":1368000000000,"state":"active","ping":81},{"user_id":277,"name":"waffle","steam_id":76561198077799844,"connected_time":399000000000,"state":"active","ping":55},{"user_id":165,"name":"basedball","steam_id":76561198385887698,"connected_time":7614000000000,"state":"active","ping":87},{"user_id":261,"name":"Reisen Udongein Inaba","steam_id":76561198051082314,"connected_time":2305000000000,"state":"active","ping":65},{"user_id":266,"name":"Gerbias","steam_id":76561198001002427,"connected_time":1449000000000,"state":"active","ping":62},{"user_id":262,"name":"Tom Crúaich","steam_id":76561197999439911,"connected_time":1710000000000,"state":"active","ping":90},{"user_id":274,"name":"Bodhi","steam_id":76561198043199143,"connected_time":567000000000,"state":"active","ping":66}]},{"server_id":324,"name":"Uncletopia | Los Angeles | 3 | All Maps","name_short":"lax-3","host":"lax-1.us.uncletopia.com","port":27035,"enabled":true,"region":"us-west","cc":"us","latitude":33.94279,"longitude":-118.41004,"reserved":0,"last_update":"0001-01-01T00:00:00Z","name_a2s":"Uncletopia | Los Angeles | 3 | All Maps","protocol":17,"map":"koth_highpass","folder":"tf","game":"Team Fortress","app_id":440,"player_count":0,"max_players":24,"Bots":0,"server_type":"Dedicated","server_os":"Linux","password":true,"vac":true,"version":"7961495","steam_id":85568392924510198,"keywords":["cp","nocrits","nodmgspread","uncletopia"],"game_id":440,"stv_port":27036,"stv_name":"Uncletopia | Los Angeles | 3 | All Maps | STV","players":null},{"server_id":25,"name":"Uncletopia | Los Angeles | 4 | Stopwatch","name_short":"lax-4","host":"lax-1.us.uncletopia.com","port":27045,"enabled":true,"region":"us-west","cc":"us","latitude":33.94279,"longitude":-118.41004,"reserved":0,"last_update":"0001-01-01T00:00:00Z","name_a2s":"Uncletopia | Los Angeles | 4 | Stopwatch","protocol":17,"map":"cp_sunshine","folder":"tf","game":"Team Fortress","app_id":440,"player_count":0,"max_players":24,"Bots":0,"server_type":"Dedicated","server_os":"Linux","password":true,"vac":true,"version":"7961495","steam_id":85568392924510199,"keywords":["cp","nocrits","nodmgspread","uncletopia"],"game_id":440,"stv_port":27046,"stv_name":"Uncletopia | Los Angeles | 4 | Stopwatch | STV","players":null},{"server_id":11,"name":"Uncletopia | London | 1 | All Maps","name_short":"lon-1","host":"lon-1.uk.uncletopia.com","port":27015,"enabled":true,"region":"eu","cc":"gb","latitude":51.509865,"longitude":-0.118092,"reserved":0,"last_update":"0001-01-01T00:00:00Z","name_a2s":"Uncletopia | London | 1 | All Maps","protocol":17,"map":"pl_borneo","folder":"tf","game":"Team Fortress","app_id":440,"player_count":24,"max_players":24,"Bots":0,"server_type":"Dedicated","server_os":"Linux","password":true,"vac":true,"version":"7961495","steam_id":85568392924367362,"keywords":["nocrits","nodmgspread","payload","uncletopia"],"game_id":440,"stv_port":27016,"stv_name":"Uncletopia | London | 1 | All Maps | STV","players":[{"user_id":513,"name":"Haxaar","steam_id":76561199023399084,"connected_time":1788000000000,"state":"active","ping":101},{"user_id":476,"name":"Prime Minister Rishi Sunak","steam_id":76561198846784757,"connected_time":3163000000000,"state":"active","ping":54},{"user_id":529,"name":"✪ Danny","steam_id":76561198104483241,"connected_time":539000000000,"state":"active","ping":53},{"user_id":465,"name":"Purps","steam_id":76561198053886680,"connected_time":4924000000000,"state":"active","ping":36},{"user_id":402,"name":"Galien","steam_id":76561198833491310,"connected_time":10167000000000,"state":"active","ping":41},{"user_id":478,"name":"Mirror","steam_id":76561197963954925,"connected_time":3098000000000,"state":"active","ping":30},{"user_id":512,"name":"SuperBob103","steam_id":76561199175360012,"connected_time":1823000000000,"state":"active","ping":59},{"user_id":532,"name":"Joshass","steam_id":76561198062663024,"connected_time":486000000000,"state":"active","ping":53},{"user_id":473,"name":"Pantroglodytestherapy","steam_id":76561198236015392,"connected_time":3747000000000,"state":"active","ping":119},{"user_id":531,"name":"Yikes_uwu","steam_id":76561199072646478,"connected_time":492000000000,"state":"active","ping":150},{"user_id":452,"name":"sora","steam_id":76561198096547662,"connected_time":7693000000000,"state":"active","ping":52},{"user_id":534,"name":"Tattletails","steam_id":76561198055690341,"connected_time":224000000000,"state":"active","ping":60},{"user_id":535,"name":"ack","steam_id":76561198139796077,"connected_time":139000000000,"state":"active","ping":55},{"user_id":533,"name":"DDGAF","steam_id":76561198257836694,"connected_time":458000000000,"state":"active","ping":40},{"user_id":528,"name":"lillunya ♡","steam_id":76561198330418866,"connected_time":906000000000,"state":"active","ping":72},{"user_id":482,"name":"Σ-男","steam_id":76561199124332716,"connected_time":3089000000000,"state":"active","ping":142},{"user_id":498,"name":"MyAnacondaDontWantNone","steam_id":76561199044028826,"connected_time":2408000000000,"state":"active","ping":46},{"user_id":520,"name":"SAS41","steam_id":76561197998649851,"connected_time":1531000000000,"state":"active","ping":74},{"user_id":527,"name":"Piney💙","steam_id":76561198050910939,"connected_time":1179000000000,"state":"active","ping":57},{"user_id":511,"name":"qw373z","steam_id":76561198364447229,"connected_time":1828000000000,"state":"active","ping":89},{"user_id":524,"name":"cansado","steam_id":76561198003898089,"connected_time":1374000000000,"state":"active","ping":75},{"user_id":514,"name":"Worms","steam_id":76561198040442214,"connected_time":1775000000000,"state":"active","ping":45},{"user_id":526,"name":"Gioni","steam_id":76561198395912581,"connected_time":1331000000000,"state":"active","ping":104},{"user_id":516,"name":"LuCroGi","steam_id":76561198057283891,"connected_time":1753000000000,"state":"active","ping":56}]},{"server_id":114,"name":"Uncletopia | London | 2 | All Maps","name_short":"lon-2","host":"lon-1.uk.uncletopia.com","port":27025,"enabled":true,"region":"eu","cc":"gb","latitude":51.509865,"longitude":-0.118092,"reserved":0,"last_update":"0001-01-01T00:00:00Z","name_a2s":"Uncletopia | London | 2 | All Maps","protocol":17,"map":"koth_highpass","folder":"tf","game":"Team Fortress","app_id":440,"player_count":0,"max_players":24,"Bots":0,"server_type":"Dedicated","server_os":"Linux","password":true,"vac":true,"version":"7961495","steam_id":85568392924470941,"keywords":["cp","nocrits","nodmgspread","uncletopia"],"game_id":440,"stv_port":27026,"stv_name":"Uncletopia | London | 2 | All Maps | STV","players":null},{"server_id":320,"name":"Uncletopia | London | 3 | All Maps","name_short":"lon-3","host":"lon-1.uk.uncletopia.com","port":27035,"enabled":true,"region":"eu","cc":"gb","latitude":51.509865,"longitude":-0.118092,"reserved":0,"last_update":"0001-01-01T00:00:00Z","name_a2s":"Uncletopia | London | 3 | All Maps","protocol":17,"map":"pl_frontier_final","folder":"tf","game":"Team Fortress","app_id":440,"player_count":24,"max_players":24,"Bots":0,"server_type":"Dedicated","server_os":"Linux","password":true,"vac":true,"version":"7961495","steam_id":85568392924510192,"keywords":["nocrits","nodmgspread","payload","uncletopia"],"game_id":440,"stv_port":27036,"stv_name":"Uncletopia | London | 3 | All Maps | STV","players":[{"user_id":680,"name":"Dedu","steam_id":76561198132191324,"connected_time":1312000000000,"state":"active","ping":56},{"user_id":661,"name":"Shallaska","steam_id":76561198019030896,"connected_time":1642000000000,"state":"active","ping":53},{"user_id":682,"name":"Neiro👽ᗩYY ᒪᗰᗩO","steam_id":76561198046743985,"connected_time":1129000000000,"state":"active","ping":73},{"user_id":663,"name":"Wodaz","steam_id":76561198043263557,"connected_time":1527000000000,"state":"active","ping":63},{"user_id":664,"name":"AsuX","steam_id":76561197990333289,"connected_time":1499000000000,"state":"active","ping":60},{"user_id":672,"name":"STiNGHAN","steam_id":76561198023989090,"connected_time":1407000000000,"state":"active","ping":87},{"user_id":667,"name":"Kaupsýslumaðurinn","steam_id":76561198070358944,"connected_time":1478000000000,"state":"active","ping":49},{"user_id":668,"name":"noseb","steam_id":76561199480942903,"connected_time":1464000000000,"state":"active","ping":69},{"user_id":683,"name":"Lord of Birds","steam_id":76561198268952995,"connected_time":1025000000000,"state":"active","ping":74},{"user_id":687,"name":"Jouppi","steam_id":76561198063725468,"connected_time":482000000000,"state":"active","ping":120},{"user_id":653,"name":"Angelo254","steam_id":76561198327226011,"connected_time":2411000000000,"state":"active","ping":76},{"user_id":615,"name":"Kernel Panic","steam_id":76561198215811047,"connected_time":3995000000000,"state":"active","ping":42},{"user_id":604,"name":"Nina","steam_id":76561198200364237,"connected_time":5484000000000,"state":"active","ping":77},{"user_id":686,"name":"Hitotsume","steam_id":76561198129157178,"connected_time":508000000000,"state":"active","ping":88},{"user_id":670,"name":"sz(k)","steam_id":76561198118500940,"connected_time":1431000000000,"state":"active","ping":73},{"user_id":685,"name":"highest noon","steam_id":76561199103959197,"connected_time":810000000000,"state":"active","ping":101},{"user_id":679,"name":"L+bozo+get cooked","steam_id":76561198126762760,"connected_time":1342000000000,"state":"active","ping":59},{"user_id":674,"name":"FirePhoenyx","steam_id":76561198055701001,"connected_time":1383000000000,"state":"active","ping":91},{"user_id":688,"name":"jin.88","steam_id":76561198045099492,"connected_time":315000000000,"state":"active","ping":125},{"user_id":676,"name":"apple","steam_id":76561198350676879,"connected_time":1371000000000,"state":"active","ping":91},{"user_id":659,"name":"Dozer","steam_id":76561197998742338,"connected_time":2019000000000,"state":"active","ping":69},{"user_id":677,"name":"Q U E E N A L E X","steam_id":76561198186341157,"connected_time":1366000000000,"state":"active","ping":45},{"user_id":678,"name":"King Goomba","steam_id":76561198146467813,"connected_time":1363000000000,"state":"active","ping":65},{"user_id":646,"name":"Economic crisis","steam_id":76561198063562843,"connected_time":2855000000000,"state":"active","ping":71}]},{"server_id":321,"name":"Uncletopia | London | 4 | All Maps","name_short":"lon-4","host":"lon-1.uk.uncletopia.com","port":27045,"enabled":true,"region":"eu","cc":"gb","latitude":51.509865,"longitude":-0.118092,"reserved":0,"last_update":"0001-01-01T00:00:00Z","name_a2s":"Uncletopia | London | 4 | All Maps","protocol":17,"map":"pl_upward","folder":"tf","game":"Team Fortress","app_id":440,"player_count":7,"max_players":24,"Bots":0,"server_type":"Dedicated","server_os":"Linux","password":true,"vac":true,"version":"7961495","steam_id":85568392924510193,"keywords":["nocrits","nodmgspread","payload","uncletopia"],"game_id":440,"stv_port":27046,"stv_name":"Uncletopia | London | 4 | All Maps | STV","players":[{"user_id":844,"name":"F2P Rights Activist","steam_id":76561199012786293,"connected_time":1070000000000,"state":"active","ping":162},{"user_id":815,"name":"Andy","steam_id":76561198066415631,"connected_time":4049000000000,"state":"active","ping":75},{"user_id":833,"name":"vi","steam_id":76561198303147966,"connected_time":3147000000000,"state":"active","ping":47},{"user_id":801,"name":"GZimmer","steam_id":76561198088794767,"connected_time":4785000000000,"state":"active","ping":56},{"user_id":838,"name":"虾扯蛋.Lonely","steam_id":76561198022989560,"connected_time":2405000000000,"state":"active","ping":56},{"user_id":782,"name":"golfmastr","steam_id":76561198993144124,"connected_time":6678000000000,"state":"active","ping":59},{"user_id":777,"name":"sSolle","steam_id":76561198085269924,"connected_time":6934000000000,"state":"active","ping":74}]},{"server_id":21,"name":"Uncletopia | London | 5 | All Maps","name_short":"lon-5","host":"lon-1.uk.uncletopia.com","port":27055,"enabled":true,"region":"eu","cc":"gb","latitude":51.509865,"longitude":-0.118092,"reserved":0,"last_update":"0001-01-01T00:00:00Z","name_a2s":"Uncletopia | London | 5 | All Maps","protocol":17,"map":"cp_gullywash_final1","folder":"tf","game":"Team Fortress","app_id":440,"player_count":21,"max_players":24,"Bots":0,"server_type":"Dedicated","server_os":"Linux","password":true,"vac":true,"version":"7961495","steam_id":85568392924742829,"keywords":["cp","nocrits","nodmgspread","uncletopia"],"game_id":440,"stv_port":27056,"stv_name":"Uncletopia | London | 5 | All Maps | STV","players":[{"user_id":509,"name":"Dacon","steam_id":76561198018582112,"connected_time":2402000000000,"state":"active","ping":55},{"user_id":515,"name":"paypig","steam_id":76561198035137115,"connected_time":2038000000000,"state":"active","ping":44},{"user_id":545,"name":"N5LH","steam_id":76561199112528775,"connected_time":285000000000,"state":"active","ping":106},{"user_id":512,"name":"ROX","steam_id":76561198272289320,"connected_time":2315000000000,"state":"active","ping":61},{"user_id":538,"name":"hardway","steam_id":76561198272529254,"connected_time":1165000000000,"state":"active","ping":56},{"user_id":514,"name":"Tomboy Mold","steam_id":76561198106455841,"connected_time":2249000000000,"state":"active","ping":70},{"user_id":550,"name":"Twerno","steam_id":76561198026985365,"connected_time":62000000000,"state":"active","ping":56},{"user_id":501,"name":"grassesmode.exe","steam_id":76561198090167960,"connected_time":3534000000000,"state":"active","ping":84},{"user_id":551,"name":"turtlemage","steam_id":76561198052452373,"connected_time":42000000000,"state":"active","ping":47},{"user_id":539,"name":"Stefman","steam_id":76561199025104038,"connected_time":1153000000000,"state":"active","ping":39},{"user_id":507,"name":"drwhut","steam_id":76561198070218857,"connected_time":2502000000000,"state":"active","ping":37},{"user_id":547,"name":"Peepster","steam_id":76561198297854733,"connected_time":169000000000,"state":"active","ping":158},{"user_id":518,"name":"Mr_Pulse_","steam_id":76561198095001602,"connected_time":1929000000000,"state":"active","ping":101},{"user_id":542,"name":"Savetf2 #RemoveRandomCrits","steam_id":76561198062075870,"connected_time":797000000000,"state":"active","ping":72},{"user_id":546,"name":"Coconuttii","steam_id":76561198006974800,"connected_time":284000000000,"state":"active","ping":45},{"user_id":534,"name":"etc","steam_id":76561197998394797,"connected_time":1404000000000,"state":"active","ping":55},{"user_id":549,"name":"игла","steam_id":76561198120760515,"connected_time":126000000000,"state":"active","ping":90},{"user_id":526,"name":"SuntanPikachu","steam_id":76561198121242476,"connected_time":1693000000000,"state":"active","ping":54},{"user_id":543,"name":"baballe","steam_id":76561198302448192,"connected_time":770000000000,"state":"active","ping":31},{"user_id":540,"name":"dirty rascal","steam_id":76561198000871038,"connected_time":1090000000000,"state":"active","ping":49},{"user_id":504,"name":"Swip3r","steam_id":76561198039789772,"connected_time":3446000000000,"state":"active","ping":40}]},{"server_id":22,"name":"Uncletopia | London | 6 | All Maps","name_short":"lon-6","host":"lon-1.uk.uncletopia.com","port":27065,"enabled":true,"region":"eu","cc":"gb","latitude":51.509865,"longitude":-0.118092,"reserved":0,"last_update":"0001-01-01T00:00:00Z","name_a2s":"Uncletopia | London | 6 | All Maps","protocol":17,"map":"koth_viaduct","folder":"tf","game":"Team Fortress","app_id":440,"player_count":0,"max_players":24,"Bots":0,"server_type":"Dedicated","server_os":"Linux","password":true,"vac":true,"version":"7961495","steam_id":85568392924742830,"keywords":["cp","nocrits","nodmgspread","uncletopia"],"game_id":440,"stv_port":27066,"stv_name":"Uncletopia | London | 6 | All Maps | STV","players":null},{"server_id":40,"name":"Uncletopia | London | 7 | Stopwatch","name_short":"lon-7","host":"lon-1.uk.uncletopia.com","port":27075,"enabled":true,"region":"eu","cc":"gb","latitude":51.509865,"longitude":-0.118092,"reserved":0,"last_update":"0001-01-01T00:00:00Z","name_a2s":"Uncletopia | London | 7 | Stopwatch","protocol":17,"map":"pl_upward","folder":"tf","game":"Team Fortress","app_id":440,"player_count":0,"max_players":24,"Bots":0,"server_type":"Dedicated","server_os":"Linux","password":true,"vac":true,"version":"7961495","steam_id":85568392924964314,"keywords":["nocrits","nodmgspread","payload","uncletopia"],"game_id":440,"stv_port":27076,"stv_name":"Uncletopia | London | 7 | Stopwatch | STV","players":null},{"server_id":41,"name":"Uncletopia | London | 8 | Community","name_short":"lon-8","host":"lon-1.uk.uncletopia.com","port":27085,"enabled":true,"region":"eu","cc":"gb","latitude":51.509865,"longitude":-0.118092,"reserved":0,"last_update":"0001-01-01T00:00:00Z","name_a2s":"Uncletopia | London | 8 | Community","protocol":17,"map":"workshop/cp_reckoner_rc6.ugc674719999","folder":"tf","game":"Team Fortress","app_id":440,"player_count":0,"max_players":24,"Bots":0,"server_type":"Dedicated","server_os":"Linux","password":true,"vac":true,"version":"7961495","steam_id":85568392924964315,"keywords":["cp","nocrits","nodmgspread","uncletopia"],"game_id":440,"stv_port":27086,"stv_name":"Uncletopia | London | 8 | Community | STV","players":null},{"server_id":300,"name":"Uncletopia | Montréal | 1 | One Thousand Uncles","name_short":"mtl-1","host":"mtl-1.ca.uncletopia.com","port":27015,"enabled":true,"region":"us-east","cc":"ca","latitude":45.50889,"longitude":-73.56167,"reserved":0,"last_update":"0001-01-01T00:00:00Z","name_a2s":"","protocol":0,"map":"","folder":"","game":"","app_id":0,"player_count":10,"max_players":0,"Bots":0,"server_type":"","server_os":"","password":false,"vac":false,"version":"","steam_id":0,"keywords":null,"game_id":0,"stv_port":0,"stv_name":"","players":[{"user_id":494,"name":"Nansral26","steam_id":76561198886650496,"connected_time":2681000000000,"state":"active","ping":61},{"user_id":521,"name":"tom_no_h","steam_id":76561198388785222,"connected_time":1422000000000,"state":"active","ping":74},{"user_id":442,"name":"Adam (Cursed Confetti Creature)","steam_id":76561198317690197,"connected_time":7799000000000,"state":"active","ping":61},{"user_id":491,"name":"༘ ⋆˚🎧Caffeine☕*˖°","steam_id":76561199259309294,"connected_time":3234000000000,"state":"active","ping":47},{"user_id":523,"name":"ʕ•ᴥ•ʔ the bear","steam_id":76561197989591976,"connected_time":901000000000,"state":"active","ping":61},{"user_id":492,"name":"Uncle Belmore","steam_id":76561198009355231,"connected_time":3097000000000,"state":"active","ping":108},{"user_id":529,"name":"Disco Fever","steam_id":76561198069532215,"connected_time":511000000000,"state":"active","ping":57},{"user_id":496,"name":"swooce","steam_id":76561198156232484,"connected_time":2617000000000,"state":"active","ping":59},{"user_id":502,"name":"double xp weekend","steam_id":76561198052950547,"connected_time":1942000000000,"state":"active","ping":55},{"user_id":504,"name":"Lorbseanism","steam_id":76561198315631796,"connected_time":1655000000000,"state":"active","ping":66}]},{"server_id":301,"name":"Uncletopia | Montréal | 2 | One Thousand Uncles","name_short":"mtl-2","host":"mtl-1.ca.uncletopia.com","port":27025,"enabled":true,"region":"us-east","cc":"ca","latitude":45.50889,"longitude":-73.56167,"reserved":0,"last_update":"0001-01-01T00:00:00Z","name_a2s":"","protocol":0,"map":"","folder":"","game":"","app_id":0,"player_count":8,"max_players":0,"Bots":0,"server_type":"","server_os":"","password":false,"vac":false,"version":"","steam_id":0,"keywords":null,"game_id":0,"stv_port":0,"stv_name":"","players":[{"user_id":191,"name":"walterfishing_17","steam_id":76561198976904099,"connected_time":661000000000,"state":"active","ping":84},{"user_id":168,"name":"76561199221669701","steam_id":76561199221669701,"connected_time":2879000000000,"state":"active","ping":94},{"user_id":192,"name":"neet","steam_id":76561197968115168,"connected_time":646000000000,"state":"active","ping":60},{"user_id":193,"name":"RacoonGamer","steam_id":76561198100907657,"connected_time":394000000000,"state":"active","ping":48},{"user_id":120,"name":"joachym","steam_id":76561198428579761,"connected_time":8004000000000,"state":"active","ping":145},{"user_id":194,"name":"WM1 PYRO","steam_id":76561198045893896,"connected_time":232000000000,"state":"active","ping":106},{"user_id":153,"name":"Dr Madness The Octoling","steam_id":76561198065407703,"connected_time":4342000000000,"state":"active","ping":49},{"user_id":163,"name":"superbug3003","steam_id":76561198311447642,"connected_time":3424000000000,"state":"active","ping":47}]},{"server_id":302,"name":"Uncletopia | Montréal | 3 | One Thousand Uncles","name_short":"mtl-3","host":"mtl-1.ca.uncletopia.com","port":27035,"enabled":true,"region":"us-east","cc":"ca","latitude":45.50889,"longitude":-73.56167,"reserved":0,"last_update":"0001-01-01T00:00:00Z","name_a2s":"","protocol":0,"map":"","folder":"","game":"","app_id":0,"player_count":0,"max_players":0,"Bots":0,"server_type":"","server_os":"","password":false,"vac":false,"version":"","steam_id":0,"keywords":null,"game_id":0,"stv_port":0,"stv_name":"","players":null},{"server_id":13,"name":"Uncletopia | New York City | 1 | All Maps","name_short":"nyc-1","host":"nyc-1.us.uncletopia.com","port":27015,"enabled":true,"region":"us-east","cc":"us","latitude":40.73061,"longitude":-73.93524,"reserved":0,"last_update":"0001-01-01T00:00:00Z","name_a2s":"Uncletopia | New York City | 1 | All Maps","protocol":17,"map":"cp_well","folder":"tf","game":"Team Fortress","app_id":440,"player_count":24,"max_players":24,"Bots":0,"server_type":"Dedicated","server_os":"Linux","password":true,"vac":true,"version":"7961495","steam_id":85568392924469993,"keywords":["cp","nocrits","nodmgspread","uncletopia"],"game_id":440,"stv_port":27016,"stv_name":"Uncletopia | New York City | 1 | All Maps | STV","players":[{"user_id":397,"name":"The Wave","steam_id":76561198268225109,"connected_time":42000000000,"state":"active","ping":76},{"user_id":392,"name":"DivineBanana","steam_id":76561198026529731,"connected_time":311000000000,"state":"active","ping":87},{"user_id":383,"name":"Parth Makeo","steam_id":76561198002516581,"connected_time":715000000000,"state":"active","ping":36},{"user_id":368,"name":"Comfy!","steam_id":76561198008818346,"connected_time":1904000000000,"state":"active","ping":48},{"user_id":324,"name":"Yummy Kabobz","steam_id":76561198067661705,"connected_time":5602000000000,"state":"active","ping":52},{"user_id":384,"name":"BroBama","steam_id":76561198203732587,"connected_time":710000000000,"state":"active","ping":93},{"user_id":391,"name":"Jonny4Balls","steam_id":76561198979333994,"connected_time":336000000000,"state":"active","ping":71},{"user_id":371,"name":"Rachi","steam_id":76561198083826053,"connected_time":1670000000000,"state":"active","ping":62},{"user_id":377,"name":"Queso2469","steam_id":76561197993024580,"connected_time":1341000000000,"state":"active","ping":55},{"user_id":318,"name":"Toxic Ron","steam_id":76561198089302972,"connected_time":6840000000000,"state":"active","ping":61},{"user_id":359,"name":"Fredrick","steam_id":76561197981419964,"connected_time":3288000000000,"state":"active","ping":53},{"user_id":389,"name":"Gardyloo_","steam_id":76561198353424759,"connected_time":399000000000,"state":"active","ping":55},{"user_id":395,"name":"Sicko Mode (Chris Pratt Cover)","steam_id":76561198315786174,"connected_time":109000000000,"state":"active","ping":56},{"user_id":385,"name":"LegendaireNic","steam_id":76561198211753861,"connected_time":672000000000,"state":"active","ping":65},{"user_id":357,"name":"lexi","steam_id":76561198176299759,"connected_time":3403000000000,"state":"active","ping":88},{"user_id":396,"name":"Mirelas","steam_id":76561198839360212,"connected_time":67000000000,"state":"active","ping":81},{"user_id":353,"name":"็Periculosum PhD in Funny","steam_id":76561198123370914,"connected_time":3937000000000,"state":"active","ping":94},{"user_id":390,"name":"Wafflehead","steam_id":76561198051895288,"connected_time":396000000000,"state":"active","ping":65},{"user_id":361,"name":"WibbyOne","steam_id":76561198052843846,"connected_time":2959000000000,"state":"active","ping":37},{"user_id":394,"name":"MondoDong","steam_id":76561197991400109,"connected_time":172000000000,"state":"active","ping":55},{"user_id":373,"name":"Thilo","steam_id":76561197987278784,"connected_time":1634000000000,"state":"active","ping":72},{"user_id":398,"name":"amanofboys91","steam_id":76561199474653798,"connected_time":25000000000,"state":"active","ping":151},{"user_id":379,"name":"Zerk","steam_id":76561198133060530,"connected_time":1129000000000,"state":"active","ping":55},{"user_id":378,"name":"bunny rabbit 🐇","steam_id":76561198124998397,"connected_time":1227000000000,"state":"active","ping":58}]},{"server_id":14,"name":"Uncletopia | New York City | 2 | All Maps","name_short":"nyc-2","host":"nyc-1.us.uncletopia.com","port":27025,"enabled":true,"region":"us-east","cc":"us","latitude":40.73061,"longitude":-73.93524,"reserved":0,"last_update":"0001-01-01T00:00:00Z","name_a2s":"Uncletopia | New York City | 2 | All Maps","protocol":17,"map":"pl_upward","folder":"tf","game":"Team Fortress","app_id":440,"player_count":16,"max_players":24,"Bots":0,"server_type":"Dedicated","server_os":"Linux","password":true,"vac":true,"version":"7961495","steam_id":85568392924469994,"keywords":["nocrits","nodmgspread","payload","uncletopia"],"game_id":440,"stv_port":27026,"stv_name":"Uncletopia | New York City | 2 | All Maps | STV","players":[{"user_id":494,"name":"Olifont","steam_id":76561198141162919,"connected_time":1528000000000,"state":"active","ping":58},{"user_id":493,"name":"Mr. CubeX","steam_id":76561198805603832,"connected_time":1545000000000,"state":"active","ping":73},{"user_id":503,"name":"Twilo","steam_id":76561198044179256,"connected_time":698000000000,"state":"active","ping":31},{"user_id":498,"name":"Victor Skull","steam_id":76561198352212864,"connected_time":1062000000000,"state":"active","ping":41},{"user_id":455,"name":"gertchy","steam_id":76561199111932529,"connected_time":4598000000000,"state":"active","ping":31},{"user_id":508,"name":"artichoke","steam_id":76561198980994364,"connected_time":46000000000,"state":"active","ping":87},{"user_id":504,"name":"Tank Chili","steam_id":76561198161183031,"connected_time":81000000000,"state":"active","ping":77},{"user_id":505,"name":"kimshwim","steam_id":76561198287933134,"connected_time":80000000000,"state":"active","ping":76},{"user_id":496,"name":"Atomic Ursa","steam_id":76561198032246421,"connected_time":1339000000000,"state":"active","ping":59},{"user_id":499,"name":"femtofarad™","steam_id":76561198308583053,"connected_time":914000000000,"state":"active","ping":61},{"user_id":506,"name":"Tony hawks pro skater 2 dlc","steam_id":76561198243387974,"connected_time":68000000000,"state":"spawning","ping":82},{"user_id":497,"name":"Wild Ginger","steam_id":76561198099458157,"connected_time":1086000000000,"state":"active","ping":70},{"user_id":483,"name":"Raccoon","steam_id":76561199189494190,"connected_time":2513000000000,"state":"active","ping":73},{"user_id":448,"name":"Copland OS","steam_id":76561198041800378,"connected_time":4736000000000,"state":"active","ping":68},{"user_id":484,"name":"Kraftlos","steam_id":76561198074350350,"connected_time":2485000000000,"state":"active","ping":59},{"user_id":502,"name":"MILF Gaming","steam_id":76561198155378170,"connected_time":760000000000,"state":"active","ping":32}]},{"server_id":15,"name":"Uncletopia | New York City | 3 | Stopwatch","name_short":"nyc-3","host":"nyc-1.us.uncletopia.com","port":27035,"enabled":true,"region":"us-east","cc":"us","latitude":40.73061,"longitude":-73.93524,"reserved":0,"last_update":"0001-01-01T00:00:00Z","name_a2s":"Uncletopia | New York City | 3 | Stopwatch","protocol":17,"map":"workshop/koth_ashville_final.ugc2130459942","folder":"tf","game":"Team Fortress","app_id":440,"player_count":0,"max_players":24,"Bots":0,"server_type":"Dedicated","server_os":"Linux","password":true,"vac":true,"version":"7961495","steam_id":85568392924742820,"keywords":["cp","nocrits","nodmgspread","uncletopia"],"game_id":440,"stv_port":27036,"stv_name":"Uncletopia | New York City | 3 | Stopwatch | STV","players":null},{"server_id":16,"name":"Uncletopia | New York City | 4 | Community","name_short":"nyc-4","host":"nyc-1.us.uncletopia.com","port":27045,"enabled":true,"region":"us-east","cc":"us","latitude":40.73061,"longitude":-73.93524,"reserved":0,"last_update":"0001-01-01T00:00:00Z","name_a2s":"Uncletopia | New York City | 4 | Community","protocol":17,"map":"workshop/pl_fifthcurve_rc1.ugc648227046","folder":"tf","game":"Team Fortress","app_id":440,"player_count":24,"max_players":24,"Bots":0,"server_type":"Dedicated","server_os":"Linux","password":true,"vac":true,"version":"7961495","steam_id":85568392924742821,"keywords":["nocrits","nodmgspread","payload","uncletopia"],"game_id":440,"stv_port":27046,"stv_name":"Uncletopia | New York City | 4 | Community | STV","players":[{"user_id":39,"name":"DogeEatMeat","steam_id":76561199051212534,"connected_time":2790000000000,"state":"active","ping":84},{"user_id":20,"name":"helmut","steam_id":76561197987025017,"connected_time":3521000000000,"state":"active","ping":134},{"user_id":77,"name":"a victim of soicumstance","steam_id":76561198375575841,"connected_time":1213000000000,"state":"active","ping":72},{"user_id":84,"name":"☼Barracuda☼","steam_id":76561198013022083,"connected_time":400000000000,"state":"active","ping":89},{"user_id":87,"name":"Oogle","steam_id":76561198041815877,"connected_time":226000000000,"state":"active","ping":48},{"user_id":29,"name":"remanedur","steam_id":76561198059459507,"connected_time":3197000000000,"state":"active","ping":69},{"user_id":83,"name":"Kelpy","steam_id":76561198294906383,"connected_time":597000000000,"state":"active","ping":55},{"user_id":30,"name":"goblin tf2","steam_id":76561198033073709,"connected_time":3194000000000,"state":"active","ping":52},{"user_id":66,"name":"Riske","steam_id":76561198115840568,"connected_time":1665000000000,"state":"active","ping":70},{"user_id":88,"name":"Wengatang","steam_id":76561198021747059,"connected_time":175000000000,"state":"active","ping":59},{"user_id":89,"name":"Berries","steam_id":76561198109312962,"connected_time":43000000000,"state":"spawning","ping":225},{"user_id":90,"name":"weridmak","steam_id":76561198856016840,"connected_time":29000000000,"state":"spawning","ping":155},{"user_id":25,"name":"I'mWalkerHere","steam_id":76561199310055450,"connected_time":3367000000000,"state":"active","ping":83},{"user_id":57,"name":"TwistedSoda","steam_id":76561198142785616,"connected_time":2130000000000,"state":"active","ping":102},{"user_id":85,"name":"kingofsoup4168","steam_id":76561198968162492,"connected_time":243000000000,"state":"active","ping":74},{"user_id":62,"name":"Crabohydrate","steam_id":76561198157019155,"connected_time":1966000000000,"state":"active","ping":128},{"user_id":43,"name":"minte","steam_id":76561198012914428,"connected_time":2591000000000,"state":"active","ping":71},{"user_id":44,"name":"phonedirectory","steam_id":76561198102360911,"connected_time":2569000000000,"state":"active","ping":71},{"user_id":80,"name":"Noahthecrazy1","steam_id":76561199152995909,"connected_time":1035000000000,"state":"active","ping":71},{"user_id":82,"name":"Vegerot","steam_id":76561197997843710,"connected_time":683000000000,"state":"active","ping":45},{"user_id":50,"name":"Persona404","steam_id":76561198109635077,"connected_time":2320000000000,"state":"active","ping":116},{"user_id":76,"name":"Zen Skye","steam_id":76561198114452552,"connected_time":1243000000000,"state":"active","ping":78},{"user_id":58,"name":"Spare(8)Ball","steam_id":76561197982432995,"connected_time":2124000000000,"state":"active","ping":119},{"user_id":86,"name":"Billow","steam_id":76561198056794144,"connected_time":243000000000,"state":"active","ping":64}]},{"server_id":142,"name":"Uncletopia | São Paulo | 1 | All Maps","name_short":"sao-1","host":"sao-1.br.uncletopia.com","port":27015,"enabled":true,"region":"sa","cc":"br","latitude":-23.533773,"longitude":-46.62529,"reserved":0,"last_update":"0001-01-01T00:00:00Z","name_a2s":"Uncletopia | São Paulo | 1 | All Maps","protocol":17,"map":"koth_highpass","folder":"tf","game":"Team Fortress","app_id":440,"player_count":0,"max_players":24,"Bots":0,"server_type":"Dedicated","server_os":"Linux","password":true,"vac":true,"version":"7961495","steam_id":85568392924469996,"keywords":["cp","nocrits","nodmgspread","uncletopia"],"game_id":440,"stv_port":27016,"stv_name":"Uncletopia | São Paulo | 1 | All Maps | STV","players":null},{"server_id":143,"name":"Uncletopia | São Paulo | 2 | Community","name_short":"sao-2","host":"sao-2.br.uncletopia.com","port":27015,"enabled":true,"region":"sa","cc":"br","latitude":-23.533773,"longitude":-46.62529,"reserved":0,"last_update":"0001-01-01T00:00:00Z","name_a2s":"Uncletopia | São Paulo | 2 | Community","protocol":17,"map":"workshop/koth_slaughter_rc1.ugc1712845210","folder":"tf","game":"Team Fortress","app_id":440,"player_count":0,"max_players":24,"Bots":0,"server_type":"Dedicated","server_os":"Linux","password":true,"vac":true,"version":"7961495","steam_id":85568392924485349,"keywords":["cp","nocrits","nodmgspread","uncletopia"],"game_id":440,"stv_port":27016,"stv_name":"Uncletopia | São Paulo | 2 | Community | STV","players":null},{"server_id":7,"name":"Uncletopia | Seattle | 1 | All Maps","name_short":"sea-1","host":"sea-1.us.uncletopia.com","port":27015,"enabled":true,"region":"us-west","cc":"us","latitude":47.608013,"longitude":-122.33517,"reserved":0,"last_update":"0001-01-01T00:00:00Z","name_a2s":"Uncletopia | Seattle | 1 | All Maps","protocol":17,"map":"cp_fastlane","folder":"tf","game":"Team Fortress","app_id":440,"player_count":24,"max_players":24,"Bots":0,"server_type":"Dedicated","server_os":"Linux","password":true,"vac":true,"version":"7961495","steam_id":85568392924469997,"keywords":["cp","nocrits","nodmgspread","uncletopia"],"game_id":440,"stv_port":27016,"stv_name":"Uncletopia | Seattle | 1 | All Maps | STV","players":[{"user_id":388,"name":"Erk-Kirk","steam_id":76561198288954914,"connected_time":1966000000000,"state":"active","ping":84},{"user_id":390,"name":"Poundcake","steam_id":76561198042196918,"connected_time":1933000000000,"state":"active","ping":49},{"user_id":336,"name":"triph","steam_id":76561198067196509,"connected_time":6194000000000,"state":"active","ping":65},{"user_id":380,"name":"Elfy","steam_id":76561199166448617,"connected_time":2933000000000,"state":"active","ping":43},{"user_id":405,"name":"Choco","steam_id":76561198051146422,"connected_time":358000000000,"state":"active","ping":118},{"user_id":406,"name":"The Piss Warrior","steam_id":76561198151927029,"connected_time":350000000000,"state":"active","ping":182},{"user_id":392,"name":"Grweb","steam_id":76561198316741856,"connected_time":1757000000000,"state":"active","ping":45},{"user_id":377,"name":"Peppy","steam_id":76561198866629645,"connected_time":3114000000000,"state":"active","ping":60},{"user_id":391,"name":"(K.A.T) Iris","steam_id":76561199247095754,"connected_time":1929000000000,"state":"active","ping":87},{"user_id":402,"name":"Tibetan Pop Star","steam_id":76561198844903984,"connected_time":388000000000,"state":"active","ping":75},{"user_id":407,"name":"thunderous prophet","steam_id":76561198131166135,"connected_time":336000000000,"state":"active","ping":31},{"user_id":354,"name":"Daz","steam_id":76561198041431938,"connected_time":4301000000000,"state":"active","ping":50},{"user_id":408,"name":"zzz","steam_id":76561198962606396,"connected_time":291000000000,"state":"active","ping":71},{"user_id":409,"name":"SWISS!","steam_id":76561198271971252,"connected_time":215000000000,"state":"active","ping":87},{"user_id":330,"name":"Snale","steam_id":76561198039517965,"connected_time":7195000000000,"state":"active","ping":60},{"user_id":400,"name":"Ayayayayayahuasca","steam_id":76561199002906056,"connected_time":402000000000,"state":"active","ping":45},{"user_id":398,"name":"BigSpartan","steam_id":76561199092175631,"connected_time":590000000000,"state":"active","ping":101},{"user_id":394,"name":"Retroliar","steam_id":76561199004899484,"connected_time":1054000000000,"state":"active","ping":68},{"user_id":410,"name":"Dimple","steam_id":76561198980324190,"connected_time":212000000000,"state":"active","ping":46},{"user_id":362,"name":"babywhoa","steam_id":76561198070854627,"connected_time":4145000000000,"state":"active","ping":84},{"user_id":403,"name":"Spectre","steam_id":76561198037535169,"connected_time":387000000000,"state":"active","ping":73},{"user_id":411,"name":"nifty","steam_id":76561198056630017,"connected_time":153000000000,"state":"active","ping":45},{"user_id":401,"name":"bbbbb","steam_id":76561198095480838,"connected_time":400000000000,"state":"active","ping":46},{"user_id":412,"name":"Not Stir-fried Aliens SselmaN","steam_id":76561198075479294,"connected_time":60000000000,"state":"active","ping":188}]},{"server_id":119,"name":"Uncletopia | Seattle | 2 | All Maps","name_short":"sea-2","host":"sea-1.us.uncletopia.com","port":27025,"enabled":true,"region":"us-west","cc":"us","latitude":47.608013,"longitude":-122.33517,"reserved":0,"last_update":"0001-01-01T00:00:00Z","name_a2s":"Uncletopia | Seattle | 2 | All Maps","protocol":17,"map":"cp_altitude","folder":"tf","game":"Team Fortress","app_id":440,"player_count":18,"max_players":24,"Bots":0,"server_type":"Dedicated","server_os":"Linux","password":true,"vac":true,"version":"7961495","steam_id":85568392924469998,"keywords":["cp","nocrits","nodmgspread","uncletopia"],"game_id":440,"stv_port":27026,"stv_name":"Uncletopia | Seattle | 2 | All Maps | STV","players":[{"user_id":337,"name":"prime example of furry L","steam_id":76561198097745857,"connected_time":1015000000000,"state":"active","ping":63},{"user_id":344,"name":"Gunboats Mouthbreather","steam_id":76561198046526036,"connected_time":270000000000,"state":"active","ping":74},{"user_id":343,"name":"CadenLCheese","steam_id":76561199105517435,"connected_time":304000000000,"state":"active","ping":44},{"user_id":306,"name":"«Dᵃʳᵏ.,,.Tᵉᵐᵖ»","steam_id":76561198018185884,"connected_time":3958000000000,"state":"active","ping":38},{"user_id":350,"name":"Village","steam_id":76561198402089732,"connected_time":68000000000,"state":"active","ping":56},{"user_id":349,"name":"EatSomeBEES","steam_id":76561198047334307,"connected_time":133000000000,"state":"active","ping":83},{"user_id":345,"name":"T/3. Blerb [10th MD]","steam_id":76561197978567794,"connected_time":265000000000,"state":"active","ping":41},{"user_id":338,"name":"Master Of Whales","steam_id":76561198349104889,"connected_time":984000000000,"state":"active","ping":71},{"user_id":346,"name":"Flex Glue Clear™","steam_id":76561199014482073,"connected_time":252000000000,"state":"active","ping":41},{"user_id":332,"name":"Lol","steam_id":76561198201418517,"connected_time":1580000000000,"state":"active","ping":74},{"user_id":351,"name":"mach10monkey","steam_id":76561198272659023,"connected_time":36000000000,"state":"active","ping":84},{"user_id":348,"name":"Wulf","steam_id":76561198006072568,"connected_time":188000000000,"state":"active","ping":43},{"user_id":339,"name":"King Sized Bed","steam_id":76561198058956253,"connected_time":970000000000,"state":"active","ping":46},{"user_id":323,"name":"TheCowledWiz","steam_id":76561198016735868,"connected_time":1789000000000,"state":"active","ping":46},{"user_id":352,"name":"Coffeemelon","steam_id":76561198285891257,"connected_time":2000000000,"state":"spawning","ping":56},{"user_id":244,"name":"COOL master_9","steam_id":76561198073041151,"connected_time":8960000000000,"state":"active","ping":87},{"user_id":303,"name":"wendigo","steam_id":76561197994528974,"connected_time":4032000000000,"state":"active","ping":82},{"user_id":304,"name":"scrimblo","steam_id":76561199150833796,"connected_time":4031000000000,"state":"active","ping":78}]},{"server_id":406,"name":"Uncletopia | Seattle | 3 | Stopwatch","name_short":"sea-3","host":"sea-1.us.uncletopia.com","port":27035,"enabled":true,"region":"us-west","cc":"us","latitude":47.608013,"longitude":-122.33517,"reserved":0,"last_update":"0001-01-01T00:00:00Z","name_a2s":"Uncletopia | Seattle | 3 | Stopwatch","protocol":17,"map":"workshop/koth_ramjam_rc1.ugc459778887","folder":"tf","game":"Team Fortress","app_id":440,"player_count":4,"max_players":24,"Bots":0,"server_type":"Dedicated","server_os":"Linux","password":true,"vac":true,"version":"7961495","steam_id":85568392924515217,"keywords":["cp","nocrits","nodmgspread","uncletopia"],"game_id":440,"stv_port":27036,"stv_name":"Uncletopia | Seattle | 3 | Stopwatch | STV","players":[{"user_id":50,"name":"Morse","steam_id":76561198039944542,"connected_time":1070000000000,"state":"active","ping":47},{"user_id":51,"name":"Dude","steam_id":76561199058616824,"connected_time":818000000000,"state":"active","ping":84},{"user_id":52,"name":"PhilNyeTheCrystalGuy","steam_id":76561198051437466,"connected_time":753000000000,"state":"active","ping":56},{"user_id":53,"name":"O","steam_id":76561198450073779,"connected_time":657000000000,"state":"active","ping":99}]},{"server_id":17,"name":"Uncletopia | San Francisco | 1 | All Maps","name_short":"sfo-1","host":"sfo-1.us.uncletopia.com","port":27015,"enabled":true,"region":"us-west","cc":"us","latitude":37.77397,"longitude":-122.4313,"reserved":0,"last_update":"0001-01-01T00:00:00Z","name_a2s":"Uncletopia | San Francisco | 1 | All Maps","protocol":17,"map":"pl_frontier_final","folder":"tf","game":"Team Fortress","app_id":440,"player_count":23,"max_players":24,"Bots":0,"server_type":"Dedicated","server_os":"Linux","password":true,"vac":true,"version":"7961495","steam_id":85568392924469999,"keywords":["nocrits","nodmgspread","payload","uncletopia"],"game_id":440,"stv_port":27016,"stv_name":"Uncletopia | San Francisco | 1 | All Maps | STV","players":[{"user_id":108,"name":"Op banana","steam_id":76561198303231451,"connected_time":2953000000000,"state":"active","ping":84},{"user_id":130,"name":"Anotherordinary1","steam_id":76561199258223335,"connected_time":1841000000000,"state":"active","ping":67},{"user_id":118,"name":"Pyrotek⁴","steam_id":76561198072747672,"connected_time":2445000000000,"state":"active","ping":57},{"user_id":55,"name":"Pie","steam_id":76561198054721133,"connected_time":6467000000000,"state":"active","ping":64},{"user_id":165,"name":"havarti gaming","steam_id":76561198069895678,"connected_time":87000000000,"state":"active","ping":93},{"user_id":148,"name":"Blue Sea","steam_id":76561198156077339,"connected_time":781000000000,"state":"active","ping":112},{"user_id":164,"name":"ForAPessimistImPrettyOptimistic","steam_id":76561198170128009,"connected_time":138000000000,"state":"active","ping":58},{"user_id":145,"name":"Silvermace","steam_id":76561198090696843,"connected_time":951000000000,"state":"active","ping":47},{"user_id":154,"name":"bobtheninjaman","steam_id":76561198066424544,"connected_time":599000000000,"state":"active","ping":64},{"user_id":135,"name":"UGInfernobroblazeslash gamehag.","steam_id":76561198054745240,"connected_time":1491000000000,"state":"active","ping":64},{"user_id":126,"name":"NIneX","steam_id":76561198979351501,"connected_time":1930000000000,"state":"active","ping":137},{"user_id":155,"name":"podge","steam_id":76561198858474714,"connected_time":595000000000,"state":"active","ping":67},{"user_id":163,"name":"knatspray","steam_id":76561198832507482,"connected_time":306000000000,"state":"active","ping":74},{"user_id":161,"name":"UnwantedBody","steam_id":76561199207425066,"connected_time":396000000000,"state":"active","ping":59},{"user_id":120,"name":"GrinchsUltimatum","steam_id":76561198075366657,"connected_time":2318000000000,"state":"active","ping":54},{"user_id":162,"name":"BigGoose","steam_id":76561198833281392,"connected_time":377000000000,"state":"active","ping":84},{"user_id":141,"name":"Just washed","steam_id":76561199030160932,"connected_time":1135000000000,"state":"active","ping":121},{"user_id":158,"name":"N A R W O O L","steam_id":76561198175955138,"connected_time":467000000000,"state":"active","ping":50},{"user_id":140,"name":"tomandjerry085","steam_id":76561198800789071,"connected_time":1381000000000,"state":"active","ping":55},{"user_id":159,"name":"roach","steam_id":76561198354811369,"connected_time":463000000000,"state":"active","ping":54},{"user_id":166,"name":"bepness","steam_id":76561199283433328,"connected_time":60000000000,"state":"active","ping":58},{"user_id":160,"name":"FI LO","steam_id":76561198976530881,"connected_time":423000000000,"state":"active","ping":45},{"user_id":117,"name":"Cobaltion","steam_id":76561198035701210,"connected_time":2482000000000,"state":"active","ping":63}]},{"server_id":18,"name":"Uncletopia | San Francisco | 2 | All Maps","name_short":"sfo-2","host":"sfo-1.us.uncletopia.com","port":27025,"enabled":true,"region":"us-west","cc":"us","latitude":37.77397,"longitude":-122.4313,"reserved":0,"last_update":"0001-01-01T00:00:00Z","name_a2s":"Uncletopia | San Francisco | 2 | All Maps","protocol":17,"map":"pl_upward","folder":"tf","game":"Team Fortress","app_id":440,"player_count":24,"max_players":24,"Bots":0,"server_type":"Dedicated","server_os":"Linux","password":true,"vac":true,"version":"7961495","steam_id":85568392924470000,"keywords":["nocrits","nodmgspread","payload","uncletopia"],"game_id":440,"stv_port":27026,"stv_name":"Uncletopia | San Francisco | 2 | All Maps | STV","players":[{"user_id":155,"name":"cool beans","steam_id":76561198321591685,"connected_time":3148000000000,"state":"active","ping":103},{"user_id":156,"name":"Dr,Dan64","steam_id":76561199013363718,"connected_time":3144000000000,"state":"active","ping":111},{"user_id":172,"name":"Abraham Spielberg","steam_id":76561198308817394,"connected_time":1352000000000,"state":"active","ping":105},{"user_id":158,"name":"lolzfrdawin21","steam_id":76561199006665979,"connected_time":3112000000000,"state":"active","ping":119},{"user_id":195,"name":"ElectronX","steam_id":76561198116034988,"connected_time":286000000000,"state":"active","ping":58},{"user_id":160,"name":"don't get mad","steam_id":76561198064662875,"connected_time":2666000000000,"state":"active","ping":45},{"user_id":192,"name":"Laxoloni","steam_id":76561199197045700,"connected_time":601000000000,"state":"active","ping":76},{"user_id":170,"name":"Scoperaider","steam_id":76561199068449848,"connected_time":1516000000000,"state":"active","ping":48},{"user_id":176,"name":"Dr. Nefario","steam_id":76561199098901078,"connected_time":1020000000000,"state":"active","ping":58},{"user_id":167,"name":"Sean","steam_id":76561199367470003,"connected_time":1825000000000,"state":"active","ping":68},{"user_id":191,"name":"Perry the Platypus","steam_id":76561198273045773,"connected_time":617000000000,"state":"active","ping":65},{"user_id":193,"name":"SHADOW","steam_id":76561198207768148,"connected_time":511000000000,"state":"active","ping":59},{"user_id":173,"name":"imng","steam_id":76561198014988031,"connected_time":1112000000000,"state":"active","ping":107},{"user_id":174,"name":"ballmuncher69","steam_id":76561199122915452,"connected_time":1103000000000,"state":"active","ping":72},{"user_id":175,"name":"Professional Virgin","steam_id":76561199074327402,"connected_time":1083000000000,"state":"active","ping":114},{"user_id":177,"name":"zzz","steam_id":76561198302928116,"connected_time":971000000000,"state":"active","ping":114},{"user_id":196,"name":"Flame_cast","steam_id":76561198414555991,"connected_time":179000000000,"state":"active","ping":61},{"user_id":179,"name":"Wordly Eggplant","steam_id":76561198166704083,"connected_time":932000000000,"state":"active","ping":88},{"user_id":183,"name":"Livin' Like Larry","steam_id":76561198313360974,"connected_time":864000000000,"state":"active","ping":42},{"user_id":184,"name":"Charlie","steam_id":76561198798127908,"connected_time":825000000000,"state":"active","ping":121},{"user_id":185,"name":"Pim","steam_id":76561198046050375,"connected_time":821000000000,"state":"active","ping":86},{"user_id":188,"name":"MrEdman4","steam_id":76561198062233923,"connected_time":736000000000,"state":"active","ping":113},{"user_id":189,"name":"Lean(Mean)machine","steam_id":76561198087571586,"connected_time":711000000000,"state":"active","ping":84},{"user_id":190,"name":"Weasel","steam_id":76561198142461397,"connected_time":709000000000,"state":"active","ping":127}]},{"server_id":19,"name":"Uncletopia | San Francisco | 3 | Stopwatch","name_short":"sfo-3","host":"sfo-1.us.uncletopia.com","port":27035,"enabled":true,"region":"us-west","cc":"us","latitude":37.77397,"longitude":-122.4313,"reserved":0,"last_update":"0001-01-01T00:00:00Z","name_a2s":"Uncletopia | San Francisco | 3 | Stopwatch","protocol":17,"map":"workshop/cp_reckoner_rc6.ugc674719999","folder":"tf","game":"Team Fortress","app_id":440,"player_count":0,"max_players":24,"Bots":0,"server_type":"Dedicated","server_os":"Linux","password":true,"vac":true,"version":"7961495","steam_id":85568392924742824,"keywords":["cp","nocrits","nodmgspread","uncletopia"],"game_id":440,"stv_port":27036,"stv_name":"Uncletopia | San Francisco | 3 | Stopwatch | STV","players":null},{"server_id":20,"name":"Uncletopia | San Francisco | 4 | Community","name_short":"sfo-4","host":"sfo-1.us.uncletopia.com","port":27045,"enabled":true,"region":"us-west","cc":"us","latitude":37.77397,"longitude":-122.4313,"reserved":0,"last_update":"0001-01-01T00:00:00Z","name_a2s":"Uncletopia | San Francisco | 4 | Community","protocol":17,"map":"workshop/koth_product_final.ugc454272353","folder":"tf","game":"Team Fortress","app_id":440,"player_count":2,"max_players":24,"Bots":0,"server_type":"Dedicated","server_os":"Linux","password":true,"vac":true,"version":"7961495","steam_id":85568392924742826,"keywords":["cp","nocrits","nodmgspread","uncletopia"],"game_id":440,"stv_port":27046,"stv_name":"Uncletopia | San Francisco | 4 | Community | STV","players":[{"user_id":12,"name":"autumn.summers66","steam_id":76561199066918643,"connected_time":416000000000,"state":"active","ping":98},{"user_id":13,"name":"hoOmIN","steam_id":76561198334947079,"connected_time":350000000000,"state":"active","ping":55}]},{"server_id":141,"name":"Uncletopia | Sydney | 1 | All Maps","name_short":"syd-1","host":"syd-1.au.uncletopia.com","port":27015,"enabled":true,"region":"au","cc":"au","latitude":-33.865143,"longitude":151.2099,"reserved":0,"last_update":"0001-01-01T00:00:00Z","name_a2s":"Uncletopia | Sydney | 1 | All Maps","protocol":17,"map":"koth_viaduct","folder":"tf","game":"Team Fortress","app_id":440,"player_count":0,"max_players":24,"Bots":0,"server_type":"Dedicated","server_os":"Linux","password":true,"vac":true,"version":"7961495","steam_id":85568392924470001,"keywords":["cp","nocrits","nodmgspread","uncletopia"],"game_id":440,"stv_port":27016,"stv_name":"Uncletopia | Sydney | 1 | All Maps | STV","players":null},{"server_id":123,"name":"Uncletopia | Sydney | 2 | All Maps","name_short":"syd-2","host":"syd-1.au.uncletopia.com","port":27025,"enabled":true,"region":"au","cc":"au","latitude":-33.865143,"longitude":151.2099,"reserved":0,"last_update":"0001-01-01T00:00:00Z","name_a2s":"Uncletopia | Sydney | 2 | All Maps","protocol":17,"map":"koth_lakeside_final","folder":"tf","game":"Team Fortress","app_id":440,"player_count":0,"max_players":24,"Bots":0,"server_type":"Dedicated","server_os":"Linux","password":true,"vac":true,"version":"7961495","steam_id":85568392924470002,"keywords":["cp","nocrits","nodmgspread","uncletopia"],"game_id":440,"stv_port":27026,"stv_name":"Uncletopia | Sydney | 2 | All Maps | STV","players":null},{"server_id":395,"name":"Uncletopia | Sydney | 3 | All Maps","name_short":"syd-3","host":"syd-1.au.uncletopia.com","port":27035,"enabled":true,"region":"au","cc":"au","latitude":-33.865143,"longitude":151.2099,"reserved":0,"last_update":"0001-01-01T00:00:00Z","name_a2s":"Uncletopia | Sydney | 3 | All Maps","protocol":17,"map":"pl_frontier_final","folder":"tf","game":"Team Fortress","app_id":440,"player_count":0,"max_players":24,"Bots":0,"server_type":"Dedicated","server_os":"Linux","password":true,"vac":true,"version":"7961495","steam_id":85568392925194467,"keywords":["nocrits","nodmgspread","payload","uncletopia"],"game_id":440,"stv_port":27036,"stv_name":"Uncletopia | Sydney | 3 | All Maps | STV","players":null},{"server_id":396,"name":"Uncletopia | Sydney | 4 | All Maps","name_short":"syd-4","host":"syd-1.au.uncletopia.com","port":27045,"enabled":true,"region":"au","cc":"au","latitude":-33.865143,"longitude":151.2099,"reserved":0,"last_update":"0001-01-01T00:00:00Z","name_a2s":"Uncletopia | Sydney | 4 | All Maps","protocol":17,"map":"cp_process_final","folder":"tf","game":"Team Fortress","app_id":440,"player_count":0,"max_players":24,"Bots":0,"server_type":"Dedicated","server_os":"Linux","password":true,"vac":true,"version":"7961495","steam_id":85568392925397958,"keywords":["cp","nocrits","nodmgspread","uncletopia"],"game_id":440,"stv_port":27046,"stv_name":"Uncletopia | Sydney | 4 | All Maps | STV","players":null},{"server_id":58,"name":"Uncletopia | Sydney | 5 | Stopwatch","name_short":"syd-5","host":"syd-1.au.uncletopia.com","port":27055,"enabled":true,"region":"au","cc":"au","latitude":-33.865143,"longitude":151.2099,"reserved":0,"last_update":"0001-01-01T00:00:00Z","name_a2s":"Uncletopia | Sydney | 5 | Stopwatch","protocol":17,"map":"pl_frontier_final","folder":"tf","game":"Team Fortress","app_id":440,"player_count":0,"max_players":24,"Bots":0,"server_type":"Dedicated","server_os":"Linux","password":true,"vac":true,"version":"7961495","steam_id":85568392925397959,"keywords":["nocrits","nodmgspread","payload","uncletopia"],"game_id":440,"stv_port":27056,"stv_name":"Uncletopia | Sydney | 5 | Stopwatch | STV","players":null},{"server_id":59,"name":"Uncletopia | Sydney | 6 | Community","name_short":"syd-6","host":"syd-1.au.uncletopia.com","port":27065,"enabled":true,"region":"au","cc":"au","latitude":-33.865143,"longitude":151.2099,"reserved":0,"last_update":"0001-01-01T00:00:00Z","name_a2s":"Uncletopia | Sydney | 6 | Community","protocol":17,"map":"workshop/pl_cactuscanyon_redux_final2.ugc2579644293","folder":"tf","game":"Team Fortress","app_id":440,"player_count":0,"max_players":24,"Bots":0,"server_type":"Dedicated","server_os":"Linux","password":true,"vac":true,"version":"7961495","steam_id":85568392925397960,"keywords":["nocrits","nodmgspread","payload","uncletopia"],"game_id":440,"stv_port":27066,"stv_name":"Uncletopia | Sydney | 6 | Community | STV","players":null},{"server_id":49,"name":"Uncletopia | Warsaw | 1 | One Thousand Uncles","name_short":"waw-1","host":"waw-1.pl.uncletopia.com","port":27015,"enabled":true,"region":"eu","cc":"pl","latitude":52.2297,"longitude":21.017532,"reserved":0,"last_update":"0001-01-01T00:00:00Z","name_a2s":"Uncletopia | Warsaw | 1 | One Thousand Uncles","protocol":17,"map":"cp_mossrock","folder":"tf","game":"Team Fortress","app_id":440,"player_count":17,"max_players":32,"Bots":16,"server_type":"Dedicated","server_os":"Linux","password":true,"vac":true,"version":"7961495","steam_id":85568392925397850,"keywords":["alltalk","bots","cp","danepve","increased_maxplayers","nocrits","norespawntime","uncletopia"],"game_id":440,"stv_port":0,"stv_name":"","players":[{"user_id":69,"name":"Samuel L. Jackson","steam_id":76561198130427881,"connected_time":522000000000,"state":"active","ping":165}]},{"server_id":50,"name":"Uncletopia | Warsaw | 2 | One Thousand Uncles","name_short":"waw-2","host":"waw-1.pl.uncletopia.com","port":27025,"enabled":true,"region":"eu","cc":"pl","latitude":52.2297,"longitude":21.017532,"reserved":0,"last_update":"0001-01-01T00:00:00Z","name_a2s":"Uncletopia | Warsaw | 2 | One Thousand Uncles","protocol":17,"map":"pl_goldrush","folder":"tf","game":"Team Fortress","app_id":440,"player_count":0,"max_players":32,"Bots":0,"server_type":"Dedicated","server_os":"Linux","password":true,"vac":true,"version":"7961495","steam_id":85568392925397851,"keywords":["alltalk","danepve","increased_maxplayers","nocrits","norespawntime","payload","uncletopia"],"game_id":440,"stv_port":0,"stv_name":"","players":null},{"server_id":51,"name":"Uncletopia | Warsaw | 3 | All Maps","name_short":"waw-3","host":"waw-1.pl.uncletopia.com","port":27035,"enabled":true,"region":"eu","cc":"pl","latitude":52.2297,"longitude":21.017532,"reserved":0,"last_update":"0001-01-01T00:00:00Z","name_a2s":"Uncletopia | Warsaw | 3 | All Maps","protocol":17,"map":"koth_viaduct","folder":"tf","game":"Team Fortress","app_id":440,"player_count":0,"max_players":24,"Bots":0,"server_type":"Dedicated","server_os":"Linux","password":true,"vac":true,"version":"7961495","steam_id":85568392925397852,"keywords":["cp","nocrits","nodmgspread","uncletopia"],"game_id":440,"stv_port":27036,"stv_name":"Uncletopia | Warsaw | 3 | All Maps | STV","players":null},{"server_id":52,"name":"Uncletopia | Warsaw | 4 | All Maps","name_short":"waw-4","host":"waw-1.pl.uncletopia.com","port":27045,"enabled":true,"region":"eu","cc":"pl","latitude":52.2297,"longitude":21.017532,"reserved":0,"last_update":"0001-01-01T00:00:00Z","name_a2s":"Uncletopia | Warsaw | 4 | All Maps","protocol":17,"map":"pl_borneo","folder":"tf","game":"Team Fortress","app_id":440,"player_count":2,"max_players":24,"Bots":0,"server_type":"Dedicated","server_os":"Linux","password":true,"vac":true,"version":"7961495","steam_id":85568392925397853,"keywords":["nocrits","nodmgspread","payload","uncletopia"],"game_id":440,"stv_port":27046,"stv_name":"Uncletopia | Warsaw | 4 | All Maps | STV","players":[{"user_id":28,"name":"justpixels","steam_id":76561198143717568,"connected_time":132000000000,"state":"active","ping":127},{"user_id":29,"name":"Ethan Winter's","steam_id":76561199218979828,"connected_time":23000000000,"state":"spawning","ping":163}]},{"server_id":53,"name":"Uncletopia | Warsaw | 5 | Stopwatch","name_short":"waw-5","host":"waw-1.pl.uncletopia.com","port":27055,"enabled":true,"region":"eu","cc":"pl","latitude":52.2297,"longitude":21.017532,"reserved":0,"last_update":"0001-01-01T00:00:00Z","name_a2s":"Uncletopia | Warsaw | 5 | Stopwatch","protocol":17,"map":"workshop/koth_bagel_rc6.ugc2514036946","folder":"tf","game":"Team Fortress","app_id":440,"player_count":0,"max_players":24,"Bots":0,"server_type":"Dedicated","server_os":"Linux","password":true,"vac":true,"version":"7961495","steam_id":85568392925397854,"keywords":["cp","nocrits","nodmgspread","uncletopia"],"game_id":440,"stv_port":27056,"stv_name":"Uncletopia | Warsaw | 5 | Stopwatch | STV","players":null},{"server_id":54,"name":"Uncletopia | Warsaw | 6 | Community","name_short":"waw-6","host":"waw-1.pl.uncletopia.com","port":27065,"enabled":true,"region":"eu","cc":"pl","latitude":52.2297,"longitude":21.017532,"reserved":0,"last_update":"0001-01-01T00:00:00Z","name_a2s":"Uncletopia | Warsaw | 6 | Community","protocol":17,"map":"workshop/koth_trenchfoot_b1a.ugc731436616","folder":"tf","game":"Team Fortress","app_id":440,"player_count":0,"max_players":24,"Bots":0,"server_type":"Dedicated","server_os":"Linux","password":true,"vac":true,"version":"7961495","steam_id":85568392925397856,"keywords":["cp","nocrits","nodmgspread","uncletopia"],"game_id":440,"stv_port":27066,"stv_name":"Uncletopia | Warsaw | 6 | Community | STV","players":null}]}