{"status":true,"message":"","result":[{"server_id":9,"name":"Uncletopia | Atlanta | 1 | All Maps","name_short":"atl-1","host":"atl-1.us.uncletopia.com","port":27015,"enabled":true,"region":"us-east","cc":"us","latitude":33.753746,"longitude":-84.38633,"reserved":0,"last_update":"0001-01-01T00:00:00Z","name_a2s":"Uncletopia | Atlanta | 1 | All Maps","protocol":17,"map":"pl_upward","folder":"tf","game":"Team Fortress","app_id":440,"player_count":24,"max_players":24,"Bots":0,"server_type":"Dedicated","server_os":"Linux","password":true,"vac":true,"version":"7757534","steam_id":85568392924469982,"keywords":["nocrits","nodmgspread","payload","uncletopia"],"game_id":440,"stv_port":27016,"stv_name":"Uncletopia | Atlanta | 1 | All Maps | STV","players":[{"user_id":760,"name":"Barress","steam_id":76561198011728743,"connected_time":9655000000000,"state":"active","ping":102},{"user_id":839,"name":"paetho YT","steam_id":76561198152690003,"connected_time":492000000000,"state":"active","ping":43},{"user_id":826,"name":"SWISH","steam_id":76561198397009880,"connected_time":1674000000000,"state":"active","ping":47},{"user_id":813,"name":"Magechaos","steam_id":76561198026852227,"connected_time":2760000000000,"state":"active","ping":58},{"user_id":738,"name":"stink","steam_id":76561198099318923,"connected_time":10691000000000,"state":"active","ping":76},{"user_id":840,"name":"thundah!","steam_id":76561199159928133,"connected_time":391000000000,"state":"active","ping":75},{"user_id":832,"name":"scorn","steam_id":76561197966261919,"connected_time":786000000000,"state":"active","ping":74},{"user_id":830,"name":"BackThrowTheBaguetteBrawler","steam_id":76561198118340623,"connected_time":805000000000,"state":"active","ping":50},{"user_id":799,"name":"balls_on_toast","steam_id":76561198307702552,"connected_time":4331000000000,"state":"active","ping":125},{"user_id":821,"name":"mayhem","steam_id":76561199246637881,"connected_time":1987000000000,"state":"active","ping":59},{"user_id":784,"name":"floofy","steam_id":76561198389769098,"connected_time":6022000000000,"state":"active","ping":84},{"user_id":822,"name":"ElZeto","steam_id":76561198252322622,"connected_time":1908000000000,"state":"active","ping":97},{"user_id":789,"name":"Decolour","steam_id":76561199045608372,"connected_time":5804000000000,"state":"active","ping":75},{"user_id":841,"name":"Lord Dragon","steam_id":76561198310300373,"connected_time":202000000000,"state":"active","ping":82},{"user_id":836,"name":"Auburn","steam_id":76561198199541493,"connected_time":659000000000,"state":"active","ping":116},{"user_id":831,"name":"Ace Attorney","steam_id":76561198133011705,"connected_time":797000000000,"state":"active","ping":62},{"user_id":837,"name":"An Unhappy Clown","steam_id":76561198175516514,"connected_time":578000000000,"state":"active","ping":66},{"user_id":838,"name":"Galactamarx","steam_id":76561198028065755,"connected_time":526000000000,"state":"active","ping":98},{"user_id":818,"name":"Merit","steam_id":76561198803769563,"connected_time":2454000000000,"state":"active","ping":64},{"user_id":827,"name":"BackAxeTheCharacter","steam_id":76561198025042484,"connected_time":1485000000000,"state":"active","ping":74},{"user_id":804,"name":"MadEye","steam_id":76561198972627948,"connected_time":3984000000000,"state":"active","ping":57},{"user_id":819,"name":"Orange Juice","steam_id":76561198151423112,"connected_time":2421000000000,"state":"active","ping":73},{"user_id":820,"name":"funygreenman","steam_id":76561199466038013,"connected_time":2367000000000,"state":"active","ping":92},{"user_id":829,"name":"Swag Messiah","steam_id":76561198214464720,"connected_time":1164000000000,"state":"active","ping":60}]},{"server_id":104,"name":"Uncletopia | Atlanta | 2 | All Maps","name_short":"atl-2","host":"atl-1.us.uncletopia.com","port":27025,"enabled":true,"region":"us-east","cc":"us","latitude":33.753746,"longitude":-84.38633,"reserved":0,"last_update":"0001-01-01T00:00:00Z","name_a2s":"Uncletopia | Atlanta | 2 | All Maps","protocol":17,"map":"pl_swiftwater_final1","folder":"tf","game":"Team Fortress","app_id":440,"player_count":3,"max_players":24,"Bots":0,"server_type":"Dedicated","server_os":"Linux","password":true,"vac":true,"version":"7757534","steam_id":85568392924469983,"keywords":["nocrits","nodmgspread","payload","uncletopia"],"game_id":440,"stv_port":27026,"stv_name":"Uncletopia | Atlanta | 2 | All Maps | STV","players":[{"user_id":564,"name":"Snoopy_dog","steam_id":76561198065339248,"connected_time":1294000000000,"state":"active","ping":91},{"user_id":568,"name":"guess i'll die...virtually","steam_id":76561199112291386,"connected_time":402000000000,"state":"active","ping":102},{"user_id":546,"name":"Huey","steam_id":76561198972816386,"connected_time":2571000000000,"state":"active","ping":60}]},{"server_id":400,"name":"Uncletopia | Atlanta | 3 | Community","name_short":"atl-3","host":"atl-1.us.uncletopia.com","port":27035,"enabled":true,"region":"us-east","cc":"us","latitude":33.753746,"longitude":-84.38633,"reserved":0,"last_update":"0001-01-01T00:00:00Z","name_a2s":"Uncletopia | Atlanta | 3 | Community","protocol":17,"map":"workshop/cp_mannbase_rc2a.ugc1900737467","folder":"tf","game":"Team Fortress","app_id":440,"player_count":0,"max_players":24,"Bots":0,"server_type":"Dedicated","server_os":"Linux","password":true,"vac":true,"version":"7757534","steam_id":85568392924515187,"keywords":["cp","nocrits","nodmgspread","uncletopia"],"game_id":440,"stv_port":27036,"stv_name":"Uncletopia | Atlanta | 3 | Community | STV","players":null},{"server_id":401,"name":"Uncletopia | Atlanta | 4 | No Payload","name_short":"atl-4","host":"atl-1.us.uncletopia.com","port":27045,"enabled":true,"region":"us-east","cc":"us","latitude":33.753746,"longitude":-84.38633,"reserved":0,"last_update":"0001-01-01T00:00:00Z","name_a2s":"","protocol":0,"map":"","folder":"","game":"","app_id":0,"player_count":0,"max_players":0,"Bots":0,"server_type":"","server_os":"","password":false,"vac":false,"version":"","steam_id":0,"keywords":null,"game_id":0,"stv_port":0,"stv_name":"","players":null},{"server_id":2,"name":"Uncletopia | Chicago | 1 | All Maps","name_short":"chi-1","host":"chi-1.us.uncletopia.com","port":27015,"enabled":true,"region":"us-central","cc":"us","latitude":41.881832,"longitude":-87.62318,"reserved":0,"last_update":"0001-01-01T00:00:00Z","name_a2s":"Uncletopia | Chicago | 1 | All Maps","protocol":17,"map":"pl_pier","folder":"tf","game":"Team Fortress","app_id":440,"player_count":18,"max_players":24,"Bots":0,"server_type":"Dedicated","server_os":"Linux","password":true,"vac":true,"version":"7757534","steam_id":85568392924469984,"keywords":["nocrits","nodmgspread","payload","uncletopia"],"game_id":440,"stv_port":27016,"stv_name":"Uncletopia | Chicago | 1 | All Maps | STV","players":[{"user_id":859,"name":"Pâté De Campagne","steam_id":76561198438020787,"connected_time":47000000000,"state":"active","ping":136},{"user_id":847,"name":"Achtan","steam_id":76561198078189844,"connected_time":1192000000000,"state":"active","ping":60},{"user_id":860,"name":"PBxJAY","steam_id":76561198402471788,"connected_time":22000000000,"state":"active","ping":123},{"user_id":848,"name":"Sad Boi Hours uWu","steam_id":76561198070927203,"connected_time":1160000000000,"state":"active","ping":56},{"user_id":827,"name":"Dilo","steam_id":76561198799078414,"connected_time":2033000000000,"state":"active","ping":63},{"user_id":849,"name":"Ademar","steam_id":76561199391802581,"connected_time":1134000000000,"state":"spawning","ping":66},{"user_id":833,"name":"Xpiredd","steam_id":76561198449525437,"connected_time":1919000000000,"state":"active","ping":56},{"user_id":853,"name":"bary","steam_id":76561197988317087,"connected_time":581000000000,"state":"active","ping":59},{"user_id":851,"name":"Professor Peppermint","steam_id":76561198184017082,"connected_time":1035000000000,"state":"active","ping":45},{"user_id":855,"name":"button boy","steam_id":76561198820897304,"connected_time":549000000000,"state":"active","ping":204},{"user_id":858,"name":"Person","steam_id":76561198093244204,"connected_time":56000000000,"state":"active","ping":74},{"user_id":844,"name":"derdds","steam_id":76561198034339940,"connected_time":1543000000000,"state":"active","ping":49},{"user_id":836,"name":"soupy","steam_id":76561197974283797,"connected_time":1870000000000,"state":"active","ping":38},{"user_id":856,"name":"Rukks","steam_id":76561197993918954,"connected_time":196000000000,"state":"active","ping":90},{"user_id":857,"name":"Bubblegum Bitch","steam_id":76561198043307965,"connected_time":188000000000,"state":"active","ping":125},{"user_id":840,"name":"Thot Patrol","steam_id":76561198138713736,"connected_time":1799000000000,"state":"active","ping":61},{"user_id":842,"name":"BackToSchoolAds","steam_id":76561198870281128,"connected_time":1731000000000,"state":"active","ping":75},{"user_id":808,"name":"The Great Karizma!","steam_id":76561198346191193,"connected_time":3478000000000,"state":"active","ping":91}]},{"server_id":106,"name":"Uncletopia | Chicago | 2 | All Maps","name_short":"chi-2","host":"chi-1.us.uncletopia.com","port":27025,"enabled":true,"region":"us-central","cc":"us","latitude":41.881832,"longitude":-87.62318,"reserved":0,"last_update":"0001-01-01T00:00:00Z","name_a2s":"Uncletopia | Chicago | 2 | All Maps","protocol":17,"map":"pl_snowycoast","folder":"tf","game":"Team Fortress","app_id":440,"player_count":0,"max_players":24,"Bots":0,"server_type":"Dedicated","server_os":"Linux","password":true,"vac":true,"version":"7757534","steam_id":85568392924469985,"keywords":["nocrits","nodmgspread","payload","uncletopia"],"game_id":440,"stv_port":27026,"stv_name":"Uncletopia | Chicago | 2 | All Maps | STV","players":null},{"server_id":402,"name":"Uncletopia | Chicago | 3 | All Maps","name_short":"chi-3","host":"chi-1.us.uncletopia.com","port":27035,"enabled":true,"region":"us-central","cc":"us","latitude":41.881832,"longitude":-87.62318,"reserved":0,"last_update":"0001-01-01T00:00:00Z","name_a2s":"Uncletopia | Chicago | 3 | All Maps","protocol":17,"map":"pl_pier","folder":"tf","game":"Team Fortress","app_id":440,"player_count":24,"max_players":24,"Bots":0,"server_type":"Dedicated","server_os":"Linux","password":true,"vac":true,"version":"7757534","steam_id":85568392924515191,"keywords":["nocrits","nodmgspread","payload","uncletopia"],"game_id":440,"stv_port":27036,"stv_name":"Uncletopia | Chicago | 3 | All Maps | STV","players":[{"user_id":526,"name":"lana_del_Rei.com","steam_id":76561198172447621,"connected_time":682000000000,"state":"active","ping":93},{"user_id":493,"name":"juha","steam_id":76561198133102865,"connected_time":3012000000000,"state":"active","ping":62},{"user_id":527,"name":"Spruce","steam_id":76561198081684676,"connected_time":675000000000,"state":"active","ping":134},{"user_id":506,"name":"Karma's Camera","steam_id":76561198059385185,"connected_time":1404000000000,"state":"active","ping":63},{"user_id":528,"name":"Loser","steam_id":76561198412636801,"connected_time":646000000000,"state":"active","ping":85},{"user_id":515,"name":"craxyt","steam_id":76561198050192689,"connected_time":886000000000,"state":"active","ping":105},{"user_id":494,"name":"sharia compliant gamer","steam_id":76561198005884261,"connected_time":2899000000000,"state":"active","ping":68},{"user_id":519,"name":"huh","steam_id":76561198102265073,"connected_time":880000000000,"state":"active","ping":102},{"user_id":477,"name":"Ket","steam_id":76561198241951244,"connected_time":4493000000000,"state":"active","ping":70},{"user_id":512,"name":"Troll","steam_id":76561198971688390,"connected_time":980000000000,"state":"active","ping":105},{"user_id":520,"name":"Frezzo","steam_id":76561198136208577,"connected_time":878000000000,"state":"active","ping":76},{"user_id":445,"name":"sueimimore","steam_id":76561198277979851,"connected_time":5407000000000,"state":"active","ping":84},{"user_id":507,"name":"Arrythmia","steam_id":76561198093748123,"connected_time":1299000000000,"state":"active","ping":99},{"user_id":484,"name":"Penjamin city","steam_id":76561198202216091,"connected_time":4148000000000,"state":"active","ping":74},{"user_id":513,"name":"Larry","steam_id":76561198005056455,"connected_time":973000000000,"state":"active","ping":93},{"user_id":523,"name":"¡cálmate!","steam_id":76561198071421094,"connected_time":785000000000,"state":"active","ping":96},{"user_id":524,"name":"arachnakat","steam_id":76561198986095433,"connected_time":781000000000,"state":"active","ping":80},{"user_id":530,"name":"be","steam_id":76561198000824533,"connected_time":376000000000,"state":"active","ping":99},{"user_id":531,"name":"Taco","steam_id":76561198158621392,"connected_time":121000000000,"state":"active","ping":60},{"user_id":469,"name":"mountain","steam_id":76561198078395002,"connected_time":4728000000000,"state":"active","ping":68},{"user_id":511,"name":"dzcreeper","steam_id":76561198072250723,"connected_time":1245000000000,"state":"active","ping":89},{"user_id":499,"name":"The Fluke","steam_id":76561198168479314,"connected_time":2633000000000,"state":"active","ping":102},{"user_id":525,"name":"gNarNar","steam_id":76561197994505205,"connected_time":716000000000,"state":"active","ping":68},{"user_id":529,"name":"the lobotomy","steam_id":76561198311158607,"connected_time":599000000000,"state":"active","ping":73}]},{"server_id":403,"name":"Uncletopia | Chicago | 4 | All Maps","name_short":"chi-4","host":"chi-1.us.uncletopia.com","port":27045,"enabled":true,"region":"us-central","cc":"us","latitude":41.881832,"longitude":-87.62318,"reserved":0,"last_update":"0001-01-01T00:00:00Z","name_a2s":"Uncletopia | Chicago | 4 | All Maps","protocol":17,"map":"cp_dustbowl","folder":"tf","game":"Team Fortress","app_id":440,"player_count":0,"max_players":24,"Bots":0,"server_type":"Dedicated","server_os":"Linux","password":true,"vac":true,"version":"7757534","steam_id":85568392924515193,"keywords":["cp","nocrits","nodmgspread","uncletopia"],"game_id":440,"stv_port":27046,"stv_name":"Uncletopia | Chicago | 4 | All Maps | STV","players":null},{"server_id":36,"name":"Uncletopia | Chicago | 5 | All Maps","name_short":"chi-5","host":"chi-2.us.uncletopia.com","port":27015,"enabled":true,"region":"us-central","cc":"us","latitude":41.881832,"longitude":-87.62318,"reserved":0,"last_update":"0001-01-01T00:00:00Z","name_a2s":"Uncletopia | Chicago | 5 | All Maps","protocol":17,"map":"cp_dustbowl","folder":"tf","game":"Team Fortress","app_id":440,"player_count":20,"max_players":24,"Bots":0,"server_type":"Dedicated","server_os":"Linux","password":true,"vac":true,"version":"7757534","steam_id":85568392924866362,"keywords":["cp","nocrits","nodmgspread","uncletopia"],"game_id":440,"stv_port":27016,"stv_name":"Uncletopia | Chicago | 5 | All Maps | STV","players":[{"user_id":560,"name":"Thequirka","steam_id":76561198968058652,"connected_time":1874000000000,"state":"active","ping":93},{"user_id":576,"name":"hee","steam_id":76561198110576126,"connected_time":395000000000,"state":"active","ping":70},{"user_id":552,"name":"THE CIPHER","steam_id":76561198365946083,"connected_time":2395000000000,"state":"active","ping":199},{"user_id":556,"name":"PeaR","steam_id":76561198149968863,"connected_time":2324000000000,"state":"active","ping":70},{"user_id":554,"name":"Gambling Man","steam_id":76561198322666631,"connected_time":2365000000000,"state":"active","ping":60},{"user_id":557,"name":"turbo builder's club","steam_id":76561198079516018,"connected_time":2311000000000,"state":"active","ping":34},{"user_id":558,"name":"stacys mom","steam_id":76561198209411824,"connected_time":2284000000000,"state":"active","ping":83},{"user_id":559,"name":"AquamarineBloke","steam_id":76561198093975842,"connected_time":2277000000000,"state":"active","ping":89},{"user_id":572,"name":"mmmguava","steam_id":76561198799742992,"connected_time":860000000000,"state":"active","ping":112},{"user_id":580,"name":"Chubby Monarch","steam_id":76561198027487285,"connected_time":90000000000,"state":"active","ping":105},{"user_id":564,"name":"Birch","steam_id":76561198316231704,"connected_time":1192000000000,"state":"active","ping":59},{"user_id":565,"name":"Xida","steam_id":76561198273471095,"connected_time":1190000000000,"state":"active","ping":90},{"user_id":567,"name":"Desse","steam_id":76561198817390149,"connected_time":1131000000000,"state":"active","ping":52},{"user_id":571,"name":"ALonelyPaperclip","steam_id":76561198116036160,"connected_time":889000000000,"state":"active","ping":123},{"user_id":570,"name":"SIGMA [BS]","steam_id":76561197962604879,"connected_time":930000000000,"state":"active","ping":66},{"user_id":578,"name":"ATL 1 | POOP DRINKER","steam_id":76561198132372435,"connected_time":201000000000,"state":"active","ping":85},{"user_id":579,"name":"Komp","steam_id":76561198018995498,"connected_time":176000000000,"state":"active","ping":50},{"user_id":581,"name":"V","steam_id":76561198998082956,"connected_time":69000000000,"state":"active","ping":45},{"user_id":582,"name":"strctfsh","steam_id":76561198083619784,"connected_time":55000000000,"state":"active","ping":51},{"user_id":583,"name":"Thot Police","steam_id":76561198084299100,"connected_time":50000000000,"state":"active","ping":67}]},{"server_id":37,"name":"Uncletopia | Chicago | 6 | All Maps","name_short":"chi-6","host":"chi-2.us.uncletopia.com","port":27025,"enabled":true,"region":"us-central","cc":"us","latitude":41.881832,"longitude":-87.62318,"reserved":0,"last_update":"0001-01-01T00:00:00Z","name_a2s":"Uncletopia | Chicago | 6 | All Maps","protocol":17,"map":"koth_viaduct","folder":"tf","game":"Team Fortress","app_id":440,"player_count":7,"max_players":24,"Bots":0,"server_type":"Dedicated","server_os":"Linux","password":true,"vac":true,"version":"7757534","steam_id":85568392924866363,"keywords":["cp","nocrits","nodmgspread","uncletopia"],"game_id":440,"stv_port":27026,"stv_name":"Uncletopia | Chicago | 6 | All Maps | STV","players":[{"user_id":521,"name":"Dovahnaut","steam_id":76561198103550672,"connected_time":153000000000,"state":"active","ping":68},{"user_id":480,"name":"Le0901","steam_id":76561198372891244,"connected_time":3874000000000,"state":"active","ping":51},{"user_id":481,"name":"Jarlpy","steam_id":76561198193905778,"connected_time":3802000000000,"state":"active","ping":72},{"user_id":520,"name":"juno","steam_id":76561198192739665,"connected_time":476000000000,"state":"active","ping":61},{"user_id":514,"name":"SuperSandwichGoku","steam_id":76561198438882159,"connected_time":1271000000000,"state":"active","ping":39},{"user_id":501,"name":"Ask Nicely For Heals","steam_id":76561198138478907,"connected_time":2576000000000,"state":"active","ping":46},{"user_id":507,"name":"strawberry shortcock","steam_id":76561198032040831,"connected_time":2079000000000,"state":"active","ping":68}]},{"server_id":38,"name":"Uncletopia | Chicago | 7 | Stopwatch Beta","name_short":"chi-7","host":"chi-2.us.uncletopia.com","port":27035,"enabled":true,"region":"us-central","cc":"us","latitude":41.881832,"longitude":-87.62318,"reserved":0,"last_update":"0001-01-01T00:00:00Z","name_a2s":"Uncletopia | Chicago | 7 | Stopwatch Beta","protocol":17,"map":"workshop/koth_clearcut_b15.ugc2107050255","folder":"tf","game":"Team Fortress","app_id":440,"player_count":0,"max_players":24,"Bots":0,"server_type":"Dedicated","server_os":"Linux","password":true,"vac":true,"version":"7757534","steam_id":85568392924866364,"keywords":["cp","nocrits","nodmgspread","uncletopia"],"game_id":440,"stv_port":27036,"stv_name":"Uncletopia | Chicago | 7 | Stopwatch Beta | STV","players":null},{"server_id":39,"name":"Uncletopia | Chicago | 8 | Community","name_short":"chi-8","host":"chi-2.us.uncletopia.com","port":27045,"enabled":true,"region":"us-central","cc":"us","latitude":41.881832,"longitude":-87.62318,"reserved":0,"last_update":"0001-01-01T00:00:00Z","name_a2s":"Uncletopia | Chicago | 8 | Community","protocol":17,"map":"workshop/cp_bruhstbowl_b5.ugc2878604990","folder":"tf","game":"Team Fortress","app_id":440,"player_count":0,"max_players":24,"Bots":0,"server_type":"Dedicated","server_os":"Linux","password":true,"vac":true,"version":"7757534","steam_id":85568392924866365,"keywords":["cp","nocrits","nodmgspread","uncletopia"],"game_id":440,"stv_port":27046,"stv_name":"Uncletopia | Chicago | 8 | Community | STV","players":null},{"server_id":8,"name":"Uncletopia | Dallas | 1 | All Maps","name_short":"dal-1","host":"dal-1.us.uncletopia.com","port":27015,"enabled":true,"region":"us-central","cc":"us","latitude":32.779167,"longitude":-96.80889,"reserved":0,"last_update":"0001-01-01T00:00:00Z","name_a2s":"Uncletopia | Dallas | 1 | All Maps","protocol":17,"map":"pl_thundermountain","folder":"tf","game":"Team Fortress","app_id":440,"player_count":22,"max_players":24,"Bots":0,"server_type":"Dedicated","server_os":"Linux","password":true,"vac":true,"version":"7757534","steam_id":85568392924469986,"keywords":["nocrits","nodmgspread","payload","uncletopia"],"game_id":440,"stv_port":27016,"stv_name":"Uncletopia | Dallas | 1 | All Maps | STV","players":[{"user_id":641,"name":"errant","steam_id":76561197961758410,"connected_time":6499000000000,"state":"active","ping":33},{"user_id":669,"name":"Metbol","steam_id":76561198001362410,"connected_time":3158000000000,"state":"active","ping":49},{"user_id":696,"name":"bolainassr0","steam_id":76561199079078845,"connected_time":576000000000,"state":"active","ping":106},{"user_id":693,"name":"Sock #NEWTF2Hunt","steam_id":76561198069090237,"connected_time":931000000000,"state":"active","ping":60},{"user_id":681,"name":"Achy_Blitz","steam_id":76561198090433209,"connected_time":2246000000000,"state":"active","ping":84},{"user_id":695,"name":"TTV/YT Hunter","steam_id":76561198115812405,"connected_time":791000000000,"state":"active","ping":101},{"user_id":637,"name":"Xen","steam_id":76561198025311844,"connected_time":7519000000000,"state":"active","ping":102},{"user_id":677,"name":"Action_Quacktion","steam_id":76561198407062426,"connected_time":2739000000000,"state":"active","ping":87},{"user_id":697,"name":"Eden Hazard","steam_id":76561198089241053,"connected_time":438000000000,"state":"active","ping":87},{"user_id":701,"name":"freak on a leash","steam_id":76561198131576005,"connected_time":118000000000,"state":"active","ping":60},{"user_id":685,"name":"leopardo123atl","steam_id":76561198872648238,"connected_time":1543000000000,"state":"active","ping":79},{"user_id":702,"name":"Blows","steam_id":76561198065349185,"connected_time":42000000000,"state":"active","ping":75},{"user_id":687,"name":"pigswill","steam_id":76561197999081865,"connected_time":1459000000000,"state":"active","ping":94},{"user_id":688,"name":"hotpocket","steam_id":76561199070028098,"connected_time":1457000000000,"state":"active","ping":93},{"user_id":691,"name":"Emperor Dankatine","steam_id":76561198044741086,"connected_time":1126000000000,"state":"active","ping":82},{"user_id":673,"name":"Fumpo","steam_id":76561198206873365,"connected_time":2893000000000,"state":"active","ping":91},{"user_id":679,"name":"deb","steam_id":76561198414336279,"connected_time":2423000000000,"state":"active","ping":57},{"user_id":699,"name":"!! BRO IS FLABBERGASTED !!","steam_id":76561198135036396,"connected_time":294000000000,"state":"active","ping":60},{"user_id":692,"name":"kermitcreeper(ZAZA)","steam_id":76561199222829972,"connected_time":1024000000000,"state":"active","ping":62},{"user_id":649,"name":"Danger McHazard","steam_id":76561198059451274,"connected_time":5338000000000,"state":"active","ping":75},{"user_id":648,"name":"austintacious","steam_id":76561198054118061,"connected_time":5539000000000,"state":"active","ping":67},{"user_id":665,"name":"Reyloko","steam_id":76561198172480913,"connected_time":3778000000000,"state":"active","ping":78}]},{"server_id":108,"name":"Uncletopia | Dallas | 2 | All Maps","name_short":"dal-2","host":"dal-1.us.uncletopia.com","port":27025,"enabled":true,"region":"us-central","cc":"us","latitude":32.779167,"longitude":-96.80889,"reserved":0,"last_update":"0001-01-01T00:00:00Z","name_a2s":"Uncletopia | Dallas | 2 | All Maps","protocol":17,"map":"pl_barnblitz","folder":"tf","game":"Team Fortress","app_id":440,"player_count":23,"max_players":24,"Bots":0,"server_type":"Dedicated","server_os":"Linux","password":true,"vac":true,"version":"7757534","steam_id":85568392924469988,"keywords":["nocrits","nodmgspread","payload","uncletopia"],"game_id":440,"stv_port":27026,"stv_name":"Uncletopia | Dallas | 2 | All Maps | STV","players":[{"user_id":659,"name":"eatmysteel","steam_id":76561198976437527,"connected_time":596000000000,"state":"active","ping":91},{"user_id":669,"name":"harlowng","steam_id":76561198060542928,"connected_time":179000000000,"state":"active","ping":101},{"user_id":639,"name":"Jack from Jack in The Box","steam_id":76561199083594971,"connected_time":1752000000000,"state":"active","ping":68},{"user_id":662,"name":"Spring Beans","steam_id":76561197978546259,"connected_time":507000000000,"state":"active","ping":45},{"user_id":658,"name":"god's drunkest driver","steam_id":76561198212115640,"connected_time":630000000000,"state":"active","ping":78},{"user_id":660,"name":"fuckin up da SYSTEM!","steam_id":76561198035015798,"connected_time":594000000000,"state":"active","ping":78},{"user_id":635,"name":"p]","steam_id":76561198145784505,"connected_time":1841000000000,"state":"active","ping":75},{"user_id":654,"name":"the nut chuckler","steam_id":76561198211677460,"connected_time":879000000000,"state":"active","ping":103},{"user_id":636,"name":"Yummy Kabobz","steam_id":76561198067661705,"connected_time":1816000000000,"state":"active","ping":78},{"user_id":646,"name":"LemonPoppyMuffin","steam_id":76561198044813750,"connected_time":1409000000000,"state":"active","ping":60},{"user_id":661,"name":"Shaundude","steam_id":76561197979164191,"connected_time":548000000000,"state":"active","ping":71},{"user_id":663,"name":"Mr. Peon","steam_id":76561198012334474,"connected_time":497000000000,"state":"active","ping":44},{"user_id":664,"name":"motherfucker 2.0","steam_id":76561198141189209,"connected_time":487000000000,"state":"active","ping":41},{"user_id":621,"name":"alpharuby","steam_id":76561198051638462,"connected_time":2770000000000,"state":"active","ping":76},{"user_id":622,"name":"Faraday","steam_id":76561198089928357,"connected_time":2768000000000,"state":"active","ping":56},{"user_id":673,"name":"Kuzi","steam_id":76561199360988431,"connected_time":97000000000,"state":"active","ping":100},{"user_id":623,"name":"Phil Collins","steam_id":76561198068868644,"connected_time":2748000000000,"state":"active","ping":77},{"user_id":674,"name":"Dylancyclone","steam_id":76561198000959790,"connected_time":97000000000,"state":"active","ping":65},{"user_id":649,"name":"bauhaus blast","steam_id":76561198057561955,"connected_time":1182000000000,"state":"active","ping":86},{"user_id":642,"name":"poopiegamer32 (she/her)","steam_id":76561198154746018,"connected_time":1654000000000,"state":"active","ping":81},{"user_id":670,"name":"Kaos","steam_id":76561198059816476,"connected_time":172000000000,"state":"active","ping":73},{"user_id":650,"name":"Team Fartpiss Poo","steam_id":76561199163591880,"connected_time":1181000000000,"state":"active","ping":97},{"user_id":671,"name":"GeekyFox3","steam_id":76561198267733290,"connected_time":171000000000,"state":"active","ping":86}]},{"server_id":5,"name":"Uncletopia | Frankfurt | 1 | All Maps","name_short":"frk-1","host":"frk-1.de.uncletopia.com","port":27015,"enabled":true,"region":"eu","cc":"de","latitude":50.110924,"longitude":8.682127,"reserved":0,"last_update":"0001-01-01T00:00:00Z","name_a2s":"Uncletopia | Frankfurt | 1 | All Maps","protocol":17,"map":"pl_barnblitz","folder":"tf","game":"Team Fortress","app_id":440,"player_count":24,"max_players":24,"Bots":0,"server_type":"Dedicated","server_os":"Linux","password":true,"vac":true,"version":"7757534","steam_id":85568392924469989,"keywords":["nocrits","nodmgspread","payload","uncletopia"],"game_id":440,"stv_port":27016,"stv_name":"Uncletopia | Frankfurt | 1 | All Maps | STV","players":[{"user_id":43,"name":"Bingus","steam_id":76561198334528186,"connected_time":1147000000000,"state":"active","ping":50},{"user_id":66,"name":"RIFT","steam_id":76561198991622379,"connected_time":270000000000,"state":"active","ping":57},{"user_id":54,"name":"Loyde","steam_id":76561198029919524,"connected_time":796000000000,"state":"active","ping":101},{"user_id":51,"name":"Ziano","steam_id":76561199111746284,"connected_time":897000000000,"state":"active","ping":87},{"user_id":28,"name":"Pogmanson","steam_id":76561198919953445,"connected_time":2017000000000,"state":"active","ping":52},{"user_id":61,"name":"Blitzy","steam_id":76561198059253518,"connected_time":370000000000,"state":"active","ping":67},{"user_id":12,"name":"trans werewolf 2nd of her name","steam_id":76561198369367211,"connected_time":3692000000000,"state":"active","ping":70},{"user_id":13,"name":"Pek","steam_id":76561198110417995,"connected_time":3545000000000,"state":"active","ping":107},{"user_id":45,"name":"VOLATILE","steam_id":76561198139131179,"connected_time":1053000000000,"state":"active","ping":132},{"user_id":68,"name":"thekoolest88","steam_id":76561199022415672,"connected_time":169000000000,"state":"active","ping":148},{"user_id":57,"name":"Wat Means?","steam_id":76561197966629582,"connected_time":554000000000,"state":"active","ping":51},{"user_id":37,"name":"Topme","steam_id":76561198091734693,"connected_time":1583000000000,"state":"active","ping":75},{"user_id":27,"name":"trans werewolf","steam_id":76561198107235989,"connected_time":2034000000000,"state":"active","ping":62},{"user_id":39,"name":"Spinyapickle","steam_id":76561198086653667,"connected_time":1528000000000,"state":"active","ping":65},{"user_id":30,"name":"Loop_Cat","steam_id":76561199045902145,"connected_time":1906000000000,"state":"active","ping":115},{"user_id":31,"name":"FUKTARD2005","steam_id":76561198839121591,"connected_time":1898000000000,"state":"active","ping":64},{"user_id":44,"name":"poliakov.noam","steam_id":76561199259322961,"connected_time":1141000000000,"state":"active","ping":106},{"user_id":60,"name":"rrainbot","steam_id":76561199414716848,"connected_time":425000000000,"state":"active","ping":72},{"user_id":64,"name":"mewcat","steam_id":76561199087050938,"connected_time":314000000000,"state":"active","ping":81},{"user_id":56,"name":"-15 Social Credit","steam_id":76561199013107775,"connected_time":691000000000,"state":"active","ping":64},{"user_id":46,"name":"Boomo1","steam_id":76561198340040855,"connected_time":1042000000000,"state":"active","ping":111},{"user_id":47,"name":"caribou","steam_id":76561198044916224,"connected_time":1042000000000,"state":"active","ping":57},{"user_id":59,"name":"Hedge Knight","steam_id":76561198989449047,"connected_time":458000000000,"state":"active","ping":115},{"user_id":53,"name":"Irbynx","steam_id":76561197980421195,"connected_time":842000000000,"state":"active","ping":83}]},{"server_id":110,"name":"Uncletopia | Frankfurt | 2 | All Maps","name_short":"frk-2","host":"frk-1.de.uncletopia.com","port":27025,"enabled":true,"region":"eu","cc":"de","latitude":50.110924,"longitude":8.682127,"reserved":0,"last_update":"0001-01-01T00:00:00Z","name_a2s":"Uncletopia | Frankfurt | 2 | All Maps","protocol":17,"map":"koth_lakeside_final","folder":"tf","game":"Team Fortress","app_id":440,"player_count":0,"max_players":24,"Bots":0,"server_type":"Dedicated","server_os":"Linux","password":true,"vac":true,"version":"7757534","steam_id":85568392924469990,"keywords":["cp","nocrits","nodmgspread","uncletopia"],"game_id":440,"stv_port":27026,"stv_name":"Uncletopia | Frankfurt | 2 | All Maps | STV","players":null},{"server_id":308,"name":"Uncletopia | Frankfurt | 3 | All Maps","name_short":"frk-3","host":"frk-1.de.uncletopia.com","port":27035,"enabled":true,"region":"eu","cc":"de","latitude":50.110924,"longitude":8.682127,"reserved":0,"last_update":"0001-01-01T00:00:00Z","name_a2s":"Uncletopia | Frankfurt | 3 | All Maps","protocol":17,"map":"pl_swiftwater_final1","folder":"tf","game":"Team Fortress","app_id":440,"player_count":0,"max_players":24,"Bots":0,"server_type":"Dedicated","server_os":"Linux","password":true,"vac":true,"version":"7757534","steam_id":85568392924504274,"keywords":["nocrits","nodmgspread","payload","uncletopia"],"game_id":440,"stv_port":27036,"stv_name":"Uncletopia | Frankfurt | 3 | All Maps | STV","players":null},{"server_id":309,"name":"Uncletopia | Frankfurt | 4 | All Maps","name_short":"frk-4","host":"frk-1.de.uncletopia.com","port":27045,"enabled":true,"region":"eu","cc":"de","latitude":50.110924,"longitude":8.682127,"reserved":0,"last_update":"0001-01-01T00:00:00Z","name_a2s":"Uncletopia | Frankfurt | 4 | All Maps","protocol":17,"map":"koth_viaduct","folder":"tf","game":"Team Fortress","app_id":440,"player_count":0,"max_players":24,"Bots":0,"server_type":"Dedicated","server_os":"Linux","password":true,"vac":true,"version":"7757534","steam_id":85568392924504275,"keywords":["cp","nocrits","nodmgspread","uncletopia"],"game_id":440,"stv_port":27046,"stv_name":"Uncletopia | Frankfurt | 4 | All Maps | STV","players":null},{"server_id":310,"name":"Uncletopia | Frankfurt | 5 | All Maps","name_short":"frk-5","host":"frk-1.de.uncletopia.com","port":27055,"enabled":true,"region":"eu","cc":"de","latitude":50.110924,"longitude":8.682127,"reserved":0,"last_update":"0001-01-01T00:00:00Z","name_a2s":"Uncletopia | Frankfurt | 5 | All Maps","protocol":17,"map":"koth_lakeside_final","folder":"tf","game":"Team Fortress","app_id":440,"player_count":0,"max_players":24,"Bots":0,"server_type":"Dedicated","server_os":"Linux","password":true,"vac":true,"version":"7757534","steam_id":85568392924504277,"keywords":["cp","nocrits","nodmgspread","uncletopia"],"game_id":440,"stv_port":27056,"stv_name":"Uncletopia | Frankfurt | 5 | All Maps | STV","players":null},{"server_id":311,"name":"Uncletopia | Frankfurt | 6 | All Maps","name_short":"frk-6","host":"frk-1.de.uncletopia.com","port":27065,"enabled":true,"region":"eu","cc":"de","latitude":50.110924,"longitude":8.682127,"reserved":0,"last_update":"0001-01-01T00:00:00Z","name_a2s":"Uncletopia | Frankfurt | 6 | All Maps","protocol":17,"map":"pl_frontier_final","folder":"tf","game":"Team Fortress","app_id":440,"player_count":0,"max_players":24,"Bots":0,"server_type":"Dedicated","server_os":"Linux","password":true,"vac":true,"version":"7757534","steam_id":85568392924504278,"keywords":["nocrits","nodmgspread","payload","uncletopia"],"game_id":440,"stv_port":27066,"stv_name":"Uncletopia | Frankfurt | 6 | All Maps | STV","players":null},{"server_id":23,"name":"Uncletopia | Frankfurt | 7 | Stopwatch Beta","name_short":"frk-7","host":"frk-1.de.uncletopia.com","port":27075,"enabled":true,"region":"eu","cc":"de","latitude":50.110924,"longitude":8.682127,"reserved":0,"last_update":"0001-01-01T00:00:00Z","name_a2s":"Uncletopia | Frankfurt | 7 | Stopwatch Beta","protocol":17,"map":"cp_sunshine","folder":"tf","game":"Team Fortress","app_id":440,"player_count":0,"max_players":24,"Bots":0,"server_type":"Dedicated","server_os":"Linux","password":true,"vac":true,"version":"7757534","steam_id":85568392924742827,"keywords":["cp","nocrits","nodmgspread","uncletopia"],"game_id":440,"stv_port":27076,"stv_name":"Uncletopia | Frankfurt | 7 | Stopwatch Beta | STV","players":null},{"server_id":24,"name":"Uncletopia | Frankfurt | 8 | Community","name_short":"frk-8","host":"frk-1.de.uncletopia.com","port":27085,"enabled":true,"region":"eu","cc":"de","latitude":50.110924,"longitude":8.682127,"reserved":0,"last_update":"0001-01-01T00:00:00Z","name_a2s":"Uncletopia | Frankfurt | 8 | Community","protocol":17,"map":"koth_lakeside_final","folder":"tf","game":"Team Fortress","app_id":440,"player_count":0,"max_players":24,"Bots":0,"server_type":"Dedicated","server_os":"Linux","password":true,"vac":true,"version":"7757534","steam_id":85568392924742828,"keywords":["cp","nocrits","nodmgspread","uncletopia"],"game_id":440,"stv_port":27086,"stv_name":"Uncletopia | Frankfurt | 8 | Community | STV","players":null},{"server_id":202,"name":"Uncletopia | Hong Kong | 1 | All Maps","name_short":"hgk-1","host":"hgk-1.hk.uncletopia.com","port":27015,"enabled":true,"region":"asia","cc":"hk","latitude":22.302711,"longitude":114.177216,"reserved":0,"last_update":"0001-01-01T00:00:00Z","name_a2s":"Uncletopia | Hong Kong | 1 | All Maps","protocol":17,"map":"pl_swiftwater_final1","folder":"tf","game":"Team Fortress","app_id":440,"player_count":24,"max_players":24,"Bots":0,"server_type":"Dedicated","server_os":"Linux","password":true,"vac":true,"version":"7757534","steam_id":85568392924494504,"keywords":["nocrits","nodmgspread","payload","uncletopia"],"game_id":440,"stv_port":27016,"stv_name":"Uncletopia | Hong Kong | 1 | All Maps | STV","players":[{"user_id":219,"name":"Slim3rs","steam_id":76561199088010585,"connected_time":691000000000,"state":"active","ping":201},{"user_id":211,"name":"P","steam_id":76561198304514505,"connected_time":944000000000,"state":"active","ping":76},{"user_id":115,"name":"Mehcro","steam_id":76561198856864170,"connected_time":10553000000000,"state":"active","ping":78},{"user_id":182,"name":"帕","steam_id":76561198439343999,"connected_time":3561000000000,"state":"active","ping":82},{"user_id":222,"name":"trillionaire grindset sigma","steam_id":76561198160089663,"connected_time":589000000000,"state":"active","ping":76},{"user_id":221,"name":"Rumoshiji","steam_id":76561199174449723,"connected_time":603000000000,"state":"active","ping":112},{"user_id":210,"name":"Monday","steam_id":76561198829584056,"connected_time":957000000000,"state":"active","ping":45},{"user_id":223,"name":"ConHoshi","steam_id":76561199387718733,"connected_time":575000000000,"state":"active","ping":82},{"user_id":170,"name":"7853","steam_id":76561199390507975,"connected_time":4285000000000,"state":"active","ping":56},{"user_id":188,"name":"Michael Scott","steam_id":76561198023082794,"connected_time":3183000000000,"state":"active","ping":51},{"user_id":152,"name":"Meru","steam_id":76561198405734851,"connected_time":7282000000000,"state":"active","ping":123},{"user_id":203,"name":"Operate EX","steam_id":76561199351297136,"connected_time":1779000000000,"state":"active","ping":97},{"user_id":213,"name":"Hank.","steam_id":76561198352114968,"connected_time":855000000000,"state":"active","ping":44},{"user_id":214,"name":"No.2","steam_id":76561199137522723,"connected_time":852000000000,"state":"active","ping":53},{"user_id":164,"name":"m1ko-  ❀","steam_id":76561198337154745,"connected_time":6108000000000,"state":"active","ping":132},{"user_id":207,"name":"Saffron","steam_id":76561199025320247,"connected_time":1380000000000,"state":"active","ping":61},{"user_id":226,"name":"= )","steam_id":76561198397316876,"connected_time":216000000000,"state":"active","ping":104},{"user_id":151,"name":"3wfFbdrjEze5d2G","steam_id":76561198435900451,"connected_time":7384000000000,"state":"active","ping":120},{"user_id":225,"name":"Milk❤","steam_id":76561198163911560,"connected_time":407000000000,"state":"active","ping":137},{"user_id":208,"name":"David Keithson","steam_id":76561199279393636,"connected_time":1254000000000,"state":"active","ping":74},{"user_id":187,"name":"UnoSee","steam_id":76561198406640602,"connected_time":3358000000000,"state":"active","ping":87},{"user_id":204,"name":"Light Rainbow","steam_id":76561198118966673,"connected_time":1685000000000,"state":"active","ping":43},{"user_id":220,"name":"protoguy(한국인임 제발)","steam_id":76561199249312448,"connected_time":679000000000,"state":"active","ping":100},{"user_id":94,"name":":uroSmonk:","steam_id":76561198074339034,"connected_time":12588000000000,"state":"active","ping":74}]},{"server_id":1,"name":"Uncletopia | Los Angeles | 1 | All Maps","name_short":"lax-1","host":"lax-1.us.uncletopia.com","port":27015,"enabled":true,"region":"us-west","cc":"us","latitude":33.94279,"longitude":-118.41004,"reserved":0,"last_update":"0001-01-01T00:00:00Z","name_a2s":"Uncletopia | Los Angeles | 1 | All Maps","protocol":17,"map":"plr_hightower","folder":"tf","game":"Team Fortress","app_id":440,"player_count":0,"max_players":24,"Bots":0,"server_type":"Dedicated","server_os":"Linux","password":true,"vac":true,"version":"7757534","steam_id":85568392924469991,"keywords":["nocrits","nodmgspread","payload","uncletopia"],"game_id":440,"stv_port":27016,"stv_name":"Uncletopia | Los Angeles | 1 | All Maps | STV","players":null},{"server_id":112,"name":"Uncletopia | Los Angeles | 2 | All Maps","name_short":"lax-2","host":"lax-1.us.uncletopia.com","port":27025,"enabled":true,"region":"us-west","cc":"us","latitude":33.94279,"longitude":-118.41004,"reserved":0,"last_update":"0001-01-01T00:00:00Z","name_a2s":"Uncletopia | Los Angeles | 2 | All Maps","protocol":17,"map":"cp_process_final","folder":"tf","game":"Team Fortress","app_id":440,"player_count":18,"max_players":24,"Bots":0,"server_type":"Dedicated","server_os":"Linux","password":true,"vac":true,"version":"7757534","steam_id":85568392924469992,"keywords":["cp","nocrits","nodmgspread","uncletopia"],"game_id":440,"stv_port":27026,"stv_name":"Uncletopia | Los Angeles | 2 | All Maps | STV","players":[{"user_id":377,"name":"Joosh","steam_id":76561198214599739,"connected_time":4205000000000,"state":"active","ping":69},{"user_id":437,"name":"wagoogus jr.","steam_id":76561198239598834,"connected_time":94000000000,"state":"active","ping":100},{"user_id":318,"name":"perc 10","steam_id":76561198116471653,"connected_time":6846000000000,"state":"active","ping":59},{"user_id":415,"name":"selvhat","steam_id":76561198114225509,"connected_time":2212000000000,"state":"active","ping":44},{"user_id":438,"name":"PanzerDragon5","steam_id":76561198989057579,"connected_time":16000000000,"state":"active","ping":91},{"user_id":286,"name":"★CyberMario★","steam_id":76561198045798329,"connected_time":9595000000000,"state":"active","ping":68},{"user_id":389,"name":"✪ Y V E S","steam_id":76561198299479796,"connected_time":3109000000000,"state":"active","ping":44},{"user_id":439,"name":"FI LO","steam_id":76561198976530881,"connected_time":3000000000,"state":"spawning","ping":30},{"user_id":426,"name":"Smell. Ron Hubbard","steam_id":76561198072897408,"connected_time":1852000000000,"state":"active","ping":89},{"user_id":409,"name":"Lucerne★Flower","steam_id":76561198264105406,"connected_time":2622000000000,"state":"active","ping":105},{"user_id":427,"name":"yeah","steam_id":76561198334059206,"connected_time":1528000000000,"state":"active","ping":57},{"user_id":434,"name":"Skadoosh","steam_id":76561198144771234,"connected_time":1035000000000,"state":"active","ping":45},{"user_id":383,"name":"PortalMaster555 | trade.tf","steam_id":76561198097321251,"connected_time":3458000000000,"state":"active","ping":83},{"user_id":435,"name":"27 blends","steam_id":76561197997100185,"connected_time":857000000000,"state":"active","ping":53},{"user_id":433,"name":"Assassin","steam_id":76561198321410235,"connected_time":1278000000000,"state":"active","ping":30},{"user_id":288,"name":"spot","steam_id":76561198151135298,"connected_time":8540000000000,"state":"active","ping":34},{"user_id":407,"name":"beeble!","steam_id":76561198219538525,"connected_time":2657000000000,"state":"active","ping":84},{"user_id":260,"name":"MuscleWizard","steam_id":76561198113756539,"connected_time":12280000000000,"state":"active","ping":59}]},{"server_id":324,"name":"Uncletopia | Los Angeles | 3 | All Maps","name_short":"lax-3","host":"lax-1.us.uncletopia.com","port":27035,"enabled":true,"region":"us-west","cc":"us","latitude":33.94279,"longitude":-118.41004,"reserved":0,"last_update":"0001-01-01T00:00:00Z","name_a2s":"Uncletopia | Los Angeles | 3 | All Maps","protocol":17,"map":"pl_upward","folder":"tf","game":"Team Fortress","app_id":440,"player_count":7,"max_players":24,"Bots":0,"server_type":"Dedicated","server_os":"Linux","password":true,"vac":true,"version":"7757534","steam_id":85568392924510198,"keywords":["nocrits","nodmgspread","payload","uncletopia"],"game_id":440,"stv_port":27036,"stv_name":"Uncletopia | Los Angeles | 3 | All Maps | STV","players":[{"user_id":197,"name":"HOG RIDER","steam_id":76561198298589502,"connected_time":571000000000,"state":"active","ping":46},{"user_id":190,"name":"Cristanc99","steam_id":76561198114715810,"connected_time":1756000000000,"state":"active","ping":74},{"user_id":144,"name":"Video James","steam_id":76561198240919690,"connected_time":6091000000000,"state":"active","ping":86},{"user_id":178,"name":"cool beans","steam_id":76561198045758072,"connected_time":2778000000000,"state":"active","ping":48},{"user_id":179,"name":"matchmatch                     ","steam_id":76561198048925904,"connected_time":2744000000000,"state":"active","ping":60},{"user_id":182,"name":"nelly modelo","steam_id":76561198044875206,"connected_time":2690000000000,"state":"active","ping":67},{"user_id":134,"name":"Melo☆Melo","steam_id":76561198159403397,"connected_time":7171000000000,"state":"active","ping":81}]},{"server_id":25,"name":"Uncletopia | Los Angeles | 4 | Stopwatch Beta","name_short":"lax-4","host":"lax-1.us.uncletopia.com","port":27045,"enabled":true,"region":"us-west","cc":"us","latitude":33.94279,"longitude":-118.41004,"reserved":0,"last_update":"0001-01-01T00:00:00Z","name_a2s":"Uncletopia | Los Angeles | 4 | Stopwatch Beta","protocol":17,"map":"cp_sunshine","folder":"tf","game":"Team Fortress","app_id":440,"player_count":0,"max_players":24,"Bots":0,"server_type":"Dedicated","server_os":"Linux","password":true,"vac":true,"version":"7757534","steam_id":85568392924510199,"keywords":["cp","nocrits","nodmgspread","uncletopia"],"game_id":440,"stv_port":27046,"stv_name":"Uncletopia | Los Angeles | 4 | Stopwatch Beta | STV","players":null},{"server_id":11,"name":"Uncletopia | London | 1 | All Maps","name_short":"lon-1","host":"lon-1.uk.uncletopia.com","port":27015,"enabled":true,"region":"eu","cc":"gb","latitude":51.509865,"longitude":-0.118092,"reserved":0,"last_update":"0001-01-01T00:00:00Z","name_a2s":"Uncletopia | London | 1 | All Maps","protocol":17,"map":"koth_highpass","folder":"tf","game":"Team Fortress","app_id":440,"player_count":0,"max_players":24,"Bots":0,"server_type":"Dedicated","server_os":"Linux","password":true,"vac":true,"version":"7757534","steam_id":85568392924367362,"keywords":["cp","nocrits","nodmgspread","uncletopia"],"game_id":440,"stv_port":27016,"stv_name":"Uncletopia | London | 1 | All Maps | STV","players":null},{"server_id":114,"name":"Uncletopia | London | 2 | All Maps","name_short":"lon-2","host":"lon-1.uk.uncletopia.com","port":27025,"enabled":true,"region":"eu","cc":"gb","latitude":51.509865,"longitude":-0.118092,"reserved":0,"last_update":"0001-01-01T00:00:00Z","name_a2s":"Uncletopia | London | 2 | All Maps","protocol":17,"map":"koth_viaduct","folder":"tf","game":"Team Fortress","app_id":440,"player_count":0,"max_players":24,"Bots":0,"server_type":"Dedicated","server_os":"Linux","password":true,"vac":true,"version":"7757534","steam_id":85568392924470941,"keywords":["cp","nocrits","nodmgspread","uncletopia"],"game_id":440,"stv_port":27026,"stv_name":"Uncletopia | London | 2 | All Maps | STV","players":null},{"server_id":320,"name":"Uncletopia | London | 3 | All Maps","name_short":"lon-3","host":"lon-1.uk.uncletopia.com","port":27035,"enabled":true,"region":"eu","cc":"gb","latitude":51.509865,"longitude":-0.118092,"reserved":0,"last_update":"0001-01-01T00:00:00Z","name_a2s":"Uncletopia | London | 3 | All Maps","protocol":17,"map":"cp_dustbowl","folder":"tf","game":"Team Fortress","app_id":440,"player_count":0,"max_players":24,"Bots":0,"server_type":"Dedicated","server_os":"Linux","password":true,"vac":true,"version":"7757534","steam_id":85568392924510192,"keywords":["cp","nocrits","nodmgspread","uncletopia"],"game_id":440,"stv_port":27036,"stv_name":"Uncletopia | London | 3 | All Maps | STV","players":null},{"server_id":321,"name":"Uncletopia | London | 4 | All Maps","name_short":"lon-4","host":"lon-1.uk.uncletopia.com","port":27045,"enabled":true,"region":"eu","cc":"gb","latitude":51.509865,"longitude":-0.118092,"reserved":0,"last_update":"0001-01-01T00:00:00Z","name_a2s":"Uncletopia | London | 4 | All Maps","protocol":17,"map":"koth_highpass","folder":"tf","game":"Team Fortress","app_id":440,"player_count":0,"max_players":24,"Bots":0,"server_type":"Dedicated","server_os":"Linux","password":true,"vac":true,"version":"7757534","steam_id":85568392924510193,"keywords":["cp","nocrits","nodmgspread","uncletopia"],"game_id":440,"stv_port":27046,"stv_name":"Uncletopia | London | 4 | All Maps | STV","players":null},{"server_id":21,"name":"Uncletopia | London | 5 | All Maps","name_short":"lon-5","host":"lon-1.uk.uncletopia.com","port":27055,"enabled":true,"region":"eu","cc":"gb","latitude":51.509865,"longitude":-0.118092,"reserved":0,"last_update":"0001-01-01T00:00:00Z","name_a2s":"Uncletopia | London | 5 | All Maps","protocol":17,"map":"cp_altitude","folder":"tf","game":"Team Fortress","app_id":440,"player_count":0,"max_players":24,"Bots":0,"server_type":"Dedicated","server_os":"Linux","password":true,"vac":true,"version":"7757534","steam_id":85568392924742829,"keywords":["cp","nocrits","nodmgspread","uncletopia"],"game_id":440,"stv_port":27056,"stv_name":"Uncletopia | London | 5 | All Maps | STV","players":null},{"server_id":22,"name":"Uncletopia | London | 6 | All Maps","name_short":"lon-6","host":"lon-1.uk.uncletopia.com","port":27065,"enabled":true,"region":"eu","cc":"gb","latitude":51.509865,"longitude":-0.118092,"reserved":0,"last_update":"0001-01-01T00:00:00Z","name_a2s":"Uncletopia | London | 6 | All Maps","protocol":17,"map":"pl_pier","folder":"tf","game":"Team Fortress","app_id":440,"player_count":0,"max_players":24,"Bots":0,"server_type":"Dedicated","server_os":"Linux","password":true,"vac":true,"version":"7757534","steam_id":85568392924742830,"keywords":["nocrits","nodmgspread","payload","uncletopia"],"game_id":440,"stv_port":27066,"stv_name":"Uncletopia | London | 6 | All Maps | STV","players":null},{"server_id":40,"name":"Uncletopia | London | 7 | No Payload","name_short":"lon-7","host":"lon-1.uk.uncletopia.com","port":27075,"enabled":true,"region":"eu","cc":"gb","latitude":51.509865,"longitude":-0.118092,"reserved":0,"last_update":"0001-01-01T00:00:00Z","name_a2s":"Uncletopia | London | 7 | No Payload","protocol":17,"map":"pl_badwater","folder":"tf","game":"Team Fortress","app_id":440,"player_count":0,"max_players":24,"Bots":0,"server_type":"Dedicated","server_os":"Linux","password":true,"vac":true,"version":"7757534","steam_id":85568392924964314,"keywords":["nocrits","nodmgspread","payload","uncletopia"],"game_id":440,"stv_port":27076,"stv_name":"Uncletopia | London | 7 | No Payload | STV","players":null},{"server_id":41,"name":"Uncletopia | London | 8 | Community","name_short":"lon-8","host":"lon-1.uk.uncletopia.com","port":27085,"enabled":true,"region":"eu","cc":"gb","latitude":51.509865,"longitude":-0.118092,"reserved":0,"last_update":"0001-01-01T00:00:00Z","name_a2s":"Uncletopia | London | 8 | Community","protocol":17,"map":"pl_barnblitz","folder":"tf","game":"Team Fortress","app_id":440,"player_count":0,"max_players":24,"Bots":0,"server_type":"Dedicated","server_os":"Linux","password":true,"vac":true,"version":"7757534","steam_id":85568392924964315,"keywords":["nocrits","nodmgspread","payload","uncletopia"],"game_id":440,"stv_port":27086,"stv_name":"Uncletopia | London | 8 | Community | STV","players":null},{"server_id":300,"name":"Uncletopia | Montréal | 1 | All Maps","name_short":"mtl-1","host":"mtl-1.ca.uncletopia.com","port":27015,"enabled":true,"region":"us-east","cc":"ca","latitude":45.50889,"longitude":-73.56167,"reserved":0,"last_update":"0001-01-01T00:00:00Z","name_a2s":"Uncletopia | Montréal | 1 | All Maps","protocol":17,"map":"koth_highpass","folder":"tf","game":"Team Fortress","app_id":440,"player_count":0,"max_players":24,"Bots":0,"server_type":"Dedicated","server_os":"Linux","password":true,"vac":true,"version":"7757534","steam_id":85568392924500087,"keywords":["cp","nocrits","nodmgspread","uncletopia"],"game_id":440,"stv_port":27016,"stv_name":"Uncletopia | Montréal | 1 | All Maps | STV","players":null},{"server_id":301,"name":"Uncletopia | Montréal | 2 | All Maps","name_short":"mtl-2","host":"mtl-1.ca.uncletopia.com","port":27025,"enabled":true,"region":"us-east","cc":"ca","latitude":45.50889,"longitude":-73.56167,"reserved":0,"last_update":"0001-01-01T00:00:00Z","name_a2s":"Uncletopia | Montréal | 2 | All Maps","protocol":17,"map":"cp_snakewater_final1","folder":"tf","game":"Team Fortress","app_id":440,"player_count":0,"max_players":24,"Bots":0,"server_type":"Dedicated","server_os":"Linux","password":true,"vac":true,"version":"7757534","steam_id":85568392924500088,"keywords":["cp","nocrits","nodmgspread","uncletopia"],"game_id":440,"stv_port":27026,"stv_name":"Uncletopia | Montréal | 2 | All Maps | STV","players":null},{"server_id":302,"name":"Uncletopia | Montréal | 3 | All Maps","name_short":"mtl-3","host":"mtl-1.ca.uncletopia.com","port":27035,"enabled":true,"region":"us-east","cc":"ca","latitude":45.50889,"longitude":-73.56167,"reserved":0,"last_update":"0001-01-01T00:00:00Z","name_a2s":"Uncletopia | Montréal | 3 | All Maps","protocol":17,"map":"pl_pier","folder":"tf","game":"Team Fortress","app_id":440,"player_count":0,"max_players":24,"Bots":0,"server_type":"Dedicated","server_os":"Linux","password":true,"vac":true,"version":"7757534","steam_id":85568392924500089,"keywords":["nocrits","nodmgspread","payload","uncletopia"],"game_id":440,"stv_port":27036,"stv_name":"Uncletopia | Montréal | 3 | All Maps | STV","players":null},{"server_id":303,"name":"Uncletopia | Montréal | 4 | No Payload","name_short":"mtl-4","host":"mtl-1.ca.uncletopia.com","port":27045,"enabled":true,"region":"us-east","cc":"ca","latitude":45.50889,"longitude":-73.56167,"reserved":0,"last_update":"0001-01-01T00:00:00Z","name_a2s":"Uncletopia | Montréal | 4 | No Payload","protocol":17,"map":"plr_nightfall_final","folder":"tf","game":"Team Fortress","app_id":440,"player_count":0,"max_players":24,"Bots":0,"server_type":"Dedicated","server_os":"Linux","password":true,"vac":true,"version":"7757534","steam_id":85568392924500090,"keywords":["nocrits","nodmgspread","payload","uncletopia"],"game_id":440,"stv_port":27046,"stv_name":"Uncletopia | Montréal | 4 | No Payload | STV","players":null},{"server_id":13,"name":"Uncletopia | New York City | 1 | All Maps","name_short":"nyc-1","host":"nyc-1.us.uncletopia.com","port":27015,"enabled":true,"region":"us-east","cc":"us","latitude":40.73061,"longitude":-73.93524,"reserved":0,"last_update":"0001-01-01T00:00:00Z","name_a2s":"Uncletopia | New York City | 1 | All Maps","protocol":17,"map":"cp_dustbowl","folder":"tf","game":"Team Fortress","app_id":440,"player_count":17,"max_players":24,"Bots":0,"server_type":"Dedicated","server_os":"Linux","password":true,"vac":true,"version":"7757534","steam_id":85568392924469993,"keywords":["cp","nocrits","nodmgspread","uncletopia"],"game_id":440,"stv_port":27016,"stv_name":"Uncletopia | New York City | 1 | All Maps | STV","players":[{"user_id":681,"name":"lemn","steam_id":76561198177305950,"connected_time":831000000000,"state":"active","ping":59},{"user_id":682,"name":"blorp","steam_id":76561198054677742,"connected_time":812000000000,"state":"active","ping":105},{"user_id":687,"name":"Yoshimelon","steam_id":76561198253054325,"connected_time":175000000000,"state":"active","ping":75},{"user_id":673,"name":"WorkerDave","steam_id":76561199261017507,"connected_time":1215000000000,"state":"active","ping":72},{"user_id":688,"name":"TheSquirrelofHuscurl","steam_id":76561198073379623,"connected_time":152000000000,"state":"active","ping":79},{"user_id":678,"name":"Shoku","steam_id":76561199092197288,"connected_time":1090000000000,"state":"active","ping":58},{"user_id":685,"name":"Hope","steam_id":76561199201900779,"connected_time":284000000000,"state":"active","ping":70},{"user_id":657,"name":"fish","steam_id":76561198381953108,"connected_time":3453000000000,"state":"active","ping":60},{"user_id":636,"name":"Vince Offer","steam_id":76561198991008825,"connected_time":5672000000000,"state":"active","ping":65},{"user_id":689,"name":"O Dog","steam_id":76561198133498912,"connected_time":105000000000,"state":"active","ping":104},{"user_id":661,"name":"CRAZY engineer","steam_id":76561198887937902,"connected_time":2865000000000,"state":"active","ping":57},{"user_id":620,"name":"Kazul","steam_id":76561198014925555,"connected_time":7102000000000,"state":"active","ping":33},{"user_id":656,"name":"michaelthe1stpc","steam_id":76561199480259874,"connected_time":3505000000000,"state":"active","ping":61},{"user_id":675,"name":"Alfonso Molestro","steam_id":76561197998677099,"connected_time":1196000000000,"state":"active","ping":64},{"user_id":676,"name":"Chromix","steam_id":76561199383060168,"connected_time":1182000000000,"state":"active","ping":60},{"user_id":639,"name":"Mufalito","steam_id":76561198951889482,"connected_time":5168000000000,"state":"active","ping":147},{"user_id":603,"name":"zpalmtree","steam_id":76561198134307620,"connected_time":9458000000000,"state":"active","ping":70}]},{"server_id":14,"name":"Uncletopia | New York City | 2 | All Maps","name_short":"nyc-2","host":"nyc-1.us.uncletopia.com","port":27025,"enabled":true,"region":"us-east","cc":"us","latitude":40.73061,"longitude":-73.93524,"reserved":0,"last_update":"0001-01-01T00:00:00Z","name_a2s":"Uncletopia | New York City | 2 | All Maps","protocol":17,"map":"cp_dustbowl","folder":"tf","game":"Team Fortress","app_id":440,"player_count":0,"max_players":24,"Bots":0,"server_type":"Dedicated","server_os":"Linux","password":true,"vac":true,"version":"7757534","steam_id":85568392924469994,"keywords":["cp","nocrits","nodmgspread","uncletopia"],"game_id":440,"stv_port":27026,"stv_name":"Uncletopia | New York City | 2 | All Maps | STV","players":null},{"server_id":15,"name":"Uncletopia | New York City | 3 | Stopwatch Beta","name_short":"nyc-3","host":"nyc-1.us.uncletopia.com","port":27035,"enabled":true,"region":"us-east","cc":"us","latitude":40.73061,"longitude":-73.93524,"reserved":0,"last_update":"0001-01-01T00:00:00Z","name_a2s":"Uncletopia | New York City | 3 | Stopwatch Beta","protocol":17,"map":"workshop/koth_ramjam_rc1.ugc459778887","folder":"tf","game":"Team Fortress","app_id":440,"player_count":0,"max_players":24,"Bots":0,"server_type":"Dedicated","server_os":"Linux","password":true,"vac":true,"version":"7757534","steam_id":85568392924742820,"keywords":["cp","nocrits","nodmgspread","uncletopia"],"game_id":440,"stv_port":27036,"stv_name":"Uncletopia | New York City | 3 | Stopwatch Beta | STV","players":null},{"server_id":16,"name":"Uncletopia | New York City | 4 | Community","name_short":"nyc-4","host":"nyc-1.us.uncletopia.com","port":27045,"enabled":true,"region":"us-east","cc":"us","latitude":40.73061,"longitude":-73.93524,"reserved":0,"last_update":"0001-01-01T00:00:00Z","name_a2s":"Uncletopia | New York City | 4 | Community","protocol":17,"map":"workshop/cp_propaganda_b18.ugc1603743849","folder":"tf","game":"Team Fortress","app_id":440,"player_count":0,"max_players":24,"Bots":0,"server_type":"Dedicated","server_os":"Linux","password":true,"vac":true,"version":"7757534","steam_id":85568392924742821,"keywords":["cp","nocrits","nodmgspread","uncletopia"],"game_id":440,"stv_port":27046,"stv_name":"Uncletopia | New York City | 4 | Community | STV","players":null},{"server_id":142,"name":"Uncletopia | São Paulo | 1 | All Maps","name_short":"sao-1","host":"sao-1.br.uncletopia.com","port":27015,"enabled":true,"region":"sa","cc":"br","latitude":-23.533773,"longitude":-46.62529,"reserved":0,"last_update":"0001-01-01T00:00:00Z","name_a2s":"Uncletopia | São Paulo | 1 | All Maps","protocol":17,"map":"koth_viaduct","folder":"tf","game":"Team Fortress","app_id":440,"player_count":0,"max_players":24,"Bots":0,"server_type":"Dedicated","server_os":"Linux","password":true,"vac":true,"version":"7757534","steam_id":85568392924469996,"keywords":["cp","nocrits","nodmgspread","uncletopia"],"game_id":440,"stv_port":27016,"stv_name":"Uncletopia | São Paulo | 1 | All Maps | STV","players":null},{"server_id":143,"name":"Uncletopia | São Paulo | 2 | All Maps","name_short":"sao-2","host":"sao-2.br.uncletopia.com","port":27015,"enabled":true,"region":"sa","cc":"br","latitude":-23.533773,"longitude":-46.62529,"reserved":0,"last_update":"0001-01-01T00:00:00Z","name_a2s":"Uncletopia | São Paulo | 2 | All Maps","protocol":17,"map":"koth_viaduct","folder":"tf","game":"Team Fortress","app_id":440,"player_count":0,"max_players":24,"Bots":0,"server_type":"Dedicated","server_os":"Linux","password":true,"vac":true,"version":"7757534","steam_id":85568392924485349,"keywords":["cp","nocrits","nodmgspread","uncletopia"],"game_id":440,"stv_port":27016,"stv_name":"Uncletopia | São Paulo | 2 | All Maps | STV","players":null},{"server_id":7,"name":"Uncletopia | Seattle | 1 | All Maps","name_short":"sea-1","host":"sea-1.us.uncletopia.com","port":27015,"enabled":true,"region":"us-west","cc":"us","latitude":47.608013,"longitude":-122.33517,"reserved":0,"last_update":"0001-01-01T00:00:00Z","name_a2s":"Uncletopia | Seattle | 1 | All Maps","protocol":17,"map":"cp_steel","folder":"tf","game":"Team Fortress","app_id":440,"player_count":24,"max_players":24,"Bots":0,"server_type":"Dedicated","server_os":"Linux","password":true,"vac":true,"version":"7757534","steam_id":85568392924469997,"keywords":["cp","nocrits","nodmgspread","uncletopia"],"game_id":440,"stv_port":27016,"stv_name":"Uncletopia | Seattle | 1 | All Maps | STV","players":[{"user_id":759,"name":"Inflight","steam_id":76561198920049475,"connected_time":771000000000,"state":"active","ping":111},{"user_id":762,"name":"Master Humper","steam_id":76561198142933570,"connected_time":714000000000,"state":"active","ping":70},{"user_id":751,"name":"Nierin","steam_id":76561198227545132,"connected_time":2167000000000,"state":"active","ping":76},{"user_id":764,"name":"wtf (what the flop)","steam_id":76561198059437813,"connected_time":678000000000,"state":"active","ping":59},{"user_id":767,"name":"Willy Wonker","steam_id":76561198082944789,"connected_time":522000000000,"state":"active","ping":84},{"user_id":765,"name":"Yosh","steam_id":76561198027078899,"connected_time":616000000000,"state":"active","ping":89},{"user_id":750,"name":"ITSPICE","steam_id":76561198173274042,"connected_time":2407000000000,"state":"active","ping":60},{"user_id":771,"name":"shamin99","steam_id":76561198183461335,"connected_time":189000000000,"state":"active","ping":80},{"user_id":756,"name":"Morago","steam_id":76561198131466634,"connected_time":1018000000000,"state":"active","ping":157},{"user_id":730,"name":"mrselfdestruct13","steam_id":76561197992054553,"connected_time":5310000000000,"state":"active","ping":82},{"user_id":749,"name":"Fawful's Minion","steam_id":76561198090120779,"connected_time":2412000000000,"state":"active","ping":78},{"user_id":747,"name":"cream team","steam_id":76561198139043953,"connected_time":2876000000000,"state":"active","ping":96},{"user_id":752,"name":"Rain","steam_id":76561198065612273,"connected_time":1753000000000,"state":"active","ping":50},{"user_id":738,"name":"Ryuujin","steam_id":76561198000897946,"connected_time":4345000000000,"state":"active","ping":75},{"user_id":758,"name":"she skyler on my white till i y","steam_id":76561198074716338,"connected_time":984000000000,"state":"active","ping":91},{"user_id":770,"name":"hart","steam_id":76561198046073848,"connected_time":287000000000,"state":"active","ping":46},{"user_id":737,"name":"Viol3tOni","steam_id":76561198079208738,"connected_time":4599000000000,"state":"active","ping":64},{"user_id":742,"name":"Dunkle","steam_id":76561198041903573,"connected_time":3729000000000,"state":"active","ping":44},{"user_id":712,"name":"The Deders","steam_id":76561198002639950,"connected_time":6376000000000,"state":"active","ping":80},{"user_id":713,"name":"Bobbycoolpop","steam_id":76561198186392674,"connected_time":6369000000000,"state":"active","ping":70},{"user_id":772,"name":"mango cafe","steam_id":76561198142328193,"connected_time":172000000000,"state":"active","ping":51},{"user_id":768,"name":"AzuriousAlex","steam_id":76561198158026405,"connected_time":503000000000,"state":"active","ping":89},{"user_id":754,"name":"Smellbow McArmpit","steam_id":76561198109445099,"connected_time":1388000000000,"state":"active","ping":51},{"user_id":769,"name":"SwiftVines","steam_id":76561198083682421,"connected_time":464000000000,"state":"active","ping":44}]},{"server_id":119,"name":"Uncletopia | Seattle | 2 | All Maps","name_short":"sea-2","host":"sea-1.us.uncletopia.com","port":27025,"enabled":true,"region":"us-west","cc":"us","latitude":47.608013,"longitude":-122.33517,"reserved":0,"last_update":"0001-01-01T00:00:00Z","name_a2s":"Uncletopia | Seattle | 2 | All Maps","protocol":17,"map":"pl_upward","folder":"tf","game":"Team Fortress","app_id":440,"player_count":24,"max_players":24,"Bots":0,"server_type":"Dedicated","server_os":"Linux","password":true,"vac":true,"version":"7757534","steam_id":85568392924469998,"keywords":["nocrits","nodmgspread","payload","uncletopia"],"game_id":440,"stv_port":27026,"stv_name":"Uncletopia | Seattle | 2 | All Maps | STV","players":[{"user_id":717,"name":"p9 delight","steam_id":76561197980280272,"connected_time":2383000000000,"state":"active","ping":44},{"user_id":714,"name":"dust | she/it","steam_id":76561198045218909,"connected_time":2992000000000,"state":"active","ping":44},{"user_id":667,"name":"Screamin' Eagle","steam_id":76561198090475891,"connected_time":7229000000000,"state":"active","ping":59},{"user_id":702,"name":"mooney","steam_id":76561199110622484,"connected_time":4545000000000,"state":"active","ping":67},{"user_id":715,"name":"smeasly","steam_id":76561198028718812,"connected_time":2633000000000,"state":"active","ping":39},{"user_id":734,"name":"Starkiller","steam_id":76561198101643120,"connected_time":502000000000,"state":"active","ping":63},{"user_id":735,"name":"Magic Enjoyer","steam_id":76561198258451026,"connected_time":434000000000,"state":"active","ping":46},{"user_id":736,"name":"The local hobo","steam_id":76561198289650060,"connected_time":427000000000,"state":"active","ping":74},{"user_id":742,"name":"Jumbletoon","steam_id":76561198021351865,"connected_time":156000000000,"state":"active","ping":58},{"user_id":703,"name":"a most nefarious gamer","steam_id":76561198169755734,"connected_time":3980000000000,"state":"active","ping":66},{"user_id":681,"name":"Florist","steam_id":76561198009121060,"connected_time":6380000000000,"state":"active","ping":45},{"user_id":711,"name":"oo","steam_id":76561198119626492,"connected_time":3494000000000,"state":"active","ping":68},{"user_id":738,"name":"Resident Thrussy Lender","steam_id":76561198071790583,"connected_time":325000000000,"state":"active","ping":106},{"user_id":739,"name":"Dongus","steam_id":76561197979056451,"connected_time":313000000000,"state":"active","ping":46},{"user_id":740,"name":"moopmop","steam_id":76561198065224965,"connected_time":249000000000,"state":"active","ping":61},{"user_id":687,"name":"trackpad gaming | f2p","steam_id":76561198840414371,"connected_time":5527000000000,"state":"active","ping":46},{"user_id":741,"name":"Chemically Dead","steam_id":76561199475507686,"connected_time":231000000000,"state":"active","ping":153},{"user_id":704,"name":"squash","steam_id":76561198150281353,"connected_time":3979000000000,"state":"active","ping":58},{"user_id":720,"name":"IIrelia","steam_id":76561198384007672,"connected_time":1967000000000,"state":"active","ping":138},{"user_id":698,"name":"ArchmageF","steam_id":76561197992246851,"connected_time":4701000000000,"state":"active","ping":54},{"user_id":721,"name":"Cosmic Dunsparce","steam_id":76561199193908496,"connected_time":1936000000000,"state":"active","ping":84},{"user_id":712,"name":"lili ezili","steam_id":76561199391478575,"connected_time":3023000000000,"state":"active","ping":88},{"user_id":728,"name":"oil","steam_id":76561198099980149,"connected_time":1267000000000,"state":"active","ping":78},{"user_id":680,"name":"p9 jorts","steam_id":76561199041179985,"connected_time":6490000000000,"state":"active","ping":70}]},{"server_id":406,"name":"Uncletopia | Seattle | 3 | Stopwatch Beta","name_short":"sea-3","host":"sea-1.us.uncletopia.com","port":27035,"enabled":true,"region":"us-west","cc":"us","latitude":47.608013,"longitude":-122.33517,"reserved":0,"last_update":"0001-01-01T00:00:00Z","name_a2s":"Uncletopia | Seattle | 3 | Stopwatch Beta","protocol":17,"map":"workshop/pl_vigil_rc9.ugc1266210012","folder":"tf","game":"Team Fortress","app_id":440,"player_count":0,"max_players":24,"Bots":0,"server_type":"Dedicated","server_os":"Linux","password":true,"vac":true,"version":"7757534","steam_id":85568392924515217,"keywords":["nocrits","nodmgspread","payload","uncletopia"],"game_id":440,"stv_port":27036,"stv_name":"Uncletopia | Seattle | 3 | Stopwatch Beta | STV","players":null},{"server_id":17,"name":"Uncletopia | San Francisco | 1 | All Maps","name_short":"sfo-1","host":"sfo-1.us.uncletopia.com","port":27015,"enabled":true,"region":"us-west","cc":"us","latitude":37.77397,"longitude":-122.4313,"reserved":0,"last_update":"0001-01-01T00:00:00Z","name_a2s":"Uncletopia | San Francisco | 1 | All Maps","protocol":17,"map":"pl_snowycoast","folder":"tf","game":"Team Fortress","app_id":440,"player_count":19,"max_players":24,"Bots":0,"server_type":"Dedicated","server_os":"Linux","password":true,"vac":true,"version":"7757534","steam_id":85568392924469999,"keywords":["nocrits","nodmgspread","payload","uncletopia"],"game_id":440,"stv_port":27016,"stv_name":"Uncletopia | San Francisco | 1 | All Maps | STV","players":[{"user_id":732,"name":"golia","steam_id":76561198000264266,"connected_time":169000000000,"state":"active","ping":65},{"user_id":641,"name":"Bobbo","steam_id":76561198055689771,"connected_time":7479000000000,"state":"active","ping":76},{"user_id":719,"name":"Livin' Like Larry","steam_id":76561198313360974,"connected_time":1612000000000,"state":"active","ping":31},{"user_id":733,"name":"D-Class 1278","steam_id":76561198121316353,"connected_time":142000000000,"state":"active","ping":71},{"user_id":731,"name":"smiley","steam_id":76561198240116276,"connected_time":279000000000,"state":"active","ping":101},{"user_id":710,"name":"Google","steam_id":76561198857237473,"connected_time":2058000000000,"state":"active","ping":72},{"user_id":734,"name":"Lt. Nugget","steam_id":76561198253488961,"connected_time":49000000000,"state":"active","ping":205},{"user_id":735,"name":"bengineer","steam_id":76561198171912174,"connected_time":36000000000,"state":"active","ping":67},{"user_id":711,"name":"Austin the Forecaster","steam_id":76561198141635855,"connected_time":2055000000000,"state":"active","ping":113},{"user_id":721,"name":"Franko","steam_id":76561198045554683,"connected_time":1517000000000,"state":"active","ping":85},{"user_id":722,"name":"Soninova","steam_id":76561198026229113,"connected_time":1496000000000,"state":"active","ping":85},{"user_id":723,"name":"Ghee Buttersnaps","steam_id":76561199225708271,"connected_time":1444000000000,"state":"active","ping":81},{"user_id":636,"name":"dandy","steam_id":76561197967362217,"connected_time":7603000000000,"state":"active","ping":48},{"user_id":637,"name":"Fred","steam_id":76561197983870604,"connected_time":7601000000000,"state":"active","ping":65},{"user_id":712,"name":"PeptoBismol","steam_id":76561198082669076,"connected_time":2029000000000,"state":"active","ping":68},{"user_id":736,"name":"lol","steam_id":76561198026491738,"connected_time":1000000000,"state":"spawning","ping":61},{"user_id":702,"name":"jackal","steam_id":76561198122571258,"connected_time":2720000000000,"state":"active","ping":79},{"user_id":714,"name":"Thunderchief","steam_id":76561198022802780,"connected_time":2011000000000,"state":"active","ping":71},{"user_id":729,"name":"dP | I'm in a Wookie Suit","steam_id":76561198083307644,"connected_time":901000000000,"state":"active","ping":74}]},{"server_id":18,"name":"Uncletopia | San Francisco | 2 | All Maps","name_short":"sfo-2","host":"sfo-1.us.uncletopia.com","port":27025,"enabled":true,"region":"us-west","cc":"us","latitude":37.77397,"longitude":-122.4313,"reserved":0,"last_update":"0001-01-01T00:00:00Z","name_a2s":"Uncletopia | San Francisco | 2 | All Maps","protocol":17,"map":"cp_dustbowl","folder":"tf","game":"Team Fortress","app_id":440,"player_count":4,"max_players":24,"Bots":0,"server_type":"Dedicated","server_os":"Linux","password":true,"vac":true,"version":"7757534","steam_id":85568392924470000,"keywords":["cp","nocrits","nodmgspread","uncletopia"],"game_id":440,"stv_port":27026,"stv_name":"Uncletopia | San Francisco | 2 | All Maps | STV","players":[{"user_id":638,"name":"demoman idoso","steam_id":76561199375125901,"connected_time":460000000000,"state":"active","ping":236},{"user_id":637,"name":"StatingKnot","steam_id":76561199190634968,"connected_time":1216000000000,"state":"active","ping":97},{"user_id":549,"name":"Gonotic gnelf","steam_id":76561199135847219,"connected_time":8175000000000,"state":"active","ping":64},{"user_id":552,"name":"large rat","steam_id":76561198199406675,"connected_time":8096000000000,"state":"active","ping":74}]},{"server_id":19,"name":"Uncletopia | San Francisco | 3 | Stopwatch Beta","name_short":"sfo-3","host":"sfo-1.us.uncletopia.com","port":27035,"enabled":true,"region":"us-west","cc":"us","latitude":37.77397,"longitude":-122.4313,"reserved":0,"last_update":"0001-01-01T00:00:00Z","name_a2s":"Uncletopia | San Francisco | 3 | Stopwatch Beta","protocol":17,"map":"workshop/pl_summercoast_rc8e.ugc1761528829","folder":"tf","game":"Team Fortress","app_id":440,"player_count":0,"max_players":24,"Bots":0,"server_type":"Dedicated","server_os":"Linux","password":true,"vac":true,"version":"7757534","steam_id":85568392924742824,"keywords":["nocrits","nodmgspread","payload","uncletopia"],"game_id":440,"stv_port":27036,"stv_name":"Uncletopia | San Francisco | 3 | Stopwatch Beta | STV","players":null},{"server_id":20,"name":"Uncletopia | San Francisco | 4 | Community","name_short":"sfo-4","host":"sfo-1.us.uncletopia.com","port":27045,"enabled":true,"region":"us-west","cc":"us","latitude":37.77397,"longitude":-122.4313,"reserved":0,"last_update":"0001-01-01T00:00:00Z","name_a2s":"Uncletopia | San Francisco | 4 | Community","protocol":17,"map":"workshop/cp_villa_b19.ugc2113052569","folder":"tf","game":"Team Fortress","app_id":440,"player_count":0,"max_players":24,"Bots":0,"server_type":"Dedicated","server_os":"Linux","password":true,"vac":true,"version":"7757534","steam_id":85568392924742826,"keywords":["cp","nocrits","nodmgspread","uncletopia"],"game_id":440,"stv_port":27046,"stv_name":"Uncletopia | San Francisco | 4 | Community | STV","players":null},{"server_id":141,"name":"Uncletopia | Sydney | 1 | All Maps","name_short":"syd-1","host":"syd-1.au.uncletopia.com","port":27015,"enabled":true,"region":"au","cc":"au","latitude":-33.865143,"longitude":151.2099,"reserved":0,"last_update":"0001-01-01T00:00:00Z","name_a2s":"Uncletopia | Sydney | 1 | All Maps","protocol":17,"map":"pl_swiftwater_final1","folder":"tf","game":"Team Fortress","app_id":440,"player_count":24,"max_players":24,"Bots":0,"server_type":"Dedicated","server_os":"Linux","password":true,"vac":true,"version":"7757534","steam_id":85568392924470001,"keywords":["nocrits","nodmgspread","payload","uncletopia"],"game_id":440,"stv_port":27016,"stv_name":"Uncletopia | Sydney | 1 | All Maps | STV","players":[{"user_id":424,"name":"Crabloid","steam_id":76561199081848498,"connected_time":27000000000,"state":"active","ping":50},{"user_id":360,"name":"nefarious sorcerer moon grass","steam_id":76561198079873281,"connected_time":3608000000000,"state":"active","ping":56},{"user_id":391,"name":"The_Green_Jelly","steam_id":76561198381061704,"connected_time":1519000000000,"state":"active","ping":88},{"user_id":389,"name":"Tiger_Tan","steam_id":76561198221733844,"connected_time":1722000000000,"state":"active","ping":129},{"user_id":403,"name":"EpicGuy4227","steam_id":76561198094132328,"connected_time":738000000000,"state":"active","ping":45},{"user_id":412,"name":"saudi ambassador messi","steam_id":76561198031293430,"connected_time":457000000000,"state":"active","ping":88},{"user_id":382,"name":"Traveller","steam_id":76561199161637215,"connected_time":1965000000000,"state":"active","ping":92},{"user_id":398,"name":"elcanggoro","steam_id":76561199139343632,"connected_time":1139000000000,"state":"active","ping":137},{"user_id":394,"name":"Cicerofrypan","steam_id":76561198317860338,"connected_time":1296000000000,"state":"active","ping":62},{"user_id":384,"name":"Toucan Rizz","steam_id":76561198150760829,"connected_time":1894000000000,"state":"active","ping":41},{"user_id":375,"name":"Lord Oink the Manly (she/her)","steam_id":76561198125237921,"connected_time":2430000000000,"state":"active","ping":42},{"user_id":385,"name":"BruceWillis235","steam_id":76561198884324029,"connected_time":1879000000000,"state":"active","ping":82},{"user_id":401,"name":"Shiki Eiki Yamaxanadu","steam_id":76561198095744048,"connected_time":981000000000,"state":"active","ping":90},{"user_id":409,"name":"SUSHIMAN","steam_id":76561199089989428,"connected_time":569000000000,"state":"active","ping":90},{"user_id":402,"name":"Marsguard","steam_id":76561198113775091,"connected_time":806000000000,"state":"active","ping":61},{"user_id":400,"name":"SoundlessPlum","steam_id":76561198077872547,"connected_time":1070000000000,"state":"active","ping":54},{"user_id":408,"name":"IdkNameKindaHard","steam_id":76561198422091190,"connected_time":596000000000,"state":"active","ping":75},{"user_id":419,"name":"Kumquat King","steam_id":76561199018139964,"connected_time":263000000000,"state":"active","ping":87},{"user_id":420,"name":"Invidia","steam_id":76561198096251579,"connected_time":248000000000,"state":"active","ping":45},{"user_id":407,"name":"5GNETWORK.whitehouse","steam_id":76561198836003115,"connected_time":667000000000,"state":"active","ping":64},{"user_id":421,"name":"noynathawut","steam_id":76561198879312426,"connected_time":175000000000,"state":"active","ping":154},{"user_id":422,"name":"Nonexistent","steam_id":76561198980563251,"connected_time":153000000000,"state":"active","ping":139},{"user_id":423,"name":"sabeuo","steam_id":76561198288259746,"connected_time":138000000000,"state":"active","ping":55},{"user_id":418,"name":"tenoy_song","steam_id":76561197999821557,"connected_time":358000000000,"state":"active","ping":160}]},{"server_id":123,"name":"Uncletopia | Sydney | 2 | All Maps","name_short":"syd-2","host":"syd-1.au.uncletopia.com","port":27025,"enabled":true,"region":"au","cc":"au","latitude":-33.865143,"longitude":151.2099,"reserved":0,"last_update":"0001-01-01T00:00:00Z","name_a2s":"Uncletopia | Sydney | 2 | All Maps","protocol":17,"map":"cp_dustbowl","folder":"tf","game":"Team Fortress","app_id":440,"player_count":19,"max_players":24,"Bots":0,"server_type":"Dedicated","server_os":"Linux","password":true,"vac":true,"version":"7757534","steam_id":85568392924470002,"keywords":["cp","nocrits","nodmgspread","uncletopia"],"game_id":440,"stv_port":27026,"stv_name":"Uncletopia | Sydney | 2 | All Maps | STV","players":[{"user_id":131,"name":"Jodelkönig Franzl Lang","steam_id":76561198007667830,"connected_time":3936000000000,"state":"active","ping":55},{"user_id":146,"name":"Cofwee","steam_id":76561198072414195,"connected_time":2331000000000,"state":"active","ping":77},{"user_id":178,"name":"m m m m m m m m m m m m m","steam_id":76561198132624042,"connected_time":93000000000,"state":"active","ping":84},{"user_id":135,"name":"the normoaner","steam_id":76561198082423230,"connected_time":3501000000000,"state":"active","ping":82},{"user_id":174,"name":"monocrumb","steam_id":76561199126588682,"connected_time":348000000000,"state":"active","ping":62},{"user_id":171,"name":"you have been deemed, Gilbert","steam_id":76561198301282416,"connected_time":911000000000,"state":"active","ping":49},{"user_id":137,"name":"seiran","steam_id":76561198880907232,"connected_time":3324000000000,"state":"active","ping":99},{"user_id":176,"name":"michael","steam_id":76561198052848358,"connected_time":238000000000,"state":"active","ping":65},{"user_id":180,"name":"MrMist","steam_id":76561199382679347,"connected_time":13000000000,"state":"active","ping":234},{"user_id":172,"name":"Mudskip","steam_id":76561199141569721,"connected_time":861000000000,"state":"active","ping":83},{"user_id":153,"name":"PieMuncher","steam_id":76561198107221185,"connected_time":2139000000000,"state":"active","ping":70},{"user_id":177,"name":"dustmephit","steam_id":76561198314776696,"connected_time":214000000000,"state":"active","ping":69},{"user_id":165,"name":"FIX","steam_id":76561197995157189,"connected_time":1432000000000,"state":"active","ping":53},{"user_id":170,"name":"Raypest","steam_id":76561197980678745,"connected_time":1151000000000,"state":"active","ping":44},{"user_id":166,"name":"Harry \"Tāne-mahuta\" Richards","steam_id":76561198120997207,"connected_time":1427000000000,"state":"active","ping":69},{"user_id":175,"name":"Dr. Hoppity","steam_id":76561197999715646,"connected_time":327000000000,"state":"active","ping":57},{"user_id":179,"name":"bitch furry","steam_id":76561199057568663,"connected_time":87000000000,"state":"active","ping":59},{"user_id":128,"name":"Pompadouraus","steam_id":76561198327530525,"connected_time":4145000000000,"state":"active","ping":75},{"user_id":173,"name":"Glorious Cow","steam_id":76561198995999715,"connected_time":854000000000,"state":"active","ping":72}]},{"server_id":395,"name":"Uncletopia | Sydney | 3 | All Maps","name_short":"syd-3","host":"syd-1.au.uncletopia.com","port":27035,"enabled":true,"region":"au","cc":"au","latitude":-33.865143,"longitude":151.2099,"reserved":0,"last_update":"0001-01-01T00:00:00Z","name_a2s":"Uncletopia | Sydney | 3 | All Maps","protocol":17,"map":"koth_highpass","folder":"tf","game":"Team Fortress","app_id":440,"player_count":0,"max_players":24,"Bots":0,"server_type":"Dedicated","server_os":"Linux","password":true,"vac":true,"version":"7757534","steam_id":85568392925194467,"keywords":["cp","nocrits","nodmgspread","uncletopia"],"game_id":440,"stv_port":27036,"stv_name":"Uncletopia | Sydney | 3 | All Maps | STV","players":null},{"server_id":396,"name":"Uncletopia | Sydney | 4 | All Maps","name_short":"syd-4","host":"syd-1.au.uncletopia.com","port":27045,"enabled":true,"region":"au","cc":"au","latitude":-33.865143,"longitude":151.2099,"reserved":0,"last_update":"0001-01-01T00:00:00Z","name_a2s":"Uncletopia | Sydney | 4 | All Maps","protocol":17,"map":"pl_barnblitz","folder":"tf","game":"Team Fortress","app_id":440,"player_count":0,"max_players":24,"Bots":0,"server_type":"Dedicated","server_os":"Linux","password":true,"vac":true,"version":"7757534","steam_id":85568392925397958,"keywords":["nocrits","nodmgspread","payload","uncletopia"],"game_id":440,"stv_port":27046,"stv_name":"Uncletopia | Sydney | 4 | All Maps | STV","players":null},{"server_id":58,"name":"Uncletopia | Sydney | 5 | Stopwatch Beta","name_short":"syd-5","host":"syd-1.au.uncletopia.com","port":27055,"enabled":true,"region":"au","cc":"au","latitude":-33.865143,"longitude":151.2099,"reserved":0,"last_update":"0001-01-01T00:00:00Z","name_a2s":"Uncletopia | Sydney | 5 | Stopwatch Beta","protocol":17,"map":"koth_cascade","folder":"tf","game":"Team Fortress","app_id":440,"player_count":0,"max_players":24,"Bots":0,"server_type":"Dedicated","server_os":"Linux","password":true,"vac":true,"version":"7757534","steam_id":85568392925397959,"keywords":["cp","nocrits","nodmgspread","uncletopia"],"game_id":440,"stv_port":27056,"stv_name":"Uncletopia | Sydney | 5 | Stopwatch Beta | STV","players":null},{"server_id":59,"name":"Uncletopia | Sydney | 6 | Community","name_short":"syd-6","host":"syd-1.au.uncletopia.com","port":27065,"enabled":true,"region":"au","cc":"au","latitude":-33.865143,"longitude":151.2099,"reserved":0,"last_update":"0001-01-01T00:00:00Z","name_a2s":"Uncletopia | Sydney | 6 | Community","protocol":17,"map":"workshop/cp_alloy_rc3.ugc592805587","folder":"tf","game":"Team Fortress","app_id":440,"player_count":0,"max_players":24,"Bots":0,"server_type":"Dedicated","server_os":"Linux","password":true,"vac":true,"version":"7757534","steam_id":85568392925397960,"keywords":["cp","nocrits","nodmgspread","uncletopia"],"game_id":440,"stv_port":27066,"stv_name":"Uncletopia | Sydney | 6 | Community | STV","players":null},{"server_id":49,"name":"Uncletopia | Warsaw | 1 | All Maps","name_short":"waw-1","host":"waw-1.pl.uncletopia.com","port":27015,"enabled":true,"region":"eu","cc":"pl","latitude":52.2297,"longitude":21.017532,"reserved":0,"last_update":"0001-01-01T00:00:00Z","name_a2s":"","protocol":0,"map":"","folder":"","game":"","app_id":0,"player_count":0,"max_players":0,"Bots":0,"server_type":"","server_os":"","password":false,"vac":false,"version":"","steam_id":0,"keywords":null,"game_id":0,"stv_port":0,"stv_name":"","players":null},{"server_id":50,"name":"Uncletopia | Warsaw | 2 | All Maps","name_short":"waw-2","host":"waw-1.pl.uncletopia.com","port":27025,"enabled":true,"region":"eu","cc":"pl","latitude":52.2297,"longitude":21.017532,"reserved":0,"last_update":"0001-01-01T00:00:00Z","name_a2s":"Uncletopia | Warsaw | 2 | All Maps","protocol":17,"map":"koth_viaduct","folder":"tf","game":"Team Fortress","app_id":440,"player_count":0,"max_players":24,"Bots":0,"server_type":"Dedicated","server_os":"Linux","password":true,"vac":true,"version":"7757534","steam_id":85568392925397851,"keywords":["cp","nocrits","nodmgspread","uncletopia"],"game_id":440,"stv_port":27026,"stv_name":"Uncletopia | Warsaw | 2 | All Maps | STV","players":null},{"server_id":51,"name":"Uncletopia | Warsaw | 3 | All Maps","name_short":"waw-3","host":"waw-1.pl.uncletopia.com","port":27035,"enabled":true,"region":"eu","cc":"pl","latitude":52.2297,"longitude":21.017532,"reserved":0,"last_update":"0001-01-01T00:00:00Z","name_a2s":"Uncletopia | Warsaw | 3 | All Maps","protocol":17,"map":"pl_swiftwater_final1","folder":"tf","game":"Team Fortress","app_id":440,"player_count":0,"max_players":24,"Bots":0,"server_type":"Dedicated","server_os":"Linux","password":true,"vac":true,"version":"7757534","steam_id":85568392925397852,"keywords":["nocrits","nodmgspread","payload","uncletopia"],"game_id":440,"stv_port":27036,"stv_name":"Uncletopia | Warsaw | 3 | All Maps | STV","players":null},{"server_id":52,"name":"Uncletopia | Warsaw | 4 | All Maps","name_short":"waw-4","host":"waw-1.pl.uncletopia.com","port":27045,"enabled":true,"region":"eu","cc":"pl","latitude":52.2297,"longitude":21.017532,"reserved":0,"last_update":"0001-01-01T00:00:00Z","name_a2s":"Uncletopia | Warsaw | 4 | All Maps","protocol":17,"map":"koth_lakeside_final","folder":"tf","game":"Team Fortress","app_id":440,"player_count":0,"max_players":24,"Bots":0,"server_type":"Dedicated","server_os":"Linux","password":true,"vac":true,"version":"7757534","steam_id":85568392925397853,"keywords":["cp","nocrits","nodmgspread","uncletopia"],"game_id":440,"stv_port":27046,"stv_name":"Uncletopia | Warsaw | 4 | All Maps | STV","players":null},{"server_id":53,"name":"Uncletopia | Warsaw | 5 | Stopwatch Beta","name_short":"waw-5","host":"waw-1.pl.uncletopia.com","port":27055,"enabled":true,"region":"eu","cc":"pl","latitude":52.2297,"longitude":21.017532,"reserved":0,"last_update":"0001-01-01T00:00:00Z","name_a2s":"Uncletopia | Warsaw | 5 | Stopwatch Beta","protocol":17,"map":"pl_borneo","folder":"tf","game":"Team Fortress","app_id":440,"player_count":0,"max_players":24,"Bots":0,"server_type":"Dedicated","server_os":"Linux","password":true,"vac":true,"version":"7757534","steam_id":85568392925397854,"keywords":["nocrits","nodmgspread","payload","uncletopia"],"game_id":440,"stv_port":27056,"stv_name":"Uncletopia | Warsaw | 5 | Stopwatch Beta | STV","players":null},{"server_id":54,"name":"Uncletopia | Warsaw | 6 | Community","name_short":"waw-6","host":"waw-1.pl.uncletopia.com","port":27065,"enabled":true,"region":"eu","cc":"pl","latitude":52.2297,"longitude":21.017532,"reserved":0,"last_update":"0001-01-01T00:00:00Z","name_a2s":"Uncletopia | Warsaw | 6 | Community","protocol":17,"map":"koth_lakeside_final","folder":"tf","game":"Team Fortress","app_id":440,"player_count":0,"max_players":24,"Bots":0,"server_type":"Dedicated","server_os":"Linux","password":true,"vac":true,"version":"7757534","steam_id":85568392925397856,"keywords":["cp","nocrits","nodmgspread","uncletopia"],"game_id":440,"stv_port":27066,"stv_name":"Uncletopia | Warsaw | 6 | Community | STV","players":null}]}