{"status":true,"message":"","result":[{"server_id":9,"name":"Uncletopia | Atlanta | 1 | All Maps","name_short":"atl-1","host":"atl-1.us.uncletopia.com","port":27015,"enabled":true,"region":"us-east","cc":"us","latitude":33.753746,"longitude":-84.38633,"reserved":0,"last_update":"0001-01-01T00:00:00Z","name_a2s":"Uncletopia | Atlanta | 1 | All Maps","protocol":17,"map":"cp_dustbowl","folder":"tf","game":"Team Fortress","app_id":440,"player_count":24,"max_players":24,"Bots":0,"server_type":"Dedicated","server_os":"Linux","password":true,"vac":true,"version":"7757534","steam_id":85568392924469982,"keywords":["cp","nocrits","nodmgspread","uncletopia"],"game_id":440,"stv_port":27016,"stv_name":"Uncletopia | Atlanta | 1 | All Maps | STV","players":[{"user_id":455,"name":"Aeri","steam_id":76561197996522919,"connected_time":712000000000,"state":"active","ping":81},{"user_id":406,"name":"Mage","steam_id":76561198285026879,"connected_time":4918000000000,"state":"active","ping":81},{"user_id":426,"name":"MichelangeloStark","steam_id":76561197976489900,"connected_time":4077000000000,"state":"active","ping":75},{"user_id":446,"name":"twitch.tv/cccilytf2","steam_id":76561198322125595,"connected_time":1906000000000,"state":"active","ping":108},{"user_id":409,"name":"Jin Gulilo","steam_id":76561198065151242,"connected_time":4879000000000,"state":"active","ping":75},{"user_id":274,"name":"lynt","steam_id":76561198988333976,"connected_time":17973000000000,"state":"active","ping":41},{"user_id":405,"name":"Onyx","steam_id":76561198275349640,"connected_time":4972000000000,"state":"active","ping":91},{"user_id":435,"name":"boo_thefeared","steam_id":76561198127967685,"connected_time":3595000000000,"state":"active","ping":139},{"user_id":456,"name":"BurnN8or101","steam_id":76561198132668224,"connected_time":697000000000,"state":"active","ping":60},{"user_id":436,"name":"eish","steam_id":76561198089463603,"connected_time":3562000000000,"state":"active","ping":122},{"user_id":396,"name":"ATL1 | on my hunting trip","steam_id":76561198315341646,"connected_time":6069000000000,"state":"active","ping":75},{"user_id":432,"name":"LadyAnon","steam_id":76561198014709418,"connected_time":3672000000000,"state":"active","ping":53},{"user_id":444,"name":"Spiderfight1","steam_id":76561199189991528,"connected_time":1922000000000,"state":"active","ping":80},{"user_id":452,"name":"Reisen","steam_id":76561199174579733,"connected_time":1268000000000,"state":"active","ping":72},{"user_id":437,"name":"lil hog","steam_id":76561199230929836,"connected_time":3541000000000,"state":"active","ping":82},{"user_id":438,"name":"com lag","steam_id":76561198019019392,"connected_time":2812000000000,"state":"active","ping":72},{"user_id":428,"name":"Ghetto Smosh Fan","steam_id":76561198097272509,"connected_time":3904000000000,"state":"active","ping":45},{"user_id":457,"name":"max","steam_id":76561198953695435,"connected_time":696000000000,"state":"active","ping":61},{"user_id":458,"name":"Grimm","steam_id":76561199242664677,"connected_time":675000000000,"state":"active","ping":75},{"user_id":459,"name":"Venezia","steam_id":76561197994107407,"connected_time":638000000000,"state":"active","ping":49},{"user_id":416,"name":"nup noodle","steam_id":76561198101278181,"connected_time":4770000000000,"state":"active","ping":85},{"user_id":460,"name":"Wiseguy","steam_id":76561198043971271,"connected_time":593000000000,"state":"active","ping":117},{"user_id":442,"name":"vitamin","steam_id":76561198277799227,"connected_time":1958000000000,"state":"active","ping":67},{"user_id":448,"name":"Broken Cereal‚àö","steam_id":76561198087489795,"connected_time":1745000000000,"state":"active","ping":71}]},{"server_id":104,"name":"Uncletopia | Atlanta | 2 | All Maps","name_short":"atl-2","host":"atl-1.us.uncletopia.com","port":27025,"enabled":true,"region":"us-east","cc":"us","latitude":33.753746,"longitude":-84.38633,"reserved":0,"last_update":"0001-01-01T00:00:00Z","name_a2s":"Uncletopia | Atlanta | 2 | All Maps","protocol":17,"map":"pl_badwater","folder":"tf","game":"Team Fortress","app_id":440,"player_count":24,"max_players":24,"Bots":0,"server_type":"Dedicated","server_os":"Linux","password":true,"vac":true,"version":"7757534","steam_id":85568392924469983,"keywords":["nocrits","nodmgspread","payload","uncletopia"],"game_id":440,"stv_port":27026,"stv_name":"Uncletopia | Atlanta | 2 | All Maps | STV","players":[{"user_id":599,"name":"General Sherman","steam_id":76561198044769376,"connected_time":3984000000000,"state":"active","ping":60},{"user_id":609,"name":"Jopheth","steam_id":76561198012902961,"connected_time":3742000000000,"state":"active","ping":54},{"user_id":594,"name":"neo","steam_id":76561198438435876,"connected_time":4109000000000,"state":"active","ping":102},{"user_id":610,"name":"TheLGBTaliban","steam_id":76561198309980100,"connected_time":3734000000000,"state":"active","ping":68},{"user_id":662,"name":"scoot","steam_id":76561198125572962,"connected_time":920000000000,"state":"active","ping":76},{"user_id":663,"name":"Samurai JackOff","steam_id":76561198165160011,"connected_time":807000000000,"state":"active","ping":117},{"user_id":647,"name":"ThinkingMonk112","steam_id":76561198432516310,"connected_time":2211000000000,"state":"active","ping":75},{"user_id":601,"name":"Feni","steam_id":76561198044714181,"connected_time":3960000000000,"state":"active","ping":86},{"user_id":602,"name":"Gracefulhippo","steam_id":76561198329904011,"connected_time":3950000000000,"state":"active","ping":56},{"user_id":655,"name":"Red","steam_id":76561198031865869,"connected_time":1406000000000,"state":"active","ping":72},{"user_id":671,"name":"[Janitor] SuperFlexMan","steam_id":76561198075382445,"connected_time":222000000000,"state":"active","ping":67},{"user_id":627,"name":"Stamin-Pol","steam_id":76561198280081805,"connected_time":3018000000000,"state":"active","ping":66},{"user_id":631,"name":"black_gazebo","steam_id":76561197991652544,"connected_time":2849000000000,"state":"active","ping":99},{"user_id":670,"name":"Wildebur","steam_id":76561198045746399,"connected_time":334000000000,"state":"active","ping":103},{"user_id":651,"name":"Hey","steam_id":76561198447517893,"connected_time":1967000000000,"state":"active","ping":63},{"user_id":667,"name":"Arby's","steam_id":76561199017690367,"connected_time":532000000000,"state":"active","ping":130},{"user_id":614,"name":"Simply Mystic","steam_id":76561198055495647,"connected_time":3648000000000,"state":"active","ping":88},{"user_id":672,"name":"gyozaking","steam_id":76561197972312696,"connected_time":121000000000,"state":"active","ping":53},{"user_id":656,"name":"Meurik","steam_id":76561198078032795,"connected_time":1396000000000,"state":"active","ping":162},{"user_id":668,"name":"ItsRoy","steam_id":76561198119525485,"connected_time":483000000000,"state":"active","ping":60},{"user_id":649,"name":"I ate those food","steam_id":76561198084614149,"connected_time":2158000000000,"state":"active","ping":64},{"user_id":633,"name":"ae","steam_id":76561198185490827,"connected_time":2720000000000,"state":"active","ping":81},{"user_id":657,"name":"legalizme223","steam_id":76561198051698391,"connected_time":1391000000000,"state":"active","ping":88},{"user_id":669,"name":"Jared In Target","steam_id":76561198372449718,"connected_time":436000000000,"state":"active","ping":86}]},{"server_id":400,"name":"Uncletopia | Atlanta | 3 | Community","name_short":"atl-3","host":"atl-1.us.uncletopia.com","port":27035,"enabled":true,"region":"us-east","cc":"us","latitude":33.753746,"longitude":-84.38633,"reserved":0,"last_update":"0001-01-01T00:00:00Z","name_a2s":"Uncletopia | Atlanta | 3 | Community","protocol":17,"map":"workshop/koth_slaughter_rc1.ugc1712845210","folder":"tf","game":"Team Fortress","app_id":440,"player_count":18,"max_players":24,"Bots":0,"server_type":"Dedicated","server_os":"Linux","password":true,"vac":true,"version":"7757534","steam_id":85568392924515187,"keywords":["cp","nocrits","nodmgspread","uncletopia"],"game_id":440,"stv_port":27036,"stv_name":"Uncletopia | Atlanta | 3 | Community | STV","players":[{"user_id":108,"name":"Lone Rider","steam_id":76561198091978968,"connected_time":1510000000000,"state":"active","ping":70},{"user_id":109,"name":"Crotonga","steam_id":76561198077178900,"connected_time":1474000000000,"state":"active","ping":73},{"user_id":110,"name":"Swill","steam_id":76561198117526223,"connected_time":1467000000000,"state":"active","ping":79},{"user_id":133,"name":"brinks truck","steam_id":76561198126489501,"connected_time":57000000000,"state":"active","ping":64},{"user_id":112,"name":"banana man","steam_id":76561198024767001,"connected_time":1048000000000,"state":"active","ping":60},{"user_id":113,"name":"Ice69","steam_id":76561198119627882,"connected_time":986000000000,"state":"active","ping":70},{"user_id":115,"name":"H3X_COKX","steam_id":76561198141096892,"connected_time":921000000000,"state":"active","ping":135},{"user_id":117,"name":"snezhnaya","steam_id":76561198076395081,"connected_time":458000000000,"state":"active","ping":117},{"user_id":118,"name":"BanditLORDOFSEXY","steam_id":76561198071037955,"connected_time":421000000000,"state":"active","ping":71},{"user_id":119,"name":"My dad owns Club Penguin.","steam_id":76561198032864436,"connected_time":391000000000,"state":"active","ping":90},{"user_id":120,"name":"Zelumie","steam_id":76561198147335801,"connected_time":355000000000,"state":"active","ping":75},{"user_id":121,"name":"Punkin","steam_id":76561198334301755,"connected_time":350000000000,"state":"active","ping":66},{"user_id":122,"name":"Nikki","steam_id":76561199069832535,"connected_time":348000000000,"state":"active","ping":78},{"user_id":132,"name":"mushy cow","steam_id":76561199276362541,"connected_time":111000000000,"state":"active","ping":78},{"user_id":125,"name":"Steve.pp","steam_id":76561198297778412,"connected_time":228000000000,"state":"active","ping":72},{"user_id":127,"name":"iceetee","steam_id":76561198156275931,"connected_time":220000000000,"state":"active","ping":77},{"user_id":129,"name":"Hard Soap","steam_id":76561198267905614,"connected_time":164000000000,"state":"active","ping":79},{"user_id":131,"name":"chrischrischris3018@yahoo.com","steam_id":76561198137316053,"connected_time":163000000000,"state":"active","ping":50}]},{"server_id":401,"name":"Uncletopia | Atlanta | 4 | No Payload","name_short":"atl-4","host":"atl-1.us.uncletopia.com","port":27045,"enabled":true,"region":"us-east","cc":"us","latitude":33.753746,"longitude":-84.38633,"reserved":0,"last_update":"0001-01-01T00:00:00Z","name_a2s":"","protocol":0,"map":"","folder":"","game":"","app_id":0,"player_count":0,"max_players":0,"Bots":0,"server_type":"","server_os":"","password":false,"vac":false,"version":"","steam_id":0,"keywords":null,"game_id":0,"stv_port":0,"stv_name":"","players":null},{"server_id":2,"name":"Uncletopia | Chicago | 1 | All Maps","name_short":"chi-1","host":"chi-1.us.uncletopia.com","port":27015,"enabled":true,"region":"us-central","cc":"us","latitude":41.881832,"longitude":-87.62318,"reserved":0,"last_update":"0001-01-01T00:00:00Z","name_a2s":"Uncletopia | Chicago | 1 | All Maps","protocol":17,"map":"pl_badwater","folder":"tf","game":"Team Fortress","app_id":440,"player_count":24,"max_players":24,"Bots":0,"server_type":"Dedicated","server_os":"Linux","password":true,"vac":true,"version":"7757534","steam_id":85568392924469984,"keywords":["nocrits","nodmgspread","payload","uncletopia"],"game_id":440,"stv_port":27016,"stv_name":"Uncletopia | Chicago | 1 | All Maps | STV","players":[{"user_id":810,"name":"deepmeta","steam_id":76561199053600691,"connected_time":1914000000000,"state":"active","ping":64},{"user_id":831,"name":"Shichinitzi","steam_id":76561198003833732,"connected_time":367000000000,"state":"active","ping":45},{"user_id":817,"name":"DingleInSpace","steam_id":76561198045063348,"connected_time":1625000000000,"state":"active","ping":58},{"user_id":818,"name":"anon003","steam_id":76561198286971687,"connected_time":1578000000000,"state":"active","ping":126},{"user_id":843,"name":"@war w/ my mates","steam_id":76561198311004039,"connected_time":28000000000,"state":"spawning","ping":79},{"user_id":820,"name":"Luca!","steam_id":76561198137880777,"connected_time":1440000000000,"state":"active","ping":89},{"user_id":797,"name":"Feral Manchild","steam_id":76561198855322496,"connected_time":2305000000000,"state":"active","ping":54},{"user_id":771,"name":"the headphones you lost","steam_id":76561199201098634,"connected_time":2961000000000,"state":"active","ping":59},{"user_id":828,"name":"Dr. Marvello","steam_id":76561198107573800,"connected_time":381000000000,"state":"active","ping":77},{"user_id":832,"name":"YUNG QUIMBIS","steam_id":76561198882485028,"connected_time":364000000000,"state":"active","ping":56},{"user_id":806,"name":"wokky bin laddn","steam_id":76561198265200834,"connected_time":2114000000000,"state":"active","ping":102},{"user_id":799,"name":"Thatoneguybunchanumbers","steam_id":76561198028039160,"connected_time":2196000000000,"state":"active","ping":77},{"user_id":765,"name":"Semper Ber","steam_id":76561198274021990,"connected_time":3268000000000,"state":"active","ping":84},{"user_id":833,"name":"I THINK COOLSVILLE SUCKS","steam_id":76561198066855998,"connected_time":356000000000,"state":"active","ping":90},{"user_id":830,"name":"mari_","steam_id":76561198137855741,"connected_time":377000000000,"state":"active","ping":48},{"user_id":842,"name":"Prophet","steam_id":76561198134948582,"connected_time":181000000000,"state":"active","ping":115},{"user_id":838,"name":"your local forecast","steam_id":76561198042243083,"connected_time":286000000000,"state":"active","ping":60},{"user_id":835,"name":"Brobespierre","steam_id":76561198022225667,"connected_time":344000000000,"state":"active","ping":85},{"user_id":829,"name":"Nerd Killer","steam_id":76561198037072888,"connected_time":380000000000,"state":"active","ping":46},{"user_id":823,"name":"Cheif","steam_id":76561198802147518,"connected_time":1039000000000,"state":"active","ping":53},{"user_id":840,"name":"onsen episode","steam_id":76561197965022076,"connected_time":240000000000,"state":"active","ping":59},{"user_id":844,"name":"CroMaLaka","steam_id":76561198380926090,"connected_time":15000000000,"state":"spawning","ping":52},{"user_id":841,"name":"Fiendish Frog","steam_id":76561198029478821,"connected_time":213000000000,"state":"active","ping":93},{"user_id":788,"name":"Mr. Smooooth","steam_id":76561198037566858,"connected_time":2469000000000,"state":"active","ping":51}]},{"server_id":106,"name":"Uncletopia | Chicago | 2 | All Maps","name_short":"chi-2","host":"chi-1.us.uncletopia.com","port":27025,"enabled":true,"region":"us-central","cc":"us","latitude":41.881832,"longitude":-87.62318,"reserved":0,"last_update":"0001-01-01T00:00:00Z","name_a2s":"Uncletopia | Chicago | 2 | All Maps","protocol":17,"map":"pl_frontier_final","folder":"tf","game":"Team Fortress","app_id":440,"player_count":24,"max_players":24,"Bots":0,"server_type":"Dedicated","server_os":"Linux","password":true,"vac":true,"version":"7757534","steam_id":85568392924469985,"keywords":["nocrits","nodmgspread","payload","uncletopia"],"game_id":440,"stv_port":27026,"stv_name":"Uncletopia | Chicago | 2 | All Maps | STV","players":[{"user_id":265,"name":"Malevo","steam_id":76561198148606522,"connected_time":2772000000000,"state":"active","ping":82},{"user_id":272,"name":"Dog!","steam_id":76561198296025377,"connected_time":1624000000000,"state":"active","ping":74},{"user_id":205,"name":"Deathninja952","steam_id":76561199066489355,"connected_time":7615000000000,"state":"active","ping":87},{"user_id":262,"name":"sexy old man fucks you (ASMR)","steam_id":76561198081220016,"connected_time":2937000000000,"state":"active","ping":51},{"user_id":282,"name":"Midnight Flame","steam_id":76561198279692754,"connected_time":1327000000000,"state":"active","ping":79},{"user_id":273,"name":"Yay Dog!","steam_id":76561198361149567,"connected_time":1587000000000,"state":"active","ping":94},{"user_id":260,"name":"C papi","steam_id":76561198027779564,"connected_time":3295000000000,"state":"active","ping":52},{"user_id":254,"name":"BigDeac","steam_id":76561198091237274,"connected_time":3748000000000,"state":"active","ping":67},{"user_id":274,"name":"Metapod","steam_id":76561198008725465,"connected_time":1586000000000,"state":"active","ping":72},{"user_id":232,"name":"leeeeeeeeeeeeeeeeeeeeeeeeeee","steam_id":76561199083322731,"connected_time":5179000000000,"state":"active","ping":95},{"user_id":271,"name":"cow","steam_id":76561198117331762,"connected_time":1640000000000,"state":"active","ping":45},{"user_id":275,"name":"Jaded","steam_id":76561198272575611,"connected_time":1561000000000,"state":"active","ping":85},{"user_id":276,"name":"Internal Screaming","steam_id":76561198272327629,"connected_time":1557000000000,"state":"active","ping":115},{"user_id":283,"name":"trappy (showered)","steam_id":76561198402801140,"connected_time":1094000000000,"state":"active","ping":53},{"user_id":278,"name":"Fancy Bed","steam_id":76561198007172366,"connected_time":1512000000000,"state":"active","ping":66},{"user_id":223,"name":"AnonymousCritter","steam_id":76561198864475187,"connected_time":6392000000000,"state":"active","ping":50},{"user_id":279,"name":"NÃ∏ÃèÃ©oÃ∂ÕÑÃªoÃ¥ÕóÃπtÃ∑ÃÉÃº","steam_id":76561198023933437,"connected_time":1409000000000,"state":"active","ping":69},{"user_id":285,"name":"Ryan Lewis truther","steam_id":76561198050505826,"connected_time":915000000000,"state":"active","ping":77},{"user_id":269,"name":"fish","steam_id":76561198054070811,"connected_time":2512000000000,"state":"active","ping":105},{"user_id":238,"name":"Bobbn","steam_id":76561198876124683,"connected_time":5006000000000,"state":"active","ping":69},{"user_id":239,"name":"-Wilef","steam_id":76561198066091247,"connected_time":5005000000000,"state":"active","ping":70},{"user_id":257,"name":"ShortBusHero99","steam_id":76561199013991464,"connected_time":3729000000000,"state":"active","ping":72},{"user_id":286,"name":"Bloop","steam_id":76561198253563271,"connected_time":72000000000,"state":"active","ping":37},{"user_id":181,"name":"Vladikr1","steam_id":76561198401495362,"connected_time":10281000000000,"state":"active","ping":99}]},{"server_id":402,"name":"Uncletopia | Chicago | 3 | All Maps","name_short":"chi-3","host":"chi-1.us.uncletopia.com","port":27035,"enabled":true,"region":"us-central","cc":"us","latitude":41.881832,"longitude":-87.62318,"reserved":0,"last_update":"0001-01-01T00:00:00Z","name_a2s":"Uncletopia | Chicago | 3 | All Maps","protocol":17,"map":"pl_badwater","folder":"tf","game":"Team Fortress","app_id":440,"player_count":19,"max_players":24,"Bots":0,"server_type":"Dedicated","server_os":"Linux","password":true,"vac":true,"version":"7757534","steam_id":85568392924515191,"keywords":["nocrits","nodmgspread","payload","uncletopia"],"game_id":440,"stv_port":27036,"stv_name":"Uncletopia | Chicago | 3 | All Maps | STV","players":[{"user_id":561,"name":"jolo","steam_id":76561198042831480,"connected_time":9616000000000,"state":"active","ping":68},{"user_id":679,"name":"shibaba bababool","steam_id":76561197972601902,"connected_time":1052000000000,"state":"active","ping":77},{"user_id":659,"name":"Fumpo","steam_id":76561198206873365,"connected_time":3191000000000,"state":"active","ping":71},{"user_id":674,"name":"Huatdog","steam_id":76561198271979570,"connected_time":1611000000000,"state":"active","ping":100},{"user_id":701,"name":"psy","steam_id":76561198013195018,"connected_time":11000000000,"state":"active","ping":74},{"user_id":678,"name":"derd niffer","steam_id":76561198056971063,"connected_time":1114000000000,"state":"active","ping":53},{"user_id":646,"name":"Ellen Baker","steam_id":76561198065712435,"connected_time":3793000000000,"state":"active","ping":118},{"user_id":558,"name":"Apple Zoo","steam_id":76561198013732450,"connected_time":9935000000000,"state":"active","ping":46},{"user_id":699,"name":"phfez","steam_id":76561198046150386,"connected_time":605000000000,"state":"active","ping":64},{"user_id":644,"name":"mogan","steam_id":76561198071700821,"connected_time":3813000000000,"state":"active","ping":84},{"user_id":653,"name":"MatchMatch","steam_id":76561198048925904,"connected_time":3558000000000,"state":"active","ping":117},{"user_id":645,"name":"who is gavin?","steam_id":76561198069415057,"connected_time":3811000000000,"state":"active","ping":59},{"user_id":680,"name":"Pop","steam_id":76561199012562851,"connected_time":951000000000,"state":"active","ping":85},{"user_id":664,"name":"soof","steam_id":76561198043762955,"connected_time":1906000000000,"state":"active","ping":58},{"user_id":636,"name":"Harold","steam_id":76561198057317770,"connected_time":4707000000000,"state":"active","ping":89},{"user_id":634,"name":"ShitsandGiggles‚Ñ¢","steam_id":76561198058708019,"connected_time":4837000000000,"state":"active","ping":55},{"user_id":658,"name":"carp","steam_id":76561198042865147,"connected_time":3323000000000,"state":"active","ping":50},{"user_id":671,"name":"FUSION","steam_id":76561197972659738,"connected_time":1670000000000,"state":"active","ping":59},{"user_id":698,"name":"ShrubSkrub","steam_id":76561198009908618,"connected_time":689000000000,"state":"active","ping":58}]},{"server_id":403,"name":"Uncletopia | Chicago | 4 | All Maps","name_short":"chi-4","host":"chi-1.us.uncletopia.com","port":27045,"enabled":true,"region":"us-central","cc":"us","latitude":41.881832,"longitude":-87.62318,"reserved":0,"last_update":"0001-01-01T00:00:00Z","name_a2s":"Uncletopia | Chicago | 4 | All Maps","protocol":17,"map":"cp_altitude","folder":"tf","game":"Team Fortress","app_id":440,"player_count":0,"max_players":24,"Bots":0,"server_type":"Dedicated","server_os":"Linux","password":true,"vac":true,"version":"7757534","steam_id":85568392924515193,"keywords":["cp","nocrits","nodmgspread","uncletopia"],"game_id":440,"stv_port":27046,"stv_name":"Uncletopia | Chicago | 4 | All Maps | STV","players":null},{"server_id":36,"name":"Uncletopia | Chicago | 5 | All Maps","name_short":"chi-5","host":"chi-2.us.uncletopia.com","port":27015,"enabled":true,"region":"us-central","cc":"us","latitude":41.881832,"longitude":-87.62318,"reserved":0,"last_update":"0001-01-01T00:00:00Z","name_a2s":"Uncletopia | Chicago | 5 | All Maps","protocol":17,"map":"pl_upward","folder":"tf","game":"Team Fortress","app_id":440,"player_count":24,"max_players":24,"Bots":0,"server_type":"Dedicated","server_os":"Linux","password":true,"vac":true,"version":"7757534","steam_id":85568392924866362,"keywords":["nocrits","nodmgspread","payload","uncletopia"],"game_id":440,"stv_port":27016,"stv_name":"Uncletopia | Chicago | 5 | All Maps | STV","players":[{"user_id":471,"name":"protester of decent things","steam_id":76561198051421643,"connected_time":2406000000000,"state":"active","ping":52},{"user_id":480,"name":"Sean","steam_id":76561198011422340,"connected_time":1365000000000,"state":"active","ping":85},{"user_id":451,"name":"the inventor of Sex, Pisslord","steam_id":76561198074624639,"connected_time":3476000000000,"state":"active","ping":59},{"user_id":481,"name":"bkiller","steam_id":76561198029265697,"connected_time":1312000000000,"state":"active","ping":79},{"user_id":491,"name":"Wilhelmktx","steam_id":76561198158102295,"connected_time":367000000000,"state":"active","ping":54},{"user_id":248,"name":"Zero","steam_id":76561199383267408,"connected_time":17821000000000,"state":"active","ping":80},{"user_id":482,"name":"ÂêçÁÑ°„Åó","steam_id":76561198053980844,"connected_time":959000000000,"state":"active","ping":144},{"user_id":476,"name":"Truth","steam_id":76561198047385041,"connected_time":1683000000000,"state":"active","ping":110},{"user_id":498,"name":"deadpixel","steam_id":76561198150249843,"connected_time":65000000000,"state":"active","ping":60},{"user_id":477,"name":"nickles","steam_id":76561199177498487,"connected_time":1648000000000,"state":"active","ping":60},{"user_id":484,"name":"Trolldier 76","steam_id":76561198036504161,"connected_time":918000000000,"state":"active","ping":114},{"user_id":445,"name":"stacybaby80","steam_id":76561198406951007,"connected_time":3689000000000,"state":"active","ping":67},{"user_id":492,"name":"Willy","steam_id":76561198046508940,"connected_time":365000000000,"state":"active","ping":60},{"user_id":489,"name":"McNamJam","steam_id":76561198028128686,"connected_time":631000000000,"state":"active","ping":92},{"user_id":493,"name":"Ausora","steam_id":76561198141759936,"connected_time":364000000000,"state":"active","ping":146},{"user_id":497,"name":"mos","steam_id":76561198146126212,"connected_time":239000000000,"state":"active","ping":59},{"user_id":495,"name":"ŒõJŒõX","steam_id":76561198142920141,"connected_time":361000000000,"state":"active","ping":83},{"user_id":496,"name":"rainingmudkips","steam_id":76561198018010854,"connected_time":346000000000,"state":"active","ping":68},{"user_id":479,"name":"N0Ne","steam_id":76561198376822522,"connected_time":1594000000000,"state":"active","ping":83},{"user_id":488,"name":"Hongy","steam_id":76561198012448846,"connected_time":827000000000,"state":"active","ping":103},{"user_id":490,"name":"WarMace","steam_id":76561198395937853,"connected_time":389000000000,"state":"active","ping":67},{"user_id":449,"name":"engie","steam_id":76561199229629045,"connected_time":3578000000000,"state":"active","ping":115},{"user_id":487,"name":"Stressmelo","steam_id":76561199204445185,"connected_time":879000000000,"state":"active","ping":75},{"user_id":434,"name":"coom","steam_id":76561198078189844,"connected_time":4962000000000,"state":"active","ping":60}]},{"server_id":37,"name":"Uncletopia | Chicago | 6 | All Maps","name_short":"chi-6","host":"chi-2.us.uncletopia.com","port":27025,"enabled":true,"region":"us-central","cc":"us","latitude":41.881832,"longitude":-87.62318,"reserved":0,"last_update":"0001-01-01T00:00:00Z","name_a2s":"Uncletopia | Chicago | 6 | All Maps","protocol":17,"map":"cp_badlands","folder":"tf","game":"Team Fortress","app_id":440,"player_count":24,"max_players":24,"Bots":0,"server_type":"Dedicated","server_os":"Linux","password":true,"vac":true,"version":"7757534","steam_id":85568392924866363,"keywords":["cp","nocrits","nodmgspread","uncletopia"],"game_id":440,"stv_port":27026,"stv_name":"Uncletopia | Chicago | 6 | All Maps | STV","players":[{"user_id":416,"name":"chrispy","steam_id":76561198970102878,"connected_time":573000000000,"state":"active","ping":86},{"user_id":359,"name":"Calypso","steam_id":76561198082939544,"connected_time":3771000000000,"state":"active","ping":85},{"user_id":394,"name":"Killer Machine Abe","steam_id":76561198257872736,"connected_time":1448000000000,"state":"active","ping":61},{"user_id":348,"name":"Pennis the Menace","steam_id":76561198254878037,"connected_time":4378000000000,"state":"active","ping":100},{"user_id":388,"name":"jimmyfnaf172198yay","steam_id":76561198311446636,"connected_time":1879000000000,"state":"active","ping":58},{"user_id":366,"name":"Araganor","steam_id":76561198041988085,"connected_time":2888000000000,"state":"active","ping":81},{"user_id":398,"name":"CelticCommando","steam_id":76561198077783960,"connected_time":1272000000000,"state":"active","ping":136},{"user_id":381,"name":"Asher","steam_id":76561198218499636,"connected_time":2148000000000,"state":"active","ping":60},{"user_id":407,"name":"Dreamy \u003c3","steam_id":76561198129908521,"connected_time":901000000000,"state":"active","ping":80},{"user_id":411,"name":"Shrep","steam_id":76561198127341481,"connected_time":721000000000,"state":"active","ping":63},{"user_id":409,"name":"GoldenSongbird","steam_id":76561198337535669,"connected_time":861000000000,"state":"active","ping":85},{"user_id":412,"name":"Foxtrot Uniform","steam_id":76561199236576844,"connected_time":676000000000,"state":"active","ping":84},{"user_id":402,"name":"Best Boy In Illinois","steam_id":76561198063876068,"connected_time":1178000000000,"state":"active","ping":62},{"user_id":413,"name":"luckifan774","steam_id":76561198378537143,"connected_time":673000000000,"state":"active","ping":71},{"user_id":414,"name":"CheeseCake488","steam_id":76561199407617942,"connected_time":637000000000,"state":"active","ping":130},{"user_id":415,"name":"Frank Pizza","steam_id":76561198045725450,"connected_time":631000000000,"state":"active","ping":65},{"user_id":386,"name":"a crystal lizard","steam_id":76561197997661928,"connected_time":2034000000000,"state":"active","ping":68},{"user_id":351,"name":"Codo Sapien","steam_id":76561198014206810,"connected_time":4314000000000,"state":"active","ping":31},{"user_id":417,"name":"vanilla linguine","steam_id":76561198155661890,"connected_time":562000000000,"state":"active","ping":90},{"user_id":399,"name":"Wang of Wall St","steam_id":76561198047460598,"connected_time":1271000000000,"state":"active","ping":76},{"user_id":376,"name":"Danger Dwarf","steam_id":76561198059490571,"connected_time":2267000000000,"state":"active","ping":75},{"user_id":400,"name":"Silliest Boywife","steam_id":76561198118123914,"connected_time":1244000000000,"state":"active","ping":164},{"user_id":372,"name":"JRD","steam_id":76561197997946410,"connected_time":2594000000000,"state":"active","ping":58},{"user_id":418,"name":"Genn","steam_id":76561198070450699,"connected_time":536000000000,"state":"active","ping":51}]},{"server_id":38,"name":"Uncletopia | Chicago | 7 | Stopwatch Beta","name_short":"chi-7","host":"chi-2.us.uncletopia.com","port":27035,"enabled":true,"region":"us-central","cc":"us","latitude":41.881832,"longitude":-87.62318,"reserved":0,"last_update":"0001-01-01T00:00:00Z","name_a2s":"Uncletopia | Chicago | 7 | Stopwatch Beta","protocol":17,"map":"pl_borneo","folder":"tf","game":"Team Fortress","app_id":440,"player_count":0,"max_players":24,"Bots":0,"server_type":"Dedicated","server_os":"Linux","password":true,"vac":true,"version":"7757534","steam_id":85568392924866364,"keywords":["nocrits","nodmgspread","payload","uncletopia"],"game_id":440,"stv_port":27036,"stv_name":"Uncletopia | Chicago | 7 | Stopwatch Beta | STV","players":null},{"server_id":39,"name":"Uncletopia | Chicago | 8 | Community","name_short":"chi-8","host":"chi-2.us.uncletopia.com","port":27045,"enabled":true,"region":"us-central","cc":"us","latitude":41.881832,"longitude":-87.62318,"reserved":0,"last_update":"0001-01-01T00:00:00Z","name_a2s":"Uncletopia | Chicago | 8 | Community","protocol":17,"map":"workshop/cp_overgrown_rc7b.ugc503939302","folder":"tf","game":"Team Fortress","app_id":440,"player_count":0,"max_players":24,"Bots":0,"server_type":"Dedicated","server_os":"Linux","password":true,"vac":true,"version":"7757534","steam_id":85568392924866365,"keywords":["cp","nocrits","nodmgspread","uncletopia"],"game_id":440,"stv_port":27046,"stv_name":"Uncletopia | Chicago | 8 | Community | STV","players":null},{"server_id":8,"name":"Uncletopia | Dallas | 1 | All Maps","name_short":"dal-1","host":"dal-1.us.uncletopia.com","port":27015,"enabled":true,"region":"us-central","cc":"us","latitude":32.779167,"longitude":-96.80889,"reserved":0,"last_update":"0001-01-01T00:00:00Z","name_a2s":"Uncletopia | Dallas | 1 | All Maps","protocol":17,"map":"pl_swiftwater_final1","folder":"tf","game":"Team Fortress","app_id":440,"player_count":22,"max_players":24,"Bots":0,"server_type":"Dedicated","server_os":"Linux","password":true,"vac":true,"version":"7757534","steam_id":85568392924469986,"keywords":["nocrits","nodmgspread","payload","uncletopia"],"game_id":440,"stv_port":27016,"stv_name":"Uncletopia | Dallas | 1 | All Maps | STV","players":[{"user_id":273,"name":"veldt","steam_id":76561198056135308,"connected_time":3949000000000,"state":"active","ping":55},{"user_id":296,"name":"APOTATO","steam_id":76561198118199858,"connected_time":2270000000000,"state":"active","ping":60},{"user_id":316,"name":"Herba","steam_id":76561198117879846,"connected_time":124000000000,"state":"active","ping":72},{"user_id":288,"name":"???","steam_id":76561198200155343,"connected_time":3012000000000,"state":"active","ping":43},{"user_id":317,"name":"griff928","steam_id":76561198149614679,"connected_time":98000000000,"state":"active","ping":73},{"user_id":318,"name":"Final_MarioXD","steam_id":76561199184862419,"connected_time":81000000000,"state":"active","ping":80},{"user_id":309,"name":"Sun","steam_id":76561198175477347,"connected_time":974000000000,"state":"active","ping":57},{"user_id":298,"name":"[4-loko] Cyrus","steam_id":76561198146221678,"connected_time":2166000000000,"state":"active","ping":55},{"user_id":299,"name":"Hedsik","steam_id":76561198045797773,"connected_time":1801000000000,"state":"active","ping":49},{"user_id":319,"name":"HeisenBurger","steam_id":76561198040632080,"connected_time":40000000000,"state":"active","ping":62},{"user_id":320,"name":"AlphaTwo3","steam_id":76561198034696854,"connected_time":32000000000,"state":"active","ping":82},{"user_id":314,"name":"[4-loko] Meta!?","steam_id":76561198091255996,"connected_time":738000000000,"state":"active","ping":46},{"user_id":307,"name":"Ballista","steam_id":76561197983182562,"connected_time":1301000000000,"state":"active","ping":57},{"user_id":321,"name":"'Gutter Bumpkin","steam_id":76561198034607110,"connected_time":24000000000,"state":"active","ping":67},{"user_id":302,"name":"Butthole Surfer","steam_id":76561198020526407,"connected_time":1734000000000,"state":"active","ping":68},{"user_id":295,"name":"Weasel Smack","steam_id":76561198023116430,"connected_time":2519000000000,"state":"active","ping":66},{"user_id":304,"name":"Jelly Boi","steam_id":76561197992129239,"connected_time":1593000000000,"state":"active","ping":69},{"user_id":284,"name":"Zerow","steam_id":76561198362623418,"connected_time":3489000000000,"state":"active","ping":51},{"user_id":242,"name":"Colonel Salt","steam_id":76561198207009563,"connected_time":8183000000000,"state":"active","ping":52},{"user_id":311,"name":"Antifa Supersoldier","steam_id":76561198141816516,"connected_time":873000000000,"state":"active","ping":48},{"user_id":271,"name":"Imrgrim","steam_id":76561198135866481,"connected_time":4206000000000,"state":"active","ping":70},{"user_id":262,"name":"hzp","steam_id":76561198043574680,"connected_time":5492000000000,"state":"active","ping":65}]},{"server_id":108,"name":"Uncletopia | Dallas | 2 | All Maps","name_short":"dal-2","host":"dal-1.us.uncletopia.com","port":27025,"enabled":true,"region":"us-central","cc":"us","latitude":32.779167,"longitude":-96.80889,"reserved":0,"last_update":"0001-01-01T00:00:00Z","name_a2s":"Uncletopia | Dallas | 2 | All Maps","protocol":17,"map":"cp_dustbowl","folder":"tf","game":"Team Fortress","app_id":440,"player_count":24,"max_players":24,"Bots":0,"server_type":"Dedicated","server_os":"Linux","password":true,"vac":true,"version":"7757534","steam_id":85568392924469988,"keywords":["cp","nocrits","nodmgspread","uncletopia"],"game_id":440,"stv_port":27026,"stv_name":"Uncletopia | Dallas | 2 | All Maps | STV","players":[{"user_id":751,"name":"chrisd149","steam_id":76561198018710480,"connected_time":1172000000000,"state":"active","ping":91},{"user_id":745,"name":"trowel","steam_id":76561198195109445,"connected_time":1670000000000,"state":"active","ping":70},{"user_id":749,"name":"stoner catgirl","steam_id":76561198337705174,"connected_time":1283000000000,"state":"active","ping":61},{"user_id":735,"name":"TheVandive","steam_id":76561199014510667,"connected_time":2199000000000,"state":"active","ping":134},{"user_id":760,"name":"Scared Duck","steam_id":76561198081348409,"connected_time":336000000000,"state":"active","ping":80},{"user_id":740,"name":"porz","steam_id":76561198195711453,"connected_time":2180000000000,"state":"active","ping":46},{"user_id":710,"name":"radicalPolio","steam_id":76561197961561855,"connected_time":3694000000000,"state":"active","ping":46},{"user_id":757,"name":"Joe Biden","steam_id":76561198238699798,"connected_time":492000000000,"state":"active","ping":82},{"user_id":741,"name":"TurboWarden","steam_id":76561198104225824,"connected_time":2158000000000,"state":"active","ping":71},{"user_id":730,"name":"totally not a pile of beans","steam_id":76561198119851931,"connected_time":2903000000000,"state":"active","ping":99},{"user_id":750,"name":"Daz","steam_id":76561198041431938,"connected_time":1216000000000,"state":"active","ping":77},{"user_id":763,"name":"THEY LET YOU PUT ANYTHING HERE","steam_id":76561198056214875,"connected_time":274000000000,"state":"active","ping":80},{"user_id":712,"name":"WehKings","steam_id":76561198869617499,"connected_time":3595000000000,"state":"active","ping":76},{"user_id":753,"name":"Project_Counter","steam_id":76561198152786076,"connected_time":1042000000000,"state":"active","ping":52},{"user_id":669,"name":"schnedwob","steam_id":76561197999146588,"connected_time":5911000000000,"state":"active","ping":55},{"user_id":707,"name":"ChottoAMinute","steam_id":76561198873157775,"connected_time":4013000000000,"state":"active","ping":39},{"user_id":743,"name":"ShukSama","steam_id":76561198322357608,"connected_time":1809000000000,"state":"active","ping":82},{"user_id":764,"name":"fawn","steam_id":76561198267453467,"connected_time":156000000000,"state":"active","ping":75},{"user_id":700,"name":"spy","steam_id":76561198937717599,"connected_time":4392000000000,"state":"active","ping":44},{"user_id":765,"name":"TheSmokingMan","steam_id":76561198032652995,"connected_time":82000000000,"state":"active","ping":55},{"user_id":725,"name":"Cleggy","steam_id":76561197999179908,"connected_time":3174000000000,"state":"active","ping":86},{"user_id":759,"name":"üå∏MelWormüå∏","steam_id":76561198084145814,"connected_time":360000000000,"state":"active","ping":67},{"user_id":727,"name":"kr1tsurf3r","steam_id":76561198076402476,"connected_time":3129000000000,"state":"active","ping":102},{"user_id":732,"name":"CelticDemon","steam_id":76561199388090914,"connected_time":2719000000000,"state":"active","ping":100}]},{"server_id":5,"name":"Uncletopia | Frankfurt | 1 | All Maps","name_short":"frk-1","host":"frk-1.de.uncletopia.com","port":27015,"enabled":true,"region":"eu","cc":"de","latitude":50.110924,"longitude":8.682127,"reserved":0,"last_update":"0001-01-01T00:00:00Z","name_a2s":"Uncletopia | Frankfurt | 1 | All Maps","protocol":17,"map":"pl_snowycoast","folder":"tf","game":"Team Fortress","app_id":440,"player_count":0,"max_players":24,"Bots":0,"server_type":"Dedicated","server_os":"Linux","password":true,"vac":true,"version":"7757534","steam_id":85568392924469989,"keywords":["nocrits","nodmgspread","payload","uncletopia"],"game_id":440,"stv_port":27016,"stv_name":"Uncletopia | Frankfurt | 1 | All Maps | STV","players":null},{"server_id":110,"name":"Uncletopia | Frankfurt | 2 | All Maps","name_short":"frk-2","host":"frk-1.de.uncletopia.com","port":27025,"enabled":true,"region":"eu","cc":"de","latitude":50.110924,"longitude":8.682127,"reserved":0,"last_update":"0001-01-01T00:00:00Z","name_a2s":"Uncletopia | Frankfurt | 2 | All Maps","protocol":17,"map":"cp_snakewater_final1","folder":"tf","game":"Team Fortress","app_id":440,"player_count":0,"max_players":24,"Bots":0,"server_type":"Dedicated","server_os":"Linux","password":true,"vac":true,"version":"7757534","steam_id":85568392924469990,"keywords":["cp","nocrits","nodmgspread","uncletopia"],"game_id":440,"stv_port":27026,"stv_name":"Uncletopia | Frankfurt | 2 | All Maps | STV","players":null},{"server_id":308,"name":"Uncletopia | Frankfurt | 3 | All Maps","name_short":"frk-3","host":"frk-1.de.uncletopia.com","port":27035,"enabled":true,"region":"eu","cc":"de","latitude":50.110924,"longitude":8.682127,"reserved":0,"last_update":"0001-01-01T00:00:00Z","name_a2s":"Uncletopia | Frankfurt | 3 | All Maps","protocol":17,"map":"pl_swiftwater_final1","folder":"tf","game":"Team Fortress","app_id":440,"player_count":0,"max_players":24,"Bots":0,"server_type":"Dedicated","server_os":"Linux","password":true,"vac":true,"version":"7757534","steam_id":85568392924504274,"keywords":["nocrits","nodmgspread","payload","uncletopia"],"game_id":440,"stv_port":27036,"stv_name":"Uncletopia | Frankfurt | 3 | All Maps | STV","players":null},{"server_id":309,"name":"Uncletopia | Frankfurt | 4 | All Maps","name_short":"frk-4","host":"frk-1.de.uncletopia.com","port":27045,"enabled":true,"region":"eu","cc":"de","latitude":50.110924,"longitude":8.682127,"reserved":0,"last_update":"0001-01-01T00:00:00Z","name_a2s":"Uncletopia | Frankfurt | 4 | All Maps","protocol":17,"map":"koth_viaduct","folder":"tf","game":"Team Fortress","app_id":440,"player_count":0,"max_players":24,"Bots":0,"server_type":"Dedicated","server_os":"Linux","password":true,"vac":true,"version":"7757534","steam_id":85568392924504275,"keywords":["cp","nocrits","nodmgspread","uncletopia"],"game_id":440,"stv_port":27046,"stv_name":"Uncletopia | Frankfurt | 4 | All Maps | STV","players":null},{"server_id":310,"name":"Uncletopia | Frankfurt | 5 | All Maps","name_short":"frk-5","host":"frk-1.de.uncletopia.com","port":27055,"enabled":true,"region":"eu","cc":"de","latitude":50.110924,"longitude":8.682127,"reserved":0,"last_update":"0001-01-01T00:00:00Z","name_a2s":"Uncletopia | Frankfurt | 5 | All Maps","protocol":17,"map":"koth_lakeside_final","folder":"tf","game":"Team Fortress","app_id":440,"player_count":0,"max_players":24,"Bots":0,"server_type":"Dedicated","server_os":"Linux","password":true,"vac":true,"version":"7757534","steam_id":85568392924504277,"keywords":["cp","nocrits","nodmgspread","uncletopia"],"game_id":440,"stv_port":27056,"stv_name":"Uncletopia | Frankfurt | 5 | All Maps | STV","players":null},{"server_id":311,"name":"Uncletopia | Frankfurt | 6 | All Maps","name_short":"frk-6","host":"frk-1.de.uncletopia.com","port":27065,"enabled":true,"region":"eu","cc":"de","latitude":50.110924,"longitude":8.682127,"reserved":0,"last_update":"0001-01-01T00:00:00Z","name_a2s":"Uncletopia | Frankfurt | 6 | All Maps","protocol":17,"map":"pl_frontier_final","folder":"tf","game":"Team Fortress","app_id":440,"player_count":0,"max_players":24,"Bots":0,"server_type":"Dedicated","server_os":"Linux","password":true,"vac":true,"version":"7757534","steam_id":85568392924504278,"keywords":["nocrits","nodmgspread","payload","uncletopia"],"game_id":440,"stv_port":27066,"stv_name":"Uncletopia | Frankfurt | 6 | All Maps | STV","players":null},{"server_id":23,"name":"Uncletopia | Frankfurt | 7 | Stopwatch Beta","name_short":"frk-7","host":"frk-1.de.uncletopia.com","port":27075,"enabled":true,"region":"eu","cc":"de","latitude":50.110924,"longitude":8.682127,"reserved":0,"last_update":"0001-01-01T00:00:00Z","name_a2s":"Uncletopia | Frankfurt | 7 | Stopwatch Beta","protocol":17,"map":"cp_sunshine","folder":"tf","game":"Team Fortress","app_id":440,"player_count":0,"max_players":24,"Bots":0,"server_type":"Dedicated","server_os":"Linux","password":true,"vac":true,"version":"7757534","steam_id":85568392924742827,"keywords":["cp","nocrits","nodmgspread","uncletopia"],"game_id":440,"stv_port":27076,"stv_name":"Uncletopia | Frankfurt | 7 | Stopwatch Beta | STV","players":null},{"server_id":24,"name":"Uncletopia | Frankfurt | 8 | Community","name_short":"frk-8","host":"frk-1.de.uncletopia.com","port":27085,"enabled":true,"region":"eu","cc":"de","latitude":50.110924,"longitude":8.682127,"reserved":0,"last_update":"0001-01-01T00:00:00Z","name_a2s":"Uncletopia | Frankfurt | 8 | Community","protocol":17,"map":"koth_lakeside_final","folder":"tf","game":"Team Fortress","app_id":440,"player_count":0,"max_players":24,"Bots":0,"server_type":"Dedicated","server_os":"Linux","password":true,"vac":true,"version":"7757534","steam_id":85568392924742828,"keywords":["cp","nocrits","nodmgspread","uncletopia"],"game_id":440,"stv_port":27086,"stv_name":"Uncletopia | Frankfurt | 8 | Community | STV","players":null},{"server_id":202,"name":"Uncletopia | Hong Kong | 1 | All Maps","name_short":"hgk-1","host":"hgk-1.hk.uncletopia.com","port":27015,"enabled":true,"region":"asia","cc":"hk","latitude":22.302711,"longitude":114.177216,"reserved":0,"last_update":"0001-01-01T00:00:00Z","name_a2s":"Uncletopia | Hong Kong | 1 | All Maps","protocol":17,"map":"koth_highpass","folder":"tf","game":"Team Fortress","app_id":440,"player_count":0,"max_players":24,"Bots":0,"server_type":"Dedicated","server_os":"Linux","password":true,"vac":true,"version":"7757534","steam_id":85568392924494504,"keywords":["cp","nocrits","nodmgspread","uncletopia"],"game_id":440,"stv_port":27016,"stv_name":"Uncletopia | Hong Kong | 1 | All Maps | STV","players":null},{"server_id":1,"name":"Uncletopia | Los Angeles | 1 | All Maps","name_short":"lax-1","host":"lax-1.us.uncletopia.com","port":27015,"enabled":true,"region":"us-west","cc":"us","latitude":33.94279,"longitude":-118.41004,"reserved":0,"last_update":"0001-01-01T00:00:00Z","name_a2s":"Uncletopia | Los Angeles | 1 | All Maps","protocol":17,"map":"pl_borneo","folder":"tf","game":"Team Fortress","app_id":440,"player_count":24,"max_players":24,"Bots":0,"server_type":"Dedicated","server_os":"Linux","password":true,"vac":true,"version":"7757534","steam_id":85568392924469991,"keywords":["nocrits","nodmgspread","payload","uncletopia"],"game_id":440,"stv_port":27016,"stv_name":"Uncletopia | Los Angeles | 1 | All Maps | STV","players":[{"user_id":177,"name":"flo rida","steam_id":76561198226169704,"connected_time":1284000000000,"state":"active","ping":55},{"user_id":188,"name":"Marie","steam_id":76561198056104899,"connected_time":863000000000,"state":"active","ping":118},{"user_id":179,"name":"Unknown2Me","steam_id":76561199049192464,"connected_time":1227000000000,"state":"active","ping":66},{"user_id":180,"name":"Matte :)","steam_id":76561198070631073,"connected_time":1219000000000,"state":"active","ping":59},{"user_id":189,"name":"MasterGeek.MX","steam_id":76561198063355220,"connected_time":771000000000,"state":"active","ping":127},{"user_id":181,"name":"heimdall","steam_id":76561198069380992,"connected_time":1199000000000,"state":"active","ping":93},{"user_id":192,"name":"VIRGINIA!!","steam_id":76561198036066855,"connected_time":459000000000,"state":"active","ping":90},{"user_id":195,"name":"The Bombinomicon","steam_id":76561198209881263,"connected_time":318000000000,"state":"active","ping":51},{"user_id":148,"name":"ice cream (ÂÜ∞Ê∑áÊ∑ã)","steam_id":76561198976530881,"connected_time":2908000000000,"state":"active","ping":30},{"user_id":175,"name":"Lil' Urban Achiever","steam_id":76561197970450546,"connected_time":1606000000000,"state":"active","ping":90},{"user_id":196,"name":"Tam Honks","steam_id":76561198044347961,"connected_time":208000000000,"state":"active","ping":68},{"user_id":149,"name":"rustyorion","steam_id":76561198439186347,"connected_time":2901000000000,"state":"active","ping":77},{"user_id":99,"name":"Jovi Boy","steam_id":76561198046605691,"connected_time":5899000000000,"state":"active","ping":59},{"user_id":185,"name":"ulackhate","steam_id":76561198869437637,"connected_time":1089000000000,"state":"active","ping":148},{"user_id":194,"name":"roryisonamobilehotspot","steam_id":76561198065825165,"connected_time":348000000000,"state":"active","ping":111},{"user_id":190,"name":"Strength!!","steam_id":76561198001241984,"connected_time":717000000000,"state":"active","ping":82},{"user_id":184,"name":"strangedeath","steam_id":76561198154159297,"connected_time":1100000000000,"state":"active","ping":112},{"user_id":186,"name":"oil","steam_id":76561198099980149,"connected_time":1068000000000,"state":"active","ping":53},{"user_id":193,"name":"LogicalFurret","steam_id":76561198350604657,"connected_time":373000000000,"state":"active","ping":51},{"user_id":176,"name":"dewey","steam_id":76561198132791511,"connected_time":1604000000000,"state":"active","ping":54},{"user_id":79,"name":"BorstchBag","steam_id":76561198155294045,"connected_time":7651000000000,"state":"active","ping":96},{"user_id":162,"name":"squash","steam_id":76561198150281353,"connected_time":2250000000000,"state":"active","ping":88},{"user_id":191,"name":"Unt0astedToast","steam_id":76561199018636989,"connected_time":680000000000,"state":"active","ping":46},{"user_id":165,"name":"Rodentmancer","steam_id":76561198011675372,"connected_time":2139000000000,"state":"active","ping":84}]},{"server_id":112,"name":"Uncletopia | Los Angeles | 2 | All Maps","name_short":"lax-2","host":"lax-1.us.uncletopia.com","port":27025,"enabled":true,"region":"us-west","cc":"us","latitude":33.94279,"longitude":-118.41004,"reserved":0,"last_update":"0001-01-01T00:00:00Z","name_a2s":"Uncletopia | Los Angeles | 2 | All Maps","protocol":17,"map":"pl_pier","folder":"tf","game":"Team Fortress","app_id":440,"player_count":24,"max_players":24,"Bots":0,"server_type":"Dedicated","server_os":"Linux","password":true,"vac":true,"version":"7757534","steam_id":85568392924469992,"keywords":["nocrits","nodmgspread","payload","uncletopia"],"game_id":440,"stv_port":27026,"stv_name":"Uncletopia | Los Angeles | 2 | All Maps | STV","players":[{"user_id":398,"name":"Dr. Pleasant","steam_id":76561198111945101,"connected_time":1094000000000,"state":"active","ping":118},{"user_id":405,"name":"Dimmerswitch","steam_id":76561198034782177,"connected_time":843000000000,"state":"active","ping":50},{"user_id":408,"name":"Notation","steam_id":76561198119509319,"connected_time":542000000000,"state":"active","ping":90},{"user_id":401,"name":"scumbag.","steam_id":76561197974524214,"connected_time":918000000000,"state":"active","ping":58},{"user_id":402,"name":"m√•lingen","steam_id":76561198035014807,"connected_time":909000000000,"state":"active","ping":109},{"user_id":361,"name":"craxyt","steam_id":76561198050192689,"connected_time":3853000000000,"state":"active","ping":50},{"user_id":385,"name":"Jolly","steam_id":76561198116357972,"connected_time":2322000000000,"state":"active","ping":45},{"user_id":379,"name":"Mr.Pan","steam_id":76561198069030613,"connected_time":2670000000000,"state":"active","ping":82},{"user_id":403,"name":"The Horny","steam_id":76561198863639459,"connected_time":896000000000,"state":"active","ping":111},{"user_id":374,"name":"Tostinuim","steam_id":76561198415483382,"connected_time":3177000000000,"state":"active","ping":101},{"user_id":396,"name":"Sanic","steam_id":76561198083124962,"connected_time":1435000000000,"state":"active","ping":81},{"user_id":388,"name":"fox point ranger","steam_id":76561198000765454,"connected_time":2195000000000,"state":"active","ping":72},{"user_id":365,"name":"mewtek","steam_id":76561198138599995,"connected_time":3608000000000,"state":"active","ping":67},{"user_id":412,"name":"Bony","steam_id":76561199001748822,"connected_time":115000000000,"state":"active","ping":69},{"user_id":369,"name":"landogg","steam_id":76561198049000586,"connected_time":3311000000000,"state":"active","ping":46},{"user_id":413,"name":"Psychosis","steam_id":76561198078659070,"connected_time":25000000000,"state":"active","ping":99},{"user_id":393,"name":"Nobody","steam_id":76561199352089107,"connected_time":1884000000000,"state":"active","ping":38},{"user_id":390,"name":"Artificial Unintelligence","steam_id":76561199056745987,"connected_time":2093000000000,"state":"active","ping":95},{"user_id":370,"name":"Athornius","steam_id":76561198282070564,"connected_time":3304000000000,"state":"active","ping":56},{"user_id":406,"name":"Cheers! I'll drink to that","steam_id":76561198112705880,"connected_time":843000000000,"state":"active","ping":59},{"user_id":404,"name":"Suns","steam_id":76561198272323195,"connected_time":893000000000,"state":"active","ping":98},{"user_id":411,"name":"mu","steam_id":76561197997530228,"connected_time":190000000000,"state":"active","ping":88},{"user_id":353,"name":"EAT SPIT!","steam_id":76561198096836451,"connected_time":4945000000000,"state":"active","ping":48},{"user_id":368,"name":"RiverMoot","steam_id":76561198081530179,"connected_time":3522000000000,"state":"active","ping":120}]},{"server_id":324,"name":"Uncletopia | Los Angeles | 3 | All Maps","name_short":"lax-3","host":"lax-1.us.uncletopia.com","port":27035,"enabled":true,"region":"us-west","cc":"us","latitude":33.94279,"longitude":-118.41004,"reserved":0,"last_update":"0001-01-01T00:00:00Z","name_a2s":"Uncletopia | Los Angeles | 3 | All Maps","protocol":17,"map":"koth_cascade","folder":"tf","game":"Team Fortress","app_id":440,"player_count":0,"max_players":24,"Bots":0,"server_type":"Dedicated","server_os":"Linux","password":true,"vac":true,"version":"7757534","steam_id":85568392924510198,"keywords":["cp","nocrits","nodmgspread","uncletopia"],"game_id":440,"stv_port":27036,"stv_name":"Uncletopia | Los Angeles | 3 | All Maps | STV","players":null},{"server_id":25,"name":"Uncletopia | Los Angeles | 4 | Stopwatch Beta","name_short":"lax-4","host":"lax-1.us.uncletopia.com","port":27045,"enabled":true,"region":"us-west","cc":"us","latitude":33.94279,"longitude":-118.41004,"reserved":0,"last_update":"0001-01-01T00:00:00Z","name_a2s":"Uncletopia | Los Angeles | 4 | Stopwatch Beta","protocol":17,"map":"pl_swiftwater_final1","folder":"tf","game":"Team Fortress","app_id":440,"player_count":0,"max_players":24,"Bots":0,"server_type":"Dedicated","server_os":"Linux","password":true,"vac":true,"version":"7757534","steam_id":85568392924510199,"keywords":["nocrits","nodmgspread","payload","uncletopia"],"game_id":440,"stv_port":27046,"stv_name":"Uncletopia | Los Angeles | 4 | Stopwatch Beta | STV","players":null},{"server_id":11,"name":"Uncletopia | London | 1 | All Maps","name_short":"lon-1","host":"lon-1.uk.uncletopia.com","port":27015,"enabled":true,"region":"eu","cc":"gb","latitude":51.509865,"longitude":-0.118092,"reserved":0,"last_update":"0001-01-01T00:00:00Z","name_a2s":"Uncletopia | London | 1 | All Maps","protocol":17,"map":"koth_highpass","folder":"tf","game":"Team Fortress","app_id":440,"player_count":0,"max_players":24,"Bots":0,"server_type":"Dedicated","server_os":"Linux","password":true,"vac":true,"version":"7757534","steam_id":85568392924367362,"keywords":["cp","nocrits","nodmgspread","uncletopia"],"game_id":440,"stv_port":27016,"stv_name":"Uncletopia | London | 1 | All Maps | STV","players":null},{"server_id":114,"name":"Uncletopia | London | 2 | All Maps","name_short":"lon-2","host":"lon-1.uk.uncletopia.com","port":27025,"enabled":true,"region":"eu","cc":"gb","latitude":51.509865,"longitude":-0.118092,"reserved":0,"last_update":"0001-01-01T00:00:00Z","name_a2s":"Uncletopia | London | 2 | All Maps","protocol":17,"map":"cp_altitude","folder":"tf","game":"Team Fortress","app_id":440,"player_count":0,"max_players":24,"Bots":0,"server_type":"Dedicated","server_os":"Linux","password":true,"vac":true,"version":"7757534","steam_id":85568392924470941,"keywords":["cp","nocrits","nodmgspread","uncletopia"],"game_id":440,"stv_port":27026,"stv_name":"Uncletopia | London | 2 | All Maps | STV","players":null},{"server_id":320,"name":"Uncletopia | London | 3 | All Maps","name_short":"lon-3","host":"lon-1.uk.uncletopia.com","port":27035,"enabled":true,"region":"eu","cc":"gb","latitude":51.509865,"longitude":-0.118092,"reserved":0,"last_update":"0001-01-01T00:00:00Z","name_a2s":"Uncletopia | London | 3 | All Maps","protocol":17,"map":"cp_snakewater_final1","folder":"tf","game":"Team Fortress","app_id":440,"player_count":0,"max_players":24,"Bots":0,"server_type":"Dedicated","server_os":"Linux","password":true,"vac":true,"version":"7757534","steam_id":85568392924510192,"keywords":["cp","nocrits","nodmgspread","uncletopia"],"game_id":440,"stv_port":27036,"stv_name":"Uncletopia | London | 3 | All Maps | STV","players":null},{"server_id":321,"name":"Uncletopia | London | 4 | All Maps","name_short":"lon-4","host":"lon-1.uk.uncletopia.com","port":27045,"enabled":true,"region":"eu","cc":"gb","latitude":51.509865,"longitude":-0.118092,"reserved":0,"last_update":"0001-01-01T00:00:00Z","name_a2s":"Uncletopia | London | 4 | All Maps","protocol":17,"map":"koth_viaduct","folder":"tf","game":"Team Fortress","app_id":440,"player_count":0,"max_players":24,"Bots":0,"server_type":"Dedicated","server_os":"Linux","password":true,"vac":true,"version":"7757534","steam_id":85568392924510193,"keywords":["cp","nocrits","nodmgspread","uncletopia"],"game_id":440,"stv_port":27046,"stv_name":"Uncletopia | London | 4 | All Maps | STV","players":null},{"server_id":21,"name":"Uncletopia | London | 5 | All Maps","name_short":"lon-5","host":"lon-1.uk.uncletopia.com","port":27055,"enabled":true,"region":"eu","cc":"gb","latitude":51.509865,"longitude":-0.118092,"reserved":0,"last_update":"0001-01-01T00:00:00Z","name_a2s":"Uncletopia | London | 5 | All Maps","protocol":17,"map":"koth_viaduct","folder":"tf","game":"Team Fortress","app_id":440,"player_count":0,"max_players":24,"Bots":0,"server_type":"Dedicated","server_os":"Linux","password":true,"vac":true,"version":"7757534","steam_id":85568392924742829,"keywords":["cp","nocrits","nodmgspread","uncletopia"],"game_id":440,"stv_port":27056,"stv_name":"Uncletopia | London | 5 | All Maps | STV","players":null},{"server_id":22,"name":"Uncletopia | London | 6 | All Maps","name_short":"lon-6","host":"lon-1.uk.uncletopia.com","port":27065,"enabled":true,"region":"eu","cc":"gb","latitude":51.509865,"longitude":-0.118092,"reserved":0,"last_update":"0001-01-01T00:00:00Z","name_a2s":"Uncletopia | London | 6 | All Maps","protocol":17,"map":"koth_highpass","folder":"tf","game":"Team Fortress","app_id":440,"player_count":0,"max_players":24,"Bots":0,"server_type":"Dedicated","server_os":"Linux","password":true,"vac":true,"version":"7757534","steam_id":85568392924742830,"keywords":["cp","nocrits","nodmgspread","uncletopia"],"game_id":440,"stv_port":27066,"stv_name":"Uncletopia | London | 6 | All Maps | STV","players":null},{"server_id":40,"name":"Uncletopia | London | 7 | No Payload","name_short":"lon-7","host":"lon-1.uk.uncletopia.com","port":27075,"enabled":true,"region":"eu","cc":"gb","latitude":51.509865,"longitude":-0.118092,"reserved":0,"last_update":"0001-01-01T00:00:00Z","name_a2s":"Uncletopia | London | 7 | No Payload","protocol":17,"map":"koth_harvest_final","folder":"tf","game":"Team Fortress","app_id":440,"player_count":0,"max_players":24,"Bots":0,"server_type":"Dedicated","server_os":"Linux","password":true,"vac":true,"version":"7757534","steam_id":85568392924964314,"keywords":["cp","nocrits","nodmgspread","uncletopia"],"game_id":440,"stv_port":27076,"stv_name":"Uncletopia | London | 7 | No Payload | STV","players":null},{"server_id":41,"name":"Uncletopia | London | 8 | Community","name_short":"lon-8","host":"lon-1.uk.uncletopia.com","port":27085,"enabled":true,"region":"eu","cc":"gb","latitude":51.509865,"longitude":-0.118092,"reserved":0,"last_update":"0001-01-01T00:00:00Z","name_a2s":"Uncletopia | London | 8 | Community","protocol":17,"map":"workshop/pl_highwood_b13.ugc1769496557","folder":"tf","game":"Team Fortress","app_id":440,"player_count":0,"max_players":24,"Bots":0,"server_type":"Dedicated","server_os":"Linux","password":true,"vac":true,"version":"7757534","steam_id":85568392924964315,"keywords":["nocrits","nodmgspread","payload","uncletopia"],"game_id":440,"stv_port":27086,"stv_name":"Uncletopia | London | 8 | Community | STV","players":null},{"server_id":300,"name":"Uncletopia | Montr√©al | 1 | All Maps","name_short":"mtl-1","host":"mtl-1.ca.uncletopia.com","port":27015,"enabled":true,"region":"us-east","cc":"ca","latitude":45.50889,"longitude":-73.56167,"reserved":0,"last_update":"0001-01-01T00:00:00Z","name_a2s":"Uncletopia | Montr√©al | 1 | All Maps","protocol":17,"map":"pl_pier","folder":"tf","game":"Team Fortress","app_id":440,"player_count":10,"max_players":24,"Bots":0,"server_type":"Dedicated","server_os":"Linux","password":true,"vac":true,"version":"7757534","steam_id":85568392924500087,"keywords":["nocrits","nodmgspread","payload","uncletopia"],"game_id":440,"stv_port":27016,"stv_name":"Uncletopia | Montr√©al | 1 | All Maps | STV","players":[{"user_id":177,"name":"Sinister Sandwich","steam_id":76561198142327400,"connected_time":843000000000,"state":"active","ping":69},{"user_id":142,"name":"Silvercoat's Stargazer","steam_id":76561198399525329,"connected_time":3295000000000,"state":"active","ping":63},{"user_id":127,"name":"faze pantalla","steam_id":76561198250215734,"connected_time":4326000000000,"state":"active","ping":89},{"user_id":143,"name":"The Winter Medic","steam_id":76561198197112922,"connected_time":3253000000000,"state":"active","ping":91},{"user_id":181,"name":"jaede_","steam_id":76561198108376150,"connected_time":656000000000,"state":"active","ping":177},{"user_id":178,"name":"Bing-Bong","steam_id":76561198346248367,"connected_time":811000000000,"state":"active","ping":96},{"user_id":179,"name":"vexch","steam_id":76561199183630709,"connected_time":768000000000,"state":"active","ping":44},{"user_id":184,"name":"m9tt4","steam_id":76561198069075801,"connected_time":293000000000,"state":"active","ping":60},{"user_id":182,"name":"Rodrick Knee","steam_id":76561198283021062,"connected_time":613000000000,"state":"active","ping":69},{"user_id":180,"name":"yamme","steam_id":76561198117849124,"connected_time":713000000000,"state":"active","ping":120}]},{"server_id":301,"name":"Uncletopia | Montr√©al | 2 | All Maps","name_short":"mtl-2","host":"mtl-1.ca.uncletopia.com","port":27025,"enabled":true,"region":"us-east","cc":"ca","latitude":45.50889,"longitude":-73.56167,"reserved":0,"last_update":"0001-01-01T00:00:00Z","name_a2s":"Uncletopia | Montr√©al | 2 | All Maps","protocol":17,"map":"cp_altitude","folder":"tf","game":"Team Fortress","app_id":440,"player_count":0,"max_players":24,"Bots":0,"server_type":"Dedicated","server_os":"Linux","password":true,"vac":true,"version":"7757534","steam_id":85568392924500088,"keywords":["cp","nocrits","nodmgspread","uncletopia"],"game_id":440,"stv_port":27026,"stv_name":"Uncletopia | Montr√©al | 2 | All Maps | STV","players":null},{"server_id":302,"name":"Uncletopia | Montr√©al | 3 | All Maps","name_short":"mtl-3","host":"mtl-1.ca.uncletopia.com","port":27035,"enabled":true,"region":"us-east","cc":"ca","latitude":45.50889,"longitude":-73.56167,"reserved":0,"last_update":"0001-01-01T00:00:00Z","name_a2s":"Uncletopia | Montr√©al | 3 | All Maps","protocol":17,"map":"cp_mountainlab","folder":"tf","game":"Team Fortress","app_id":440,"player_count":0,"max_players":24,"Bots":0,"server_type":"Dedicated","server_os":"Linux","password":true,"vac":true,"version":"7757534","steam_id":85568392924500089,"keywords":["cp","nocrits","nodmgspread","uncletopia"],"game_id":440,"stv_port":27036,"stv_name":"Uncletopia | Montr√©al | 3 | All Maps | STV","players":null},{"server_id":303,"name":"Uncletopia | Montr√©al | 4 | No Payload","name_short":"mtl-4","host":"mtl-1.ca.uncletopia.com","port":27045,"enabled":true,"region":"us-east","cc":"ca","latitude":45.50889,"longitude":-73.56167,"reserved":0,"last_update":"0001-01-01T00:00:00Z","name_a2s":"Uncletopia | Montr√©al | 4 | No Payload","protocol":17,"map":"cp_gravelpit","folder":"tf","game":"Team Fortress","app_id":440,"player_count":0,"max_players":24,"Bots":0,"server_type":"Dedicated","server_os":"Linux","password":true,"vac":true,"version":"7757534","steam_id":85568392924500090,"keywords":["cp","nocrits","nodmgspread","uncletopia"],"game_id":440,"stv_port":27046,"stv_name":"Uncletopia | Montr√©al | 4 | No Payload | STV","players":null},{"server_id":13,"name":"Uncletopia | New York City | 1 | All Maps","name_short":"nyc-1","host":"nyc-1.us.uncletopia.com","port":27015,"enabled":true,"region":"us-east","cc":"us","latitude":40.73061,"longitude":-73.93524,"reserved":0,"last_update":"0001-01-01T00:00:00Z","name_a2s":"Uncletopia | New York City | 1 | All Maps","protocol":17,"map":"pl_badwater","folder":"tf","game":"Team Fortress","app_id":440,"player_count":24,"max_players":24,"Bots":0,"server_type":"Dedicated","server_os":"Linux","password":true,"vac":true,"version":"7757534","steam_id":85568392924469993,"keywords":["nocrits","nodmgspread","payload","uncletopia"],"game_id":440,"stv_port":27016,"stv_name":"Uncletopia | New York City | 1 | All Maps | STV","players":[{"user_id":471,"name":"The slattiator","steam_id":76561198084422657,"connected_time":4788000000000,"state":"active","ping":107},{"user_id":522,"name":"Father Cocoa","steam_id":76561199023002514,"connected_time":1038000000000,"state":"active","ping":79},{"user_id":498,"name":"Monkey","steam_id":76561198031015186,"connected_time":3097000000000,"state":"active","ping":63},{"user_id":494,"name":"||:‚ô©‚ô©‚ô©‚ô™:|| Opplydead","steam_id":76561198028630334,"connected_time":3188000000000,"state":"active","ping":110},{"user_id":507,"name":"Braamklauw","steam_id":76561198283287697,"connected_time":2311000000000,"state":"active","ping":147},{"user_id":516,"name":"my tomach hurt 100","steam_id":76561198046111695,"connected_time":1256000000000,"state":"active","ping":82},{"user_id":529,"name":"coolfalcon168","steam_id":76561198948665710,"connected_time":249000000000,"state":"active","ping":65},{"user_id":517,"name":"Person","steam_id":76561198093244204,"connected_time":1235000000000,"state":"active","ping":64},{"user_id":495,"name":"chroma","steam_id":76561198050188632,"connected_time":3182000000000,"state":"active","ping":47},{"user_id":530,"name":"∆ê’å—¥∆≥","steam_id":76561198099470277,"connected_time":224000000000,"state":"active","ping":84},{"user_id":513,"name":"Pozyomka","steam_id":76561198086331015,"connected_time":1998000000000,"state":"active","ping":41},{"user_id":533,"name":"TV","steam_id":76561198177326926,"connected_time":80000000000,"state":"active","ping":93},{"user_id":508,"name":"Ramadan Steve","steam_id":76561198138568488,"connected_time":2260000000000,"state":"active","ping":59},{"user_id":531,"name":"twitch.tv/Yoshi21 | TF2Pugs.com","steam_id":76561198002516729,"connected_time":215000000000,"state":"active","ping":70},{"user_id":514,"name":"Egpta","steam_id":76561198237840238,"connected_time":1949000000000,"state":"active","ping":60},{"user_id":490,"name":"deech","steam_id":76561198066429444,"connected_time":3317000000000,"state":"active","ping":52},{"user_id":519,"name":"SHADIA","steam_id":76561197996513299,"connected_time":1148000000000,"state":"active","ping":74},{"user_id":527,"name":"Horrizan","steam_id":76561197965028480,"connected_time":356000000000,"state":"active","ping":90},{"user_id":532,"name":"Peepster","steam_id":76561198297854733,"connected_time":199000000000,"state":"active","ping":85},{"user_id":534,"name":"Slashes","steam_id":76561197968573499,"connected_time":80000000000,"state":"active","ping":42},{"user_id":501,"name":"Alc-do","steam_id":76561198277363726,"connected_time":2867000000000,"state":"active","ping":128},{"user_id":521,"name":"Minion Bob","steam_id":76561198023938170,"connected_time":1107000000000,"state":"active","ping":69},{"user_id":535,"name":"Darkfire","steam_id":76561198142201590,"connected_time":70000000000,"state":"active","ping":45},{"user_id":499,"name":"01000101","steam_id":76561198027981956,"connected_time":3095000000000,"state":"active","ping":95}]},{"server_id":14,"name":"Uncletopia | New York City | 2 | All Maps","name_short":"nyc-2","host":"nyc-1.us.uncletopia.com","port":27025,"enabled":true,"region":"us-east","cc":"us","latitude":40.73061,"longitude":-73.93524,"reserved":0,"last_update":"0001-01-01T00:00:00Z","name_a2s":"Uncletopia | New York City | 2 | All Maps","protocol":17,"map":"koth_viaduct","folder":"tf","game":"Team Fortress","app_id":440,"player_count":0,"max_players":24,"Bots":0,"server_type":"Dedicated","server_os":"Linux","password":true,"vac":true,"version":"7757534","steam_id":85568392924469994,"keywords":["cp","nocrits","nodmgspread","uncletopia"],"game_id":440,"stv_port":27026,"stv_name":"Uncletopia | New York City | 2 | All Maps | STV","players":null},{"server_id":15,"name":"Uncletopia | New York City | 3 | Stopwatch Beta","name_short":"nyc-3","host":"nyc-1.us.uncletopia.com","port":27035,"enabled":true,"region":"us-east","cc":"us","latitude":40.73061,"longitude":-73.93524,"reserved":0,"last_update":"0001-01-01T00:00:00Z","name_a2s":"Uncletopia | New York City | 3 | Stopwatch Beta","protocol":17,"map":"workshop/koth_clearcut_b15.ugc2107050255","folder":"tf","game":"Team Fortress","app_id":440,"player_count":0,"max_players":24,"Bots":0,"server_type":"Dedicated","server_os":"Linux","password":true,"vac":true,"version":"7757534","steam_id":85568392924742820,"keywords":["cp","nocrits","nodmgspread","uncletopia"],"game_id":440,"stv_port":27036,"stv_name":"Uncletopia | New York City | 3 | Stopwatch Beta | STV","players":null},{"server_id":16,"name":"Uncletopia | New York City | 4 | Community","name_short":"nyc-4","host":"nyc-1.us.uncletopia.com","port":27045,"enabled":true,"region":"us-east","cc":"us","latitude":40.73061,"longitude":-73.93524,"reserved":0,"last_update":"0001-01-01T00:00:00Z","name_a2s":"Uncletopia | New York City | 4 | Community","protocol":17,"map":"workshop/rd_asteroid_redux_b1.ugc2154902912","folder":"tf","game":"Team Fortress","app_id":440,"player_count":19,"max_players":24,"Bots":0,"server_type":"Dedicated","server_os":"Linux","password":true,"vac":true,"version":"7757534","steam_id":85568392924742821,"keywords":["beta","nocrits","nodmgspread","rd","uncletopia"],"game_id":440,"stv_port":27046,"stv_name":"Uncletopia | New York City | 4 | Community | STV","players":[{"user_id":234,"name":"kogasira","steam_id":76561198094152516,"connected_time":293000000000,"state":"active","ping":52},{"user_id":230,"name":"TheMostEpicest","steam_id":76561198907491719,"connected_time":469000000000,"state":"active","ping":114},{"user_id":213,"name":"twitch.tv/frimpimy","steam_id":76561198142605675,"connected_time":2422000000000,"state":"active","ping":75},{"user_id":231,"name":"Walka","steam_id":76561198074325951,"connected_time":432000000000,"state":"active","ping":113},{"user_id":235,"name":"Jab Shadow","steam_id":76561198414247427,"connected_time":252000000000,"state":"active","ping":140},{"user_id":236,"name":"Arcanine","steam_id":76561198054799281,"connected_time":181000000000,"state":"active","ping":77},{"user_id":221,"name":"Dirtbomb","steam_id":76561198002403301,"connected_time":1396000000000,"state":"active","ping":107},{"user_id":229,"name":"JohnnyGitGud","steam_id":76561198401455467,"connected_time":501000000000,"state":"active","ping":120},{"user_id":219,"name":"Snowy Squill","steam_id":76561198073504207,"connected_time":1903000000000,"state":"active","ping":149},{"user_id":212,"name":"The Dork Lord","steam_id":76561197998486407,"connected_time":2450000000000,"state":"active","ping":60},{"user_id":214,"name":"motherfudger","steam_id":76561198114959385,"connected_time":2374000000000,"state":"active","ping":65},{"user_id":139,"name":"üÖúüÖîüÖîüÖöüÖ¢üÖ£üÖî\ufffd\ufffd\ufffd","steam_id":76561197999748343,"connected_time":8209000000000,"state":"active","ping":76},{"user_id":140,"name":"Blitzy","steam_id":76561198149472890,"connected_time":8201000000000,"state":"active","ping":93},{"user_id":228,"name":"im really bad sorry","steam_id":76561198277163301,"connected_time":569000000000,"state":"active","ping":84},{"user_id":227,"name":"Well-done steak w/ ketchup","steam_id":76561197993151595,"connected_time":693000000000,"state":"active","ping":117},{"user_id":223,"name":"Infekt","steam_id":76561198070472365,"connected_time":1279000000000,"state":"active","ping":65},{"user_id":237,"name":"banan team fortes","steam_id":76561199073621650,"connected_time":147000000000,"state":"active","ping":131},{"user_id":238,"name":"MichealVA","steam_id":76561198111883143,"connected_time":141000000000,"state":"active","ping":129},{"user_id":239,"name":"sergeant Adderall","steam_id":76561199010296481,"connected_time":128000000000,"state":"active","ping":84}]},{"server_id":142,"name":"Uncletopia | S√£o Paulo | 1 | All Maps","name_short":"sao-1","host":"sao-1.br.uncletopia.com","port":27015,"enabled":true,"region":"sa","cc":"br","latitude":-23.533773,"longitude":-46.62529,"reserved":0,"last_update":"0001-01-01T00:00:00Z","name_a2s":"Uncletopia | S√£o Paulo | 1 | All Maps","protocol":17,"map":"koth_lakeside_final","folder":"tf","game":"Team Fortress","app_id":440,"player_count":0,"max_players":24,"Bots":0,"server_type":"Dedicated","server_os":"Linux","password":true,"vac":true,"version":"7757534","steam_id":85568392924469996,"keywords":["cp","nocrits","nodmgspread","uncletopia"],"game_id":440,"stv_port":27016,"stv_name":"Uncletopia | S√£o Paulo | 1 | All Maps | STV","players":null},{"server_id":143,"name":"Uncletopia | S√£o Paulo | 2 | All Maps","name_short":"sao-2","host":"sao-2.br.uncletopia.com","port":27015,"enabled":true,"region":"sa","cc":"br","latitude":-23.533773,"longitude":-46.62529,"reserved":0,"last_update":"0001-01-01T00:00:00Z","name_a2s":"Uncletopia | S√£o Paulo | 2 | All Maps","protocol":17,"map":"koth_viaduct","folder":"tf","game":"Team Fortress","app_id":440,"player_count":0,"max_players":24,"Bots":0,"server_type":"Dedicated","server_os":"Linux","password":true,"vac":true,"version":"7757534","steam_id":85568392924485349,"keywords":["cp","nocrits","nodmgspread","uncletopia"],"game_id":440,"stv_port":27016,"stv_name":"Uncletopia | S√£o Paulo | 2 | All Maps | STV","players":null},{"server_id":7,"name":"Uncletopia | Seattle | 1 | All Maps","name_short":"sea-1","host":"sea-1.us.uncletopia.com","port":27015,"enabled":true,"region":"us-west","cc":"us","latitude":47.608013,"longitude":-122.33517,"reserved":0,"last_update":"0001-01-01T00:00:00Z","name_a2s":"Uncletopia | Seattle | 1 | All Maps","protocol":17,"map":"cp_mossrock","folder":"tf","game":"Team Fortress","app_id":440,"player_count":24,"max_players":24,"Bots":0,"server_type":"Dedicated","server_os":"Linux","password":true,"vac":true,"version":"7757534","steam_id":85568392924469997,"keywords":["cp","nocrits","nodmgspread","uncletopia"],"game_id":440,"stv_port":27016,"stv_name":"Uncletopia | Seattle | 1 | All Maps | STV","players":[{"user_id":684,"name":"BallinLikeStalin","steam_id":76561198229454868,"connected_time":194000000000,"state":"active","ping":74},{"user_id":653,"name":"toes","steam_id":76561198221151676,"connected_time":2518000000000,"state":"active","ping":54},{"user_id":665,"name":"Amogous Supreme","steam_id":76561198025476774,"connected_time":1632000000000,"state":"active","ping":70},{"user_id":670,"name":"‚Ö£ E√∂l Hater","steam_id":76561198056377621,"connected_time":1362000000000,"state":"active","ping":101},{"user_id":683,"name":"Thanks Ants","steam_id":76561197966221018,"connected_time":793000000000,"state":"active","ping":53},{"user_id":659,"name":"SvicidalBug","steam_id":76561198221390504,"connected_time":1967000000000,"state":"active","ping":70},{"user_id":628,"name":"trackpad gaming | f2p","steam_id":76561198840414371,"connected_time":4001000000000,"state":"active","ping":50},{"user_id":678,"name":"Hassium","steam_id":76561198162541373,"connected_time":1122000000000,"state":"active","ping":58},{"user_id":674,"name":"dust | she/it","steam_id":76561198045218909,"connected_time":1298000000000,"state":"active","ping":36},{"user_id":679,"name":"JayChan","steam_id":76561198040866769,"connected_time":1105000000000,"state":"active","ping":71},{"user_id":639,"name":"Papa Panda","steam_id":76561198159061475,"connected_time":3450000000000,"state":"active","ping":79},{"user_id":685,"name":"Ayayahuasca","steam_id":76561199002906056,"connected_time":104000000000,"state":"active","ping":49},{"user_id":680,"name":"Hezb","steam_id":76561199216455504,"connected_time":1105000000000,"state":"active","ping":94},{"user_id":677,"name":"bigindarug","steam_id":76561198165784818,"connected_time":1168000000000,"state":"active","ping":74},{"user_id":656,"name":"mooney","steam_id":76561199110622484,"connected_time":2219000000000,"state":"active","ping":72},{"user_id":676,"name":"Tungsten","steam_id":76561198312854342,"connected_time":1204000000000,"state":"active","ping":66},{"user_id":600,"name":"shy guy","steam_id":76561198151246059,"connected_time":6181000000000,"state":"active","ping":62},{"user_id":624,"name":"mike, buying 20 barefoots","steam_id":76561198225411004,"connected_time":4708000000000,"state":"active","ping":70},{"user_id":641,"name":"Man","steam_id":76561198274547639,"connected_time":3416000000000,"state":"active","ping":76},{"user_id":616,"name":"\\m/ Cyfun (she/it)","steam_id":76561197960882221,"connected_time":5412000000000,"state":"active","ping":89},{"user_id":681,"name":"Toaster Oven (ANGRY BIRD GOD OF","steam_id":76561199075777687,"connected_time":984000000000,"state":"active","ping":85},{"user_id":675,"name":"‚Ä∫ Pavvy","steam_id":76561197998662839,"connected_time":1232000000000,"state":"active","ping":78},{"user_id":682,"name":"amagicowl","steam_id":76561199060487814,"connected_time":855000000000,"state":"active","ping":59},{"user_id":574,"name":"lili","steam_id":76561199391478575,"connected_time":8374000000000,"state":"active","ping":76}]},{"server_id":119,"name":"Uncletopia | Seattle | 2 | All Maps","name_short":"sea-2","host":"sea-1.us.uncletopia.com","port":27025,"enabled":true,"region":"us-west","cc":"us","latitude":47.608013,"longitude":-122.33517,"reserved":0,"last_update":"0001-01-01T00:00:00Z","name_a2s":"Uncletopia | Seattle | 2 | All Maps","protocol":17,"map":"cp_mercenarypark","folder":"tf","game":"Team Fortress","app_id":440,"player_count":24,"max_players":24,"Bots":0,"server_type":"Dedicated","server_os":"Linux","password":true,"vac":true,"version":"7757534","steam_id":85568392924469998,"keywords":["cp","nocrits","nodmgspread","uncletopia"],"game_id":440,"stv_port":27026,"stv_name":"Uncletopia | Seattle | 2 | All Maps | STV","players":[{"user_id":377,"name":"weeb","steam_id":76561199021791121,"connected_time":2943000000000,"state":"active","ping":52},{"user_id":382,"name":"Korbi.","steam_id":76561198355711373,"connected_time":2526000000000,"state":"active","ping":70},{"user_id":401,"name":"[PINGU‚Ñ¢] Tiny Tuna","steam_id":76561198193611579,"connected_time":1076000000000,"state":"active","ping":131},{"user_id":391,"name":"A Duck With Socks","steam_id":76561198018844227,"connected_time":1525000000000,"state":"active","ping":57},{"user_id":355,"name":"Five","steam_id":76561198026640473,"connected_time":4252000000000,"state":"active","ping":51},{"user_id":388,"name":"MisterManne","steam_id":76561198106598600,"connected_time":1919000000000,"state":"active","ping":57},{"user_id":379,"name":"mub","steam_id":76561197961943948,"connected_time":2742000000000,"state":"active","ping":45},{"user_id":418,"name":"gorf","steam_id":76561198210322871,"connected_time":313000000000,"state":"active","ping":73},{"user_id":356,"name":"TrashMan","steam_id":76561198064860110,"connected_time":4245000000000,"state":"active","ping":112},{"user_id":405,"name":"xthyl","steam_id":76561199361299006,"connected_time":879000000000,"state":"active","ping":130},{"user_id":393,"name":"peanut","steam_id":76561198305611893,"connected_time":1499000000000,"state":"active","ping":105},{"user_id":420,"name":"Glar","steam_id":76561198341907150,"connected_time":226000000000,"state":"active","ping":27},{"user_id":326,"name":"Toastedtoast222","steam_id":76561198120756409,"connected_time":6059000000000,"state":"active","ping":69},{"user_id":402,"name":"Bendidy","steam_id":76561198041964300,"connected_time":1041000000000,"state":"active","ping":71},{"user_id":419,"name":"Dangerous_Dave76","steam_id":76561199230056550,"connected_time":310000000000,"state":"active","ping":84},{"user_id":403,"name":"Haydob13","steam_id":76561198110378191,"connected_time":1039000000000,"state":"active","ping":53},{"user_id":384,"name":"Superbacon24","steam_id":76561198121223443,"connected_time":2482000000000,"state":"active","ping":69},{"user_id":400,"name":"HAT-WEARING‚Ñ¢ Maggot Gamer Cat","steam_id":76561197973992705,"connected_time":1182000000000,"state":"active","ping":79},{"user_id":314,"name":"C U Next Tuesday","steam_id":76561198058493492,"connected_time":6682000000000,"state":"active","ping":54},{"user_id":409,"name":"flycargodash1010","steam_id":76561199456589841,"connected_time":506000000000,"state":"active","ping":99},{"user_id":404,"name":"sora","steam_id":76561198094256973,"connected_time":907000000000,"state":"active","ping":63},{"user_id":396,"name":"_OUTERSPACECASE","steam_id":76561198025332364,"connected_time":1371000000000,"state":"active","ping":105},{"user_id":414,"name":"XxDragon4321xX","steam_id":76561198046705735,"connected_time":403000000000,"state":"active","ping":101},{"user_id":348,"name":"chaos","steam_id":76561198055462404,"connected_time":4649000000000,"state":"active","ping":67}]},{"server_id":406,"name":"Uncletopia | Seattle | 3 | Stopwatch Beta","name_short":"sea-3","host":"sea-1.us.uncletopia.com","port":27035,"enabled":true,"region":"us-west","cc":"us","latitude":47.608013,"longitude":-122.33517,"reserved":0,"last_update":"0001-01-01T00:00:00Z","name_a2s":"Uncletopia | Seattle | 3 | Stopwatch Beta","protocol":17,"map":"pl_swiftwater_final1","folder":"tf","game":"Team Fortress","app_id":440,"player_count":0,"max_players":24,"Bots":0,"server_type":"Dedicated","server_os":"Linux","password":true,"vac":true,"version":"7757534","steam_id":85568392924515217,"keywords":["nocrits","nodmgspread","payload","uncletopia"],"game_id":440,"stv_port":27036,"stv_name":"Uncletopia | Seattle | 3 | Stopwatch Beta | STV","players":null},{"server_id":17,"name":"Uncletopia | San Francisco | 1 | All Maps","name_short":"sfo-1","host":"sfo-1.us.uncletopia.com","port":27015,"enabled":true,"region":"us-west","cc":"us","latitude":37.77397,"longitude":-122.4313,"reserved":0,"last_update":"0001-01-01T00:00:00Z","name_a2s":"Uncletopia | San Francisco | 1 | All Maps","protocol":17,"map":"pl_upward","folder":"tf","game":"Team Fortress","app_id":440,"player_count":23,"max_players":24,"Bots":0,"server_type":"Dedicated","server_os":"Linux","password":true,"vac":true,"version":"7757534","steam_id":85568392924469999,"keywords":["nocrits","nodmgspread","payload","uncletopia"],"game_id":440,"stv_port":27016,"stv_name":"Uncletopia | San Francisco | 1 | All Maps | STV","players":[{"user_id":278,"name":"will","steam_id":76561198134923092,"connected_time":1574000000000,"state":"active","ping":51},{"user_id":286,"name":"ghostglitch","steam_id":76561197991608573,"connected_time":752000000000,"state":"active","ping":38},{"user_id":300,"name":"demomanfan2008","steam_id":76561198077030486,"connected_time":11000000000,"state":"active","ping":140},{"user_id":251,"name":"AoD  Pyro","steam_id":76561198312228050,"connected_time":3404000000000,"state":"active","ping":114},{"user_id":296,"name":"slowdance","steam_id":76561198097427947,"connected_time":198000000000,"state":"active","ping":97},{"user_id":288,"name":"Loamy","steam_id":76561198064183674,"connected_time":620000000000,"state":"active","ping":56},{"user_id":297,"name":"Bread Dad","steam_id":76561198088284226,"connected_time":169000000000,"state":"active","ping":61},{"user_id":285,"name":"El Viejo Paulino","steam_id":76561198211944169,"connected_time":863000000000,"state":"active","ping":72},{"user_id":206,"name":"transgender is like ferrari","steam_id":76561199023017383,"connected_time":5632000000000,"state":"active","ping":128},{"user_id":207,"name":"Xxbussyboi69xx","steam_id":76561199122336067,"connected_time":5623000000000,"state":"active","ping":114},{"user_id":280,"name":"gazoig","steam_id":76561199041519004,"connected_time":1345000000000,"state":"active","ping":62},{"user_id":253,"name":"Egghead","steam_id":76561198159723876,"connected_time":3388000000000,"state":"active","ping":134},{"user_id":179,"name":"‚öôNebula‚öô","steam_id":76561198093148959,"connected_time":8539000000000,"state":"active","ping":97},{"user_id":272,"name":"Agent Q","steam_id":76561198830829003,"connected_time":1851000000000,"state":"active","ping":77},{"user_id":298,"name":"H.","steam_id":76561198074951179,"connected_time":167000000000,"state":"active","ping":69},{"user_id":294,"name":"Krazy","steam_id":76561198835502709,"connected_time":447000000000,"state":"active","ping":52},{"user_id":299,"name":"Cave Dweller","steam_id":76561198374825685,"connected_time":162000000000,"state":"active","ping":59},{"user_id":279,"name":"blozet","steam_id":76561199120161035,"connected_time":1491000000000,"state":"active","ping":115},{"user_id":276,"name":"mentos14","steam_id":76561198097993629,"connected_time":1689000000000,"state":"active","ping":68},{"user_id":274,"name":"oToqd","steam_id":76561198389063713,"connected_time":1836000000000,"state":"active","ping":83},{"user_id":232,"name":"Bacon","steam_id":76561198800334545,"connected_time":4437000000000,"state":"active","ping":59},{"user_id":284,"name":"Schmeckenater","steam_id":76561198039954331,"connected_time":913000000000,"state":"active","ping":108},{"user_id":291,"name":"huh","steam_id":76561198272057200,"connected_time":530000000000,"state":"active","ping":48}]},{"server_id":18,"name":"Uncletopia | San Francisco | 2 | All Maps","name_short":"sfo-2","host":"sfo-1.us.uncletopia.com","port":27025,"enabled":true,"region":"us-west","cc":"us","latitude":37.77397,"longitude":-122.4313,"reserved":0,"last_update":"0001-01-01T00:00:00Z","name_a2s":"Uncletopia | San Francisco | 2 | All Maps","protocol":17,"map":"pl_upward","folder":"tf","game":"Team Fortress","app_id":440,"player_count":22,"max_players":24,"Bots":0,"server_type":"Dedicated","server_os":"Linux","password":true,"vac":true,"version":"7757534","steam_id":85568392924470000,"keywords":["nocrits","nodmgspread","payload","uncletopia"],"game_id":440,"stv_port":27026,"stv_name":"Uncletopia | San Francisco | 2 | All Maps | STV","players":[{"user_id":245,"name":"HammerHead","steam_id":76561197975668646,"connected_time":923000000000,"state":"active","ping":75},{"user_id":223,"name":"Aviyarn","steam_id":76561199074194652,"connected_time":1753000000000,"state":"active","ping":103},{"user_id":246,"name":"PyroTechno","steam_id":76561198060929872,"connected_time":896000000000,"state":"active","ping":101},{"user_id":247,"name":"mumbles","steam_id":76561197994528974,"connected_time":892000000000,"state":"active","ping":96},{"user_id":224,"name":"snowshoe","steam_id":76561199476816590,"connected_time":1715000000000,"state":"active","ping":89},{"user_id":254,"name":"obese farts","steam_id":76561198206922028,"connected_time":125000000000,"state":"active","ping":52},{"user_id":253,"name":"Aux","steam_id":76561199091651065,"connected_time":263000000000,"state":"active","ping":51},{"user_id":216,"name":"Speedycat","steam_id":76561198024821259,"connected_time":2195000000000,"state":"active","ping":73},{"user_id":234,"name":"VampWolfDoll (She/Her)","steam_id":76561198102301491,"connected_time":1386000000000,"state":"active","ping":106},{"user_id":238,"name":"Super Rad!","steam_id":76561197961107982,"connected_time":1276000000000,"state":"active","ping":102},{"user_id":242,"name":"zinnk","steam_id":76561198092081825,"connected_time":984000000000,"state":"active","ping":30},{"user_id":243,"name":"Arbiter Soul [Urine Enthusiast]","steam_id":76561198067798973,"connected_time":981000000000,"state":"active","ping":69},{"user_id":235,"name":"Bashful Boi (0w0)","steam_id":76561198297585031,"connected_time":1366000000000,"state":"active","ping":60},{"user_id":231,"name":"DatFluffyPancake","steam_id":76561198271958697,"connected_time":1531000000000,"state":"active","ping":81},{"user_id":244,"name":"Honey Boo Boo","steam_id":76561198119340886,"connected_time":965000000000,"state":"active","ping":113},{"user_id":256,"name":"0r161n4lj0k3","steam_id":76561198127328235,"connected_time":70000000000,"state":"active","ping":83},{"user_id":239,"name":"Seraph Guardian","steam_id":76561198162891621,"connected_time":1274000000000,"state":"active","ping":63},{"user_id":251,"name":"maximusbabaximus","steam_id":76561198419378913,"connected_time":522000000000,"state":"active","ping":59},{"user_id":198,"name":"ur getting frog","steam_id":76561198880773196,"connected_time":3147000000000,"state":"active","ping":87},{"user_id":177,"name":"Dop_Pop_Bop","steam_id":76561198803110941,"connected_time":5016000000000,"state":"active","ping":68},{"user_id":252,"name":"reverie","steam_id":76561198168158637,"connected_time":514000000000,"state":"active","ping":60},{"user_id":222,"name":"Nibotshooter","steam_id":76561199284825579,"connected_time":1932000000000,"state":"active","ping":121}]},{"server_id":19,"name":"Uncletopia | San Francisco | 3 | Stopwatch Beta","name_short":"sfo-3","host":"sfo-1.us.uncletopia.com","port":27035,"enabled":true,"region":"us-west","cc":"us","latitude":37.77397,"longitude":-122.4313,"reserved":0,"last_update":"0001-01-01T00:00:00Z","name_a2s":"Uncletopia | San Francisco | 3 | Stopwatch Beta","protocol":17,"map":"koth_lakeside_final","folder":"tf","game":"Team Fortress","app_id":440,"player_count":0,"max_players":24,"Bots":0,"server_type":"Dedicated","server_os":"Linux","password":true,"vac":true,"version":"7757534","steam_id":85568392924742824,"keywords":["cp","nocrits","nodmgspread","uncletopia"],"game_id":440,"stv_port":27036,"stv_name":"Uncletopia | San Francisco | 3 | Stopwatch Beta | STV","players":null},{"server_id":20,"name":"Uncletopia | San Francisco | 4 | Community","name_short":"sfo-4","host":"sfo-1.us.uncletopia.com","port":27045,"enabled":true,"region":"us-west","cc":"us","latitude":37.77397,"longitude":-122.4313,"reserved":0,"last_update":"0001-01-01T00:00:00Z","name_a2s":"Uncletopia | San Francisco | 4 | Community","protocol":17,"map":"workshop/cp_snowbase_b18.ugc2081770490","folder":"tf","game":"Team Fortress","app_id":440,"player_count":0,"max_players":24,"Bots":0,"server_type":"Dedicated","server_os":"Linux","password":true,"vac":true,"version":"7757534","steam_id":85568392924742826,"keywords":["cp","nocrits","nodmgspread","uncletopia"],"game_id":440,"stv_port":27046,"stv_name":"Uncletopia | San Francisco | 4 | Community | STV","players":null},{"server_id":141,"name":"Uncletopia | Sydney | 1 | All Maps","name_short":"syd-1","host":"syd-1.au.uncletopia.com","port":27015,"enabled":true,"region":"au","cc":"au","latitude":-33.865143,"longitude":151.2099,"reserved":0,"last_update":"0001-01-01T00:00:00Z","name_a2s":"Uncletopia | Sydney | 1 | All Maps","protocol":17,"map":"ctf_2fort","folder":"tf","game":"Team Fortress","app_id":440,"player_count":0,"max_players":24,"Bots":0,"server_type":"Dedicated","server_os":"Linux","password":true,"vac":true,"version":"7757534","steam_id":85568392924470001,"keywords":["ctf","nocrits","nodmgspread","uncletopia"],"game_id":440,"stv_port":27016,"stv_name":"Uncletopia | Sydney | 1 | All Maps | STV","players":null},{"server_id":123,"name":"Uncletopia | Sydney | 2 | All Maps","name_short":"syd-2","host":"syd-1.au.uncletopia.com","port":27025,"enabled":true,"region":"au","cc":"au","latitude":-33.865143,"longitude":151.2099,"reserved":0,"last_update":"0001-01-01T00:00:00Z","name_a2s":"Uncletopia | Sydney | 2 | All Maps","protocol":17,"map":"pl_barnblitz","folder":"tf","game":"Team Fortress","app_id":440,"player_count":6,"max_players":24,"Bots":0,"server_type":"Dedicated","server_os":"Linux","password":true,"vac":true,"version":"7757534","steam_id":85568392924470002,"keywords":["nocrits","nodmgspread","payload","uncletopia"],"game_id":440,"stv_port":27026,"stv_name":"Uncletopia | Sydney | 2 | All Maps | STV","players":[{"user_id":7,"name":"Zilvera","steam_id":76561198065801850,"connected_time":489000000000,"state":"active","ping":54},{"user_id":8,"name":"Bing Soy","steam_id":76561198057093383,"connected_time":378000000000,"state":"active","ping":39},{"user_id":9,"name":"SaltierThanYou","steam_id":76561198444395188,"connected_time":273000000000,"state":"active","ping":78},{"user_id":10,"name":"Zieria","steam_id":76561199261811388,"connected_time":241000000000,"state":"active","ping":35},{"user_id":14,"name":"Shadow Puppeteer","steam_id":76561198151121997,"connected_time":63000000000,"state":"active","ping":77},{"user_id":13,"name":"Tantei Rotana","steam_id":76561198041204323,"connected_time":67000000000,"state":"active","ping":60}]},{"server_id":395,"name":"Uncletopia | Sydney | 3 | All Maps","name_short":"syd-3","host":"syd-1.au.uncletopia.com","port":27035,"enabled":true,"region":"au","cc":"au","latitude":-33.865143,"longitude":151.2099,"reserved":0,"last_update":"0001-01-01T00:00:00Z","name_a2s":"Uncletopia | Sydney | 3 | All Maps","protocol":17,"map":"pl_pier","folder":"tf","game":"Team Fortress","app_id":440,"player_count":0,"max_players":24,"Bots":0,"server_type":"Dedicated","server_os":"Linux","password":true,"vac":true,"version":"7757534","steam_id":85568392925194467,"keywords":["nocrits","nodmgspread","payload","uncletopia"],"game_id":440,"stv_port":27036,"stv_name":"Uncletopia | Sydney | 3 | All Maps | STV","players":null},{"server_id":396,"name":"Uncletopia | Sydney | 4 | All Maps","name_short":"syd-4","host":"syd-1.au.uncletopia.com","port":27045,"enabled":true,"region":"au","cc":"au","latitude":-33.865143,"longitude":151.2099,"reserved":0,"last_update":"0001-01-01T00:00:00Z","name_a2s":"Uncletopia | Sydney | 4 | All Maps","protocol":17,"map":"koth_highpass","folder":"tf","game":"Team Fortress","app_id":440,"player_count":0,"max_players":24,"Bots":0,"server_type":"Dedicated","server_os":"Linux","password":true,"vac":true,"version":"7757534","steam_id":85568392925397958,"keywords":["cp","nocrits","nodmgspread","uncletopia"],"game_id":440,"stv_port":27046,"stv_name":"Uncletopia | Sydney | 4 | All Maps | STV","players":null},{"server_id":58,"name":"Uncletopia | Sydney | 5 | Stopwatch Beta","name_short":"syd-5","host":"syd-1.au.uncletopia.com","port":27055,"enabled":true,"region":"au","cc":"au","latitude":-33.865143,"longitude":151.2099,"reserved":0,"last_update":"0001-01-01T00:00:00Z","name_a2s":"Uncletopia | Sydney | 5 | Stopwatch Beta","protocol":17,"map":"koth_cascade","folder":"tf","game":"Team Fortress","app_id":440,"player_count":0,"max_players":24,"Bots":0,"server_type":"Dedicated","server_os":"Linux","password":true,"vac":true,"version":"7757534","steam_id":85568392925397959,"keywords":["cp","nocrits","nodmgspread","uncletopia"],"game_id":440,"stv_port":27056,"stv_name":"Uncletopia | Sydney | 5 | Stopwatch Beta | STV","players":null},{"server_id":59,"name":"Uncletopia | Sydney | 6 | Community","name_short":"syd-6","host":"syd-1.au.uncletopia.com","port":27065,"enabled":true,"region":"au","cc":"au","latitude":-33.865143,"longitude":151.2099,"reserved":0,"last_update":"0001-01-01T00:00:00Z","name_a2s":"Uncletopia | Sydney | 6 | Community","protocol":17,"map":"workshop/pl_barnblitz_pro7.ugc582280235","folder":"tf","game":"Team Fortress","app_id":440,"player_count":0,"max_players":24,"Bots":0,"server_type":"Dedicated","server_os":"Linux","password":true,"vac":true,"version":"7757534","steam_id":85568392925397960,"keywords":["nocrits","nodmgspread","payload","uncletopia"],"game_id":440,"stv_port":27066,"stv_name":"Uncletopia | Sydney | 6 | Community | STV","players":null},{"server_id":49,"name":"Uncletopia | Warsaw | 1 | All Maps","name_short":"waw-1","host":"waw-1.pl.uncletopia.com","port":27015,"enabled":true,"region":"eu","cc":"pl","latitude":52.2297,"longitude":21.017532,"reserved":0,"last_update":"0001-01-01T00:00:00Z","name_a2s":"","protocol":0,"map":"","folder":"","game":"","app_id":0,"player_count":0,"max_players":0,"Bots":0,"server_type":"","server_os":"","password":false,"vac":false,"version":"","steam_id":0,"keywords":null,"game_id":0,"stv_port":0,"stv_name":"","players":null},{"server_id":50,"name":"Uncletopia | Warsaw | 2 | All Maps","name_short":"waw-2","host":"waw-1.pl.uncletopia.com","port":27025,"enabled":true,"region":"eu","cc":"pl","latitude":52.2297,"longitude":21.017532,"reserved":0,"last_update":"0001-01-01T00:00:00Z","name_a2s":"Uncletopia | Warsaw | 2 | All Maps","protocol":17,"map":"koth_viaduct","folder":"tf","game":"Team Fortress","app_id":440,"player_count":0,"max_players":24,"Bots":0,"server_type":"Dedicated","server_os":"Linux","password":true,"vac":true,"version":"7757534","steam_id":85568392925397851,"keywords":["cp","nocrits","nodmgspread","uncletopia"],"game_id":440,"stv_port":27026,"stv_name":"Uncletopia | Warsaw | 2 | All Maps | STV","players":null},{"server_id":51,"name":"Uncletopia | Warsaw | 3 | All Maps","name_short":"waw-3","host":"waw-1.pl.uncletopia.com","port":27035,"enabled":true,"region":"eu","cc":"pl","latitude":52.2297,"longitude":21.017532,"reserved":0,"last_update":"0001-01-01T00:00:00Z","name_a2s":"Uncletopia | Warsaw | 3 | All Maps","protocol":17,"map":"pl_badwater","folder":"tf","game":"Team Fortress","app_id":440,"player_count":0,"max_players":24,"Bots":0,"server_type":"Dedicated","server_os":"Linux","password":true,"vac":true,"version":"7757534","steam_id":85568392925397852,"keywords":["nocrits","nodmgspread","payload","uncletopia"],"game_id":440,"stv_port":27036,"stv_name":"Uncletopia | Warsaw | 3 | All Maps | STV","players":null},{"server_id":52,"name":"Uncletopia | Warsaw | 4 | All Maps","name_short":"waw-4","host":"waw-1.pl.uncletopia.com","port":27045,"enabled":true,"region":"eu","cc":"pl","latitude":52.2297,"longitude":21.017532,"reserved":0,"last_update":"0001-01-01T00:00:00Z","name_a2s":"Uncletopia | Warsaw | 4 | All Maps","protocol":17,"map":"koth_lakeside_final","folder":"tf","game":"Team Fortress","app_id":440,"player_count":0,"max_players":24,"Bots":0,"server_type":"Dedicated","server_os":"Linux","password":true,"vac":true,"version":"7757534","steam_id":85568392925397853,"keywords":["cp","nocrits","nodmgspread","uncletopia"],"game_id":440,"stv_port":27046,"stv_name":"Uncletopia | Warsaw | 4 | All Maps | STV","players":null},{"server_id":53,"name":"Uncletopia | Warsaw | 5 | Stopwatch Beta","name_short":"waw-5","host":"waw-1.pl.uncletopia.com","port":27055,"enabled":true,"region":"eu","cc":"pl","latitude":52.2297,"longitude":21.017532,"reserved":0,"last_update":"0001-01-01T00:00:00Z","name_a2s":"Uncletopia | Warsaw | 5 | Stopwatch Beta","protocol":17,"map":"pl_borneo","folder":"tf","game":"Team Fortress","app_id":440,"player_count":0,"max_players":24,"Bots":0,"server_type":"Dedicated","server_os":"Linux","password":true,"vac":true,"version":"7757534","steam_id":85568392925397854,"keywords":["nocrits","nodmgspread","payload","uncletopia"],"game_id":440,"stv_port":27056,"stv_name":"Uncletopia | Warsaw | 5 | Stopwatch Beta | STV","players":null},{"server_id":54,"name":"Uncletopia | Warsaw | 6 | Community","name_short":"waw-6","host":"waw-1.pl.uncletopia.com","port":27065,"enabled":true,"region":"eu","cc":"pl","latitude":52.2297,"longitude":21.017532,"reserved":0,"last_update":"0001-01-01T00:00:00Z","name_a2s":"Uncletopia | Warsaw | 6 | Community","protocol":17,"map":"koth_lakeside_final","folder":"tf","game":"Team Fortress","app_id":440,"player_count":0,"max_players":24,"Bots":0,"server_type":"Dedicated","server_os":"Linux","password":true,"vac":true,"version":"7757534","steam_id":85568392925397856,"keywords":["cp","nocrits","nodmgspread","uncletopia"],"game_id":440,"stv_port":27066,"stv_name":"Uncletopia | Warsaw | 6 | Community | STV","players":null}]}