{"status":true,"message":"","result":[{"server_id":9,"name":"Uncletopia | Atlanta | 1 | All Maps","name_short":"atl-1","host":"atl-1.us.uncletopia.com","port":27015,"enabled":true,"region":"us-east","cc":"us","latitude":33.753746,"longitude":-84.38633,"reserved":0,"last_update":"0001-01-01T00:00:00Z","name_a2s":"Uncletopia | Atlanta | 1 | All Maps","protocol":17,"map":"koth_highpass","folder":"tf","game":"Team Fortress","app_id":440,"player_count":0,"max_players":24,"Bots":0,"server_type":"Dedicated","server_os":"Linux","password":false,"vac":true,"version":"7961495","steam_id":85568392924469982,"keywords":["cp","nocrits","nodmgspread","uncletopia"],"game_id":440,"stv_port":27016,"stv_name":"Uncletopia | Atlanta | 1 | All Maps | STV","players":null},{"server_id":104,"name":"Uncletopia | Atlanta | 2 | All Maps","name_short":"atl-2","host":"atl-1.us.uncletopia.com","port":27025,"enabled":true,"region":"us-east","cc":"us","latitude":33.753746,"longitude":-84.38633,"reserved":0,"last_update":"0001-01-01T00:00:00Z","name_a2s":"Uncletopia | Atlanta | 2 | All Maps","protocol":17,"map":"cp_mountainlab","folder":"tf","game":"Team Fortress","app_id":440,"player_count":0,"max_players":24,"Bots":0,"server_type":"Dedicated","server_os":"Linux","password":false,"vac":true,"version":"7961495","steam_id":85568392924469983,"keywords":["cp","nocrits","nodmgspread","uncletopia"],"game_id":440,"stv_port":27026,"stv_name":"Uncletopia | Atlanta | 2 | All Maps | STV","players":null},{"server_id":400,"name":"Uncletopia | Atlanta | 3 | All Maps","name_short":"atl-3","host":"atl-1.us.uncletopia.com","port":27035,"enabled":true,"region":"us-east","cc":"us","latitude":33.753746,"longitude":-84.38633,"reserved":0,"last_update":"0001-01-01T00:00:00Z","name_a2s":"Uncletopia | Atlanta | 3 | All Maps","protocol":17,"map":"cp_process_final","folder":"tf","game":"Team Fortress","app_id":440,"player_count":0,"max_players":24,"Bots":0,"server_type":"Dedicated","server_os":"Linux","password":false,"vac":true,"version":"7961495","steam_id":85568392924515187,"keywords":["cp","nocrits","nodmgspread","uncletopia"],"game_id":440,"stv_port":27036,"stv_name":"Uncletopia | Atlanta | 3 | All Maps | STV","players":null},{"server_id":401,"name":"Uncletopia | Atlanta | 4 | Community","name_short":"atl-4","host":"atl-1.us.uncletopia.com","port":27045,"enabled":true,"region":"us-east","cc":"us","latitude":33.753746,"longitude":-84.38633,"reserved":0,"last_update":"0001-01-01T00:00:00Z","name_a2s":"Uncletopia | Atlanta | 4 | Community","protocol":17,"map":"koth_lakeside_final","folder":"tf","game":"Team Fortress","app_id":440,"player_count":0,"max_players":24,"Bots":0,"server_type":"Dedicated","server_os":"Linux","password":false,"vac":true,"version":"7961495","steam_id":85568392924515188,"keywords":["cp","nocrits","nodmgspread","uncletopia"],"game_id":440,"stv_port":27046,"stv_name":"Uncletopia | Atlanta | 4 | Community | STV","players":null},{"server_id":2,"name":"Uncletopia | Chicago | 1 | All Maps","name_short":"chi-1","host":"chi-1.us.uncletopia.com","port":27015,"enabled":true,"region":"us-central","cc":"us","latitude":41.881832,"longitude":-87.62318,"reserved":0,"last_update":"0001-01-01T00:00:00Z","name_a2s":"Uncletopia | Chicago | 1 | All Maps","protocol":17,"map":"koth_highpass","folder":"tf","game":"Team Fortress","app_id":440,"player_count":0,"max_players":24,"Bots":0,"server_type":"Dedicated","server_os":"Linux","password":true,"vac":true,"version":"7961495","steam_id":85568392924469984,"keywords":["cp","nocrits","nodmgspread","uncletopia"],"game_id":440,"stv_port":27016,"stv_name":"Uncletopia | Chicago | 1 | All Maps | STV","players":null},{"server_id":106,"name":"Uncletopia | Chicago | 2 | All Maps","name_short":"chi-2","host":"chi-1.us.uncletopia.com","port":27025,"enabled":true,"region":"us-central","cc":"us","latitude":41.881832,"longitude":-87.62318,"reserved":0,"last_update":"0001-01-01T00:00:00Z","name_a2s":"Uncletopia | Chicago | 2 | All Maps","protocol":17,"map":"koth_highpass","folder":"tf","game":"Team Fortress","app_id":440,"player_count":23,"max_players":24,"Bots":0,"server_type":"Dedicated","server_os":"Linux","password":true,"vac":true,"version":"7961495","steam_id":85568392924469985,"keywords":["cp","nocrits","nodmgspread","uncletopia"],"game_id":440,"stv_port":27026,"stv_name":"Uncletopia | Chicago | 2 | All Maps | STV","players":[{"user_id":816,"name":"BuncusBeffer","steam_id":76561198285936616,"connected_time":335000000000,"state":"active","ping":105},{"user_id":805,"name":"Clownfucker","steam_id":76561198091713728,"connected_time":858000000000,"state":"active","ping":113},{"user_id":803,"name":"LaunchpadMcQuack","steam_id":76561198022302377,"connected_time":917000000000,"state":"active","ping":60},{"user_id":808,"name":"Gaming","steam_id":76561198107080532,"connected_time":683000000000,"state":"active","ping":63},{"user_id":763,"name":"tydogzilla","steam_id":76561198054254518,"connected_time":2488000000000,"state":"active","ping":60},{"user_id":815,"name":"The Collective(Hypnotist)","steam_id":76561198170423483,"connected_time":377000000000,"state":"active","ping":65},{"user_id":787,"name":"Vynthex","steam_id":76561198990762666,"connected_time":1361000000000,"state":"active","ping":63},{"user_id":788,"name":"SnakeBrine","steam_id":76561198162007787,"connected_time":1356000000000,"state":"active","ping":76},{"user_id":814,"name":"jojo","steam_id":76561198105245989,"connected_time":442000000000,"state":"active","ping":85},{"user_id":790,"name":"FiZZy","steam_id":76561198990783547,"connected_time":1350000000000,"state":"active","ping":75},{"user_id":812,"name":"Pixel","steam_id":76561198156746320,"connected_time":524000000000,"state":"active","ping":43},{"user_id":792,"name":"arii","steam_id":76561198047026002,"connected_time":1215000000000,"state":"active","ping":69},{"user_id":778,"name":"Whip_the_Rabbit","steam_id":76561198049896057,"connected_time":1846000000000,"state":"active","ping":118},{"user_id":793,"name":"Anomic","steam_id":76561198044000414,"connected_time":1094000000000,"state":"active","ping":107},{"user_id":820,"name":"the last Rhode Islander","steam_id":76561198330205913,"connected_time":1000000000,"state":"spawning","ping":58},{"user_id":809,"name":"Manelgrinder","steam_id":76561198343449679,"connected_time":677000000000,"state":"active","ping":83},{"user_id":796,"name":"lilac brooch...","steam_id":76561198333718916,"connected_time":1038000000000,"state":"active","ping":71},{"user_id":779,"name":"Ping","steam_id":76561198072947773,"connected_time":1827000000000,"state":"active","ping":58},{"user_id":810,"name":"GigaLord På Golvet","steam_id":76561198153482617,"connected_time":669000000000,"state":"active","ping":150},{"user_id":811,"name":"D.Porter","steam_id":76561198396340174,"connected_time":654000000000,"state":"active","ping":81},{"user_id":817,"name":"EZN","steam_id":76561198339412521,"connected_time":310000000000,"state":"active","ping":191},{"user_id":818,"name":"brae","steam_id":76561198047126327,"connected_time":308000000000,"state":"active","ping":75},{"user_id":819,"name":"Carl Sagan Deluxe","steam_id":76561198052919056,"connected_time":255000000000,"state":"active","ping":60}]},{"server_id":402,"name":"Uncletopia | Chicago | 3 | All Maps","name_short":"chi-3","host":"chi-1.us.uncletopia.com","port":27035,"enabled":true,"region":"us-central","cc":"us","latitude":41.881832,"longitude":-87.62318,"reserved":0,"last_update":"0001-01-01T00:00:00Z","name_a2s":"Uncletopia | Chicago | 3 | All Maps","protocol":17,"map":"cp_5gorge","folder":"tf","game":"Team Fortress","app_id":440,"player_count":0,"max_players":24,"Bots":0,"server_type":"Dedicated","server_os":"Linux","password":true,"vac":true,"version":"7961495","steam_id":85568392924515191,"keywords":["cp","nocrits","nodmgspread","uncletopia"],"game_id":440,"stv_port":27036,"stv_name":"Uncletopia | Chicago | 3 | All Maps | STV","players":null},{"server_id":403,"name":"Uncletopia | Chicago | 4 | All Maps","name_short":"chi-4","host":"chi-1.us.uncletopia.com","port":27045,"enabled":true,"region":"us-central","cc":"us","latitude":41.881832,"longitude":-87.62318,"reserved":0,"last_update":"0001-01-01T00:00:00Z","name_a2s":"Uncletopia | Chicago | 4 | All Maps","protocol":17,"map":"pl_badwater","folder":"tf","game":"Team Fortress","app_id":440,"player_count":24,"max_players":24,"Bots":0,"server_type":"Dedicated","server_os":"Linux","password":true,"vac":true,"version":"7961495","steam_id":85568392924515193,"keywords":["nocrits","nodmgspread","payload","uncletopia"],"game_id":440,"stv_port":27046,"stv_name":"Uncletopia | Chicago | 4 | All Maps | STV","players":[{"user_id":1116,"name":"no longer human","steam_id":76561198049362351,"connected_time":270000000000,"state":"active","ping":89},{"user_id":1117,"name":"on that zaza?","steam_id":76561198038713198,"connected_time":230000000000,"state":"active","ping":68},{"user_id":1076,"name":"Magik","steam_id":76561198200169706,"connected_time":4266000000000,"state":"active","ping":60},{"user_id":1037,"name":"girlboss","steam_id":76561198123287268,"connected_time":7862000000000,"state":"active","ping":45},{"user_id":1097,"name":"badboy6996","steam_id":76561197969386201,"connected_time":1786000000000,"state":"active","ping":60},{"user_id":1100,"name":"Scut","steam_id":76561198973734291,"connected_time":1669000000000,"state":"active","ping":93},{"user_id":1041,"name":"Mitchell","steam_id":76561198072641336,"connected_time":7805000000000,"state":"active","ping":76},{"user_id":1061,"name":"SiphonFIre","steam_id":76561198305327992,"connected_time":5550000000000,"state":"active","ping":78},{"user_id":1077,"name":"Pat","steam_id":76561198283767547,"connected_time":4109000000000,"state":"active","ping":90},{"user_id":1086,"name":"PabloGonzalez2007","steam_id":76561198238664158,"connected_time":3357000000000,"state":"active","ping":68},{"user_id":1101,"name":"Paul Allen","steam_id":76561198036032168,"connected_time":1562000000000,"state":"active","ping":45},{"user_id":1118,"name":"WEED!!11!!GOBLIN","steam_id":76561198834268598,"connected_time":118000000000,"state":"active","ping":64},{"user_id":1102,"name":"GangstaPuddin","steam_id":76561198045414782,"connected_time":1557000000000,"state":"active","ping":66},{"user_id":1052,"name":"gatekeep","steam_id":76561198065310364,"connected_time":7008000000000,"state":"active","ping":58},{"user_id":1069,"name":"rustlover773","steam_id":76561198146366698,"connected_time":5048000000000,"state":"active","ping":73},{"user_id":1024,"name":"gaslight","steam_id":76561198088365519,"connected_time":9137000000000,"state":"active","ping":75},{"user_id":1080,"name":"Alli","steam_id":76561198075134582,"connected_time":3537000000000,"state":"active","ping":65},{"user_id":1113,"name":"Allegro","steam_id":76561198084599587,"connected_time":775000000000,"state":"active","ping":74},{"user_id":1096,"name":"zaza","steam_id":76561198090531755,"connected_time":1958000000000,"state":"active","ping":76},{"user_id":1085,"name":"ColdTooth","steam_id":76561197994963901,"connected_time":3424000000000,"state":"active","ping":75},{"user_id":1115,"name":"cofi","steam_id":76561198077504898,"connected_time":537000000000,"state":"active","ping":70},{"user_id":1063,"name":"Malevolo Cucaracho","steam_id":76561198055822497,"connected_time":5490000000000,"state":"active","ping":135},{"user_id":1075,"name":"yomommasabitch","steam_id":76561198323217150,"connected_time":4584000000000,"state":"active","ping":61},{"user_id":1112,"name":"um","steam_id":76561198066765827,"connected_time":934000000000,"state":"active","ping":62}]},{"server_id":36,"name":"Uncletopia | Chicago | 5 | All Maps","name_short":"chi-5","host":"chi-2.us.uncletopia.com","port":27015,"enabled":true,"region":"us-central","cc":"us","latitude":41.881832,"longitude":-87.62318,"reserved":0,"last_update":"0001-01-01T00:00:00Z","name_a2s":"Uncletopia | Chicago | 5 | All Maps","protocol":17,"map":"koth_viaduct","folder":"tf","game":"Team Fortress","app_id":440,"player_count":0,"max_players":24,"Bots":0,"server_type":"Dedicated","server_os":"Linux","password":true,"vac":true,"version":"7961495","steam_id":85568392924866362,"keywords":["cp","nocrits","nodmgspread","uncletopia"],"game_id":440,"stv_port":27016,"stv_name":"Uncletopia | Chicago | 5 | All Maps | STV","players":null},{"server_id":37,"name":"Uncletopia | Chicago | 6 | All Maps","name_short":"chi-6","host":"chi-2.us.uncletopia.com","port":27025,"enabled":true,"region":"us-central","cc":"us","latitude":41.881832,"longitude":-87.62318,"reserved":0,"last_update":"0001-01-01T00:00:00Z","name_a2s":"Uncletopia | Chicago | 6 | All Maps","protocol":17,"map":"pl_borneo","folder":"tf","game":"Team Fortress","app_id":440,"player_count":0,"max_players":24,"Bots":0,"server_type":"Dedicated","server_os":"Linux","password":true,"vac":true,"version":"7961495","steam_id":85568392924866363,"keywords":["nocrits","nodmgspread","payload","uncletopia"],"game_id":440,"stv_port":27026,"stv_name":"Uncletopia | Chicago | 6 | All Maps | STV","players":null},{"server_id":38,"name":"Uncletopia | Chicago | 7 | Stopwatch Beta","name_short":"chi-7","host":"chi-2.us.uncletopia.com","port":27035,"enabled":true,"region":"us-central","cc":"us","latitude":41.881832,"longitude":-87.62318,"reserved":0,"last_update":"0001-01-01T00:00:00Z","name_a2s":"Uncletopia | Chicago | 7 | Stopwatch Beta","protocol":17,"map":"pl_badwater","folder":"tf","game":"Team Fortress","app_id":440,"player_count":0,"max_players":24,"Bots":0,"server_type":"Dedicated","server_os":"Linux","password":true,"vac":true,"version":"7961495","steam_id":85568392924866364,"keywords":["nocrits","nodmgspread","payload","uncletopia"],"game_id":440,"stv_port":27036,"stv_name":"Uncletopia | Chicago | 7 | Stopwatch Beta | STV","players":null},{"server_id":39,"name":"Uncletopia | Chicago | 8 | Community","name_short":"chi-8","host":"chi-2.us.uncletopia.com","port":27045,"enabled":true,"region":"us-central","cc":"us","latitude":41.881832,"longitude":-87.62318,"reserved":0,"last_update":"0001-01-01T00:00:00Z","name_a2s":"Uncletopia | Chicago | 8 | Community","protocol":17,"map":"workshop/koth_slaughter_rc1.ugc1712845210","folder":"tf","game":"Team Fortress","app_id":440,"player_count":0,"max_players":24,"Bots":0,"server_type":"Dedicated","server_os":"Linux","password":true,"vac":true,"version":"7961495","steam_id":85568392924866365,"keywords":["cp","nocrits","nodmgspread","uncletopia"],"game_id":440,"stv_port":27046,"stv_name":"Uncletopia | Chicago | 8 | Community | STV","players":null},{"server_id":8,"name":"Uncletopia | Dallas | 1 | All Maps","name_short":"dal-1","host":"dal-1.us.uncletopia.com","port":27015,"enabled":true,"region":"us-central","cc":"us","latitude":32.779167,"longitude":-96.80889,"reserved":0,"last_update":"0001-01-01T00:00:00Z","name_a2s":"Uncletopia | Dallas | 1 | All Maps","protocol":17,"map":"koth_king","folder":"tf","game":"Team Fortress","app_id":440,"player_count":21,"max_players":24,"Bots":0,"server_type":"Dedicated","server_os":"Linux","password":true,"vac":true,"version":"7961495","steam_id":85568392924469986,"keywords":["cp","nocrits","nodmgspread","uncletopia"],"game_id":440,"stv_port":27016,"stv_name":"Uncletopia | Dallas | 1 | All Maps | STV","players":[{"user_id":1099,"name":"soccermomgameplay","steam_id":76561198102681457,"connected_time":822000000000,"state":"active","ping":64},{"user_id":1073,"name":"Rovsson","steam_id":76561198274949596,"connected_time":3300000000000,"state":"active","ping":85},{"user_id":1064,"name":"Galactamarx","steam_id":76561198028065755,"connected_time":3509000000000,"state":"active","ping":71},{"user_id":1093,"name":"reis","steam_id":76561199232952016,"connected_time":1432000000000,"state":"active","ping":195},{"user_id":1078,"name":"_Ati","steam_id":76561198339777801,"connected_time":3101000000000,"state":"active","ping":85},{"user_id":1089,"name":"2010 Honda Civic Si Sedan","steam_id":76561198926416886,"connected_time":2347000000000,"state":"active","ping":63},{"user_id":1094,"name":"Arrythmia","steam_id":76561198093748123,"connected_time":1395000000000,"state":"active","ping":93},{"user_id":1091,"name":"Milk T34","steam_id":76561198116115227,"connected_time":1461000000000,"state":"active","ping":80},{"user_id":1106,"name":"Thizz","steam_id":76561198017200955,"connected_time":303000000000,"state":"active","ping":110},{"user_id":1098,"name":"sumerian death metal warrior","steam_id":76561198997380708,"connected_time":1025000000000,"state":"active","ping":114},{"user_id":1035,"name":"Nox(She/They)Very eepy","steam_id":76561198141950842,"connected_time":6567000000000,"state":"active","ping":61},{"user_id":1107,"name":"slicc","steam_id":76561198297514076,"connected_time":275000000000,"state":"active","ping":90},{"user_id":1037,"name":"More Gay Than U","steam_id":76561198043431819,"connected_time":6331000000000,"state":"active","ping":87},{"user_id":1097,"name":"cheeseball","steam_id":76561198107078963,"connected_time":1048000000000,"state":"active","ping":77},{"user_id":1055,"name":"Deadline","steam_id":76561199079078845,"connected_time":4844000000000,"state":"active","ping":101},{"user_id":1084,"name":"Eden Hazard","steam_id":76561198089241053,"connected_time":2701000000000,"state":"active","ping":82},{"user_id":1108,"name":"s420","steam_id":76561198065339248,"connected_time":211000000000,"state":"active","ping":81},{"user_id":1101,"name":"Kirbothebrony","steam_id":76561198971911330,"connected_time":677000000000,"state":"active","ping":72},{"user_id":1096,"name":"Chris","steam_id":76561198361826368,"connected_time":1140000000000,"state":"active","ping":73},{"user_id":1102,"name":"Silvermace","steam_id":76561198090696843,"connected_time":675000000000,"state":"active","ping":60},{"user_id":1039,"name":"Clubs","steam_id":76561198271133942,"connected_time":6315000000000,"state":"active","ping":56}]},{"server_id":108,"name":"Uncletopia | Dallas | 2 | All Maps","name_short":"dal-2","host":"dal-1.us.uncletopia.com","port":27025,"enabled":true,"region":"us-central","cc":"us","latitude":32.779167,"longitude":-96.80889,"reserved":0,"last_update":"0001-01-01T00:00:00Z","name_a2s":"Uncletopia | Dallas | 2 | All Maps","protocol":17,"map":"pl_snowycoast","folder":"tf","game":"Team Fortress","app_id":440,"player_count":4,"max_players":24,"Bots":0,"server_type":"Dedicated","server_os":"Linux","password":true,"vac":true,"version":"7961495","steam_id":85568392924469988,"keywords":["nocrits","nodmgspread","payload","uncletopia"],"game_id":440,"stv_port":27026,"stv_name":"Uncletopia | Dallas | 2 | All Maps | STV","players":[{"user_id":810,"name":"Certified Sniper Fucker","steam_id":76561198407334443,"connected_time":1302000000000,"state":"active","ping":74},{"user_id":802,"name":"RIP_RUBEN","steam_id":76561199311833937,"connected_time":3071000000000,"state":"active","ping":87},{"user_id":803,"name":"PILLO1_3","steam_id":76561199474911135,"connected_time":3071000000000,"state":"active","ping":85},{"user_id":809,"name":"Lucil3 on Bandcamp","steam_id":76561198149063013,"connected_time":2281000000000,"state":"active","ping":58}]},{"server_id":404,"name":"Uncletopia | Dallas | 3 | All Maps","name_short":"dal-3","host":"dal-1.us.uncletopia.com","port":27035,"enabled":true,"region":"us-central","cc":"us","latitude":32.779167,"longitude":-96.80889,"reserved":0,"last_update":"0001-01-01T00:00:00Z","name_a2s":"Uncletopia | Dallas | 3 | All Maps","protocol":17,"map":"cp_sunshine","folder":"tf","game":"Team Fortress","app_id":440,"player_count":0,"max_players":24,"Bots":0,"server_type":"Dedicated","server_os":"Linux","password":true,"vac":true,"version":"7961495","steam_id":85568392924515219,"keywords":["cp","nocrits","nodmgspread","uncletopia"],"game_id":440,"stv_port":27036,"stv_name":"Uncletopia | Dallas | 3 | All Maps | STV","players":null},{"server_id":405,"name":"Uncletopia | Dallas | 4 | Community","name_short":"dal-4","host":"dal-1.us.uncletopia.com","port":27045,"enabled":true,"region":"us-central","cc":"us","latitude":32.779167,"longitude":-96.80889,"reserved":0,"last_update":"0001-01-01T00:00:00Z","name_a2s":"Uncletopia | Dallas | 4 | Community","protocol":17,"map":"workshop/cp_kalinka_rc6a.ugc1272700588","folder":"tf","game":"Team Fortress","app_id":440,"player_count":0,"max_players":24,"Bots":0,"server_type":"Dedicated","server_os":"Linux","password":true,"vac":true,"version":"7961495","steam_id":85568392924515220,"keywords":["cp","nocrits","nodmgspread","uncletopia"],"game_id":440,"stv_port":27046,"stv_name":"Uncletopia | Dallas | 4 | Community | STV","players":null},{"server_id":5,"name":"Uncletopia | Frankfurt | 1 | All Maps","name_short":"frk-1","host":"frk-1.de.uncletopia.com","port":27015,"enabled":true,"region":"eu","cc":"de","latitude":50.110924,"longitude":8.682127,"reserved":0,"last_update":"0001-01-01T00:00:00Z","name_a2s":"Uncletopia | Frankfurt | 1 | All Maps","protocol":17,"map":"pl_snowycoast","folder":"tf","game":"Team Fortress","app_id":440,"player_count":0,"max_players":24,"Bots":0,"server_type":"Dedicated","server_os":"Linux","password":true,"vac":true,"version":"7961495","steam_id":85568392924469989,"keywords":["nocrits","nodmgspread","payload","uncletopia"],"game_id":440,"stv_port":27016,"stv_name":"Uncletopia | Frankfurt | 1 | All Maps | STV","players":null},{"server_id":110,"name":"Uncletopia | Frankfurt | 2 | All Maps","name_short":"frk-2","host":"frk-1.de.uncletopia.com","port":27025,"enabled":true,"region":"eu","cc":"de","latitude":50.110924,"longitude":8.682127,"reserved":0,"last_update":"0001-01-01T00:00:00Z","name_a2s":"Uncletopia | Frankfurt | 2 | All Maps","protocol":17,"map":"pl_snowycoast","folder":"tf","game":"Team Fortress","app_id":440,"player_count":10,"max_players":24,"Bots":0,"server_type":"Dedicated","server_os":"Linux","password":true,"vac":true,"version":"7961495","steam_id":85568392924469990,"keywords":["nocrits","nodmgspread","payload","uncletopia"],"game_id":440,"stv_port":27026,"stv_name":"Uncletopia | Frankfurt | 2 | All Maps | STV","players":[{"user_id":22,"name":"Ixsus\u003c3","steam_id":76561198094756869,"connected_time":768000000000,"state":"active","ping":48},{"user_id":10,"name":"он","steam_id":76561198172046813,"connected_time":2376000000000,"state":"active","ping":71},{"user_id":23,"name":"Morbidly A Beast","steam_id":76561198251578274,"connected_time":672000000000,"state":"active","ping":100},{"user_id":12,"name":"SaSSolino","steam_id":76561198011308018,"connected_time":1852000000000,"state":"active","ping":48},{"user_id":28,"name":"The Manager of Sex","steam_id":76561198385989487,"connected_time":338000000000,"state":"active","ping":100},{"user_id":30,"name":"rhean\u002621","steam_id":76561198389400021,"connected_time":46000000000,"state":"spawning","ping":38},{"user_id":18,"name":"HERISSON","steam_id":76561199062194778,"connected_time":1215000000000,"state":"active","ping":84},{"user_id":25,"name":"Kepler_62f","steam_id":76561199005732555,"connected_time":576000000000,"state":"active","ping":72},{"user_id":26,"name":"Fbafroguy","steam_id":76561199113010473,"connected_time":501000000000,"state":"active","ping":66},{"user_id":29,"name":"shit gaming","steam_id":76561198153877395,"connected_time":262000000000,"state":"active","ping":85}]},{"server_id":308,"name":"Uncletopia | Frankfurt | 3 | All Maps","name_short":"frk-3","host":"frk-1.de.uncletopia.com","port":27035,"enabled":true,"region":"eu","cc":"de","latitude":50.110924,"longitude":8.682127,"reserved":0,"last_update":"0001-01-01T00:00:00Z","name_a2s":"Uncletopia | Frankfurt | 3 | All Maps","protocol":17,"map":"cp_sunshine","folder":"tf","game":"Team Fortress","app_id":440,"player_count":0,"max_players":24,"Bots":0,"server_type":"Dedicated","server_os":"Linux","password":true,"vac":true,"version":"7961495","steam_id":85568392924504274,"keywords":["cp","nocrits","nodmgspread","uncletopia"],"game_id":440,"stv_port":27036,"stv_name":"Uncletopia | Frankfurt | 3 | All Maps | STV","players":null},{"server_id":309,"name":"Uncletopia | Frankfurt | 4 | All Maps","name_short":"frk-4","host":"frk-1.de.uncletopia.com","port":27045,"enabled":true,"region":"eu","cc":"de","latitude":50.110924,"longitude":8.682127,"reserved":0,"last_update":"0001-01-01T00:00:00Z","name_a2s":"Uncletopia | Frankfurt | 4 | All Maps","protocol":17,"map":"cp_altitude","folder":"tf","game":"Team Fortress","app_id":440,"player_count":0,"max_players":24,"Bots":0,"server_type":"Dedicated","server_os":"Linux","password":true,"vac":true,"version":"7961495","steam_id":85568392924504275,"keywords":["cp","nocrits","nodmgspread","uncletopia"],"game_id":440,"stv_port":27046,"stv_name":"Uncletopia | Frankfurt | 4 | All Maps | STV","players":null},{"server_id":310,"name":"Uncletopia | Frankfurt | 5 | All Maps","name_short":"frk-5","host":"frk-1.de.uncletopia.com","port":27055,"enabled":true,"region":"eu","cc":"de","latitude":50.110924,"longitude":8.682127,"reserved":0,"last_update":"0001-01-01T00:00:00Z","name_a2s":"Uncletopia | Frankfurt | 5 | All Maps","protocol":17,"map":"cp_process_final","folder":"tf","game":"Team Fortress","app_id":440,"player_count":0,"max_players":24,"Bots":0,"server_type":"Dedicated","server_os":"Linux","password":true,"vac":true,"version":"7961495","steam_id":85568392924504277,"keywords":["cp","nocrits","nodmgspread","uncletopia"],"game_id":440,"stv_port":27056,"stv_name":"Uncletopia | Frankfurt | 5 | All Maps | STV","players":null},{"server_id":311,"name":"Uncletopia | Frankfurt | 6 | All Maps","name_short":"frk-6","host":"frk-1.de.uncletopia.com","port":27065,"enabled":true,"region":"eu","cc":"de","latitude":50.110924,"longitude":8.682127,"reserved":0,"last_update":"0001-01-01T00:00:00Z","name_a2s":"Uncletopia | Frankfurt | 6 | All Maps","protocol":17,"map":"pl_barnblitz","folder":"tf","game":"Team Fortress","app_id":440,"player_count":0,"max_players":24,"Bots":0,"server_type":"Dedicated","server_os":"Linux","password":true,"vac":true,"version":"7961495","steam_id":85568392924504278,"keywords":["nocrits","nodmgspread","payload","uncletopia"],"game_id":440,"stv_port":27066,"stv_name":"Uncletopia | Frankfurt | 6 | All Maps | STV","players":null},{"server_id":23,"name":"Uncletopia | Frankfurt | 7 | Stopwatch Beta","name_short":"frk-7","host":"frk-1.de.uncletopia.com","port":27075,"enabled":true,"region":"eu","cc":"de","latitude":50.110924,"longitude":8.682127,"reserved":0,"last_update":"0001-01-01T00:00:00Z","name_a2s":"Uncletopia | Frankfurt | 7 | Stopwatch Beta","protocol":17,"map":"koth_cascade","folder":"tf","game":"Team Fortress","app_id":440,"player_count":0,"max_players":24,"Bots":0,"server_type":"Dedicated","server_os":"Linux","password":true,"vac":true,"version":"7961495","steam_id":85568392924742827,"keywords":["cp","nocrits","nodmgspread","uncletopia"],"game_id":440,"stv_port":27076,"stv_name":"Uncletopia | Frankfurt | 7 | Stopwatch Beta | STV","players":null},{"server_id":24,"name":"Uncletopia | Frankfurt | 8 | Community","name_short":"frk-8","host":"frk-1.de.uncletopia.com","port":27085,"enabled":true,"region":"eu","cc":"de","latitude":50.110924,"longitude":8.682127,"reserved":0,"last_update":"0001-01-01T00:00:00Z","name_a2s":"Uncletopia | Frankfurt | 8 | Community","protocol":17,"map":"cp_dustbowl","folder":"tf","game":"Team Fortress","app_id":440,"player_count":0,"max_players":24,"Bots":0,"server_type":"Dedicated","server_os":"Linux","password":true,"vac":true,"version":"7961495","steam_id":85568392924742828,"keywords":["cp","nocrits","nodmgspread","uncletopia"],"game_id":440,"stv_port":27086,"stv_name":"Uncletopia | Frankfurt | 8 | Community | STV","players":null},{"server_id":202,"name":"Uncletopia | Hong Kong | 1 | All Maps","name_short":"hgk-1","host":"hgk-1.hk.uncletopia.com","port":27015,"enabled":true,"region":"asia","cc":"hk","latitude":22.302711,"longitude":114.177216,"reserved":0,"last_update":"0001-01-01T00:00:00Z","name_a2s":"Uncletopia | Hong Kong | 1 | All Maps","protocol":17,"map":"pl_pier","folder":"tf","game":"Team Fortress","app_id":440,"player_count":24,"max_players":24,"Bots":0,"server_type":"Dedicated","server_os":"Linux","password":true,"vac":true,"version":"7961495","steam_id":85568392924494504,"keywords":["nocrits","nodmgspread","payload","uncletopia"],"game_id":440,"stv_port":27016,"stv_name":"Uncletopia | Hong Kong | 1 | All Maps | STV","players":[{"user_id":62,"name":"Sheena","steam_id":76561198412391539,"connected_time":9184000000000,"state":"active","ping":65},{"user_id":95,"name":"P","steam_id":76561198304514505,"connected_time":5258000000000,"state":"active","ping":80},{"user_id":136,"name":"trcs","steam_id":76561198125946388,"connected_time":746000000000,"state":"active","ping":145},{"user_id":87,"name":"meowdy","steam_id":76561198337154745,"connected_time":6737000000000,"state":"active","ping":87},{"user_id":125,"name":"p1st0n","steam_id":76561198992723983,"connected_time":1572000000000,"state":"active","ping":96},{"user_id":119,"name":"wom","steam_id":76561199375834537,"connected_time":2135000000000,"state":"active","ping":70},{"user_id":124,"name":"13MAN","steam_id":76561198900023603,"connected_time":1780000000000,"state":"active","ping":93},{"user_id":53,"name":"vintage 2","steam_id":76561198230213828,"connected_time":9808000000000,"state":"active","ping":61},{"user_id":132,"name":"ketsu","steam_id":76561197966171554,"connected_time":931000000000,"state":"active","ping":111},{"user_id":92,"name":"The Estate Sale","steam_id":76561198074339034,"connected_time":5271000000000,"state":"active","ping":79},{"user_id":112,"name":"porngamer","steam_id":76561198204620491,"connected_time":3367000000000,"state":"active","ping":40},{"user_id":86,"name":"Samoyed","steam_id":76561198299150410,"connected_time":6758000000000,"state":"active","ping":80},{"user_id":100,"name":"nyakky","steam_id":76561198927779787,"connected_time":4654000000000,"state":"active","ping":92},{"user_id":113,"name":"im_0ff","steam_id":76561198339346695,"connected_time":3294000000000,"state":"active","ping":123},{"user_id":120,"name":"gerfeid","steam_id":76561198969090435,"connected_time":1874000000000,"state":"active","ping":64},{"user_id":73,"name":"emesis green","steam_id":76561198320532821,"connected_time":8154000000000,"state":"active","ping":76},{"user_id":141,"name":"Green","steam_id":76561198391718463,"connected_time":143000000000,"state":"active","ping":62},{"user_id":135,"name":"Lightningspear","steam_id":76561198147543126,"connected_time":902000000000,"state":"active","ping":54},{"user_id":104,"name":"Kyo","steam_id":76561198088550274,"connected_time":4275000000000,"state":"active","ping":45},{"user_id":80,"name":"MS PowerPoint","steam_id":76561198369523192,"connected_time":7871000000000,"state":"active","ping":68},{"user_id":109,"name":"engineer","steam_id":76561199146847474,"connected_time":3642000000000,"state":"active","ping":49},{"user_id":138,"name":"★TusKar★","steam_id":76561198064669120,"connected_time":533000000000,"state":"active","ping":117},{"user_id":83,"name":"....","steam_id":76561198064846352,"connected_time":7788000000000,"state":"active","ping":72},{"user_id":118,"name":"Pillboi","steam_id":76561198011172886,"connected_time":2801000000000,"state":"active","ping":45}]},{"server_id":1,"name":"Uncletopia | Los Angeles | 1 | All Maps","name_short":"lax-1","host":"lax-1.us.uncletopia.com","port":27015,"enabled":true,"region":"us-west","cc":"us","latitude":33.94279,"longitude":-118.41004,"reserved":0,"last_update":"0001-01-01T00:00:00Z","name_a2s":"Uncletopia | Los Angeles | 1 | All Maps","protocol":17,"map":"pl_upward","folder":"tf","game":"Team Fortress","app_id":440,"player_count":15,"max_players":24,"Bots":0,"server_type":"Dedicated","server_os":"Linux","password":true,"vac":true,"version":"7961495","steam_id":85568392924469991,"keywords":["nocrits","nodmgspread","payload","uncletopia"],"game_id":440,"stv_port":27016,"stv_name":"Uncletopia | Los Angeles | 1 | All Maps | STV","players":[{"user_id":530,"name":"FortHunter","steam_id":76561198262391126,"connected_time":336000000000,"state":"active","ping":122},{"user_id":531,"name":"imagine playing scout lmao","steam_id":76561198046526036,"connected_time":334000000000,"state":"active","ping":45},{"user_id":519,"name":"Pikemen","steam_id":76561198141338432,"connected_time":942000000000,"state":"active","ping":59},{"user_id":532,"name":"SusImposter69","steam_id":76561199037621786,"connected_time":188000000000,"state":"active","ping":82},{"user_id":515,"name":"blozet","steam_id":76561199120161035,"connected_time":1172000000000,"state":"active","ping":110},{"user_id":461,"name":"♥Midnight Panda♥","steam_id":76561198272487373,"connected_time":6014000000000,"state":"active","ping":75},{"user_id":533,"name":"Antreuse","steam_id":76561198219721132,"connected_time":100000000000,"state":"active","ping":68},{"user_id":446,"name":"Big Boy Beni","steam_id":76561197995469460,"connected_time":7368000000000,"state":"active","ping":38},{"user_id":499,"name":"KlassicLoL","steam_id":76561198081815303,"connected_time":3069000000000,"state":"active","ping":52},{"user_id":490,"name":"euphoricfilth","steam_id":76561198100160865,"connected_time":3327000000000,"state":"active","ping":90},{"user_id":483,"name":"Tony Tony Choppa","steam_id":76561198926443232,"connected_time":4248000000000,"state":"active","ping":117},{"user_id":453,"name":"Brook","steam_id":76561198066617702,"connected_time":6931000000000,"state":"active","ping":70},{"user_id":518,"name":"Larkaldi","steam_id":76561198029668456,"connected_time":1033000000000,"state":"active","ping":102},{"user_id":505,"name":"ShadyKirbo","steam_id":76561199013354091,"connected_time":2035000000000,"state":"active","ping":59},{"user_id":514,"name":"Special Gorilla","steam_id":76561198120705900,"connected_time":1276000000000,"state":"active","ping":48}]},{"server_id":112,"name":"Uncletopia | Los Angeles | 2 | All Maps","name_short":"lax-2","host":"lax-1.us.uncletopia.com","port":27025,"enabled":true,"region":"us-west","cc":"us","latitude":33.94279,"longitude":-118.41004,"reserved":0,"last_update":"0001-01-01T00:00:00Z","name_a2s":"Uncletopia | Los Angeles | 2 | All Maps","protocol":17,"map":"cp_dustbowl","folder":"tf","game":"Team Fortress","app_id":440,"player_count":0,"max_players":24,"Bots":0,"server_type":"Dedicated","server_os":"Linux","password":true,"vac":true,"version":"7961495","steam_id":85568392924469992,"keywords":["cp","nocrits","nodmgspread","uncletopia"],"game_id":440,"stv_port":27026,"stv_name":"Uncletopia | Los Angeles | 2 | All Maps | STV","players":null},{"server_id":324,"name":"Uncletopia | Los Angeles | 3 | All Maps","name_short":"lax-3","host":"lax-1.us.uncletopia.com","port":27035,"enabled":true,"region":"us-west","cc":"us","latitude":33.94279,"longitude":-118.41004,"reserved":0,"last_update":"0001-01-01T00:00:00Z","name_a2s":"Uncletopia | Los Angeles | 3 | All Maps","protocol":17,"map":"pl_borneo","folder":"tf","game":"Team Fortress","app_id":440,"player_count":18,"max_players":24,"Bots":0,"server_type":"Dedicated","server_os":"Linux","password":true,"vac":true,"version":"7961495","steam_id":85568392924510198,"keywords":["nocrits","nodmgspread","payload","uncletopia"],"game_id":440,"stv_port":27036,"stv_name":"Uncletopia | Los Angeles | 3 | All Maps | STV","players":[{"user_id":507,"name":"thumb","steam_id":76561198353762582,"connected_time":1555000000000,"state":"active","ping":72},{"user_id":505,"name":"Black Bear.","steam_id":76561198806203328,"connected_time":1574000000000,"state":"active","ping":59},{"user_id":508,"name":"vulcan nightclub pon farr night","steam_id":76561197974283797,"connected_time":1462000000000,"state":"active","ping":98},{"user_id":514,"name":"Mocha Josie","steam_id":76561198066452726,"connected_time":11000000000,"state":"active","ping":60},{"user_id":474,"name":"moxxie","steam_id":76561198893111808,"connected_time":3259000000000,"state":"active","ping":47},{"user_id":492,"name":"nella","steam_id":76561198079349621,"connected_time":2286000000000,"state":"active","ping":49},{"user_id":513,"name":"Das Anchor","steam_id":76561198060173151,"connected_time":75000000000,"state":"active","ping":91},{"user_id":454,"name":"Sakura Futaba","steam_id":76561198017153764,"connected_time":5170000000000,"state":"active","ping":56},{"user_id":460,"name":"frog on the floor","steam_id":76561198042706568,"connected_time":4247000000000,"state":"active","ping":63},{"user_id":501,"name":"Iconicfish35","steam_id":76561198290666536,"connected_time":1840000000000,"state":"active","ping":81},{"user_id":475,"name":"mcstabby492","steam_id":76561198301041074,"connected_time":3186000000000,"state":"active","ping":54},{"user_id":478,"name":"Smells","steam_id":76561197985297402,"connected_time":3050000000000,"state":"active","ping":60},{"user_id":502,"name":"lol","steam_id":76561198026491738,"connected_time":1668000000000,"state":"active","ping":59},{"user_id":497,"name":"fump","steam_id":76561197973542159,"connected_time":1899000000000,"state":"active","ping":41},{"user_id":511,"name":"-.^","steam_id":76561198881665250,"connected_time":424000000000,"state":"active","ping":68},{"user_id":504,"name":"Tortobergie","steam_id":76561198112053241,"connected_time":1644000000000,"state":"active","ping":85},{"user_id":510,"name":"Seshreb","steam_id":76561198846614634,"connected_time":637000000000,"state":"active","ping":59},{"user_id":472,"name":"Dragoninventor (He/Him)","steam_id":76561198956224948,"connected_time":3480000000000,"state":"active","ping":81}]},{"server_id":25,"name":"Uncletopia | Los Angeles | 4 | Stopwatch Beta","name_short":"lax-4","host":"lax-1.us.uncletopia.com","port":27045,"enabled":true,"region":"us-west","cc":"us","latitude":33.94279,"longitude":-118.41004,"reserved":0,"last_update":"0001-01-01T00:00:00Z","name_a2s":"Uncletopia | Los Angeles | 4 | Stopwatch Beta","protocol":17,"map":"pl_upward","folder":"tf","game":"Team Fortress","app_id":440,"player_count":0,"max_players":24,"Bots":0,"server_type":"Dedicated","server_os":"Linux","password":true,"vac":true,"version":"7961495","steam_id":85568392924510199,"keywords":["nocrits","nodmgspread","payload","uncletopia"],"game_id":440,"stv_port":27046,"stv_name":"Uncletopia | Los Angeles | 4 | Stopwatch Beta | STV","players":null},{"server_id":11,"name":"Uncletopia | London | 1 | All Maps","name_short":"lon-1","host":"lon-1.uk.uncletopia.com","port":27015,"enabled":true,"region":"eu","cc":"gb","latitude":51.509865,"longitude":-0.118092,"reserved":0,"last_update":"0001-01-01T00:00:00Z","name_a2s":"Uncletopia | London | 1 | All Maps","protocol":17,"map":"pl_upward","folder":"tf","game":"Team Fortress","app_id":440,"player_count":24,"max_players":24,"Bots":0,"server_type":"Dedicated","server_os":"Linux","password":true,"vac":true,"version":"7961495","steam_id":85568392924367362,"keywords":["nocrits","nodmgspread","payload","uncletopia"],"game_id":440,"stv_port":27016,"stv_name":"Uncletopia | London | 1 | All Maps | STV","players":[{"user_id":3,"name":"lorislk989","steam_id":76561199224251630,"connected_time":7823000000000,"state":"active","ping":67},{"user_id":65,"name":"Cookies and Bakies","steam_id":76561198017442928,"connected_time":2728000000000,"state":"active","ping":66},{"user_id":56,"name":"microwaved tea is a crime","steam_id":76561198257158275,"connected_time":3567000000000,"state":"active","ping":142},{"user_id":80,"name":"GROSSE MOULE","steam_id":76561198137165783,"connected_time":463000000000,"state":"active","ping":65},{"user_id":61,"name":"iuh(jerf)","steam_id":76561199213901239,"connected_time":3203000000000,"state":"active","ping":46},{"user_id":47,"name":"MrXtr","steam_id":76561198966247397,"connected_time":4262000000000,"state":"active","ping":69},{"user_id":15,"name":"yuno appreciator","steam_id":76561198083286511,"connected_time":6100000000000,"state":"active","ping":42},{"user_id":62,"name":"coffee","steam_id":76561198382387303,"connected_time":2935000000000,"state":"active","ping":91},{"user_id":57,"name":"Rengii76","steam_id":76561198869802076,"connected_time":3247000000000,"state":"active","ping":91},{"user_id":84,"name":"jhonny el sins","steam_id":76561198982787752,"connected_time":203000000000,"state":"active","ping":68},{"user_id":24,"name":"Asmodeus","steam_id":76561198283156425,"connected_time":5394000000000,"state":"active","ping":89},{"user_id":25,"name":"protoss leisure cruise ship","steam_id":76561198105978107,"connected_time":5378000000000,"state":"active","ping":75},{"user_id":81,"name":"Very Original Name","steam_id":76561199159833013,"connected_time":452000000000,"state":"active","ping":99},{"user_id":86,"name":"froglids","steam_id":76561198045466919,"connected_time":116000000000,"state":"active","ping":70},{"user_id":66,"name":"unpronounceable","steam_id":76561198271860748,"connected_time":2476000000000,"state":"active","ping":45},{"user_id":31,"name":"Neimon","steam_id":76561198343485710,"connected_time":5170000000000,"state":"active","ping":125},{"user_id":83,"name":"Koleisus","steam_id":76561198045374646,"connected_time":279000000000,"state":"active","ping":67},{"user_id":72,"name":"spxcy","steam_id":76561198080296853,"connected_time":1889000000000,"state":"active","ping":85},{"user_id":73,"name":"Gunvald","steam_id":76561198020195322,"connected_time":1793000000000,"state":"active","ping":85},{"user_id":75,"name":"Pipper","steam_id":76561197970326616,"connected_time":1292000000000,"state":"active","ping":76},{"user_id":79,"name":"drst","steam_id":76561199099369304,"connected_time":482000000000,"state":"active","ping":75},{"user_id":74,"name":"Tovarish_Maxim","steam_id":76561198411501873,"connected_time":1626000000000,"state":"active","ping":62},{"user_id":71,"name":"capitan jamacia aka jayden","steam_id":76561198071440081,"connected_time":1892000000000,"state":"active","ping":91},{"user_id":60,"name":"The Builder","steam_id":76561198403959663,"connected_time":3227000000000,"state":"active","ping":98}]},{"server_id":114,"name":"Uncletopia | London | 2 | All Maps","name_short":"lon-2","host":"lon-1.uk.uncletopia.com","port":27025,"enabled":true,"region":"eu","cc":"gb","latitude":51.509865,"longitude":-0.118092,"reserved":0,"last_update":"0001-01-01T00:00:00Z","name_a2s":"Uncletopia | London | 2 | All Maps","protocol":17,"map":"koth_viaduct","folder":"tf","game":"Team Fortress","app_id":440,"player_count":0,"max_players":24,"Bots":0,"server_type":"Dedicated","server_os":"Linux","password":true,"vac":true,"version":"7961495","steam_id":85568392924470941,"keywords":["cp","nocrits","nodmgspread","uncletopia"],"game_id":440,"stv_port":27026,"stv_name":"Uncletopia | London | 2 | All Maps | STV","players":null},{"server_id":320,"name":"Uncletopia | London | 3 | All Maps","name_short":"lon-3","host":"lon-1.uk.uncletopia.com","port":27035,"enabled":true,"region":"eu","cc":"gb","latitude":51.509865,"longitude":-0.118092,"reserved":0,"last_update":"0001-01-01T00:00:00Z","name_a2s":"Uncletopia | London | 3 | All Maps","protocol":17,"map":"pl_pier","folder":"tf","game":"Team Fortress","app_id":440,"player_count":0,"max_players":24,"Bots":0,"server_type":"Dedicated","server_os":"Linux","password":true,"vac":true,"version":"7961495","steam_id":85568392924510192,"keywords":["nocrits","nodmgspread","payload","uncletopia"],"game_id":440,"stv_port":27036,"stv_name":"Uncletopia | London | 3 | All Maps | STV","players":null},{"server_id":321,"name":"Uncletopia | London | 4 | All Maps","name_short":"lon-4","host":"lon-1.uk.uncletopia.com","port":27045,"enabled":true,"region":"eu","cc":"gb","latitude":51.509865,"longitude":-0.118092,"reserved":0,"last_update":"0001-01-01T00:00:00Z","name_a2s":"Uncletopia | London | 4 | All Maps","protocol":17,"map":"koth_viaduct","folder":"tf","game":"Team Fortress","app_id":440,"player_count":0,"max_players":24,"Bots":0,"server_type":"Dedicated","server_os":"Linux","password":true,"vac":true,"version":"7961495","steam_id":85568392924510193,"keywords":["cp","nocrits","nodmgspread","uncletopia"],"game_id":440,"stv_port":27046,"stv_name":"Uncletopia | London | 4 | All Maps | STV","players":null},{"server_id":21,"name":"Uncletopia | London | 5 | All Maps","name_short":"lon-5","host":"lon-1.uk.uncletopia.com","port":27055,"enabled":true,"region":"eu","cc":"gb","latitude":51.509865,"longitude":-0.118092,"reserved":0,"last_update":"0001-01-01T00:00:00Z","name_a2s":"Uncletopia | London | 5 | All Maps","protocol":17,"map":"pl_barnblitz","folder":"tf","game":"Team Fortress","app_id":440,"player_count":0,"max_players":24,"Bots":0,"server_type":"Dedicated","server_os":"Linux","password":true,"vac":true,"version":"7961495","steam_id":85568392924742829,"keywords":["nocrits","nodmgspread","payload","uncletopia"],"game_id":440,"stv_port":27056,"stv_name":"Uncletopia | London | 5 | All Maps | STV","players":null},{"server_id":22,"name":"Uncletopia | London | 6 | All Maps","name_short":"lon-6","host":"lon-1.uk.uncletopia.com","port":27065,"enabled":true,"region":"eu","cc":"gb","latitude":51.509865,"longitude":-0.118092,"reserved":0,"last_update":"0001-01-01T00:00:00Z","name_a2s":"Uncletopia | London | 6 | All Maps","protocol":17,"map":"pl_borneo","folder":"tf","game":"Team Fortress","app_id":440,"player_count":0,"max_players":24,"Bots":0,"server_type":"Dedicated","server_os":"Linux","password":true,"vac":true,"version":"7961495","steam_id":85568392924742830,"keywords":["nocrits","nodmgspread","payload","uncletopia"],"game_id":440,"stv_port":27066,"stv_name":"Uncletopia | London | 6 | All Maps | STV","players":null},{"server_id":40,"name":"Uncletopia | London | 7 | No Payload","name_short":"lon-7","host":"lon-1.uk.uncletopia.com","port":27075,"enabled":true,"region":"eu","cc":"gb","latitude":51.509865,"longitude":-0.118092,"reserved":0,"last_update":"0001-01-01T00:00:00Z","name_a2s":"Uncletopia | London | 7 | No Payload","protocol":17,"map":"pl_pier","folder":"tf","game":"Team Fortress","app_id":440,"player_count":0,"max_players":24,"Bots":0,"server_type":"Dedicated","server_os":"Linux","password":true,"vac":true,"version":"7961495","steam_id":85568392924964314,"keywords":["nocrits","nodmgspread","payload","uncletopia"],"game_id":440,"stv_port":27076,"stv_name":"Uncletopia | London | 7 | No Payload | STV","players":null},{"server_id":41,"name":"Uncletopia | London | 8 | Community","name_short":"lon-8","host":"lon-1.uk.uncletopia.com","port":27085,"enabled":true,"region":"eu","cc":"gb","latitude":51.509865,"longitude":-0.118092,"reserved":0,"last_update":"0001-01-01T00:00:00Z","name_a2s":"Uncletopia | London | 8 | Community","protocol":17,"map":"pl_borneo","folder":"tf","game":"Team Fortress","app_id":440,"player_count":0,"max_players":24,"Bots":0,"server_type":"Dedicated","server_os":"Linux","password":true,"vac":true,"version":"7961495","steam_id":85568392924964315,"keywords":["nocrits","nodmgspread","payload","uncletopia"],"game_id":440,"stv_port":27086,"stv_name":"Uncletopia | London | 8 | Community | STV","players":null},{"server_id":300,"name":"Uncletopia | Montréal | 1 | All Maps","name_short":"mtl-1","host":"mtl-1.ca.uncletopia.com","port":27015,"enabled":true,"region":"us-east","cc":"ca","latitude":45.50889,"longitude":-73.56167,"reserved":0,"last_update":"0001-01-01T00:00:00Z","name_a2s":"","protocol":0,"map":"","folder":"","game":"","app_id":0,"player_count":0,"max_players":0,"Bots":0,"server_type":"","server_os":"","password":false,"vac":false,"version":"","steam_id":0,"keywords":null,"game_id":0,"stv_port":0,"stv_name":"","players":null},{"server_id":301,"name":"Uncletopia | Montréal | 2 | All Maps","name_short":"mtl-2","host":"mtl-1.ca.uncletopia.com","port":27025,"enabled":true,"region":"us-east","cc":"ca","latitude":45.50889,"longitude":-73.56167,"reserved":0,"last_update":"0001-01-01T00:00:00Z","name_a2s":"","protocol":0,"map":"","folder":"","game":"","app_id":0,"player_count":0,"max_players":0,"Bots":0,"server_type":"","server_os":"","password":false,"vac":false,"version":"","steam_id":0,"keywords":null,"game_id":0,"stv_port":0,"stv_name":"","players":null},{"server_id":302,"name":"Uncletopia | Montréal | 3 | All Maps","name_short":"mtl-3","host":"mtl-1.ca.uncletopia.com","port":27035,"enabled":true,"region":"us-east","cc":"ca","latitude":45.50889,"longitude":-73.56167,"reserved":0,"last_update":"0001-01-01T00:00:00Z","name_a2s":"","protocol":0,"map":"","folder":"","game":"","app_id":0,"player_count":0,"max_players":0,"Bots":0,"server_type":"","server_os":"","password":false,"vac":false,"version":"","steam_id":0,"keywords":null,"game_id":0,"stv_port":0,"stv_name":"","players":null},{"server_id":303,"name":"Uncletopia | Montréal | 4 | No Payload","name_short":"mtl-4","host":"mtl-1.ca.uncletopia.com","port":27045,"enabled":true,"region":"us-east","cc":"ca","latitude":45.50889,"longitude":-73.56167,"reserved":0,"last_update":"0001-01-01T00:00:00Z","name_a2s":"","protocol":0,"map":"","folder":"","game":"","app_id":0,"player_count":0,"max_players":0,"Bots":0,"server_type":"","server_os":"","password":false,"vac":false,"version":"","steam_id":0,"keywords":null,"game_id":0,"stv_port":0,"stv_name":"","players":null},{"server_id":13,"name":"Uncletopia | New York City | 1 | All Maps","name_short":"nyc-1","host":"nyc-1.us.uncletopia.com","port":27015,"enabled":true,"region":"us-east","cc":"us","latitude":40.73061,"longitude":-73.93524,"reserved":0,"last_update":"0001-01-01T00:00:00Z","name_a2s":"Uncletopia | New York City | 1 | All Maps","protocol":17,"map":"koth_viaduct","folder":"tf","game":"Team Fortress","app_id":440,"player_count":0,"max_players":24,"Bots":0,"server_type":"Dedicated","server_os":"Linux","password":true,"vac":true,"version":"7961495","steam_id":85568392924469993,"keywords":["cp","nocrits","nodmgspread","uncletopia"],"game_id":440,"stv_port":27016,"stv_name":"Uncletopia | New York City | 1 | All Maps | STV","players":null},{"server_id":14,"name":"Uncletopia | New York City | 2 | All Maps","name_short":"nyc-2","host":"nyc-1.us.uncletopia.com","port":27025,"enabled":true,"region":"us-east","cc":"us","latitude":40.73061,"longitude":-73.93524,"reserved":0,"last_update":"0001-01-01T00:00:00Z","name_a2s":"Uncletopia | New York City | 2 | All Maps","protocol":17,"map":"cp_snakewater_final1","folder":"tf","game":"Team Fortress","app_id":440,"player_count":0,"max_players":24,"Bots":0,"server_type":"Dedicated","server_os":"Linux","password":true,"vac":true,"version":"7961495","steam_id":85568392924469994,"keywords":["cp","nocrits","nodmgspread","uncletopia"],"game_id":440,"stv_port":27026,"stv_name":"Uncletopia | New York City | 2 | All Maps | STV","players":null},{"server_id":15,"name":"Uncletopia | New York City | 3 | Stopwatch Beta","name_short":"nyc-3","host":"nyc-1.us.uncletopia.com","port":27035,"enabled":true,"region":"us-east","cc":"us","latitude":40.73061,"longitude":-73.93524,"reserved":0,"last_update":"0001-01-01T00:00:00Z","name_a2s":"Uncletopia | New York City | 3 | Stopwatch Beta","protocol":17,"map":"workshop/pl_barnblitz_pro7.ugc582280235","folder":"tf","game":"Team Fortress","app_id":440,"player_count":0,"max_players":24,"Bots":0,"server_type":"Dedicated","server_os":"Linux","password":true,"vac":true,"version":"7961495","steam_id":85568392924742820,"keywords":["nocrits","nodmgspread","payload","uncletopia"],"game_id":440,"stv_port":27036,"stv_name":"Uncletopia | New York City | 3 | Stopwatch Beta | STV","players":null},{"server_id":16,"name":"Uncletopia | New York City | 4 | Community","name_short":"nyc-4","host":"nyc-1.us.uncletopia.com","port":27045,"enabled":true,"region":"us-east","cc":"us","latitude":40.73061,"longitude":-73.93524,"reserved":0,"last_update":"0001-01-01T00:00:00Z","name_a2s":"Uncletopia | New York City | 4 | Community","protocol":17,"map":"workshop/cp_alloy_rc3.ugc592805587","folder":"tf","game":"Team Fortress","app_id":440,"player_count":0,"max_players":24,"Bots":0,"server_type":"Dedicated","server_os":"Linux","password":true,"vac":true,"version":"7961495","steam_id":85568392924742821,"keywords":["cp","nocrits","nodmgspread","uncletopia"],"game_id":440,"stv_port":27046,"stv_name":"Uncletopia | New York City | 4 | Community | STV","players":null},{"server_id":142,"name":"Uncletopia | São Paulo | 1 | All Maps","name_short":"sao-1","host":"sao-1.br.uncletopia.com","port":27015,"enabled":true,"region":"sa","cc":"br","latitude":-23.533773,"longitude":-46.62529,"reserved":0,"last_update":"0001-01-01T00:00:00Z","name_a2s":"Uncletopia | São Paulo | 1 | All Maps","protocol":17,"map":"cp_sunshine","folder":"tf","game":"Team Fortress","app_id":440,"player_count":0,"max_players":24,"Bots":0,"server_type":"Dedicated","server_os":"Linux","password":true,"vac":true,"version":"7961495","steam_id":85568392924469996,"keywords":["cp","nocrits","nodmgspread","uncletopia"],"game_id":440,"stv_port":27016,"stv_name":"Uncletopia | São Paulo | 1 | All Maps | STV","players":null},{"server_id":143,"name":"Uncletopia | São Paulo | 2 | Community","name_short":"sao-2","host":"sao-2.br.uncletopia.com","port":27015,"enabled":true,"region":"sa","cc":"br","latitude":-23.533773,"longitude":-46.62529,"reserved":0,"last_update":"0001-01-01T00:00:00Z","name_a2s":"Uncletopia | São Paulo | 2 | Community","protocol":17,"map":"workshop/koth_trenchfoot_b1a.ugc731436616","folder":"tf","game":"Team Fortress","app_id":440,"player_count":0,"max_players":24,"Bots":0,"server_type":"Dedicated","server_os":"Linux","password":true,"vac":true,"version":"7961495","steam_id":85568392924485349,"keywords":["cp","nocrits","nodmgspread","uncletopia"],"game_id":440,"stv_port":27016,"stv_name":"Uncletopia | São Paulo | 2 | Community | STV","players":null},{"server_id":7,"name":"Uncletopia | Seattle | 1 | All Maps","name_short":"sea-1","host":"sea-1.us.uncletopia.com","port":27015,"enabled":true,"region":"us-west","cc":"us","latitude":47.608013,"longitude":-122.33517,"reserved":0,"last_update":"0001-01-01T00:00:00Z","name_a2s":"Uncletopia | Seattle | 1 | All Maps","protocol":17,"map":"koth_harvest_final","folder":"tf","game":"Team Fortress","app_id":440,"player_count":24,"max_players":24,"Bots":0,"server_type":"Dedicated","server_os":"Linux","password":true,"vac":true,"version":"7961495","steam_id":85568392924469997,"keywords":["cp","nocrits","nodmgspread","uncletopia"],"game_id":440,"stv_port":27016,"stv_name":"Uncletopia | Seattle | 1 | All Maps | STV","players":[{"user_id":693,"name":"The Super Mario Bros. Movie","steam_id":76561198871692156,"connected_time":5679000000000,"state":"active","ping":53},{"user_id":737,"name":"Big Jack","steam_id":76561198132755619,"connected_time":169000000000,"state":"active","ping":65},{"user_id":722,"name":"Firel","steam_id":76561198060137735,"connected_time":1470000000000,"state":"active","ping":55},{"user_id":727,"name":"LtK","steam_id":76561197993180943,"connected_time":1150000000000,"state":"active","ping":90},{"user_id":703,"name":"XxX_B1G_B33F1N_D0NG_XxX","steam_id":76561198145440269,"connected_time":4614000000000,"state":"active","ping":71},{"user_id":734,"name":"John Wilkes Booth","steam_id":76561197983398671,"connected_time":587000000000,"state":"active","ping":69},{"user_id":735,"name":"marty","steam_id":76561198032782746,"connected_time":376000000000,"state":"active","ping":44},{"user_id":736,"name":"Goosey","steam_id":76561198139648585,"connected_time":177000000000,"state":"active","ping":107},{"user_id":653,"name":"Blood Angels Fan","steam_id":76561198217261328,"connected_time":10224000000000,"state":"active","ping":79},{"user_id":740,"name":"Irritated Duck","steam_id":76561198247792076,"connected_time":9000000000,"state":"spawning","ping":150},{"user_id":720,"name":"viciousbeatmaker","steam_id":76561198086876652,"connected_time":2294000000000,"state":"active","ping":76},{"user_id":684,"name":"smeasly","steam_id":76561198028718812,"connected_time":6799000000000,"state":"active","ping":39},{"user_id":698,"name":"yay splatoon","steam_id":76561198035698704,"connected_time":5271000000000,"state":"active","ping":70},{"user_id":682,"name":"Toaster","steam_id":76561198039891934,"connected_time":7364000000000,"state":"active","ping":68},{"user_id":688,"name":"Toast","steam_id":76561198259512586,"connected_time":5886000000000,"state":"active","ping":63},{"user_id":725,"name":"Mitchell","steam_id":76561197972922328,"connected_time":1190000000000,"state":"active","ping":91},{"user_id":712,"name":"Finkly","steam_id":76561198049828110,"connected_time":3310000000000,"state":"active","ping":44},{"user_id":732,"name":"bossborat","steam_id":76561198133848247,"connected_time":847000000000,"state":"active","ping":61},{"user_id":739,"name":"仙女头子于谦","steam_id":76561199031075505,"connected_time":47000000000,"state":"active","ping":163},{"user_id":721,"name":"reiidaya","steam_id":76561198325306660,"connected_time":1956000000000,"state":"active","ping":55},{"user_id":702,"name":"ibu","steam_id":76561197968084065,"connected_time":4636000000000,"state":"active","ping":56},{"user_id":733,"name":"hash","steam_id":76561198058516339,"connected_time":845000000000,"state":"active","ping":77},{"user_id":729,"name":"tr","steam_id":76561198046944222,"connected_time":1028000000000,"state":"active","ping":47},{"user_id":672,"name":"Strength!!","steam_id":76561198001241984,"connected_time":8534000000000,"state":"active","ping":53}]},{"server_id":119,"name":"Uncletopia | Seattle | 2 | All Maps","name_short":"sea-2","host":"sea-1.us.uncletopia.com","port":27025,"enabled":true,"region":"us-west","cc":"us","latitude":47.608013,"longitude":-122.33517,"reserved":0,"last_update":"0001-01-01T00:00:00Z","name_a2s":"Uncletopia | Seattle | 2 | All Maps","protocol":17,"map":"cp_process_final","folder":"tf","game":"Team Fortress","app_id":440,"player_count":0,"max_players":24,"Bots":0,"server_type":"Dedicated","server_os":"Linux","password":true,"vac":true,"version":"7961495","steam_id":85568392924469998,"keywords":["cp","nocrits","nodmgspread","uncletopia"],"game_id":440,"stv_port":27026,"stv_name":"Uncletopia | Seattle | 2 | All Maps | STV","players":null},{"server_id":406,"name":"Uncletopia | Seattle | 3 | Stopwatch Beta","name_short":"sea-3","host":"sea-1.us.uncletopia.com","port":27035,"enabled":true,"region":"us-west","cc":"us","latitude":47.608013,"longitude":-122.33517,"reserved":0,"last_update":"0001-01-01T00:00:00Z","name_a2s":"Uncletopia | Seattle | 3 | Stopwatch Beta","protocol":17,"map":"pl_upward","folder":"tf","game":"Team Fortress","app_id":440,"player_count":0,"max_players":24,"Bots":0,"server_type":"Dedicated","server_os":"Linux","password":true,"vac":true,"version":"7961495","steam_id":85568392924515217,"keywords":["nocrits","nodmgspread","payload","uncletopia"],"game_id":440,"stv_port":27036,"stv_name":"Uncletopia | Seattle | 3 | Stopwatch Beta | STV","players":null},{"server_id":17,"name":"Uncletopia | San Francisco | 1 | All Maps","name_short":"sfo-1","host":"sfo-1.us.uncletopia.com","port":27015,"enabled":true,"region":"us-west","cc":"us","latitude":37.77397,"longitude":-122.4313,"reserved":0,"last_update":"0001-01-01T00:00:00Z","name_a2s":"Uncletopia | San Francisco | 1 | All Maps","protocol":17,"map":"pl_barnblitz","folder":"tf","game":"Team Fortress","app_id":440,"player_count":24,"max_players":24,"Bots":0,"server_type":"Dedicated","server_os":"Linux","password":true,"vac":true,"version":"7961495","steam_id":85568392924469999,"keywords":["nocrits","nodmgspread","payload","uncletopia"],"game_id":440,"stv_port":27016,"stv_name":"Uncletopia | San Francisco | 1 | All Maps | STV","players":[{"user_id":241,"name":"Wacks","steam_id":76561198079476100,"connected_time":4234000000000,"state":"active","ping":47},{"user_id":304,"name":"a chicken","steam_id":76561198313121580,"connected_time":13000000000,"state":"active","ping":50},{"user_id":298,"name":"father esteban","steam_id":76561197989058876,"connected_time":71000000000,"state":"active","ping":66},{"user_id":277,"name":"brucking","steam_id":76561198348213337,"connected_time":1347000000000,"state":"active","ping":57},{"user_id":299,"name":"novacaine","steam_id":76561198149443710,"connected_time":67000000000,"state":"active","ping":50},{"user_id":289,"name":"porksoda","steam_id":76561198021451377,"connected_time":768000000000,"state":"active","ping":64},{"user_id":225,"name":"DrPringles","steam_id":76561198808743062,"connected_time":4785000000000,"state":"active","ping":175},{"user_id":276,"name":"zaza addict","steam_id":76561198202982780,"connected_time":1367000000000,"state":"active","ping":108},{"user_id":300,"name":"Applebee's Bar \u0026 Grill Menu","steam_id":76561198328323873,"connected_time":67000000000,"state":"active","ping":124},{"user_id":227,"name":"MegaJz","steam_id":76561198391971563,"connected_time":4778000000000,"state":"active","ping":73},{"user_id":283,"name":"Breadzzy!","steam_id":76561198275074299,"connected_time":1080000000000,"state":"active","ping":107},{"user_id":282,"name":"nom","steam_id":76561198105374054,"connected_time":1184000000000,"state":"active","ping":70},{"user_id":296,"name":"dunk","steam_id":76561198066114874,"connected_time":78000000000,"state":"active","ping":75},{"user_id":264,"name":"Mk","steam_id":76561198139790822,"connected_time":2068000000000,"state":"active","ping":116},{"user_id":286,"name":"Beter1B","steam_id":76561198829371802,"connected_time":939000000000,"state":"active","ping":88},{"user_id":287,"name":"SneekiCheekiQbone","steam_id":76561198045077980,"connected_time":898000000000,"state":"active","ping":51},{"user_id":292,"name":"DLHARB","steam_id":76561198199760970,"connected_time":654000000000,"state":"active","ping":68},{"user_id":265,"name":"Saggle","steam_id":76561198056075147,"connected_time":2016000000000,"state":"active","ping":177},{"user_id":303,"name":"Godzylian","steam_id":76561198084832040,"connected_time":47000000000,"state":"active","ping":50},{"user_id":268,"name":"moneky","steam_id":76561198419708542,"connected_time":1923000000000,"state":"active","ping":45},{"user_id":271,"name":"Slippin' Jimmy","steam_id":76561198324749126,"connected_time":1795000000000,"state":"active","ping":201},{"user_id":270,"name":"Chimi","steam_id":76561198067800540,"connected_time":1830000000000,"state":"active","ping":85},{"user_id":290,"name":"Blazorazor","steam_id":76561198032392742,"connected_time":761000000000,"state":"active","ping":62},{"user_id":293,"name":"Professor Lube","steam_id":76561198294955546,"connected_time":397000000000,"state":"active","ping":117}]},{"server_id":18,"name":"Uncletopia | San Francisco | 2 | All Maps","name_short":"sfo-2","host":"sfo-1.us.uncletopia.com","port":27025,"enabled":true,"region":"us-west","cc":"us","latitude":37.77397,"longitude":-122.4313,"reserved":0,"last_update":"0001-01-01T00:00:00Z","name_a2s":"Uncletopia | San Francisco | 2 | All Maps","protocol":17,"map":"cp_mountainlab","folder":"tf","game":"Team Fortress","app_id":440,"player_count":0,"max_players":24,"Bots":0,"server_type":"Dedicated","server_os":"Linux","password":true,"vac":true,"version":"7961495","steam_id":85568392924470000,"keywords":["cp","nocrits","nodmgspread","uncletopia"],"game_id":440,"stv_port":27026,"stv_name":"Uncletopia | San Francisco | 2 | All Maps | STV","players":null},{"server_id":19,"name":"Uncletopia | San Francisco | 3 | Stopwatch Beta","name_short":"sfo-3","host":"sfo-1.us.uncletopia.com","port":27035,"enabled":true,"region":"us-west","cc":"us","latitude":37.77397,"longitude":-122.4313,"reserved":0,"last_update":"0001-01-01T00:00:00Z","name_a2s":"Uncletopia | San Francisco | 3 | Stopwatch Beta","protocol":17,"map":"pl_borneo","folder":"tf","game":"Team Fortress","app_id":440,"player_count":0,"max_players":24,"Bots":0,"server_type":"Dedicated","server_os":"Linux","password":true,"vac":true,"version":"7961495","steam_id":85568392924742824,"keywords":["nocrits","nodmgspread","payload","uncletopia"],"game_id":440,"stv_port":27036,"stv_name":"Uncletopia | San Francisco | 3 | Stopwatch Beta | STV","players":null},{"server_id":20,"name":"Uncletopia | San Francisco | 4 | Community","name_short":"sfo-4","host":"sfo-1.us.uncletopia.com","port":27045,"enabled":true,"region":"us-west","cc":"us","latitude":37.77397,"longitude":-122.4313,"reserved":0,"last_update":"0001-01-01T00:00:00Z","name_a2s":"Uncletopia | San Francisco | 4 | Community","protocol":17,"map":"workshop/koth_synthetic_rc6a.ugc1549817316","folder":"tf","game":"Team Fortress","app_id":440,"player_count":0,"max_players":24,"Bots":0,"server_type":"Dedicated","server_os":"Linux","password":true,"vac":true,"version":"7961495","steam_id":85568392924742826,"keywords":["cp","nocrits","nodmgspread","uncletopia"],"game_id":440,"stv_port":27046,"stv_name":"Uncletopia | San Francisco | 4 | Community | STV","players":null},{"server_id":141,"name":"Uncletopia | Sydney | 1 | All Maps","name_short":"syd-1","host":"syd-1.au.uncletopia.com","port":27015,"enabled":true,"region":"au","cc":"au","latitude":-33.865143,"longitude":151.2099,"reserved":0,"last_update":"0001-01-01T00:00:00Z","name_a2s":"Uncletopia | Sydney | 1 | All Maps","protocol":17,"map":"pl_snowycoast","folder":"tf","game":"Team Fortress","app_id":440,"player_count":24,"max_players":24,"Bots":0,"server_type":"Dedicated","server_os":"Linux","password":true,"vac":true,"version":"7961495","steam_id":85568392924470001,"keywords":["nocrits","nodmgspread","payload","uncletopia"],"game_id":440,"stv_port":27016,"stv_name":"Uncletopia | Sydney | 1 | All Maps | STV","players":[{"user_id":37,"name":"viirv","steam_id":76561198190097862,"connected_time":9824000000000,"state":"active","ping":69},{"user_id":113,"name":"soupy","steam_id":76561198073734936,"connected_time":3538000000000,"state":"active","ping":86},{"user_id":144,"name":"Pompadouraus","steam_id":76561198327530525,"connected_time":651000000000,"state":"active","ping":75},{"user_id":141,"name":"wackel","steam_id":76561198091003826,"connected_time":820000000000,"state":"active","ping":76},{"user_id":116,"name":"schnitzel","steam_id":76561198040881217,"connected_time":3332000000000,"state":"active","ping":38},{"user_id":39,"name":"JP","steam_id":76561198026221737,"connected_time":9789000000000,"state":"active","ping":54},{"user_id":142,"name":"Bigrichard","steam_id":76561198032092945,"connected_time":689000000000,"state":"active","ping":87},{"user_id":98,"name":"Dupiter","steam_id":76561198108820767,"connected_time":5400000000000,"state":"active","ping":58},{"user_id":129,"name":"little raw meat boy","steam_id":76561199248254676,"connected_time":2124000000000,"state":"active","ping":58},{"user_id":124,"name":"Atlas","steam_id":76561198069332870,"connected_time":2891000000000,"state":"active","ping":54},{"user_id":146,"name":"blondie","steam_id":76561198257286963,"connected_time":585000000000,"state":"active","ping":84},{"user_id":134,"name":"Golfing with Joel","steam_id":76561199161637215,"connected_time":1538000000000,"state":"active","ping":104},{"user_id":114,"name":"zorgloopy glorfmorpus","steam_id":76561198063481761,"connected_time":3350000000000,"state":"active","ping":42},{"user_id":145,"name":"Sparky","steam_id":76561198117687688,"connected_time":650000000000,"state":"active","ping":86},{"user_id":125,"name":"รђг๏๏๓ฬเՇςђ","steam_id":76561199422901400,"connected_time":2884000000000,"state":"active","ping":86},{"user_id":127,"name":"perturb (feed/seed)","steam_id":76561198085124297,"connected_time":2470000000000,"state":"active","ping":59},{"user_id":140,"name":"Mac","steam_id":76561198063407128,"connected_time":1086000000000,"state":"active","ping":45},{"user_id":136,"name":"Team Fartress Poo","steam_id":76561198139598106,"connected_time":1434000000000,"state":"active","ping":52},{"user_id":117,"name":"Fleetfoot","steam_id":76561198072845816,"connected_time":3317000000000,"state":"active","ping":45},{"user_id":130,"name":"horrid webbon ᘛ⁐̤ᕐᐷ","steam_id":76561198061998379,"connected_time":2111000000000,"state":"active","ping":47},{"user_id":131,"name":"Scary Gal Alert","steam_id":76561199440190709,"connected_time":1913000000000,"state":"active","ping":56},{"user_id":52,"name":"Chez","steam_id":76561198089925051,"connected_time":9037000000000,"state":"active","ping":95},{"user_id":133,"name":"tenten","steam_id":76561198402822072,"connected_time":1617000000000,"state":"active","ping":98},{"user_id":112,"name":"no teles 4 u","steam_id":76561198018478297,"connected_time":3544000000000,"state":"active","ping":72}]},{"server_id":123,"name":"Uncletopia | Sydney | 2 | All Maps","name_short":"syd-2","host":"syd-1.au.uncletopia.com","port":27025,"enabled":true,"region":"au","cc":"au","latitude":-33.865143,"longitude":151.2099,"reserved":0,"last_update":"0001-01-01T00:00:00Z","name_a2s":"Uncletopia | Sydney | 2 | All Maps","protocol":17,"map":"pl_swiftwater_final1","folder":"tf","game":"Team Fortress","app_id":440,"player_count":0,"max_players":24,"Bots":0,"server_type":"Dedicated","server_os":"Linux","password":true,"vac":true,"version":"7961495","steam_id":85568392924470002,"keywords":["nocrits","nodmgspread","payload","uncletopia"],"game_id":440,"stv_port":27026,"stv_name":"Uncletopia | Sydney | 2 | All Maps | STV","players":null},{"server_id":395,"name":"Uncletopia | Sydney | 3 | All Maps","name_short":"syd-3","host":"syd-1.au.uncletopia.com","port":27035,"enabled":true,"region":"au","cc":"au","latitude":-33.865143,"longitude":151.2099,"reserved":0,"last_update":"0001-01-01T00:00:00Z","name_a2s":"Uncletopia | Sydney | 3 | All Maps","protocol":17,"map":"koth_highpass","folder":"tf","game":"Team Fortress","app_id":440,"player_count":0,"max_players":24,"Bots":0,"server_type":"Dedicated","server_os":"Linux","password":true,"vac":true,"version":"7961495","steam_id":85568392925194467,"keywords":["cp","nocrits","nodmgspread","uncletopia"],"game_id":440,"stv_port":27036,"stv_name":"Uncletopia | Sydney | 3 | All Maps | STV","players":null},{"server_id":396,"name":"Uncletopia | Sydney | 4 | All Maps","name_short":"syd-4","host":"syd-1.au.uncletopia.com","port":27045,"enabled":true,"region":"au","cc":"au","latitude":-33.865143,"longitude":151.2099,"reserved":0,"last_update":"0001-01-01T00:00:00Z","name_a2s":"Uncletopia | Sydney | 4 | All Maps","protocol":17,"map":"pl_pier","folder":"tf","game":"Team Fortress","app_id":440,"player_count":3,"max_players":24,"Bots":0,"server_type":"Dedicated","server_os":"Linux","password":true,"vac":true,"version":"7961495","steam_id":85568392925397958,"keywords":["nocrits","nodmgspread","payload","uncletopia"],"game_id":440,"stv_port":27046,"stv_name":"Uncletopia | Sydney | 4 | All Maps | STV","players":[{"user_id":17,"name":"funGus","steam_id":76561198799796200,"connected_time":1010000000000,"state":"active","ping":71},{"user_id":18,"name":"david malouf","steam_id":76561198107085849,"connected_time":923000000000,"state":"active","ping":44},{"user_id":20,"name":"Phibs","steam_id":76561199323730865,"connected_time":699000000000,"state":"active","ping":34}]},{"server_id":58,"name":"Uncletopia | Sydney | 5 | Stopwatch Beta","name_short":"syd-5","host":"syd-1.au.uncletopia.com","port":27055,"enabled":true,"region":"au","cc":"au","latitude":-33.865143,"longitude":151.2099,"reserved":0,"last_update":"0001-01-01T00:00:00Z","name_a2s":"Uncletopia | Sydney | 5 | Stopwatch Beta","protocol":17,"map":"koth_viaduct","folder":"tf","game":"Team Fortress","app_id":440,"player_count":0,"max_players":24,"Bots":0,"server_type":"Dedicated","server_os":"Linux","password":true,"vac":true,"version":"7961495","steam_id":85568392925397959,"keywords":["cp","nocrits","nodmgspread","uncletopia"],"game_id":440,"stv_port":27056,"stv_name":"Uncletopia | Sydney | 5 | Stopwatch Beta | STV","players":null},{"server_id":59,"name":"Uncletopia | Sydney | 6 | Community","name_short":"syd-6","host":"syd-1.au.uncletopia.com","port":27065,"enabled":true,"region":"au","cc":"au","latitude":-33.865143,"longitude":151.2099,"reserved":0,"last_update":"0001-01-01T00:00:00Z","name_a2s":"Uncletopia | Sydney | 6 | Community","protocol":17,"map":"koth_cascade","folder":"tf","game":"Team Fortress","app_id":440,"player_count":0,"max_players":24,"Bots":0,"server_type":"Dedicated","server_os":"Linux","password":true,"vac":true,"version":"7961495","steam_id":85568392925397960,"keywords":["cp","nocrits","nodmgspread","uncletopia"],"game_id":440,"stv_port":27066,"stv_name":"Uncletopia | Sydney | 6 | Community | STV","players":null},{"server_id":49,"name":"Uncletopia | Warsaw | 1 | All Maps","name_short":"waw-1","host":"waw-1.pl.uncletopia.com","port":27015,"enabled":true,"region":"eu","cc":"pl","latitude":52.2297,"longitude":21.017532,"reserved":0,"last_update":"0001-01-01T00:00:00Z","name_a2s":"Uncletopia | Warsaw | 1 | All Maps","protocol":17,"map":"cp_altitude","folder":"tf","game":"Team Fortress","app_id":440,"player_count":13,"max_players":24,"Bots":0,"server_type":"Dedicated","server_os":"Linux","password":true,"vac":true,"version":"7961495","steam_id":85568392925397850,"keywords":["cp","nocrits","nodmgspread","uncletopia"],"game_id":440,"stv_port":27016,"stv_name":"Uncletopia | Warsaw | 1 | All Maps | STV","players":[{"user_id":8,"name":"Barry Benson","steam_id":76561198357548845,"connected_time":3655000000000,"state":"active","ping":99},{"user_id":32,"name":"Carlo","steam_id":76561198276491098,"connected_time":333000000000,"state":"active","ping":72},{"user_id":24,"name":"Eldritch abomination","steam_id":76561198244108784,"connected_time":1537000000000,"state":"active","ping":54},{"user_id":25,"name":"Immortalyes","steam_id":76561198050800698,"connected_time":1464000000000,"state":"active","ping":81},{"user_id":29,"name":"Pascal Darras","steam_id":76561198052136478,"connected_time":866000000000,"state":"active","ping":75},{"user_id":26,"name":"leonardini.w","steam_id":76561199097963071,"connected_time":1056000000000,"state":"active","ping":66},{"user_id":15,"name":"sangth","steam_id":76561198032787233,"connected_time":2759000000000,"state":"active","ping":100},{"user_id":27,"name":"zieminax","steam_id":76561199160580005,"connected_time":930000000000,"state":"active","ping":55},{"user_id":19,"name":"Average meme enjoyer","steam_id":76561199087566663,"connected_time":2400000000000,"state":"active","ping":60},{"user_id":28,"name":"mark","steam_id":76561198309246388,"connected_time":880000000000,"state":"active","ping":59},{"user_id":30,"name":"Sejp1","steam_id":76561198195319691,"connected_time":666000000000,"state":"active","ping":69},{"user_id":31,"name":"Norman Lamont","steam_id":76561198012673073,"connected_time":620000000000,"state":"active","ping":70},{"user_id":33,"name":"DzejKob2007","steam_id":76561199158220210,"connected_time":264000000000,"state":"active","ping":57}]},{"server_id":50,"name":"Uncletopia | Warsaw | 2 | All Maps","name_short":"waw-2","host":"waw-1.pl.uncletopia.com","port":27025,"enabled":true,"region":"eu","cc":"pl","latitude":52.2297,"longitude":21.017532,"reserved":0,"last_update":"0001-01-01T00:00:00Z","name_a2s":"Uncletopia | Warsaw | 2 | All Maps","protocol":17,"map":"cp_dustbowl","folder":"tf","game":"Team Fortress","app_id":440,"player_count":0,"max_players":24,"Bots":0,"server_type":"Dedicated","server_os":"Linux","password":true,"vac":true,"version":"7961495","steam_id":85568392925397851,"keywords":["cp","nocrits","nodmgspread","uncletopia"],"game_id":440,"stv_port":27026,"stv_name":"Uncletopia | Warsaw | 2 | All Maps | STV","players":null},{"server_id":51,"name":"Uncletopia | Warsaw | 3 | All Maps","name_short":"waw-3","host":"waw-1.pl.uncletopia.com","port":27035,"enabled":true,"region":"eu","cc":"pl","latitude":52.2297,"longitude":21.017532,"reserved":0,"last_update":"0001-01-01T00:00:00Z","name_a2s":"Uncletopia | Warsaw | 3 | All Maps","protocol":17,"map":"pl_upward","folder":"tf","game":"Team Fortress","app_id":440,"player_count":0,"max_players":24,"Bots":0,"server_type":"Dedicated","server_os":"Linux","password":true,"vac":true,"version":"7961495","steam_id":85568392925397852,"keywords":["nocrits","nodmgspread","payload","uncletopia"],"game_id":440,"stv_port":27036,"stv_name":"Uncletopia | Warsaw | 3 | All Maps | STV","players":null},{"server_id":52,"name":"Uncletopia | Warsaw | 4 | All Maps","name_short":"waw-4","host":"waw-1.pl.uncletopia.com","port":27045,"enabled":true,"region":"eu","cc":"pl","latitude":52.2297,"longitude":21.017532,"reserved":0,"last_update":"0001-01-01T00:00:00Z","name_a2s":"Uncletopia | Warsaw | 4 | All Maps","protocol":17,"map":"koth_viaduct","folder":"tf","game":"Team Fortress","app_id":440,"player_count":0,"max_players":24,"Bots":0,"server_type":"Dedicated","server_os":"Linux","password":true,"vac":true,"version":"7961495","steam_id":85568392925397853,"keywords":["cp","nocrits","nodmgspread","uncletopia"],"game_id":440,"stv_port":27046,"stv_name":"Uncletopia | Warsaw | 4 | All Maps | STV","players":null},{"server_id":53,"name":"Uncletopia | Warsaw | 5 | Stopwatch Beta","name_short":"waw-5","host":"waw-1.pl.uncletopia.com","port":27055,"enabled":true,"region":"eu","cc":"pl","latitude":52.2297,"longitude":21.017532,"reserved":0,"last_update":"0001-01-01T00:00:00Z","name_a2s":"Uncletopia | Warsaw | 5 | Stopwatch Beta","protocol":17,"map":"cp_snakewater_final1","folder":"tf","game":"Team Fortress","app_id":440,"player_count":0,"max_players":24,"Bots":0,"server_type":"Dedicated","server_os":"Linux","password":true,"vac":true,"version":"7961495","steam_id":85568392925397854,"keywords":["cp","nocrits","nodmgspread","uncletopia"],"game_id":440,"stv_port":27056,"stv_name":"Uncletopia | Warsaw | 5 | Stopwatch Beta | STV","players":null},{"server_id":54,"name":"Uncletopia | Warsaw | 6 | Community","name_short":"waw-6","host":"waw-1.pl.uncletopia.com","port":27065,"enabled":true,"region":"eu","cc":"pl","latitude":52.2297,"longitude":21.017532,"reserved":0,"last_update":"0001-01-01T00:00:00Z","name_a2s":"Uncletopia | Warsaw | 6 | Community","protocol":17,"map":"cp_mountainlab","folder":"tf","game":"Team Fortress","app_id":440,"player_count":0,"max_players":24,"Bots":0,"server_type":"Dedicated","server_os":"Linux","password":true,"vac":true,"version":"7961495","steam_id":85568392925397856,"keywords":["cp","nocrits","nodmgspread","uncletopia"],"game_id":440,"stv_port":27066,"stv_name":"Uncletopia | Warsaw | 6 | Community | STV","players":null}]}