{"status":true,"message":"","result":[{"server_id":9,"name":"Uncletopia | Atlanta | 1 | All Maps","name_short":"atl-1","host":"atl-1.us.uncletopia.com","port":27015,"enabled":true,"region":"us-east","cc":"us","latitude":33.753746,"longitude":-84.38633,"reserved":0,"last_update":"0001-01-01T00:00:00Z","name_a2s":"Uncletopia | Atlanta | 1 | All Maps","protocol":17,"map":"cp_dustbowl","folder":"tf","game":"Team Fortress","app_id":440,"player_count":24,"max_players":24,"Bots":0,"server_type":"Dedicated","server_os":"Linux","password":true,"vac":true,"version":"7757534","steam_id":85568392924469982,"keywords":["cp","nocrits","nodmgspread","uncletopia"],"game_id":440,"stv_port":27016,"stv_name":"Uncletopia | Atlanta | 1 | All Maps | STV","players":[{"user_id":462,"name":"DFR DeezNoodlez","steam_id":76561198246700372,"connected_time":1024000000000,"state":"active","ping":58},{"user_id":473,"name":"yomo","steam_id":76561198063175935,"connected_time":228000000000,"state":"active","ping":55},{"user_id":441,"name":"yvko","steam_id":76561198165724991,"connected_time":2521000000000,"state":"active","ping":58},{"user_id":461,"name":"Bali","steam_id":76561198038693845,"connected_time":1084000000000,"state":"active","ping":71},{"user_id":432,"name":"Broadsword","steam_id":76561198011160411,"connected_time":2924000000000,"state":"active","ping":46},{"user_id":474,"name":"Brian","steam_id":76561198089908485,"connected_time":45000000000,"state":"active","ping":63},{"user_id":453,"name":"AgentOfSTARS","steam_id":76561199127800645,"connected_time":1972000000000,"state":"active","ping":151},{"user_id":454,"name":"You Want Me","steam_id":76561198135492119,"connected_time":1788000000000,"state":"active","ping":69},{"user_id":444,"name":"BIG HOG","steam_id":76561198079923652,"connected_time":2375000000000,"state":"active","ping":67},{"user_id":373,"name":"6,000,000 merged Chihuahuas","steam_id":76561198130772096,"connected_time":6755000000000,"state":"active","ping":45},{"user_id":458,"name":"melancholy","steam_id":76561198024301465,"connected_time":1375000000000,"state":"active","ping":41},{"user_id":468,"name":"paetho YT","steam_id":76561198152690003,"connected_time":299000000000,"state":"active","ping":43},{"user_id":389,"name":"Jin","steam_id":76561198119873148,"connected_time":5190000000000,"state":"active","ping":71},{"user_id":436,"name":"butterbutt!","steam_id":76561198038160740,"connected_time":2833000000000,"state":"active","ping":45},{"user_id":437,"name":"J The Jounin","steam_id":76561198034583622,"connected_time":2780000000000,"state":"active","ping":65},{"user_id":477,"name":"Mug","steam_id":76561199282207802,"connected_time":21000000000,"state":"active","ping":106},{"user_id":472,"name":"Doomagedden","steam_id":76561198272589475,"connected_time":278000000000,"state":"active","ping":72},{"user_id":470,"name":"Elflocky","steam_id":76561199096852639,"connected_time":287000000000,"state":"active","ping":80},{"user_id":405,"name":"cola","steam_id":76561198374390458,"connected_time":4257000000000,"state":"active","ping":60},{"user_id":451,"name":"eish","steam_id":76561198089463603,"connected_time":2052000000000,"state":"active","ping":120},{"user_id":455,"name":"ATL1 | ma0re","steam_id":76561199231971506,"connected_time":1786000000000,"state":"active","ping":64},{"user_id":471,"name":"F–ØED","steam_id":76561198263271697,"connected_time":287000000000,"state":"active","ping":61},{"user_id":429,"name":"CAPT Splashclaw","steam_id":76561198110019410,"connected_time":3060000000000,"state":"active","ping":82},{"user_id":402,"name":"lil hog","steam_id":76561199230929836,"connected_time":4460000000000,"state":"active","ping":79}]},{"server_id":400,"name":"Uncletopia | Atlanta | 3 | Community","name_short":"atl-3","host":"atl-1.us.uncletopia.com","port":27035,"enabled":true,"region":"us-east","cc":"us","latitude":33.753746,"longitude":-84.38633,"reserved":0,"last_update":"0001-01-01T00:00:00Z","name_a2s":"Uncletopia | Atlanta | 3 | Community","protocol":17,"map":"workshop/cp_alloy_rc3.ugc592805587","folder":"tf","game":"Team Fortress","app_id":440,"player_count":0,"max_players":24,"Bots":0,"server_type":"Dedicated","server_os":"Linux","password":true,"vac":true,"version":"7757534","steam_id":85568392924515187,"keywords":["cp","nocrits","nodmgspread","uncletopia"],"game_id":440,"stv_port":27036,"stv_name":"Uncletopia | Atlanta | 3 | Community | STV","players":null},{"server_id":401,"name":"Uncletopia | Atlanta | 4 | No Payload","name_short":"atl-4","host":"atl-1.us.uncletopia.com","port":27045,"enabled":true,"region":"us-east","cc":"us","latitude":33.753746,"longitude":-84.38633,"reserved":0,"last_update":"0001-01-01T00:00:00Z","name_a2s":"","protocol":0,"map":"","folder":"","game":"","app_id":0,"player_count":0,"max_players":0,"Bots":0,"server_type":"","server_os":"","password":false,"vac":false,"version":"","steam_id":0,"keywords":null,"game_id":0,"stv_port":0,"stv_name":"","players":null},{"server_id":2,"name":"Uncletopia | Chicago | 1 | All Maps","name_short":"chi-1","host":"chi-1.us.uncletopia.com","port":27015,"enabled":true,"region":"us-central","cc":"us","latitude":41.881832,"longitude":-87.62318,"reserved":0,"last_update":"0001-01-01T00:00:00Z","name_a2s":"Uncletopia | Chicago | 1 | All Maps","protocol":17,"map":"pl_thundermountain","folder":"tf","game":"Team Fortress","app_id":440,"player_count":24,"max_players":24,"Bots":0,"server_type":"Dedicated","server_os":"Linux","password":true,"vac":true,"version":"7757534","steam_id":85568392924469984,"keywords":["nocrits","nodmgspread","payload","uncletopia"],"game_id":440,"stv_port":27016,"stv_name":"Uncletopia | Chicago | 1 | All Maps | STV","players":[{"user_id":268,"name":"beta central","steam_id":76561198301876831,"connected_time":1204000000000,"state":"active","ping":57},{"user_id":257,"name":"momb","steam_id":76561198142234038,"connected_time":2746000000000,"state":"active","ping":87},{"user_id":270,"name":"heck","steam_id":76561198308547958,"connected_time":1081000000000,"state":"active","ping":59},{"user_id":279,"name":"Doc{MDW}","steam_id":76561198075049640,"connected_time":404000000000,"state":"active","ping":90},{"user_id":255,"name":"AX0L_","steam_id":76561199008960175,"connected_time":3118000000000,"state":"active","ping":50},{"user_id":230,"name":"[PEED] real jewish space lasers","steam_id":76561198119536224,"connected_time":5397000000000,"state":"active","ping":75},{"user_id":264,"name":"Edited Atom","steam_id":76561198210844957,"connected_time":1620000000000,"state":"active","ping":71},{"user_id":247,"name":"oasu","steam_id":76561198077797135,"connected_time":3494000000000,"state":"active","ping":75},{"user_id":273,"name":"Dabicus Vile","steam_id":76561198272413758,"connected_time":666000000000,"state":"active","ping":55},{"user_id":161,"name":"[DEEP] Danmar33","steam_id":76561198056453091,"connected_time":10405000000000,"state":"active","ping":51},{"user_id":282,"name":"Melting Popsicle","steam_id":76561198333128330,"connected_time":362000000000,"state":"active","ping":41},{"user_id":263,"name":"lcy13vv","steam_id":76561197995997446,"connected_time":1635000000000,"state":"active","ping":50},{"user_id":286,"name":"83 DPM medic","steam_id":76561198067994868,"connected_time":13000000000,"state":"spawning","ping":43},{"user_id":283,"name":"boppetson","steam_id":76561198073529045,"connected_time":337000000000,"state":"active","ping":61},{"user_id":253,"name":"Zoawsome","steam_id":76561198018758753,"connected_time":3369000000000,"state":"active","ping":46},{"user_id":284,"name":"frank","steam_id":76561198045436159,"connected_time":246000000000,"state":"active","ping":79},{"user_id":238,"name":"Ingo","steam_id":76561198053932416,"connected_time":5053000000000,"state":"active","ping":67},{"user_id":269,"name":"TeriyakiDynamite","steam_id":76561198050049346,"connected_time":1127000000000,"state":"active","ping":115},{"user_id":274,"name":"Hollyerthanthou","steam_id":76561198180596165,"connected_time":661000000000,"state":"active","ping":50},{"user_id":285,"name":"Toygar","steam_id":76561198023679830,"connected_time":48000000000,"state":"active","ping":47},{"user_id":275,"name":"CrankShaft","steam_id":76561197970750813,"connected_time":657000000000,"state":"active","ping":59},{"user_id":278,"name":"The 3rd Party","steam_id":76561198149353542,"connected_time":443000000000,"state":"active","ping":82},{"user_id":235,"name":"[DEEP_er] real zingers","steam_id":76561198097160898,"connected_time":5316000000000,"state":"active","ping":49},{"user_id":267,"name":"Lia_Rein","steam_id":76561198151569597,"connected_time":1470000000000,"state":"active","ping":144}]},{"server_id":106,"name":"Uncletopia | Chicago | 2 | All Maps","name_short":"chi-2","host":"chi-1.us.uncletopia.com","port":27025,"enabled":true,"region":"us-central","cc":"us","latitude":41.881832,"longitude":-87.62318,"reserved":0,"last_update":"0001-01-01T00:00:00Z","name_a2s":"Uncletopia | Chicago | 2 | All Maps","protocol":17,"map":"pl_snowycoast","folder":"tf","game":"Team Fortress","app_id":440,"player_count":0,"max_players":24,"Bots":0,"server_type":"Dedicated","server_os":"Linux","password":true,"vac":true,"version":"7757534","steam_id":85568392924469985,"keywords":["nocrits","nodmgspread","payload","uncletopia"],"game_id":440,"stv_port":27026,"stv_name":"Uncletopia | Chicago | 2 | All Maps | STV","players":null},{"server_id":402,"name":"Uncletopia | Chicago | 3 | All Maps","name_short":"chi-3","host":"chi-1.us.uncletopia.com","port":27035,"enabled":true,"region":"us-central","cc":"us","latitude":41.881832,"longitude":-87.62318,"reserved":0,"last_update":"0001-01-01T00:00:00Z","name_a2s":"Uncletopia | Chicago | 3 | All Maps","protocol":17,"map":"cp_sunshine","folder":"tf","game":"Team Fortress","app_id":440,"player_count":23,"max_players":24,"Bots":0,"server_type":"Dedicated","server_os":"Linux","password":true,"vac":true,"version":"7757534","steam_id":85568392924515191,"keywords":["cp","nocrits","nodmgspread","uncletopia"],"game_id":440,"stv_port":27036,"stv_name":"Uncletopia | Chicago | 3 | All Maps | STV","players":[{"user_id":212,"name":"Nephs","steam_id":76561198136763403,"connected_time":5886000000000,"state":"active","ping":78},{"user_id":127,"name":"Dot.","steam_id":76561198149463984,"connected_time":12324000000000,"state":"active","ping":51},{"user_id":266,"name":"Malevo","steam_id":76561198148606522,"connected_time":8000000000,"state":"spawning","ping":73},{"user_id":209,"name":"Eurocyon","steam_id":76561199465863937,"connected_time":6080000000000,"state":"active","ping":81},{"user_id":257,"name":"ghostyAlchemist","steam_id":76561198448078291,"connected_time":1630000000000,"state":"active","ping":69},{"user_id":235,"name":"Polar","steam_id":76561198271964253,"connected_time":3071000000000,"state":"active","ping":83},{"user_id":254,"name":"Tea Enthusiast","steam_id":76561198185583925,"connected_time":1747000000000,"state":"active","ping":45},{"user_id":264,"name":"alolan duntski","steam_id":76561198038826744,"connected_time":580000000000,"state":"active","ping":48},{"user_id":224,"name":"Doubting Dave","steam_id":76561198066410749,"connected_time":4427000000000,"state":"active","ping":72},{"user_id":252,"name":".jpg","steam_id":76561198137237377,"connected_time":1924000000000,"state":"active","ping":61},{"user_id":249,"name":"Bastee1021","steam_id":76561199456141163,"connected_time":2312000000000,"state":"active","ping":129},{"user_id":267,"name":"A Puppy","steam_id":76561198828184456,"connected_time":7000000000,"state":"spawning","ping":60},{"user_id":262,"name":"Ceiling Man","steam_id":76561198003959902,"connected_time":1114000000000,"state":"active","ping":57},{"user_id":239,"name":"Jill the Owl","steam_id":76561197999210583,"connected_time":2840000000000,"state":"active","ping":70},{"user_id":255,"name":"fudo myoo","steam_id":76561198456258164,"connected_time":1716000000000,"state":"active","ping":71},{"user_id":265,"name":"Yeti","steam_id":76561198035450920,"connected_time":427000000000,"state":"active","ping":83},{"user_id":261,"name":"C Papi","steam_id":76561198027779564,"connected_time":1203000000000,"state":"active","ping":52},{"user_id":260,"name":"a crystal lizard","steam_id":76561197997661928,"connected_time":1390000000000,"state":"active","ping":65},{"user_id":259,"name":"Godmode","steam_id":76561198076240365,"connected_time":1558000000000,"state":"active","ping":59},{"user_id":250,"name":"Sigiferd","steam_id":76561198148788110,"connected_time":2305000000000,"state":"active","ping":133},{"user_id":233,"name":"Romo","steam_id":76561198243101572,"connected_time":3576000000000,"state":"active","ping":86},{"user_id":242,"name":"Kitt(eh) ‚àë:3","steam_id":76561198110858518,"connected_time":2806000000000,"state":"active","ping":59},{"user_id":243,"name":"Walter White","steam_id":76561198875469297,"connected_time":2783000000000,"state":"active","ping":64}]},{"server_id":403,"name":"Uncletopia | Chicago | 4 | All Maps","name_short":"chi-4","host":"chi-1.us.uncletopia.com","port":27045,"enabled":true,"region":"us-central","cc":"us","latitude":41.881832,"longitude":-87.62318,"reserved":0,"last_update":"0001-01-01T00:00:00Z","name_a2s":"Uncletopia | Chicago | 4 | All Maps","protocol":17,"map":"pl_swiftwater_final1","folder":"tf","game":"Team Fortress","app_id":440,"player_count":24,"max_players":24,"Bots":0,"server_type":"Dedicated","server_os":"Linux","password":true,"vac":true,"version":"7757534","steam_id":85568392924515193,"keywords":["nocrits","nodmgspread","payload","uncletopia"],"game_id":440,"stv_port":27046,"stv_name":"Uncletopia | Chicago | 4 | All Maps | STV","players":[{"user_id":710,"name":"Frank","steam_id":76561198796521052,"connected_time":142000000000,"state":"active","ping":75},{"user_id":661,"name":"theancientnut","steam_id":76561199396708880,"connected_time":2650000000000,"state":"active","ping":55},{"user_id":711,"name":"pigswill","steam_id":76561197999081865,"connected_time":138000000000,"state":"active","ping":81},{"user_id":658,"name":"jibby","steam_id":76561198046872382,"connected_time":2732000000000,"state":"active","ping":50},{"user_id":699,"name":"Lost (15)","steam_id":76561198093713427,"connected_time":775000000000,"state":"active","ping":60},{"user_id":602,"name":"I am a mooshroom","steam_id":76561198104198295,"connected_time":5855000000000,"state":"active","ping":91},{"user_id":696,"name":"Project Dusk","steam_id":76561198193521149,"connected_time":823000000000,"state":"active","ping":87},{"user_id":676,"name":"Temujin","steam_id":76561198030936583,"connected_time":1793000000000,"state":"active","ping":55},{"user_id":693,"name":"ÈÇ™ÊÅ∂ÁöÑÂ∑´Â∏à","steam_id":76561198165212575,"connected_time":842000000000,"state":"active","ping":73},{"user_id":713,"name":"C","steam_id":76561199475335052,"connected_time":66000000000,"state":"active","ping":111},{"user_id":709,"name":"Lawnmower","steam_id":76561198186680197,"connected_time":162000000000,"state":"active","ping":98},{"user_id":702,"name":"Corbe","steam_id":76561198353893927,"connected_time":697000000000,"state":"active","ping":43},{"user_id":664,"name":"Dr_Spek","steam_id":76561198128667701,"connected_time":2512000000000,"state":"active","ping":60},{"user_id":708,"name":"TGPupps","steam_id":76561198281201914,"connected_time":176000000000,"state":"active","ping":161},{"user_id":657,"name":"'LaxAttack","steam_id":76561198044129346,"connected_time":2748000000000,"state":"active","ping":75},{"user_id":706,"name":"ThreatLvl9","steam_id":76561198079410533,"connected_time":419000000000,"state":"active","ping":78},{"user_id":694,"name":"Buswolley","steam_id":76561197995205571,"connected_time":841000000000,"state":"active","ping":99},{"user_id":689,"name":"anonpain","steam_id":76561198081317092,"connected_time":1368000000000,"state":"active","ping":48},{"user_id":690,"name":"wokky bin laddn","steam_id":76561198265200834,"connected_time":1313000000000,"state":"active","ping":76},{"user_id":680,"name":"any ladies keeping it hairy?","steam_id":76561198081220016,"connected_time":1760000000000,"state":"active","ping":56},{"user_id":707,"name":"chulps","steam_id":76561198217058421,"connected_time":296000000000,"state":"active","ping":50},{"user_id":645,"name":"Syynth","steam_id":76561198161328298,"connected_time":3395000000000,"state":"active","ping":76},{"user_id":704,"name":"Jpxfred","steam_id":76561199414783749,"connected_time":616000000000,"state":"active","ping":108},{"user_id":712,"name":"Warzard","steam_id":76561199154051413,"connected_time":135000000000,"state":"active","ping":90}]},{"server_id":36,"name":"Uncletopia | Chicago | 5 | All Maps","name_short":"chi-5","host":"chi-2.us.uncletopia.com","port":27015,"enabled":true,"region":"us-central","cc":"us","latitude":41.881832,"longitude":-87.62318,"reserved":0,"last_update":"0001-01-01T00:00:00Z","name_a2s":"Uncletopia | Chicago | 5 | All Maps","protocol":17,"map":"pl_pier","folder":"tf","game":"Team Fortress","app_id":440,"player_count":5,"max_players":24,"Bots":0,"server_type":"Dedicated","server_os":"Linux","password":true,"vac":true,"version":"7757534","steam_id":85568392924866362,"keywords":["nocrits","nodmgspread","payload","uncletopia"],"game_id":440,"stv_port":27016,"stv_name":"Uncletopia | Chicago | 5 | All Maps | STV","players":[{"user_id":14,"name":"Admiral Crumbs","steam_id":76561198108791583,"connected_time":1310000000000,"state":"active","ping":66},{"user_id":17,"name":"BIGGEST MAC","steam_id":76561198847517098,"connected_time":639000000000,"state":"active","ping":86},{"user_id":16,"name":"Artemy \"The Haruspex\" Burakh","steam_id":76561198257038275,"connected_time":1280000000000,"state":"active","ping":80},{"user_id":19,"name":"BlueToffe","steam_id":76561198295178024,"connected_time":96000000000,"state":"active","ping":59},{"user_id":20,"name":"zapato","steam_id":76561198142278437,"connected_time":53000000000,"state":"active","ping":113}]},{"server_id":37,"name":"Uncletopia | Chicago | 6 | All Maps","name_short":"chi-6","host":"chi-2.us.uncletopia.com","port":27025,"enabled":true,"region":"us-central","cc":"us","latitude":41.881832,"longitude":-87.62318,"reserved":0,"last_update":"0001-01-01T00:00:00Z","name_a2s":"Uncletopia | Chicago | 6 | All Maps","protocol":17,"map":"pl_badwater","folder":"tf","game":"Team Fortress","app_id":440,"player_count":24,"max_players":24,"Bots":0,"server_type":"Dedicated","server_os":"Linux","password":true,"vac":true,"version":"7757534","steam_id":85568392924866363,"keywords":["nocrits","nodmgspread","payload","uncletopia"],"game_id":440,"stv_port":27026,"stv_name":"Uncletopia | Chicago | 6 | All Maps | STV","players":[{"user_id":12,"name":"The Dead Weight","steam_id":76561198056694098,"connected_time":10195000000000,"state":"active","ping":60},{"user_id":10,"name":"James","steam_id":76561198081313916,"connected_time":10352000000000,"state":"active","ping":70},{"user_id":56,"name":"-W3E- grim10465","steam_id":76561198045698581,"connected_time":6628000000000,"state":"active","ping":47},{"user_id":125,"name":"nastypass","steam_id":76561198002601054,"connected_time":2143000000000,"state":"active","ping":65},{"user_id":129,"name":"Vespen","steam_id":76561198259984019,"connected_time":1958000000000,"state":"active","ping":109},{"user_id":131,"name":"Mr.Toasteroven","steam_id":76561199120586450,"connected_time":1680000000000,"state":"active","ping":62},{"user_id":75,"name":"his flatulence","steam_id":76561198799404824,"connected_time":5177000000000,"state":"active","ping":60},{"user_id":149,"name":"Jaydyn","steam_id":76561198140326797,"connected_time":1131000000000,"state":"active","ping":80},{"user_id":118,"name":"Billybob7712","steam_id":76561199000291076,"connected_time":2645000000000,"state":"active","ping":104},{"user_id":128,"name":"Noodle","steam_id":76561199156137868,"connected_time":1995000000000,"state":"active","ping":151},{"user_id":142,"name":"chinese dark food technology","steam_id":76561198039909187,"connected_time":1440000000000,"state":"active","ping":58},{"user_id":132,"name":"Comfy Monkey","steam_id":76561197998434936,"connected_time":1672000000000,"state":"active","ping":57},{"user_id":133,"name":"evlallthetime","steam_id":76561198007896273,"connected_time":1659000000000,"state":"active","ping":82},{"user_id":147,"name":"purple diesel","steam_id":76561197976548449,"connected_time":1214000000000,"state":"active","ping":90},{"user_id":134,"name":"The Notorious RBG","steam_id":76561198014275148,"connected_time":1626000000000,"state":"active","ping":77},{"user_id":151,"name":"jeremimi","steam_id":76561198818225102,"connected_time":975000000000,"state":"active","ping":123},{"user_id":153,"name":"Larry from Pokemon SV","steam_id":76561198095245223,"connected_time":936000000000,"state":"active","ping":67},{"user_id":136,"name":"Furious George","steam_id":76561198405111646,"connected_time":1573000000000,"state":"active","ping":99},{"user_id":141,"name":"Coupon","steam_id":76561198111947598,"connected_time":1518000000000,"state":"active","ping":83},{"user_id":138,"name":"Navigatxr","steam_id":76561199185153789,"connected_time":1565000000000,"state":"active","ping":90},{"user_id":148,"name":"JellyParrot","steam_id":76561199190990163,"connected_time":1213000000000,"state":"active","ping":70},{"user_id":144,"name":"griddy","steam_id":76561198825658971,"connected_time":1396000000000,"state":"active","ping":90},{"user_id":139,"name":"Nikki","steam_id":76561199069832535,"connected_time":1551000000000,"state":"active","ping":91},{"user_id":156,"name":"Skelescabard","steam_id":76561199228125159,"connected_time":286000000000,"state":"active","ping":146}]},{"server_id":38,"name":"Uncletopia | Chicago | 7 | Stopwatch Beta","name_short":"chi-7","host":"chi-2.us.uncletopia.com","port":27035,"enabled":true,"region":"us-central","cc":"us","latitude":41.881832,"longitude":-87.62318,"reserved":0,"last_update":"0001-01-01T00:00:00Z","name_a2s":"Uncletopia | Chicago | 7 | Stopwatch Beta","protocol":17,"map":"koth_viaduct","folder":"tf","game":"Team Fortress","app_id":440,"player_count":3,"max_players":24,"Bots":0,"server_type":"Dedicated","server_os":"Linux","password":true,"vac":true,"version":"7757534","steam_id":85568392924866364,"keywords":["cp","nocrits","nodmgspread","uncletopia"],"game_id":440,"stv_port":27036,"stv_name":"Uncletopia | Chicago | 7 | Stopwatch Beta | STV","players":[{"user_id":5,"name":"MCHolden","steam_id":76561199142512034,"connected_time":2194000000000,"state":"active","ping":65},{"user_id":6,"name":"Mycroft 33","steam_id":76561198288262399,"connected_time":1789000000000,"state":"active","ping":136},{"user_id":8,"name":"gus","steam_id":76561198839833554,"connected_time":1082000000000,"state":"active","ping":46}]},{"server_id":39,"name":"Uncletopia | Chicago | 8 | Community","name_short":"chi-8","host":"chi-2.us.uncletopia.com","port":27045,"enabled":true,"region":"us-central","cc":"us","latitude":41.881832,"longitude":-87.62318,"reserved":0,"last_update":"0001-01-01T00:00:00Z","name_a2s":"Uncletopia | Chicago | 8 | Community","protocol":17,"map":"koth_lakeside_final","folder":"tf","game":"Team Fortress","app_id":440,"player_count":0,"max_players":24,"Bots":0,"server_type":"Dedicated","server_os":"Linux","password":true,"vac":true,"version":"7757534","steam_id":85568392924866365,"keywords":["cp","nocrits","nodmgspread","uncletopia"],"game_id":440,"stv_port":27046,"stv_name":"Uncletopia | Chicago | 8 | Community | STV","players":null},{"server_id":8,"name":"Uncletopia | Dallas | 1 | All Maps","name_short":"dal-1","host":"dal-1.us.uncletopia.com","port":27015,"enabled":true,"region":"us-central","cc":"us","latitude":32.779167,"longitude":-96.80889,"reserved":0,"last_update":"0001-01-01T00:00:00Z","name_a2s":"Uncletopia | Dallas | 1 | All Maps","protocol":17,"map":"cp_snakewater_final1","folder":"tf","game":"Team Fortress","app_id":440,"player_count":24,"max_players":24,"Bots":0,"server_type":"Dedicated","server_os":"Linux","password":true,"vac":true,"version":"7757534","steam_id":85568392924469986,"keywords":["cp","nocrits","nodmgspread","uncletopia"],"game_id":440,"stv_port":27016,"stv_name":"Uncletopia | Dallas | 1 | All Maps | STV","players":[{"user_id":410,"name":"icm2008","steam_id":76561199277408836,"connected_time":825000000000,"state":"active","ping":84},{"user_id":360,"name":"bodi","steam_id":76561199062396598,"connected_time":3180000000000,"state":"active","ping":81},{"user_id":401,"name":"Carnold","steam_id":76561198163819918,"connected_time":1191000000000,"state":"active","ping":72},{"user_id":344,"name":"Six Popsicle Jake","steam_id":76561198024757122,"connected_time":3575000000000,"state":"active","ping":73},{"user_id":412,"name":"Tax","steam_id":76561198335683534,"connected_time":274000000000,"state":"active","ping":86},{"user_id":384,"name":"Estetrius","steam_id":76561198016993850,"connected_time":2510000000000,"state":"active","ping":55},{"user_id":386,"name":"scrapheap","steam_id":76561198202407087,"connected_time":2343000000000,"state":"active","ping":90},{"user_id":414,"name":"üé£ I'd Rather Be Gooning","steam_id":76561198062410522,"connected_time":34000000000,"state":"active","ping":77},{"user_id":395,"name":"Stryder","steam_id":76561199387418697,"connected_time":1733000000000,"state":"active","ping":71},{"user_id":398,"name":"dad vibes","steam_id":76561197990714447,"connected_time":1301000000000,"state":"active","ping":48},{"user_id":409,"name":"I will kill you","steam_id":76561198136533830,"connected_time":922000000000,"state":"active","ping":90},{"user_id":392,"name":"Frank The Fragger","steam_id":76561198088767519,"connected_time":1886000000000,"state":"active","ping":122},{"user_id":411,"name":"the glizzard","steam_id":76561198121633820,"connected_time":787000000000,"state":"active","ping":101},{"user_id":403,"name":"Gian","steam_id":76561198041434512,"connected_time":1183000000000,"state":"active","ping":111},{"user_id":369,"name":"Shuryken","steam_id":76561199085754214,"connected_time":2954000000000,"state":"active","ping":94},{"user_id":372,"name":"JelloMotion","steam_id":76561198045892038,"connected_time":2815000000000,"state":"active","ping":63},{"user_id":396,"name":"kris736","steam_id":76561198038208255,"connected_time":1733000000000,"state":"active","ping":75},{"user_id":393,"name":"AnarchyPaladin","steam_id":76561198066635428,"connected_time":1874000000000,"state":"active","ping":92},{"user_id":413,"name":"The Glizzanator","steam_id":76561198115355451,"connected_time":232000000000,"state":"active","ping":68},{"user_id":325,"name":"Ganondork","steam_id":76561198114972080,"connected_time":4940000000000,"state":"active","ping":55},{"user_id":382,"name":"turd ferguson","steam_id":76561198071620782,"connected_time":2589000000000,"state":"active","ping":99},{"user_id":400,"name":"Motorol¬™","steam_id":76561198358119669,"connected_time":1225000000000,"state":"active","ping":129},{"user_id":404,"name":"Biggles","steam_id":76561198126576389,"connected_time":1183000000000,"state":"active","ping":88},{"user_id":407,"name":"feenman","steam_id":76561199383834799,"connected_time":977000000000,"state":"active","ping":72}]},{"server_id":108,"name":"Uncletopia | Dallas | 2 | All Maps","name_short":"dal-2","host":"dal-1.us.uncletopia.com","port":27025,"enabled":true,"region":"us-central","cc":"us","latitude":32.779167,"longitude":-96.80889,"reserved":0,"last_update":"0001-01-01T00:00:00Z","name_a2s":"Uncletopia | Dallas | 2 | All Maps","protocol":17,"map":"cp_dustbowl","folder":"tf","game":"Team Fortress","app_id":440,"player_count":24,"max_players":24,"Bots":0,"server_type":"Dedicated","server_os":"Linux","password":true,"vac":true,"version":"7757534","steam_id":85568392924469988,"keywords":["cp","nocrits","nodmgspread","uncletopia"],"game_id":440,"stv_port":27026,"stv_name":"Uncletopia | Dallas | 2 | All Maps | STV","players":[{"user_id":162,"name":"[_Dr.Scythe_]","steam_id":76561198845245858,"connected_time":1218000000000,"state":"active","ping":72},{"user_id":170,"name":"Dicksuck Mcgee","steam_id":76561198028577159,"connected_time":560000000000,"state":"active","ping":93},{"user_id":164,"name":"TheGreatDong","steam_id":76561198000634178,"connected_time":1087000000000,"state":"active","ping":90},{"user_id":146,"name":"Yuhh","steam_id":76561199112894955,"connected_time":2040000000000,"state":"active","ping":71},{"user_id":147,"name":"Treeckogeek","steam_id":76561198453328078,"connected_time":1979000000000,"state":"active","ping":76},{"user_id":157,"name":"nap","steam_id":76561198162714624,"connected_time":1328000000000,"state":"active","ping":41},{"user_id":140,"name":"lost in spaaaaace","steam_id":76561199085974120,"connected_time":2276000000000,"state":"active","ping":85},{"user_id":148,"name":"ErikG65USA","steam_id":76561199381735619,"connected_time":1903000000000,"state":"active","ping":62},{"user_id":123,"name":"moe5x","steam_id":76561198316877833,"connected_time":3111000000000,"state":"active","ping":116},{"user_id":41,"name":"The Ultimate Coomer","steam_id":76561199128833757,"connected_time":7987000000000,"state":"active","ping":52},{"user_id":159,"name":"Arrythmia","steam_id":76561198093748123,"connected_time":1285000000000,"state":"active","ping":104},{"user_id":134,"name":"Muse","steam_id":76561198177715869,"connected_time":2757000000000,"state":"active","ping":76},{"user_id":165,"name":"[chef] iron","steam_id":76561197970888616,"connected_time":972000000000,"state":"active","ping":60},{"user_id":156,"name":"Hotsaucebauce","steam_id":76561199070938363,"connected_time":1397000000000,"state":"active","ping":110},{"user_id":171,"name":"CheeseCake488","steam_id":76561199407617942,"connected_time":446000000000,"state":"active","ping":137},{"user_id":142,"name":"KingHyaw","steam_id":76561198004694157,"connected_time":2235000000000,"state":"active","ping":122},{"user_id":143,"name":"Nin","steam_id":76561198030955072,"connected_time":2227000000000,"state":"active","ping":173},{"user_id":168,"name":"potty trained","steam_id":76561198141557766,"connected_time":610000000000,"state":"active","ping":90},{"user_id":166,"name":"Cerebral Malfunction","steam_id":76561198885651598,"connected_time":912000000000,"state":"active","ping":92},{"user_id":167,"name":"Caboose","steam_id":76561198215451935,"connected_time":722000000000,"state":"active","ping":51},{"user_id":169,"name":"bob1444","steam_id":76561198110258432,"connected_time":596000000000,"state":"active","ping":161},{"user_id":152,"name":"Diarrhea?","steam_id":76561198965079927,"connected_time":1731000000000,"state":"active","ping":131},{"user_id":172,"name":"Klonker","steam_id":76561198179375139,"connected_time":435000000000,"state":"active","ping":91},{"user_id":160,"name":"Luna","steam_id":76561198131342156,"connected_time":1284000000000,"state":"active","ping":67}]},{"server_id":5,"name":"Uncletopia | Frankfurt | 1 | All Maps","name_short":"frk-1","host":"frk-1.de.uncletopia.com","port":27015,"enabled":true,"region":"eu","cc":"de","latitude":50.110924,"longitude":8.682127,"reserved":0,"last_update":"0001-01-01T00:00:00Z","name_a2s":"Uncletopia | Frankfurt | 1 | All Maps","protocol":17,"map":"koth_viaduct","folder":"tf","game":"Team Fortress","app_id":440,"player_count":0,"max_players":24,"Bots":0,"server_type":"Dedicated","server_os":"Linux","password":true,"vac":true,"version":"7757534","steam_id":85568392924469989,"keywords":["cp","nocrits","nodmgspread","uncletopia"],"game_id":440,"stv_port":27016,"stv_name":"Uncletopia | Frankfurt | 1 | All Maps | STV","players":null},{"server_id":110,"name":"Uncletopia | Frankfurt | 2 | All Maps","name_short":"frk-2","host":"frk-1.de.uncletopia.com","port":27025,"enabled":true,"region":"eu","cc":"de","latitude":50.110924,"longitude":8.682127,"reserved":0,"last_update":"0001-01-01T00:00:00Z","name_a2s":"Uncletopia | Frankfurt | 2 | All Maps","protocol":17,"map":"cp_altitude","folder":"tf","game":"Team Fortress","app_id":440,"player_count":0,"max_players":24,"Bots":0,"server_type":"Dedicated","server_os":"Linux","password":true,"vac":true,"version":"7757534","steam_id":85568392924469990,"keywords":["cp","nocrits","nodmgspread","uncletopia"],"game_id":440,"stv_port":27026,"stv_name":"Uncletopia | Frankfurt | 2 | All Maps | STV","players":null},{"server_id":308,"name":"Uncletopia | Frankfurt | 3 | All Maps","name_short":"frk-3","host":"frk-1.de.uncletopia.com","port":27035,"enabled":true,"region":"eu","cc":"de","latitude":50.110924,"longitude":8.682127,"reserved":0,"last_update":"0001-01-01T00:00:00Z","name_a2s":"Uncletopia | Frankfurt | 3 | All Maps","protocol":17,"map":"pl_borneo","folder":"tf","game":"Team Fortress","app_id":440,"player_count":12,"max_players":24,"Bots":0,"server_type":"Dedicated","server_os":"Linux","password":true,"vac":true,"version":"7757534","steam_id":85568392924504274,"keywords":["nocrits","nodmgspread","payload","uncletopia"],"game_id":440,"stv_port":27036,"stv_name":"Uncletopia | Frankfurt | 3 | All Maps | STV","players":[{"user_id":616,"name":"Nyhde","steam_id":76561198012771416,"connected_time":753000000000,"state":"active","ping":105},{"user_id":617,"name":"yeta","steam_id":76561198067214436,"connected_time":626000000000,"state":"active","ping":60},{"user_id":619,"name":"Borginstein","steam_id":76561198071308545,"connected_time":595000000000,"state":"active","ping":65},{"user_id":597,"name":"Proto-arc","steam_id":76561198012776747,"connected_time":2506000000000,"state":"active","ping":56},{"user_id":598,"name":"Piellino","steam_id":76561198156873276,"connected_time":2503000000000,"state":"active","ping":89},{"user_id":620,"name":"mini three-hundred-sixty","steam_id":76561198055391760,"connected_time":592000000000,"state":"active","ping":59},{"user_id":621,"name":"Phantom_Grey","steam_id":76561198845282194,"connected_time":574000000000,"state":"active","ping":70},{"user_id":626,"name":"rat performance","steam_id":76561198065854668,"connected_time":107000000000,"state":"active","ping":59},{"user_id":599,"name":"Sippie","steam_id":76561198130393388,"connected_time":2441000000000,"state":"active","ping":70},{"user_id":624,"name":"The destroyer of foreskin","steam_id":76561198135275966,"connected_time":354000000000,"state":"active","ping":177},{"user_id":585,"name":"cuboidbird741","steam_id":76561198174823322,"connected_time":4298000000000,"state":"active","ping":59},{"user_id":625,"name":"üé´Wooteryüé´","steam_id":76561199237356695,"connected_time":248000000000,"state":"active","ping":216}]},{"server_id":309,"name":"Uncletopia | Frankfurt | 4 | All Maps","name_short":"frk-4","host":"frk-1.de.uncletopia.com","port":27045,"enabled":true,"region":"eu","cc":"de","latitude":50.110924,"longitude":8.682127,"reserved":0,"last_update":"0001-01-01T00:00:00Z","name_a2s":"Uncletopia | Frankfurt | 4 | All Maps","protocol":17,"map":"cp_dustbowl","folder":"tf","game":"Team Fortress","app_id":440,"player_count":24,"max_players":24,"Bots":0,"server_type":"Dedicated","server_os":"Linux","password":true,"vac":true,"version":"7757534","steam_id":85568392924504275,"keywords":["cp","nocrits","nodmgspread","uncletopia"],"game_id":440,"stv_port":27046,"stv_name":"Uncletopia | Frankfurt | 4 | All Maps | STV","players":[{"user_id":473,"name":"Mach :)","steam_id":76561198952487564,"connected_time":1548000000000,"state":"active","ping":85},{"user_id":465,"name":"Dr. Sex","steam_id":76561198017693962,"connected_time":1710000000000,"state":"active","ping":88},{"user_id":467,"name":"Tmccreight25","steam_id":76561198095126371,"connected_time":1624000000000,"state":"active","ping":60},{"user_id":449,"name":"waffle toaster","steam_id":76561198799089628,"connected_time":3604000000000,"state":"active","ping":63},{"user_id":432,"name":"scarecrowshelper","steam_id":76561198072260553,"connected_time":4617000000000,"state":"active","ping":47},{"user_id":477,"name":"True and honest medic main","steam_id":76561198388750592,"connected_time":1110000000000,"state":"active","ping":60},{"user_id":444,"name":"usia","steam_id":76561198120406679,"connected_time":3728000000000,"state":"active","ping":92},{"user_id":425,"name":"Syd","steam_id":76561198020515027,"connected_time":5135000000000,"state":"active","ping":80},{"user_id":450,"name":"torn","steam_id":76561198223003236,"connected_time":3596000000000,"state":"active","ping":51},{"user_id":443,"name":"eduardo","steam_id":76561198014491925,"connected_time":3735000000000,"state":"active","ping":74},{"user_id":472,"name":"Rusty Shackleford","steam_id":76561198069226593,"connected_time":1565000000000,"state":"active","ping":63},{"user_id":470,"name":"Pestdoktor","steam_id":76561198058159271,"connected_time":1583000000000,"state":"active","ping":58},{"user_id":475,"name":"Piteras","steam_id":76561198858532207,"connected_time":1371000000000,"state":"active","ping":83},{"user_id":488,"name":"Dranos","steam_id":76561198057197287,"connected_time":42000000000,"state":"spawning","ping":89},{"user_id":431,"name":"Gnaisse","steam_id":76561198010560642,"connected_time":4727000000000,"state":"active","ping":90},{"user_id":464,"name":"sriracha..","steam_id":76561198005560221,"connected_time":1887000000000,"state":"active","ping":73},{"user_id":457,"name":"Svilar","steam_id":76561198828348612,"connected_time":2939000000000,"state":"active","ping":116},{"user_id":452,"name":"CrashyPlay","steam_id":76561198106125298,"connected_time":3511000000000,"state":"active","ping":63},{"user_id":428,"name":"engie?","steam_id":76561198331852832,"connected_time":5107000000000,"state":"active","ping":70},{"user_id":378,"name":"hey kid, wanna see my Octagon?","steam_id":76561198066287297,"connected_time":8849000000000,"state":"active","ping":54},{"user_id":468,"name":"Great recession of 2008","steam_id":76561198881151562,"connected_time":1622000000000,"state":"active","ping":93},{"user_id":430,"name":"Marquis de Hoto","steam_id":76561198080687708,"connected_time":4875000000000,"state":"active","ping":70},{"user_id":474,"name":"Vince","steam_id":76561199103000131,"connected_time":1547000000000,"state":"active","ping":61},{"user_id":486,"name":"b√°j√∂nik√∂l","steam_id":76561198273042780,"connected_time":559000000000,"state":"active","ping":66}]},{"server_id":310,"name":"Uncletopia | Frankfurt | 5 | All Maps","name_short":"frk-5","host":"frk-1.de.uncletopia.com","port":27055,"enabled":true,"region":"eu","cc":"de","latitude":50.110924,"longitude":8.682127,"reserved":0,"last_update":"0001-01-01T00:00:00Z","name_a2s":"Uncletopia | Frankfurt | 5 | All Maps","protocol":17,"map":"pl_barnblitz","folder":"tf","game":"Team Fortress","app_id":440,"player_count":17,"max_players":24,"Bots":0,"server_type":"Dedicated","server_os":"Linux","password":true,"vac":true,"version":"7757534","steam_id":85568392924504277,"keywords":["nocrits","nodmgspread","payload","uncletopia"],"game_id":440,"stv_port":27056,"stv_name":"Uncletopia | Frankfurt | 5 | All Maps | STV","players":[{"user_id":459,"name":"git bash -er","steam_id":76561198072586494,"connected_time":352000000000,"state":"active","ping":57},{"user_id":460,"name":"[P-roc] Cmm Bert","steam_id":76561198016658674,"connected_time":127000000000,"state":"active","ping":70},{"user_id":461,"name":"AYE","steam_id":76561198181368101,"connected_time":77000000000,"state":"active","ping":56},{"user_id":454,"name":"XfarisGamerX","steam_id":76561198367579380,"connected_time":985000000000,"state":"active","ping":126},{"user_id":463,"name":"Gearless","steam_id":76561198362367074,"connected_time":1000000000,"state":"spawning","ping":63},{"user_id":441,"name":":)","steam_id":76561198977420882,"connected_time":1879000000000,"state":"active","ping":47},{"user_id":444,"name":"Meterora","steam_id":76561198092422131,"connected_time":1717000000000,"state":"active","ping":59},{"user_id":430,"name":"dd","steam_id":76561198257836694,"connected_time":2209000000000,"state":"active","ping":82},{"user_id":392,"name":"avenje","steam_id":76561198155824845,"connected_time":5644000000000,"state":"active","ping":57},{"user_id":456,"name":"luigibros644 #savetf2","steam_id":76561199087537182,"connected_time":686000000000,"state":"active","ping":82},{"user_id":451,"name":"Owl","steam_id":76561198248266580,"connected_time":1213000000000,"state":"active","ping":70},{"user_id":453,"name":"Miles","steam_id":76561198084891833,"connected_time":1149000000000,"state":"active","ping":68},{"user_id":449,"name":"Tonne","steam_id":76561197970856766,"connected_time":1288000000000,"state":"active","ping":56},{"user_id":455,"name":"Corto","steam_id":76561197970678350,"connected_time":882000000000,"state":"active","ping":53},{"user_id":448,"name":"lacurio","steam_id":76561198059701776,"connected_time":1383000000000,"state":"active","ping":60},{"user_id":439,"name":"Hallowasniet","steam_id":76561198168485956,"connected_time":1893000000000,"state":"active","ping":63},{"user_id":450,"name":"Reisen","steam_id":76561199174579733,"connected_time":1222000000000,"state":"active","ping":154}]},{"server_id":311,"name":"Uncletopia | Frankfurt | 6 | All Maps","name_short":"frk-6","host":"frk-1.de.uncletopia.com","port":27065,"enabled":true,"region":"eu","cc":"de","latitude":50.110924,"longitude":8.682127,"reserved":0,"last_update":"0001-01-01T00:00:00Z","name_a2s":"Uncletopia | Frankfurt | 6 | All Maps","protocol":17,"map":"koth_cascade","folder":"tf","game":"Team Fortress","app_id":440,"player_count":1,"max_players":24,"Bots":0,"server_type":"Dedicated","server_os":"Linux","password":true,"vac":true,"version":"7757534","steam_id":85568392924504278,"keywords":["cp","nocrits","nodmgspread","uncletopia"],"game_id":440,"stv_port":27066,"stv_name":"Uncletopia | Frankfurt | 6 | All Maps | STV","players":[{"user_id":174,"name":"PlayDest87","steam_id":76561198173782017,"connected_time":603000000000,"state":"active","ping":93}]},{"server_id":23,"name":"Uncletopia | Frankfurt | 7 | Stopwatch Beta","name_short":"frk-7","host":"frk-1.de.uncletopia.com","port":27075,"enabled":true,"region":"eu","cc":"de","latitude":50.110924,"longitude":8.682127,"reserved":0,"last_update":"0001-01-01T00:00:00Z","name_a2s":"Uncletopia | Frankfurt | 7 | Stopwatch Beta","protocol":17,"map":"pl_borneo","folder":"tf","game":"Team Fortress","app_id":440,"player_count":0,"max_players":24,"Bots":0,"server_type":"Dedicated","server_os":"Linux","password":true,"vac":true,"version":"7757534","steam_id":85568392924742827,"keywords":["nocrits","nodmgspread","payload","uncletopia"],"game_id":440,"stv_port":27076,"stv_name":"Uncletopia | Frankfurt | 7 | Stopwatch Beta | STV","players":null},{"server_id":24,"name":"Uncletopia | Frankfurt | 8 | Community","name_short":"frk-8","host":"frk-1.de.uncletopia.com","port":27085,"enabled":true,"region":"eu","cc":"de","latitude":50.110924,"longitude":8.682127,"reserved":0,"last_update":"0001-01-01T00:00:00Z","name_a2s":"Uncletopia | Frankfurt | 8 | Community","protocol":17,"map":"workshop/koth_ashville_final.ugc2130459942","folder":"tf","game":"Team Fortress","app_id":440,"player_count":0,"max_players":24,"Bots":0,"server_type":"Dedicated","server_os":"Linux","password":true,"vac":true,"version":"7757534","steam_id":85568392924742828,"keywords":["cp","nocrits","nodmgspread","uncletopia"],"game_id":440,"stv_port":27086,"stv_name":"Uncletopia | Frankfurt | 8 | Community | STV","players":null},{"server_id":202,"name":"Uncletopia | Hong Kong | 1 | All Maps","name_short":"hgk-1","host":"hgk-1.hk.uncletopia.com","port":27015,"enabled":true,"region":"asia","cc":"hk","latitude":22.302711,"longitude":114.177216,"reserved":0,"last_update":"0001-01-01T00:00:00Z","name_a2s":"Uncletopia | Hong Kong | 1 | All Maps","protocol":17,"map":"cp_sunshine","folder":"tf","game":"Team Fortress","app_id":440,"player_count":0,"max_players":24,"Bots":0,"server_type":"Dedicated","server_os":"Linux","password":true,"vac":true,"version":"7757534","steam_id":85568392924494504,"keywords":["cp","nocrits","nodmgspread","uncletopia"],"game_id":440,"stv_port":27016,"stv_name":"Uncletopia | Hong Kong | 1 | All Maps | STV","players":null},{"server_id":1,"name":"Uncletopia | Los Angeles | 1 | All Maps","name_short":"lax-1","host":"lax-1.us.uncletopia.com","port":27015,"enabled":true,"region":"us-west","cc":"us","latitude":33.94279,"longitude":-118.41004,"reserved":0,"last_update":"0001-01-01T00:00:00Z","name_a2s":"Uncletopia | Los Angeles | 1 | All Maps","protocol":17,"map":"pl_upward","folder":"tf","game":"Team Fortress","app_id":440,"player_count":0,"max_players":24,"Bots":0,"server_type":"Dedicated","server_os":"Linux","password":true,"vac":true,"version":"7757534","steam_id":85568392924469991,"keywords":["nocrits","nodmgspread","payload","uncletopia"],"game_id":440,"stv_port":27016,"stv_name":"Uncletopia | Los Angeles | 1 | All Maps | STV","players":null},{"server_id":112,"name":"Uncletopia | Los Angeles | 2 | All Maps","name_short":"lax-2","host":"lax-1.us.uncletopia.com","port":27025,"enabled":true,"region":"us-west","cc":"us","latitude":33.94279,"longitude":-118.41004,"reserved":0,"last_update":"0001-01-01T00:00:00Z","name_a2s":"Uncletopia | Los Angeles | 2 | All Maps","protocol":17,"map":"koth_viaduct","folder":"tf","game":"Team Fortress","app_id":440,"player_count":0,"max_players":24,"Bots":0,"server_type":"Dedicated","server_os":"Linux","password":true,"vac":true,"version":"7757534","steam_id":85568392924469992,"keywords":["cp","nocrits","nodmgspread","uncletopia"],"game_id":440,"stv_port":27026,"stv_name":"Uncletopia | Los Angeles | 2 | All Maps | STV","players":null},{"server_id":324,"name":"Uncletopia | Los Angeles | 3 | All Maps","name_short":"lax-3","host":"lax-1.us.uncletopia.com","port":27035,"enabled":true,"region":"us-west","cc":"us","latitude":33.94279,"longitude":-118.41004,"reserved":0,"last_update":"0001-01-01T00:00:00Z","name_a2s":"Uncletopia | Los Angeles | 3 | All Maps","protocol":17,"map":"pl_swiftwater_final1","folder":"tf","game":"Team Fortress","app_id":440,"player_count":0,"max_players":24,"Bots":0,"server_type":"Dedicated","server_os":"Linux","password":true,"vac":true,"version":"7757534","steam_id":85568392924510198,"keywords":["nocrits","nodmgspread","payload","uncletopia"],"game_id":440,"stv_port":27036,"stv_name":"Uncletopia | Los Angeles | 3 | All Maps | STV","players":null},{"server_id":25,"name":"Uncletopia | Los Angeles | 4 | Stopwatch Beta","name_short":"lax-4","host":"lax-1.us.uncletopia.com","port":27045,"enabled":true,"region":"us-west","cc":"us","latitude":33.94279,"longitude":-118.41004,"reserved":0,"last_update":"0001-01-01T00:00:00Z","name_a2s":"Uncletopia | Los Angeles | 4 | Stopwatch Beta","protocol":17,"map":"workshop/koth_product_final.ugc454272353","folder":"tf","game":"Team Fortress","app_id":440,"player_count":0,"max_players":24,"Bots":0,"server_type":"Dedicated","server_os":"Linux","password":true,"vac":true,"version":"7757534","steam_id":85568392924510199,"keywords":["cp","nocrits","nodmgspread","uncletopia"],"game_id":440,"stv_port":27046,"stv_name":"Uncletopia | Los Angeles | 4 | Stopwatch Beta | STV","players":null},{"server_id":11,"name":"Uncletopia | London | 1 | All Maps","name_short":"lon-1","host":"lon-1.uk.uncletopia.com","port":27015,"enabled":true,"region":"eu","cc":"gb","latitude":51.509865,"longitude":-0.118092,"reserved":0,"last_update":"0001-01-01T00:00:00Z","name_a2s":"Uncletopia | London | 1 | All Maps","protocol":17,"map":"pl_upward","folder":"tf","game":"Team Fortress","app_id":440,"player_count":24,"max_players":24,"Bots":0,"server_type":"Dedicated","server_os":"Linux","password":true,"vac":true,"version":"7757534","steam_id":85568392924367362,"keywords":["nocrits","nodmgspread","payload","uncletopia"],"game_id":440,"stv_port":27016,"stv_name":"Uncletopia | London | 1 | All Maps | STV","players":[{"user_id":580,"name":"Aaron","steam_id":76561197990046953,"connected_time":3164000000000,"state":"active","ping":66},{"user_id":582,"name":"beebo","steam_id":76561199120277007,"connected_time":2414000000000,"state":"active","ping":48},{"user_id":607,"name":"Fred","steam_id":76561198107137362,"connected_time":497000000000,"state":"active","ping":49},{"user_id":601,"name":"teddy","steam_id":76561198007436837,"connected_time":625000000000,"state":"active","ping":30},{"user_id":608,"name":"Wedgeridoo","steam_id":76561198082813907,"connected_time":432000000000,"state":"active","ping":106},{"user_id":594,"name":"Stretch","steam_id":76561198200856614,"connected_time":1532000000000,"state":"active","ping":157},{"user_id":576,"name":"Norbert Hallelujah","steam_id":76561198137876982,"connected_time":3536000000000,"state":"active","ping":72},{"user_id":609,"name":"triangle","steam_id":76561198046838168,"connected_time":413000000000,"state":"active","ping":62},{"user_id":552,"name":"BreadBubbles","steam_id":76561198174332826,"connected_time":5219000000000,"state":"active","ping":61},{"user_id":537,"name":"R A S M U S","steam_id":76561198279799226,"connected_time":5856000000000,"state":"active","ping":69},{"user_id":560,"name":"Lubrsi","steam_id":76561198040208195,"connected_time":4751000000000,"state":"active","ping":49},{"user_id":595,"name":"ChPerette","steam_id":76561198060004887,"connected_time":1508000000000,"state":"active","ping":45},{"user_id":574,"name":"nudjura","steam_id":76561198281986139,"connected_time":3659000000000,"state":"active","ping":28},{"user_id":604,"name":"Cave","steam_id":76561198423147900,"connected_time":569000000000,"state":"active","ping":49},{"user_id":610,"name":"Bodeine Brazy","steam_id":76561198122181176,"connected_time":384000000000,"state":"active","ping":44},{"user_id":611,"name":"kore","steam_id":76561199277727142,"connected_time":382000000000,"state":"active","ping":122},{"user_id":534,"name":"SuperBob103","steam_id":76561199175360012,"connected_time":6745000000000,"state":"active","ping":47},{"user_id":605,"name":"Teddy \u003c3","steam_id":76561198307893662,"connected_time":537000000000,"state":"active","ping":61},{"user_id":589,"name":"Christmas Ham","steam_id":76561198119601623,"connected_time":2061000000000,"state":"active","ping":59},{"user_id":571,"name":"Nick42","steam_id":76561198167564291,"connected_time":4206000000000,"state":"active","ping":89},{"user_id":612,"name":"JujuBalu","steam_id":76561198207253071,"connected_time":358000000000,"state":"active","ping":34},{"user_id":598,"name":"brainrot","steam_id":76561199414716848,"connected_time":1445000000000,"state":"active","ping":75},{"user_id":485,"name":"SOPHIIEE","steam_id":76561198443798981,"connected_time":10567000000000,"state":"active","ping":59},{"user_id":606,"name":"AWJ ÀÜ-ÀÜ","steam_id":76561198053628243,"connected_time":517000000000,"state":"active","ping":45}]},{"server_id":114,"name":"Uncletopia | London | 2 | All Maps","name_short":"lon-2","host":"lon-1.uk.uncletopia.com","port":27025,"enabled":true,"region":"eu","cc":"gb","latitude":51.509865,"longitude":-0.118092,"reserved":0,"last_update":"0001-01-01T00:00:00Z","name_a2s":"Uncletopia | London | 2 | All Maps","protocol":17,"map":"cp_snakewater_final1","folder":"tf","game":"Team Fortress","app_id":440,"player_count":0,"max_players":24,"Bots":0,"server_type":"Dedicated","server_os":"Linux","password":true,"vac":true,"version":"7757534","steam_id":85568392924470941,"keywords":["cp","nocrits","nodmgspread","uncletopia"],"game_id":440,"stv_port":27026,"stv_name":"Uncletopia | London | 2 | All Maps | STV","players":null},{"server_id":320,"name":"Uncletopia | London | 3 | All Maps","name_short":"lon-3","host":"lon-1.uk.uncletopia.com","port":27035,"enabled":true,"region":"eu","cc":"gb","latitude":51.509865,"longitude":-0.118092,"reserved":0,"last_update":"0001-01-01T00:00:00Z","name_a2s":"Uncletopia | London | 3 | All Maps","protocol":17,"map":"pl_upward","folder":"tf","game":"Team Fortress","app_id":440,"player_count":24,"max_players":24,"Bots":0,"server_type":"Dedicated","server_os":"Linux","password":true,"vac":true,"version":"7757534","steam_id":85568392924510192,"keywords":["nocrits","nodmgspread","payload","uncletopia"],"game_id":440,"stv_port":27036,"stv_name":"Uncletopia | London | 3 | All Maps | STV","players":[{"user_id":944,"name":"P√¶b√¶s","steam_id":76561198088369219,"connected_time":356000000000,"state":"active","ping":97},{"user_id":938,"name":"Big Mac Gaming","steam_id":76561198158209651,"connected_time":502000000000,"state":"active","ping":63},{"user_id":939,"name":"New","steam_id":76561198402195911,"connected_time":499000000000,"state":"active","ping":108},{"user_id":941,"name":"Lyfeal","steam_id":76561199473146062,"connected_time":450000000000,"state":"active","ping":87},{"user_id":924,"name":"Gin-Gi","steam_id":76561198108332859,"connected_time":2084000000000,"state":"active","ping":57},{"user_id":950,"name":"Arti","steam_id":76561197983352845,"connected_time":178000000000,"state":"active","ping":60},{"user_id":942,"name":"CAWER","steam_id":76561198277265652,"connected_time":387000000000,"state":"active","ping":50},{"user_id":943,"name":"creepycrawler","steam_id":76561198352016831,"connected_time":387000000000,"state":"active","ping":159},{"user_id":945,"name":"Videogamer","steam_id":76561198106012909,"connected_time":330000000000,"state":"active","ping":81},{"user_id":933,"name":"eoy","steam_id":76561198116511067,"connected_time":1712000000000,"state":"active","ping":90},{"user_id":935,"name":"Lew","steam_id":76561198076039504,"connected_time":981000000000,"state":"active","ping":55},{"user_id":949,"name":"amby","steam_id":76561198126634202,"connected_time":222000000000,"state":"active","ping":54},{"user_id":951,"name":"Bobirulez","steam_id":76561198009125458,"connected_time":105000000000,"state":"active","ping":79},{"user_id":897,"name":"Vitun vittu","steam_id":76561198110679463,"connected_time":4401000000000,"state":"active","ping":60},{"user_id":947,"name":"Garoiop","steam_id":76561198082326459,"connected_time":309000000000,"state":"active","ping":35},{"user_id":899,"name":"Dim","steam_id":76561198141549249,"connected_time":4243000000000,"state":"active","ping":134},{"user_id":948,"name":"jonbob","steam_id":76561197963506620,"connected_time":239000000000,"state":"active","ping":49},{"user_id":882,"name":"superpenguin999","steam_id":76561198816398742,"connected_time":5217000000000,"state":"active","ping":164},{"user_id":913,"name":"Dad","steam_id":76561198048551680,"connected_time":3315000000000,"state":"active","ping":53},{"user_id":954,"name":"Classic Duck","steam_id":76561198079413473,"connected_time":18000000000,"state":"active","ping":51},{"user_id":955,"name":"aura","steam_id":76561197991687793,"connected_time":14000000000,"state":"spawning","ping":65},{"user_id":953,"name":"Bolgerp","steam_id":76561198007792525,"connected_time":100000000000,"state":"active","ping":34},{"user_id":906,"name":"Vander","steam_id":76561198213669807,"connected_time":3932000000000,"state":"active","ping":77},{"user_id":931,"name":"f√©nix","steam_id":76561198083199151,"connected_time":1816000000000,"state":"active","ping":62}]},{"server_id":321,"name":"Uncletopia | London | 4 | All Maps","name_short":"lon-4","host":"lon-1.uk.uncletopia.com","port":27045,"enabled":true,"region":"eu","cc":"gb","latitude":51.509865,"longitude":-0.118092,"reserved":0,"last_update":"0001-01-01T00:00:00Z","name_a2s":"Uncletopia | London | 4 | All Maps","protocol":17,"map":"pl_frontier_final","folder":"tf","game":"Team Fortress","app_id":440,"player_count":0,"max_players":24,"Bots":0,"server_type":"Dedicated","server_os":"Linux","password":true,"vac":true,"version":"7757534","steam_id":85568392924510193,"keywords":["nocrits","nodmgspread","payload","uncletopia"],"game_id":440,"stv_port":27046,"stv_name":"Uncletopia | London | 4 | All Maps | STV","players":null},{"server_id":21,"name":"Uncletopia | London | 5 | All Maps","name_short":"lon-5","host":"lon-1.uk.uncletopia.com","port":27055,"enabled":true,"region":"eu","cc":"gb","latitude":51.509865,"longitude":-0.118092,"reserved":0,"last_update":"0001-01-01T00:00:00Z","name_a2s":"Uncletopia | London | 5 | All Maps","protocol":17,"map":"pl_badwater","folder":"tf","game":"Team Fortress","app_id":440,"player_count":24,"max_players":24,"Bots":0,"server_type":"Dedicated","server_os":"Linux","password":true,"vac":true,"version":"7757534","steam_id":85568392924742829,"keywords":["nocrits","nodmgspread","payload","uncletopia"],"game_id":440,"stv_port":27056,"stv_name":"Uncletopia | London | 5 | All Maps | STV","players":[{"user_id":206,"name":"IKERIUS","steam_id":76561198274164589,"connected_time":1298000000000,"state":"active","ping":83},{"user_id":225,"name":"Houf | LFT 6s","steam_id":76561198448050535,"connected_time":645000000000,"state":"active","ping":75},{"user_id":213,"name":"yaldabaoth","steam_id":76561198084606869,"connected_time":1052000000000,"state":"active","ping":131},{"user_id":218,"name":"Na'vi Misato (by popular demand","steam_id":76561198130860698,"connected_time":936000000000,"state":"active","ping":56},{"user_id":204,"name":".Aq","steam_id":76561198043376092,"connected_time":1408000000000,"state":"active","ping":169},{"user_id":222,"name":"Fus in Boots","steam_id":76561198053897722,"connected_time":695000000000,"state":"active","ping":55},{"user_id":226,"name":"Mjetalac","steam_id":76561198133085217,"connected_time":620000000000,"state":"active","ping":96},{"user_id":227,"name":"pikqi","steam_id":76561198262116793,"connected_time":614000000000,"state":"active","ping":83},{"user_id":230,"name":"big up liquid richard","steam_id":76561198053764422,"connected_time":133000000000,"state":"active","ping":47},{"user_id":232,"name":"tone'","steam_id":76561198055552635,"connected_time":93000000000,"state":"active","ping":60},{"user_id":233,"name":"Cheshireycat","steam_id":76561198067204908,"connected_time":92000000000,"state":"active","ping":58},{"user_id":223,"name":"peso enjoyer","steam_id":76561198798177799,"connected_time":685000000000,"state":"active","ping":82},{"user_id":199,"name":"LawrenceFishdom","steam_id":76561199190918059,"connected_time":1914000000000,"state":"active","ping":55},{"user_id":209,"name":"Tryrn","steam_id":76561198075487436,"connected_time":1176000000000,"state":"active","ping":76},{"user_id":210,"name":"Frank","steam_id":76561198086672774,"connected_time":1162000000000,"state":"active","ping":49},{"user_id":220,"name":"akakez","steam_id":76561198095432821,"connected_time":885000000000,"state":"active","ping":115},{"user_id":162,"name":"atonto","steam_id":76561198424363858,"connected_time":3975000000000,"state":"active","ping":85},{"user_id":194,"name":"ohmiclaser","steam_id":76561198356393376,"connected_time":2073000000000,"state":"active","ping":44},{"user_id":180,"name":"SPONGE","steam_id":76561198040933472,"connected_time":3311000000000,"state":"active","ping":75},{"user_id":216,"name":"nedilya","steam_id":76561198039692077,"connected_time":1026000000000,"state":"active","ping":70},{"user_id":234,"name":"Phalcon","steam_id":76561197987051394,"connected_time":72000000000,"state":"active","ping":85},{"user_id":235,"name":"Ash_808","steam_id":76561199087325940,"connected_time":68000000000,"state":"spawning","ping":240},{"user_id":236,"name":"DarthMurloc_OW","steam_id":76561198075577711,"connected_time":67000000000,"state":"active","ping":92},{"user_id":237,"name":"Superhoovey?","steam_id":76561198272561730,"connected_time":53000000000,"state":"active","ping":62}]},{"server_id":22,"name":"Uncletopia | London | 6 | All Maps","name_short":"lon-6","host":"lon-1.uk.uncletopia.com","port":27065,"enabled":true,"region":"eu","cc":"gb","latitude":51.509865,"longitude":-0.118092,"reserved":0,"last_update":"0001-01-01T00:00:00Z","name_a2s":"Uncletopia | London | 6 | All Maps","protocol":17,"map":"koth_highpass","folder":"tf","game":"Team Fortress","app_id":440,"player_count":0,"max_players":24,"Bots":0,"server_type":"Dedicated","server_os":"Linux","password":true,"vac":true,"version":"7757534","steam_id":85568392924742830,"keywords":["cp","nocrits","nodmgspread","uncletopia"],"game_id":440,"stv_port":27066,"stv_name":"Uncletopia | London | 6 | All Maps | STV","players":null},{"server_id":40,"name":"Uncletopia | London | 7 | No Payload","name_short":"lon-7","host":"lon-1.uk.uncletopia.com","port":27075,"enabled":true,"region":"eu","cc":"gb","latitude":51.509865,"longitude":-0.118092,"reserved":0,"last_update":"0001-01-01T00:00:00Z","name_a2s":"Uncletopia | London | 7 | No Payload","protocol":17,"map":"cp_vanguard","folder":"tf","game":"Team Fortress","app_id":440,"player_count":0,"max_players":24,"Bots":0,"server_type":"Dedicated","server_os":"Linux","password":true,"vac":true,"version":"7757534","steam_id":85568392924964314,"keywords":["cp","nocrits","nodmgspread","uncletopia"],"game_id":440,"stv_port":27076,"stv_name":"Uncletopia | London | 7 | No Payload | STV","players":null},{"server_id":41,"name":"Uncletopia | London | 8 | Community","name_short":"lon-8","host":"lon-1.uk.uncletopia.com","port":27085,"enabled":true,"region":"eu","cc":"gb","latitude":51.509865,"longitude":-0.118092,"reserved":0,"last_update":"0001-01-01T00:00:00Z","name_a2s":"Uncletopia | London | 8 | Community","protocol":17,"map":"workshop/cp_kalinka_rc6a.ugc1272700588","folder":"tf","game":"Team Fortress","app_id":440,"player_count":0,"max_players":24,"Bots":0,"server_type":"Dedicated","server_os":"Linux","password":true,"vac":true,"version":"7757534","steam_id":85568392924964315,"keywords":["cp","nocrits","nodmgspread","uncletopia"],"game_id":440,"stv_port":27086,"stv_name":"Uncletopia | London | 8 | Community | STV","players":null},{"server_id":300,"name":"Uncletopia | Montr√©al | 1 | All Maps","name_short":"mtl-1","host":"mtl-1.ca.uncletopia.com","port":27015,"enabled":true,"region":"us-east","cc":"ca","latitude":45.50889,"longitude":-73.56167,"reserved":0,"last_update":"0001-01-01T00:00:00Z","name_a2s":"Uncletopia | Montr√©al | 1 | All Maps","protocol":17,"map":"pl_badwater","folder":"tf","game":"Team Fortress","app_id":440,"player_count":20,"max_players":24,"Bots":0,"server_type":"Dedicated","server_os":"Linux","password":true,"vac":true,"version":"7757534","steam_id":85568392924500087,"keywords":["nocrits","nodmgspread","payload","uncletopia"],"game_id":440,"stv_port":27016,"stv_name":"Uncletopia | Montr√©al | 1 | All Maps | STV","players":[{"user_id":388,"name":"killswitch","steam_id":76561199243229769,"connected_time":1642000000000,"state":"active","ping":66},{"user_id":392,"name":"evolutionary sleeper","steam_id":76561198125328737,"connected_time":1216000000000,"state":"active","ping":58},{"user_id":393,"name":"lyanide","steam_id":76561198311704368,"connected_time":1169000000000,"state":"active","ping":69},{"user_id":406,"name":"Scrombello Portabello","steam_id":76561198193574042,"connected_time":241000000000,"state":"active","ping":136},{"user_id":391,"name":"2 team fortress","steam_id":76561198860068961,"connected_time":1418000000000,"state":"active","ping":73},{"user_id":395,"name":"Medic","steam_id":76561198023443251,"connected_time":901000000000,"state":"active","ping":78},{"user_id":405,"name":"Cybertruck","steam_id":76561197993623674,"connected_time":284000000000,"state":"active","ping":91},{"user_id":397,"name":"Quillz","steam_id":76561197996567754,"connected_time":844000000000,"state":"active","ping":60},{"user_id":401,"name":"Krellah","steam_id":76561198287045069,"connected_time":557000000000,"state":"active","ping":47},{"user_id":402,"name":"grind","steam_id":76561198801214349,"connected_time":550000000000,"state":"active","ping":78},{"user_id":400,"name":"MasterTman3","steam_id":76561198333349819,"connected_time":762000000000,"state":"active","ping":62},{"user_id":412,"name":"Johnny Lawrence #JohnnyMaxxing","steam_id":76561199367141671,"connected_time":176000000000,"state":"active","ping":60},{"user_id":408,"name":"Melon","steam_id":76561198203952392,"connected_time":228000000000,"state":"active","ping":60},{"user_id":415,"name":"F_L BongRipper","steam_id":76561198047136927,"connected_time":88000000000,"state":"active","ping":56},{"user_id":410,"name":"Basement Grandpa","steam_id":76561198014574925,"connected_time":194000000000,"state":"active","ping":73},{"user_id":411,"name":"Matt","steam_id":76561198008108521,"connected_time":192000000000,"state":"active","ping":72},{"user_id":413,"name":"tyg","steam_id":76561198056246867,"connected_time":140000000000,"state":"active","ping":60},{"user_id":414,"name":"carrot cake","steam_id":76561198055174915,"connected_time":113000000000,"state":"active","ping":86},{"user_id":416,"name":"20 miles for a Quaalude","steam_id":76561198042579477,"connected_time":51000000000,"state":"active","ping":67},{"user_id":417,"name":"Mr.Mrausky","steam_id":76561199120622265,"connected_time":3000000000,"state":"spawning","ping":80}]},{"server_id":301,"name":"Uncletopia | Montr√©al | 2 | All Maps","name_short":"mtl-2","host":"mtl-1.ca.uncletopia.com","port":27025,"enabled":true,"region":"us-east","cc":"ca","latitude":45.50889,"longitude":-73.56167,"reserved":0,"last_update":"0001-01-01T00:00:00Z","name_a2s":"Uncletopia | Montr√©al | 2 | All Maps","protocol":17,"map":"pl_barnblitz","folder":"tf","game":"Team Fortress","app_id":440,"player_count":0,"max_players":24,"Bots":0,"server_type":"Dedicated","server_os":"Linux","password":true,"vac":true,"version":"7757534","steam_id":85568392924500088,"keywords":["nocrits","nodmgspread","payload","uncletopia"],"game_id":440,"stv_port":27026,"stv_name":"Uncletopia | Montr√©al | 2 | All Maps | STV","players":null},{"server_id":302,"name":"Uncletopia | Montr√©al | 3 | All Maps","name_short":"mtl-3","host":"mtl-1.ca.uncletopia.com","port":27035,"enabled":true,"region":"us-east","cc":"ca","latitude":45.50889,"longitude":-73.56167,"reserved":0,"last_update":"0001-01-01T00:00:00Z","name_a2s":"Uncletopia | Montr√©al | 3 | All Maps","protocol":17,"map":"pl_barnblitz","folder":"tf","game":"Team Fortress","app_id":440,"player_count":22,"max_players":24,"Bots":0,"server_type":"Dedicated","server_os":"Linux","password":true,"vac":true,"version":"7757534","steam_id":85568392924500089,"keywords":["nocrits","nodmgspread","payload","uncletopia"],"game_id":440,"stv_port":27036,"stv_name":"Uncletopia | Montr√©al | 3 | All Maps | STV","players":[{"user_id":84,"name":"Aviyarn","steam_id":76561199074194652,"connected_time":1948000000000,"state":"active","ping":81},{"user_id":110,"name":"Trolldier 76","steam_id":76561198036504161,"connected_time":283000000000,"state":"active","ping":139},{"user_id":100,"name":"Maple!","steam_id":76561199315167502,"connected_time":1071000000000,"state":"active","ping":50},{"user_id":93,"name":"Nohablo96","steam_id":76561198011206189,"connected_time":1435000000000,"state":"active","ping":127},{"user_id":74,"name":"BLACK MAN FROM JOJO","steam_id":76561198272948471,"connected_time":2510000000000,"state":"active","ping":48},{"user_id":72,"name":"nat","steam_id":76561198865090309,"connected_time":2988000000000,"state":"active","ping":75},{"user_id":92,"name":"carrion goat she/it","steam_id":76561198262064871,"connected_time":1486000000000,"state":"active","ping":49},{"user_id":94,"name":"Ork","steam_id":76561197968575924,"connected_time":1388000000000,"state":"active","ping":134},{"user_id":107,"name":"hovietchil","steam_id":76561198880622567,"connected_time":457000000000,"state":"active","ping":113},{"user_id":105,"name":"Cooki","steam_id":76561198051705314,"connected_time":902000000000,"state":"active","ping":71},{"user_id":53,"name":"Jackthan","steam_id":76561198062056544,"connected_time":4540000000000,"state":"active","ping":109},{"user_id":89,"name":"Skinny Pete","steam_id":76561198801608576,"connected_time":1772000000000,"state":"active","ping":87},{"user_id":73,"name":"that fat croc from donkey kong","steam_id":76561198159172495,"connected_time":2811000000000,"state":"active","ping":153},{"user_id":83,"name":"BasicPeaches","steam_id":76561198190890150,"connected_time":2088000000000,"state":"active","ping":69},{"user_id":111,"name":"Candy Sparkles","steam_id":76561198126871264,"connected_time":276000000000,"state":"active","ping":96},{"user_id":114,"name":"Harry","steam_id":76561199130035197,"connected_time":203000000000,"state":"active","ping":101},{"user_id":112,"name":"skuskin2000","steam_id":76561198113067265,"connected_time":274000000000,"state":"active","ping":77},{"user_id":97,"name":"a mass hallucination","steam_id":76561198259092181,"connected_time":1369000000000,"state":"active","ping":83},{"user_id":108,"name":"manutdplayer44457283778945","steam_id":76561199475101061,"connected_time":454000000000,"state":"active","ping":42},{"user_id":65,"name":"Tempo","steam_id":76561198228927752,"connected_time":3706000000000,"state":"active","ping":102},{"user_id":106,"name":"Synergy","steam_id":76561198098630198,"connected_time":890000000000,"state":"active","ping":105},{"user_id":109,"name":"jtchil","steam_id":76561199122144404,"connected_time":335000000000,"state":"active","ping":129}]},{"server_id":303,"name":"Uncletopia | Montr√©al | 4 | No Payload","name_short":"mtl-4","host":"mtl-1.ca.uncletopia.com","port":27045,"enabled":true,"region":"us-east","cc":"ca","latitude":45.50889,"longitude":-73.56167,"reserved":0,"last_update":"0001-01-01T00:00:00Z","name_a2s":"Uncletopia | Montr√©al | 4 | No Payload","protocol":17,"map":"pl_pier","folder":"tf","game":"Team Fortress","app_id":440,"player_count":0,"max_players":24,"Bots":0,"server_type":"Dedicated","server_os":"Linux","password":true,"vac":true,"version":"7757534","steam_id":85568392924500090,"keywords":["nocrits","nodmgspread","payload","uncletopia"],"game_id":440,"stv_port":27046,"stv_name":"Uncletopia | Montr√©al | 4 | No Payload | STV","players":null},{"server_id":13,"name":"Uncletopia | New York City | 1 | All Maps","name_short":"nyc-1","host":"nyc-1.us.uncletopia.com","port":27015,"enabled":true,"region":"us-east","cc":"us","latitude":40.73061,"longitude":-73.93524,"reserved":0,"last_update":"0001-01-01T00:00:00Z","name_a2s":"Uncletopia | New York City | 1 | All Maps","protocol":17,"map":"pl_borneo","folder":"tf","game":"Team Fortress","app_id":440,"player_count":24,"max_players":24,"Bots":0,"server_type":"Dedicated","server_os":"Linux","password":true,"vac":true,"version":"7757534","steam_id":85568392924469993,"keywords":["nocrits","nodmgspread","payload","uncletopia"],"game_id":440,"stv_port":27016,"stv_name":"Uncletopia | New York City | 1 | All Maps | STV","players":[{"user_id":127,"name":"gallowsCalibrator","steam_id":76561198076388445,"connected_time":1261000000000,"state":"active","ping":76},{"user_id":130,"name":"OctopusCrime","steam_id":76561198060141069,"connected_time":1125000000000,"state":"active","ping":58},{"user_id":149,"name":"sharia compliant gamer","steam_id":76561198005884261,"connected_time":299000000000,"state":"active","ping":49},{"user_id":144,"name":"Wumbo","steam_id":76561198182691782,"connected_time":486000000000,"state":"active","ping":84},{"user_id":136,"name":"Lost CS player","steam_id":76561198892387723,"connected_time":801000000000,"state":"active","ping":68},{"user_id":54,"name":"YoshaBoss","steam_id":76561198449656454,"connected_time":4724000000000,"state":"active","ping":46},{"user_id":148,"name":"Dark Saturday","steam_id":76561198152056777,"connected_time":355000000000,"state":"active","ping":69},{"user_id":135,"name":"GailusTerran","steam_id":76561198319509387,"connected_time":964000000000,"state":"active","ping":57},{"user_id":146,"name":"capitalist wasteland","steam_id":76561198190323610,"connected_time":433000000000,"state":"active","ping":80},{"user_id":23,"name":"Smile Always","steam_id":76561198298416058,"connected_time":5950000000000,"state":"active","ping":71},{"user_id":137,"name":"breesey","steam_id":76561198341658826,"connected_time":769000000000,"state":"active","ping":44},{"user_id":114,"name":"Thunderous","steam_id":76561198192752793,"connected_time":1924000000000,"state":"active","ping":60},{"user_id":112,"name":"The Necronomiconeconomist","steam_id":76561198010358323,"connected_time":2187000000000,"state":"active","ping":79},{"user_id":147,"name":"shrimp","steam_id":76561198092401427,"connected_time":411000000000,"state":"active","ping":99},{"user_id":32,"name":"papa guacamole","steam_id":76561198167665608,"connected_time":5575000000000,"state":"active","ping":68},{"user_id":108,"name":"Shmebulock","steam_id":76561198046941925,"connected_time":2444000000000,"state":"active","ping":75},{"user_id":111,"name":"Vegerot","steam_id":76561197997843710,"connected_time":2202000000000,"state":"active","ping":45},{"user_id":91,"name":"Scooter O'Boyl","steam_id":76561197971687069,"connected_time":3149000000000,"state":"active","ping":56},{"user_id":123,"name":"Voodo133","steam_id":76561198042670351,"connected_time":1566000000000,"state":"active","ping":82},{"user_id":140,"name":"Ozone-Flavored Starburst","steam_id":76561199163688421,"connected_time":679000000000,"state":"active","ping":106},{"user_id":125,"name":"Smeller","steam_id":76561198041767882,"connected_time":1366000000000,"state":"active","ping":59},{"user_id":145,"name":"Zenabie","steam_id":76561198088372680,"connected_time":478000000000,"state":"active","ping":91},{"user_id":142,"name":"Beef Wellington","steam_id":76561199120854992,"connected_time":626000000000,"state":"active","ping":85},{"user_id":129,"name":"Chechens Spotted","steam_id":76561199028910893,"connected_time":1246000000000,"state":"active","ping":95}]},{"server_id":14,"name":"Uncletopia | New York City | 2 | All Maps","name_short":"nyc-2","host":"nyc-1.us.uncletopia.com","port":27025,"enabled":true,"region":"us-east","cc":"us","latitude":40.73061,"longitude":-73.93524,"reserved":0,"last_update":"0001-01-01T00:00:00Z","name_a2s":"Uncletopia | New York City | 2 | All Maps","protocol":17,"map":"koth_cascade","folder":"tf","game":"Team Fortress","app_id":440,"player_count":1,"max_players":24,"Bots":0,"server_type":"Dedicated","server_os":"Linux","password":true,"vac":true,"version":"7757534","steam_id":85568392924469994,"keywords":["cp","nocrits","nodmgspread","uncletopia"],"game_id":440,"stv_port":27026,"stv_name":"Uncletopia | New York City | 2 | All Maps | STV","players":[{"user_id":15,"name":"Captain Slow","steam_id":76561198116957161,"connected_time":59000000000,"state":"active","ping":179}]},{"server_id":15,"name":"Uncletopia | New York City | 3 | Stopwatch Beta","name_short":"nyc-3","host":"nyc-1.us.uncletopia.com","port":27035,"enabled":true,"region":"us-east","cc":"us","latitude":40.73061,"longitude":-73.93524,"reserved":0,"last_update":"0001-01-01T00:00:00Z","name_a2s":"Uncletopia | New York City | 3 | Stopwatch Beta","protocol":17,"map":"workshop/pl_barnblitz_pro7.ugc582280235","folder":"tf","game":"Team Fortress","app_id":440,"player_count":0,"max_players":24,"Bots":0,"server_type":"Dedicated","server_os":"Linux","password":true,"vac":true,"version":"7757534","steam_id":85568392924742820,"keywords":["nocrits","nodmgspread","payload","uncletopia"],"game_id":440,"stv_port":27036,"stv_name":"Uncletopia | New York City | 3 | Stopwatch Beta | STV","players":null},{"server_id":16,"name":"Uncletopia | New York City | 4 | Community","name_short":"nyc-4","host":"nyc-1.us.uncletopia.com","port":27045,"enabled":true,"region":"us-east","cc":"us","latitude":40.73061,"longitude":-73.93524,"reserved":0,"last_update":"0001-01-01T00:00:00Z","name_a2s":"Uncletopia | New York City | 4 | Community","protocol":17,"map":"workshop/koth_ashville_final.ugc2130459942","folder":"tf","game":"Team Fortress","app_id":440,"player_count":0,"max_players":24,"Bots":0,"server_type":"Dedicated","server_os":"Linux","password":true,"vac":true,"version":"7757534","steam_id":85568392924742821,"keywords":["cp","nocrits","nodmgspread","uncletopia"],"game_id":440,"stv_port":27046,"stv_name":"Uncletopia | New York City | 4 | Community | STV","players":null},{"server_id":142,"name":"Uncletopia | S√£o Paulo | 1 | All Maps","name_short":"sao-1","host":"sao-1.br.uncletopia.com","port":27015,"enabled":true,"region":"sa","cc":"br","latitude":-23.533773,"longitude":-46.62529,"reserved":0,"last_update":"0001-01-01T00:00:00Z","name_a2s":"Uncletopia | S√£o Paulo | 1 | All Maps","protocol":17,"map":"koth_lakeside_final","folder":"tf","game":"Team Fortress","app_id":440,"player_count":0,"max_players":24,"Bots":0,"server_type":"Dedicated","server_os":"Linux","password":true,"vac":true,"version":"7757534","steam_id":85568392924469996,"keywords":["cp","nocrits","nodmgspread","uncletopia"],"game_id":440,"stv_port":27016,"stv_name":"Uncletopia | S√£o Paulo | 1 | All Maps | STV","players":null},{"server_id":143,"name":"Uncletopia | S√£o Paulo | 2 | All Maps","name_short":"sao-2","host":"sao-2.br.uncletopia.com","port":27015,"enabled":true,"region":"sa","cc":"br","latitude":-23.533773,"longitude":-46.62529,"reserved":0,"last_update":"0001-01-01T00:00:00Z","name_a2s":"Uncletopia | S√£o Paulo | 2 | All Maps","protocol":17,"map":"pl_snowycoast","folder":"tf","game":"Team Fortress","app_id":440,"player_count":0,"max_players":24,"Bots":0,"server_type":"Dedicated","server_os":"Linux","password":true,"vac":true,"version":"7757534","steam_id":85568392924485349,"keywords":["nocrits","nodmgspread","payload","uncletopia"],"game_id":440,"stv_port":27016,"stv_name":"Uncletopia | S√£o Paulo | 2 | All Maps | STV","players":null},{"server_id":7,"name":"Uncletopia | Seattle | 1 | All Maps","name_short":"sea-1","host":"sea-1.us.uncletopia.com","port":27015,"enabled":true,"region":"us-west","cc":"us","latitude":47.608013,"longitude":-122.33517,"reserved":0,"last_update":"0001-01-01T00:00:00Z","name_a2s":"Uncletopia | Seattle | 1 | All Maps","protocol":17,"map":"pl_snowycoast","folder":"tf","game":"Team Fortress","app_id":440,"player_count":24,"max_players":24,"Bots":0,"server_type":"Dedicated","server_os":"Linux","password":true,"vac":true,"version":"7757534","steam_id":85568392924469997,"keywords":["nocrits","nodmgspread","payload","uncletopia"],"game_id":440,"stv_port":27016,"stv_name":"Uncletopia | Seattle | 1 | All Maps | STV","players":[{"user_id":485,"name":"oil","steam_id":76561198099980149,"connected_time":515000000000,"state":"active","ping":84},{"user_id":488,"name":"KnotsAreUs","steam_id":76561198306522669,"connected_time":111000000000,"state":"active","ping":77},{"user_id":483,"name":"ulysses","steam_id":76561198059313367,"connected_time":806000000000,"state":"active","ping":37},{"user_id":466,"name":"https://en.wikipedia.org/","steam_id":76561198261326806,"connected_time":2547000000000,"state":"active","ping":71},{"user_id":477,"name":"Fh","steam_id":76561198000903511,"connected_time":1678000000000,"state":"active","ping":60},{"user_id":442,"name":"Van","steam_id":76561198073518712,"connected_time":4191000000000,"state":"active","ping":115},{"user_id":460,"name":"Joseph Stalin","steam_id":76561198126234142,"connected_time":3267000000000,"state":"active","ping":72},{"user_id":478,"name":"[TrC] Dackstrus","steam_id":76561197973518509,"connected_time":1627000000000,"state":"active","ping":57},{"user_id":487,"name":"Frog","steam_id":76561198093257083,"connected_time":222000000000,"state":"active","ping":48},{"user_id":490,"name":"Themasterman75","steam_id":76561199385573293,"connected_time":24000000000,"state":"spawning","ping":102},{"user_id":462,"name":"PianoDeep","steam_id":76561199182813963,"connected_time":3060000000000,"state":"active","ping":102},{"user_id":464,"name":"M4 Sherman","steam_id":76561198126990820,"connected_time":2747000000000,"state":"active","ping":102},{"user_id":481,"name":"Crusty Toast","steam_id":76561199040353112,"connected_time":1204000000000,"state":"active","ping":120},{"user_id":443,"name":"4 life","steam_id":76561198175961598,"connected_time":4187000000000,"state":"active","ping":91},{"user_id":484,"name":"Toad :)","steam_id":76561198163008022,"connected_time":643000000000,"state":"active","ping":55},{"user_id":482,"name":"[TrC] Nosy","steam_id":76561197978859310,"connected_time":987000000000,"state":"active","ping":56},{"user_id":461,"name":"Keamy","steam_id":76561199471434875,"connected_time":3079000000000,"state":"active","ping":45},{"user_id":451,"name":"Nibotshooter","steam_id":76561199284825579,"connected_time":3616000000000,"state":"active","ping":100},{"user_id":424,"name":"Fermenting Kiwi","steam_id":76561198253303497,"connected_time":5940000000000,"state":"active","ping":88},{"user_id":480,"name":"Idontknow","steam_id":76561199207044048,"connected_time":1305000000000,"state":"active","ping":50},{"user_id":447,"name":"Mico (ENA Enthusiast)","steam_id":76561198125462953,"connected_time":3634000000000,"state":"active","ping":47},{"user_id":465,"name":"Icy","steam_id":76561198125015366,"connected_time":2599000000000,"state":"active","ping":110},{"user_id":404,"name":"Clean your room","steam_id":76561198011617388,"connected_time":7354000000000,"state":"active","ping":62},{"user_id":469,"name":"IHave2000HoursButPlayLikeIHave1","steam_id":76561198295280927,"connected_time":2486000000000,"state":"active","ping":84}]},{"server_id":119,"name":"Uncletopia | Seattle | 2 | All Maps","name_short":"sea-2","host":"sea-1.us.uncletopia.com","port":27025,"enabled":true,"region":"us-west","cc":"us","latitude":47.608013,"longitude":-122.33517,"reserved":0,"last_update":"0001-01-01T00:00:00Z","name_a2s":"Uncletopia | Seattle | 2 | All Maps","protocol":17,"map":"pl_pier","folder":"tf","game":"Team Fortress","app_id":440,"player_count":19,"max_players":24,"Bots":0,"server_type":"Dedicated","server_os":"Linux","password":true,"vac":true,"version":"7757534","steam_id":85568392924469998,"keywords":["nocrits","nodmgspread","payload","uncletopia"],"game_id":440,"stv_port":27026,"stv_name":"Uncletopia | Seattle | 2 | All Maps | STV","players":[{"user_id":333,"name":"gravy","steam_id":76561198089644778,"connected_time":91000000000,"state":"active","ping":86},{"user_id":336,"name":"Green_GarBear","steam_id":76561199468912415,"connected_time":69000000000,"state":"active","ping":73},{"user_id":332,"name":"dust | she/it","steam_id":76561198045218909,"connected_time":101000000000,"state":"active","ping":38},{"user_id":304,"name":"Pourpel","steam_id":76561198059125470,"connected_time":3583000000000,"state":"active","ping":129},{"user_id":334,"name":"blue_tristan03","steam_id":76561199468377688,"connected_time":90000000000,"state":"active","ping":69},{"user_id":337,"name":"Ama","steam_id":76561198077883218,"connected_time":47000000000,"state":"active","ping":90},{"user_id":335,"name":"Bony","steam_id":76561199001748822,"connected_time":79000000000,"state":"active","ping":31},{"user_id":331,"name":"Algibruh","steam_id":76561199221599415,"connected_time":129000000000,"state":"active","ping":45},{"user_id":313,"name":"Superman123389","steam_id":76561198267472539,"connected_time":2444000000000,"state":"active","ping":96},{"user_id":279,"name":"Boop Oop A Doop","steam_id":76561198036370174,"connected_time":5712000000000,"state":"active","ping":78},{"user_id":325,"name":"mudunit","steam_id":76561198811544015,"connected_time":1178000000000,"state":"active","ping":60},{"user_id":321,"name":"H4V0C | Atomic Heart","steam_id":76561199129350925,"connected_time":1516000000000,"state":"active","ping":59},{"user_id":326,"name":"I think about worms every day","steam_id":76561199070515232,"connected_time":664000000000,"state":"active","ping":105},{"user_id":327,"name":"Prime","steam_id":76561198218218705,"connected_time":660000000000,"state":"active","ping":77},{"user_id":316,"name":"Thexx","steam_id":76561198113823050,"connected_time":1809000000000,"state":"active","ping":48},{"user_id":328,"name":"Talented","steam_id":76561198800259660,"connected_time":653000000000,"state":"active","ping":112},{"user_id":323,"name":"Lolxdloldx","steam_id":76561198136887125,"connected_time":1508000000000,"state":"active","ping":99},{"user_id":330,"name":"Disbicord","steam_id":76561198145228904,"connected_time":464000000000,"state":"active","ping":116},{"user_id":298,"name":"Villchip","steam_id":76561198198599982,"connected_time":4220000000000,"state":"active","ping":47}]},{"server_id":406,"name":"Uncletopia | Seattle | 3 | Stopwatch Beta","name_short":"sea-3","host":"sea-1.us.uncletopia.com","port":27035,"enabled":true,"region":"us-west","cc":"us","latitude":47.608013,"longitude":-122.33517,"reserved":0,"last_update":"0001-01-01T00:00:00Z","name_a2s":"Uncletopia | Seattle | 3 | Stopwatch Beta","protocol":17,"map":"workshop/koth_ashville_final.ugc2130459942","folder":"tf","game":"Team Fortress","app_id":440,"player_count":0,"max_players":24,"Bots":0,"server_type":"Dedicated","server_os":"Linux","password":true,"vac":true,"version":"7757534","steam_id":85568392924515217,"keywords":["cp","nocrits","nodmgspread","uncletopia"],"game_id":440,"stv_port":27036,"stv_name":"Uncletopia | Seattle | 3 | Stopwatch Beta | STV","players":null},{"server_id":17,"name":"Uncletopia | San Francisco | 1 | All Maps","name_short":"sfo-1","host":"sfo-1.us.uncletopia.com","port":27015,"enabled":true,"region":"us-west","cc":"us","latitude":37.77397,"longitude":-122.4313,"reserved":0,"last_update":"0001-01-01T00:00:00Z","name_a2s":"Uncletopia | San Francisco | 1 | All Maps","protocol":17,"map":"pl_badwater","folder":"tf","game":"Team Fortress","app_id":440,"player_count":24,"max_players":24,"Bots":0,"server_type":"Dedicated","server_os":"Linux","password":true,"vac":true,"version":"7757534","steam_id":85568392924469999,"keywords":["nocrits","nodmgspread","payload","uncletopia"],"game_id":440,"stv_port":27016,"stv_name":"Uncletopia | San Francisco | 1 | All Maps | STV","players":[{"user_id":183,"name":"lol","steam_id":76561198026491738,"connected_time":2020000000000,"state":"active","ping":61},{"user_id":152,"name":"berserker_tf2 yt","steam_id":76561198303464488,"connected_time":3648000000000,"state":"active","ping":63},{"user_id":185,"name":"Training Arc","steam_id":76561198038832034,"connected_time":1911000000000,"state":"active","ping":74},{"user_id":200,"name":"UndeadZomboy","steam_id":76561198048425072,"connected_time":820000000000,"state":"active","ping":57},{"user_id":199,"name":"skelly702","steam_id":76561198384117003,"connected_time":886000000000,"state":"active","ping":54},{"user_id":14,"name":"Grammaring","steam_id":76561198867366139,"connected_time":12377000000000,"state":"active","ping":71},{"user_id":156,"name":"Tybalt","steam_id":76561198142464684,"connected_time":3425000000000,"state":"active","ping":93},{"user_id":196,"name":"travin898","steam_id":76561198103069066,"connected_time":929000000000,"state":"active","ping":68},{"user_id":203,"name":"Joe Biden (Deceased)","steam_id":76561198170427507,"connected_time":401000000000,"state":"active","ping":106},{"user_id":193,"name":"[S]Mr. X [No Monitor]","steam_id":76561197963746035,"connected_time":1485000000000,"state":"active","ping":92},{"user_id":195,"name":"nella","steam_id":76561198079349621,"connected_time":1186000000000,"state":"active","ping":55},{"user_id":166,"name":"kebo","steam_id":76561198237159430,"connected_time":3015000000000,"state":"active","ping":65},{"user_id":189,"name":"purpleboi8056","steam_id":76561199386977971,"connected_time":1822000000000,"state":"active","ping":74},{"user_id":172,"name":"Darakrish","steam_id":76561198133126686,"connected_time":2884000000000,"state":"active","ping":111},{"user_id":188,"name":"burdllomu","steam_id":76561199142477846,"connected_time":1823000000000,"state":"active","ping":75},{"user_id":190,"name":"{·¥õ Ä_·¥Ñ·¥á Ä·¥ò} shullers","steam_id":76561198889997809,"connected_time":1768000000000,"state":"active","ping":53},{"user_id":169,"name":"!! BRO IS FLABBERGASTED !!","steam_id":76561198135036396,"connected_time":2990000000000,"state":"active","ping":102},{"user_id":179,"name":"Dr. Underscore","steam_id":76561198097430579,"connected_time":2447000000000,"state":"active","ping":112},{"user_id":197,"name":"Strange Potato","steam_id":76561199059013304,"connected_time":899000000000,"state":"active","ping":70},{"user_id":192,"name":"schaferalexander139","steam_id":76561199366064808,"connected_time":1718000000000,"state":"active","ping":93},{"user_id":202,"name":"Atrick21","steam_id":76561198299748416,"connected_time":727000000000,"state":"active","ping":67},{"user_id":181,"name":"Gooner Witch","steam_id":76561198305488625,"connected_time":2382000000000,"state":"active","ping":83},{"user_id":178,"name":"Matte :)","steam_id":76561198070631073,"connected_time":2628000000000,"state":"active","ping":48},{"user_id":198,"name":"Joey Wheeler","steam_id":76561198073792437,"connected_time":899000000000,"state":"active","ping":71}]},{"server_id":18,"name":"Uncletopia | San Francisco | 2 | All Maps","name_short":"sfo-2","host":"sfo-1.us.uncletopia.com","port":27025,"enabled":true,"region":"us-west","cc":"us","latitude":37.77397,"longitude":-122.4313,"reserved":0,"last_update":"0001-01-01T00:00:00Z","name_a2s":"Uncletopia | San Francisco | 2 | All Maps","protocol":17,"map":"koth_viaduct","folder":"tf","game":"Team Fortress","app_id":440,"player_count":0,"max_players":24,"Bots":0,"server_type":"Dedicated","server_os":"Linux","password":true,"vac":true,"version":"7757534","steam_id":85568392924470000,"keywords":["cp","nocrits","nodmgspread","uncletopia"],"game_id":440,"stv_port":27026,"stv_name":"Uncletopia | San Francisco | 2 | All Maps | STV","players":null},{"server_id":19,"name":"Uncletopia | San Francisco | 3 | Stopwatch Beta","name_short":"sfo-3","host":"sfo-1.us.uncletopia.com","port":27035,"enabled":true,"region":"us-west","cc":"us","latitude":37.77397,"longitude":-122.4313,"reserved":0,"last_update":"0001-01-01T00:00:00Z","name_a2s":"Uncletopia | San Francisco | 3 | Stopwatch Beta","protocol":17,"map":"pl_swiftwater_final1","folder":"tf","game":"Team Fortress","app_id":440,"player_count":0,"max_players":24,"Bots":0,"server_type":"Dedicated","server_os":"Linux","password":true,"vac":true,"version":"7757534","steam_id":85568392924742824,"keywords":["nocrits","nodmgspread","payload","uncletopia"],"game_id":440,"stv_port":27036,"stv_name":"Uncletopia | San Francisco | 3 | Stopwatch Beta | STV","players":null},{"server_id":20,"name":"Uncletopia | San Francisco | 4 | Community","name_short":"sfo-4","host":"sfo-1.us.uncletopia.com","port":27045,"enabled":true,"region":"us-west","cc":"us","latitude":37.77397,"longitude":-122.4313,"reserved":0,"last_update":"0001-01-01T00:00:00Z","name_a2s":"Uncletopia | San Francisco | 4 | Community","protocol":17,"map":"workshop/koth_kemptown_rc1.ugc767410655","folder":"tf","game":"Team Fortress","app_id":440,"player_count":0,"max_players":24,"Bots":0,"server_type":"Dedicated","server_os":"Linux","password":true,"vac":true,"version":"7757534","steam_id":85568392924742826,"keywords":["cp","nocrits","nodmgspread","uncletopia"],"game_id":440,"stv_port":27046,"stv_name":"Uncletopia | San Francisco | 4 | Community | STV","players":null},{"server_id":141,"name":"Uncletopia | Sydney | 1 | All Maps","name_short":"syd-1","host":"syd-1.au.uncletopia.com","port":27015,"enabled":true,"region":"au","cc":"au","latitude":-33.865143,"longitude":151.2099,"reserved":0,"last_update":"0001-01-01T00:00:00Z","name_a2s":"Uncletopia | Sydney | 1 | All Maps","protocol":17,"map":"pl_pier","folder":"tf","game":"Team Fortress","app_id":440,"player_count":7,"max_players":24,"Bots":0,"server_type":"Dedicated","server_os":"Linux","password":true,"vac":true,"version":"7757534","steam_id":85568392924470001,"keywords":["nocrits","nodmgspread","payload","uncletopia"],"game_id":440,"stv_port":27016,"stv_name":"Uncletopia | Sydney | 1 | All Maps | STV","players":[{"user_id":5,"name":":3","steam_id":76561198181194862,"connected_time":842000000000,"state":"active","ping":62},{"user_id":6,"name":"Dangerous DPad","steam_id":76561198452829128,"connected_time":832000000000,"state":"active","ping":74},{"user_id":7,"name":"chill weed vibes only","steam_id":76561198182862426,"connected_time":829000000000,"state":"active","ping":44},{"user_id":15,"name":"cedrick highsmith","steam_id":76561198380568764,"connected_time":95000000000,"state":"active","ping":80},{"user_id":10,"name":"bobo","steam_id":76561198156622144,"connected_time":736000000000,"state":"active","ping":45},{"user_id":16,"name":"Probably Sleep Deprived","steam_id":76561198108179408,"connected_time":38000000000,"state":"active","ping":84},{"user_id":13,"name":"pump up the jam","steam_id":76561198332850708,"connected_time":549000000000,"state":"active","ping":77}]},{"server_id":123,"name":"Uncletopia | Sydney | 2 | All Maps","name_short":"syd-2","host":"syd-1.au.uncletopia.com","port":27025,"enabled":true,"region":"au","cc":"au","latitude":-33.865143,"longitude":151.2099,"reserved":0,"last_update":"0001-01-01T00:00:00Z","name_a2s":"Uncletopia | Sydney | 2 | All Maps","protocol":17,"map":"cp_snakewater_final1","folder":"tf","game":"Team Fortress","app_id":440,"player_count":0,"max_players":24,"Bots":0,"server_type":"Dedicated","server_os":"Linux","password":true,"vac":true,"version":"7757534","steam_id":85568392924470002,"keywords":["cp","nocrits","nodmgspread","uncletopia"],"game_id":440,"stv_port":27026,"stv_name":"Uncletopia | Sydney | 2 | All Maps | STV","players":null},{"server_id":395,"name":"Uncletopia | Sydney | 3 | All Maps","name_short":"syd-3","host":"syd-1.au.uncletopia.com","port":27035,"enabled":true,"region":"au","cc":"au","latitude":-33.865143,"longitude":151.2099,"reserved":0,"last_update":"0001-01-01T00:00:00Z","name_a2s":"Uncletopia | Sydney | 3 | All Maps","protocol":17,"map":"pl_borneo","folder":"tf","game":"Team Fortress","app_id":440,"player_count":0,"max_players":24,"Bots":0,"server_type":"Dedicated","server_os":"Linux","password":true,"vac":true,"version":"7757534","steam_id":85568392925194467,"keywords":["nocrits","nodmgspread","payload","uncletopia"],"game_id":440,"stv_port":27036,"stv_name":"Uncletopia | Sydney | 3 | All Maps | STV","players":null},{"server_id":396,"name":"Uncletopia | Sydney | 4 | All Maps","name_short":"syd-4","host":"syd-1.au.uncletopia.com","port":27045,"enabled":true,"region":"au","cc":"au","latitude":-33.865143,"longitude":151.2099,"reserved":0,"last_update":"0001-01-01T00:00:00Z","name_a2s":"Uncletopia | Sydney | 4 | All Maps","protocol":17,"map":"cp_process_final","folder":"tf","game":"Team Fortress","app_id":440,"player_count":0,"max_players":24,"Bots":0,"server_type":"Dedicated","server_os":"Linux","password":true,"vac":true,"version":"7757534","steam_id":85568392925397958,"keywords":["cp","nocrits","nodmgspread","uncletopia"],"game_id":440,"stv_port":27046,"stv_name":"Uncletopia | Sydney | 4 | All Maps | STV","players":null},{"server_id":58,"name":"Uncletopia | Sydney | 5 | Stopwatch Beta","name_short":"syd-5","host":"syd-1.au.uncletopia.com","port":27055,"enabled":true,"region":"au","cc":"au","latitude":-33.865143,"longitude":151.2099,"reserved":0,"last_update":"0001-01-01T00:00:00Z","name_a2s":"Uncletopia | Sydney | 5 | Stopwatch Beta","protocol":17,"map":"koth_cascade","folder":"tf","game":"Team Fortress","app_id":440,"player_count":0,"max_players":24,"Bots":0,"server_type":"Dedicated","server_os":"Linux","password":true,"vac":true,"version":"7757534","steam_id":85568392925397959,"keywords":["cp","nocrits","nodmgspread","uncletopia"],"game_id":440,"stv_port":27056,"stv_name":"Uncletopia | Sydney | 5 | Stopwatch Beta | STV","players":null},{"server_id":59,"name":"Uncletopia | Sydney | 6 | Community","name_short":"syd-6","host":"syd-1.au.uncletopia.com","port":27065,"enabled":true,"region":"au","cc":"au","latitude":-33.865143,"longitude":151.2099,"reserved":0,"last_update":"0001-01-01T00:00:00Z","name_a2s":"Uncletopia | Sydney | 6 | Community","protocol":17,"map":"pl_badwater","folder":"tf","game":"Team Fortress","app_id":440,"player_count":0,"max_players":24,"Bots":0,"server_type":"Dedicated","server_os":"Linux","password":true,"vac":true,"version":"7757534","steam_id":85568392925397960,"keywords":["nocrits","nodmgspread","payload","uncletopia"],"game_id":440,"stv_port":27066,"stv_name":"Uncletopia | Sydney | 6 | Community | STV","players":null},{"server_id":49,"name":"Uncletopia | Warsaw | 1 | All Maps","name_short":"waw-1","host":"waw-1.pl.uncletopia.com","port":27015,"enabled":true,"region":"eu","cc":"pl","latitude":52.2297,"longitude":21.017532,"reserved":0,"last_update":"0001-01-01T00:00:00Z","name_a2s":"","protocol":0,"map":"","folder":"","game":"","app_id":0,"player_count":0,"max_players":0,"Bots":0,"server_type":"","server_os":"","password":false,"vac":false,"version":"","steam_id":0,"keywords":null,"game_id":0,"stv_port":0,"stv_name":"","players":null},{"server_id":50,"name":"Uncletopia | Warsaw | 2 | All Maps","name_short":"waw-2","host":"waw-1.pl.uncletopia.com","port":27025,"enabled":true,"region":"eu","cc":"pl","latitude":52.2297,"longitude":21.017532,"reserved":0,"last_update":"0001-01-01T00:00:00Z","name_a2s":"Uncletopia | Warsaw | 2 | All Maps","protocol":17,"map":"pl_borneo","folder":"tf","game":"Team Fortress","app_id":440,"player_count":0,"max_players":24,"Bots":0,"server_type":"Dedicated","server_os":"Linux","password":true,"vac":true,"version":"7757534","steam_id":85568392925397851,"keywords":["nocrits","nodmgspread","payload","uncletopia"],"game_id":440,"stv_port":27026,"stv_name":"Uncletopia | Warsaw | 2 | All Maps | STV","players":null},{"server_id":51,"name":"Uncletopia | Warsaw | 3 | All Maps","name_short":"waw-3","host":"waw-1.pl.uncletopia.com","port":27035,"enabled":true,"region":"eu","cc":"pl","latitude":52.2297,"longitude":21.017532,"reserved":0,"last_update":"0001-01-01T00:00:00Z","name_a2s":"Uncletopia | Warsaw | 3 | All Maps","protocol":17,"map":"pl_barnblitz","folder":"tf","game":"Team Fortress","app_id":440,"player_count":0,"max_players":24,"Bots":0,"server_type":"Dedicated","server_os":"Linux","password":true,"vac":true,"version":"7757534","steam_id":85568392925397852,"keywords":["nocrits","nodmgspread","payload","uncletopia"],"game_id":440,"stv_port":27036,"stv_name":"Uncletopia | Warsaw | 3 | All Maps | STV","players":null},{"server_id":52,"name":"Uncletopia | Warsaw | 4 | All Maps","name_short":"waw-4","host":"waw-1.pl.uncletopia.com","port":27045,"enabled":true,"region":"eu","cc":"pl","latitude":52.2297,"longitude":21.017532,"reserved":0,"last_update":"0001-01-01T00:00:00Z","name_a2s":"Uncletopia | Warsaw | 4 | All Maps","protocol":17,"map":"pl_swiftwater_final1","folder":"tf","game":"Team Fortress","app_id":440,"player_count":0,"max_players":24,"Bots":0,"server_type":"Dedicated","server_os":"Linux","password":true,"vac":true,"version":"7757534","steam_id":85568392925397853,"keywords":["nocrits","nodmgspread","payload","uncletopia"],"game_id":440,"stv_port":27046,"stv_name":"Uncletopia | Warsaw | 4 | All Maps | STV","players":null},{"server_id":53,"name":"Uncletopia | Warsaw | 5 | Stopwatch Beta","name_short":"waw-5","host":"waw-1.pl.uncletopia.com","port":27055,"enabled":true,"region":"eu","cc":"pl","latitude":52.2297,"longitude":21.017532,"reserved":0,"last_update":"0001-01-01T00:00:00Z","name_a2s":"Uncletopia | Warsaw | 5 | Stopwatch Beta","protocol":17,"map":"pl_pier","folder":"tf","game":"Team Fortress","app_id":440,"player_count":0,"max_players":24,"Bots":0,"server_type":"Dedicated","server_os":"Linux","password":true,"vac":true,"version":"7757534","steam_id":85568392925397854,"keywords":["nocrits","nodmgspread","payload","uncletopia"],"game_id":440,"stv_port":27056,"stv_name":"Uncletopia | Warsaw | 5 | Stopwatch Beta | STV","players":null},{"server_id":54,"name":"Uncletopia | Warsaw | 6 | Community","name_short":"waw-6","host":"waw-1.pl.uncletopia.com","port":27065,"enabled":true,"region":"eu","cc":"pl","latitude":52.2297,"longitude":21.017532,"reserved":0,"last_update":"0001-01-01T00:00:00Z","name_a2s":"Uncletopia | Warsaw | 6 | Community","protocol":17,"map":"koth_highpass","folder":"tf","game":"Team Fortress","app_id":440,"player_count":0,"max_players":24,"Bots":0,"server_type":"Dedicated","server_os":"Linux","password":true,"vac":true,"version":"7757534","steam_id":85568392925397856,"keywords":["cp","nocrits","nodmgspread","uncletopia"],"game_id":440,"stv_port":27066,"stv_name":"Uncletopia | Warsaw | 6 | Community | STV","players":null}]}