{"status":true,"message":"","result":[{"server_id":9,"name":"Uncletopia | Atlanta | 1 | All Maps","name_short":"atl-1","host":"atl-1.us.uncletopia.com","port":27015,"enabled":true,"region":"us-east","cc":"us","latitude":33.753746,"longitude":-84.38633,"reserved":0,"last_update":"0001-01-01T00:00:00Z","name_a2s":"Uncletopia | Atlanta | 1 | All Maps","protocol":17,"map":"koth_lakeside_final","folder":"tf","game":"Team Fortress","app_id":440,"player_count":1,"max_players":24,"Bots":0,"server_type":"Dedicated","server_os":"Linux","password":true,"vac":true,"version":"7757534","steam_id":85568392924469982,"keywords":["cp","nocrits","nodmgspread","uncletopia"],"game_id":440,"stv_port":27016,"stv_name":"Uncletopia | Atlanta | 1 | All Maps | STV","players":[{"user_id":722,"name":"wire-guided","steam_id":76561198055407168,"connected_time":7000000000,"state":"spawning","ping":49}]},{"server_id":104,"name":"Uncletopia | Atlanta | 2 | All Maps","name_short":"atl-2","host":"atl-1.us.uncletopia.com","port":27025,"enabled":true,"region":"us-east","cc":"us","latitude":33.753746,"longitude":-84.38633,"reserved":0,"last_update":"0001-01-01T00:00:00Z","name_a2s":"Uncletopia | Atlanta | 2 | All Maps","protocol":17,"map":"pl_snowycoast","folder":"tf","game":"Team Fortress","app_id":440,"player_count":0,"max_players":24,"Bots":0,"server_type":"Dedicated","server_os":"Linux","password":true,"vac":true,"version":"7757534","steam_id":85568392924469983,"keywords":["nocrits","nodmgspread","payload","uncletopia"],"game_id":440,"stv_port":27026,"stv_name":"Uncletopia | Atlanta | 2 | All Maps | STV","players":null},{"server_id":400,"name":"Uncletopia | Atlanta | 3 | Community","name_short":"atl-3","host":"atl-1.us.uncletopia.com","port":27035,"enabled":true,"region":"us-east","cc":"us","latitude":33.753746,"longitude":-84.38633,"reserved":0,"last_update":"0001-01-01T00:00:00Z","name_a2s":"Uncletopia | Atlanta | 3 | Community","protocol":17,"map":"workshop/pl_fifthcurve_rc1.ugc648227046","folder":"tf","game":"Team Fortress","app_id":440,"player_count":0,"max_players":24,"Bots":0,"server_type":"Dedicated","server_os":"Linux","password":true,"vac":true,"version":"7757534","steam_id":85568392924515187,"keywords":["nocrits","nodmgspread","payload","uncletopia"],"game_id":440,"stv_port":27036,"stv_name":"Uncletopia | Atlanta | 3 | Community | STV","players":null},{"server_id":401,"name":"Uncletopia | Atlanta | 4 | No Payload","name_short":"atl-4","host":"atl-1.us.uncletopia.com","port":27045,"enabled":true,"region":"us-east","cc":"us","latitude":33.753746,"longitude":-84.38633,"reserved":0,"last_update":"0001-01-01T00:00:00Z","name_a2s":"","protocol":0,"map":"","folder":"","game":"","app_id":0,"player_count":0,"max_players":0,"Bots":0,"server_type":"","server_os":"","password":false,"vac":false,"version":"","steam_id":0,"keywords":null,"game_id":0,"stv_port":0,"stv_name":"","players":null},{"server_id":2,"name":"Uncletopia | Chicago | 1 | All Maps","name_short":"chi-1","host":"chi-1.us.uncletopia.com","port":27015,"enabled":true,"region":"us-central","cc":"us","latitude":41.881832,"longitude":-87.62318,"reserved":0,"last_update":"0001-01-01T00:00:00Z","name_a2s":"Uncletopia | Chicago | 1 | All Maps","protocol":17,"map":"cp_snakewater_final1","folder":"tf","game":"Team Fortress","app_id":440,"player_count":2,"max_players":24,"Bots":0,"server_type":"Dedicated","server_os":"Linux","password":true,"vac":true,"version":"7757534","steam_id":85568392924469984,"keywords":["cp","nocrits","nodmgspread","uncletopia"],"game_id":440,"stv_port":27016,"stv_name":"Uncletopia | Chicago | 1 | All Maps | STV","players":[{"user_id":797,"name":"Dopple","steam_id":76561198027520183,"connected_time":1968000000000,"state":"active","ping":57},{"user_id":798,"name":"Kevin Edwards","steam_id":76561197998808319,"connected_time":1900000000000,"state":"active","ping":48}]},{"server_id":106,"name":"Uncletopia | Chicago | 2 | All Maps","name_short":"chi-2","host":"chi-1.us.uncletopia.com","port":27025,"enabled":true,"region":"us-central","cc":"us","latitude":41.881832,"longitude":-87.62318,"reserved":0,"last_update":"0001-01-01T00:00:00Z","name_a2s":"Uncletopia | Chicago | 2 | All Maps","protocol":17,"map":"koth_highpass","folder":"tf","game":"Team Fortress","app_id":440,"player_count":16,"max_players":24,"Bots":0,"server_type":"Dedicated","server_os":"Linux","password":true,"vac":true,"version":"7757534","steam_id":85568392924469985,"keywords":["cp","nocrits","nodmgspread","uncletopia"],"game_id":440,"stv_port":27026,"stv_name":"Uncletopia | Chicago | 2 | All Maps | STV","players":[{"user_id":549,"name":"tbuoft","steam_id":76561198426655364,"connected_time":230000000000,"state":"active","ping":89},{"user_id":514,"name":"JelloMotion","steam_id":76561198045892038,"connected_time":4165000000000,"state":"active","ping":55},{"user_id":547,"name":"dankman","steam_id":76561198977064186,"connected_time":309000000000,"state":"active","ping":45},{"user_id":510,"name":"BeyBladeMoses","steam_id":76561198044377553,"connected_time":4602000000000,"state":"active","ping":76},{"user_id":550,"name":"Three Isopods in a Trenchcoat","steam_id":76561198249265250,"connected_time":195000000000,"state":"active","ping":86},{"user_id":551,"name":"Doc Scourge","steam_id":76561198025325334,"connected_time":193000000000,"state":"active","ping":66},{"user_id":552,"name":"Sviskonpaj","steam_id":76561198110941497,"connected_time":105000000000,"state":"active","ping":152},{"user_id":553,"name":"ribbonborn","steam_id":76561198001195423,"connected_time":79000000000,"state":"active","ping":89},{"user_id":554,"name":"Lavender","steam_id":76561198142770666,"connected_time":37000000000,"state":"spawning","ping":63},{"user_id":542,"name":"Sloth-Man","steam_id":76561197991917573,"connected_time":1456000000000,"state":"active","ping":87},{"user_id":555,"name":"Merci?","steam_id":76561198096823118,"connected_time":23000000000,"state":"spawning","ping":60},{"user_id":543,"name":"Ben","steam_id":76561198144209930,"connected_time":1417000000000,"state":"active","ping":60},{"user_id":511,"name":"Dankblad3","steam_id":76561198040642239,"connected_time":4599000000000,"state":"active","ping":82},{"user_id":527,"name":"Pre Pissed Pants","steam_id":76561198042143837,"connected_time":3436000000000,"state":"active","ping":114},{"user_id":544,"name":"bill","steam_id":76561199142779872,"connected_time":1304000000000,"state":"active","ping":66},{"user_id":522,"name":"ZBaldTop","steam_id":76561199396318132,"connected_time":3973000000000,"state":"active","ping":44}]},{"server_id":402,"name":"Uncletopia | Chicago | 3 | All Maps","name_short":"chi-3","host":"chi-1.us.uncletopia.com","port":27035,"enabled":true,"region":"us-central","cc":"us","latitude":41.881832,"longitude":-87.62318,"reserved":0,"last_update":"0001-01-01T00:00:00Z","name_a2s":"Uncletopia | Chicago | 3 | All Maps","protocol":17,"map":"cp_sunshine","folder":"tf","game":"Team Fortress","app_id":440,"player_count":0,"max_players":24,"Bots":0,"server_type":"Dedicated","server_os":"Linux","password":true,"vac":true,"version":"7757534","steam_id":85568392924515191,"keywords":["cp","nocrits","nodmgspread","uncletopia"],"game_id":440,"stv_port":27036,"stv_name":"Uncletopia | Chicago | 3 | All Maps | STV","players":null},{"server_id":403,"name":"Uncletopia | Chicago | 4 | All Maps","name_short":"chi-4","host":"chi-1.us.uncletopia.com","port":27045,"enabled":true,"region":"us-central","cc":"us","latitude":41.881832,"longitude":-87.62318,"reserved":0,"last_update":"0001-01-01T00:00:00Z","name_a2s":"Uncletopia | Chicago | 4 | All Maps","protocol":17,"map":"pl_upward","folder":"tf","game":"Team Fortress","app_id":440,"player_count":0,"max_players":24,"Bots":0,"server_type":"Dedicated","server_os":"Linux","password":true,"vac":true,"version":"7757534","steam_id":85568392924515193,"keywords":["nocrits","nodmgspread","payload","uncletopia"],"game_id":440,"stv_port":27046,"stv_name":"Uncletopia | Chicago | 4 | All Maps | STV","players":null},{"server_id":36,"name":"Uncletopia | Chicago | 5 | All Maps","name_short":"chi-5","host":"chi-2.us.uncletopia.com","port":27015,"enabled":true,"region":"us-central","cc":"us","latitude":41.881832,"longitude":-87.62318,"reserved":0,"last_update":"0001-01-01T00:00:00Z","name_a2s":"Uncletopia | Chicago | 5 | All Maps","protocol":17,"map":"cp_mountainlab","folder":"tf","game":"Team Fortress","app_id":440,"player_count":0,"max_players":24,"Bots":0,"server_type":"Dedicated","server_os":"Linux","password":true,"vac":true,"version":"7757534","steam_id":85568392924866362,"keywords":["cp","nocrits","nodmgspread","uncletopia"],"game_id":440,"stv_port":27016,"stv_name":"Uncletopia | Chicago | 5 | All Maps | STV","players":null},{"server_id":37,"name":"Uncletopia | Chicago | 6 | All Maps","name_short":"chi-6","host":"chi-2.us.uncletopia.com","port":27025,"enabled":true,"region":"us-central","cc":"us","latitude":41.881832,"longitude":-87.62318,"reserved":0,"last_update":"0001-01-01T00:00:00Z","name_a2s":"Uncletopia | Chicago | 6 | All Maps","protocol":17,"map":"pl_swiftwater_final1","folder":"tf","game":"Team Fortress","app_id":440,"player_count":0,"max_players":24,"Bots":0,"server_type":"Dedicated","server_os":"Linux","password":true,"vac":true,"version":"7757534","steam_id":85568392924866363,"keywords":["nocrits","nodmgspread","payload","uncletopia"],"game_id":440,"stv_port":27026,"stv_name":"Uncletopia | Chicago | 6 | All Maps | STV","players":null},{"server_id":38,"name":"Uncletopia | Chicago | 7 | Stopwatch Beta","name_short":"chi-7","host":"chi-2.us.uncletopia.com","port":27035,"enabled":true,"region":"us-central","cc":"us","latitude":41.881832,"longitude":-87.62318,"reserved":0,"last_update":"0001-01-01T00:00:00Z","name_a2s":"Uncletopia | Chicago | 7 | Stopwatch Beta","protocol":17,"map":"pl_barnblitz","folder":"tf","game":"Team Fortress","app_id":440,"player_count":0,"max_players":24,"Bots":0,"server_type":"Dedicated","server_os":"Linux","password":true,"vac":true,"version":"7757534","steam_id":85568392924866364,"keywords":["nocrits","nodmgspread","payload","uncletopia"],"game_id":440,"stv_port":27036,"stv_name":"Uncletopia | Chicago | 7 | Stopwatch Beta | STV","players":null},{"server_id":39,"name":"Uncletopia | Chicago | 8 | Community","name_short":"chi-8","host":"chi-2.us.uncletopia.com","port":27045,"enabled":true,"region":"us-central","cc":"us","latitude":41.881832,"longitude":-87.62318,"reserved":0,"last_update":"0001-01-01T00:00:00Z","name_a2s":"Uncletopia | Chicago | 8 | Community","protocol":17,"map":"workshop/koth_ramjam_rc1.ugc459778887","folder":"tf","game":"Team Fortress","app_id":440,"player_count":0,"max_players":24,"Bots":0,"server_type":"Dedicated","server_os":"Linux","password":true,"vac":true,"version":"7757534","steam_id":85568392924866365,"keywords":["cp","nocrits","nodmgspread","uncletopia"],"game_id":440,"stv_port":27046,"stv_name":"Uncletopia | Chicago | 8 | Community | STV","players":null},{"server_id":8,"name":"Uncletopia | Dallas | 1 | All Maps","name_short":"dal-1","host":"dal-1.us.uncletopia.com","port":27015,"enabled":true,"region":"us-central","cc":"us","latitude":32.779167,"longitude":-96.80889,"reserved":0,"last_update":"0001-01-01T00:00:00Z","name_a2s":"Uncletopia | Dallas | 1 | All Maps","protocol":17,"map":"cp_dustbowl","folder":"tf","game":"Team Fortress","app_id":440,"player_count":24,"max_players":24,"Bots":0,"server_type":"Dedicated","server_os":"Linux","password":true,"vac":true,"version":"7757534","steam_id":85568392924469986,"keywords":["cp","nocrits","nodmgspread","uncletopia"],"game_id":440,"stv_port":27016,"stv_name":"Uncletopia | Dallas | 1 | All Maps | STV","players":[{"user_id":1137,"name":"Lol funny monke","steam_id":76561198017200146,"connected_time":575000000000,"state":"active","ping":90},{"user_id":1080,"name":"sailaser","steam_id":76561198035752229,"connected_time":6172000000000,"state":"active","ping":86},{"user_id":1070,"name":"Soozy420","steam_id":76561198809074422,"connected_time":6619000000000,"state":"active","ping":81},{"user_id":1110,"name":"StarManMatt","steam_id":76561198125513574,"connected_time":3333000000000,"state":"active","ping":93},{"user_id":1147,"name":"[SSRB] Thangerunn","steam_id":76561198052369275,"connected_time":85000000000,"state":"active","ping":86},{"user_id":1139,"name":"Evil Demoman","steam_id":76561198345752835,"connected_time":495000000000,"state":"active","ping":69},{"user_id":1145,"name":"Ayylmao","steam_id":76561198104780147,"connected_time":328000000000,"state":"active","ping":60},{"user_id":1131,"name":"Spirosity","steam_id":76561198013485753,"connected_time":1966000000000,"state":"active","ping":90},{"user_id":1111,"name":"roast pig with apple in mouth","steam_id":76561198051353647,"connected_time":3306000000000,"state":"active","ping":83},{"user_id":1140,"name":"Herr Müller","steam_id":76561198064876829,"connected_time":461000000000,"state":"active","ping":90},{"user_id":1123,"name":"Fake21","steam_id":76561198282065071,"connected_time":2782000000000,"state":"active","ping":43},{"user_id":1141,"name":"screwball","steam_id":76561198166713255,"connected_time":456000000000,"state":"active","ping":77},{"user_id":1014,"name":"Project_Counter","steam_id":76561198152786076,"connected_time":9750000000000,"state":"active","ping":54},{"user_id":1146,"name":"cuppajoeman","steam_id":76561198095720174,"connected_time":242000000000,"state":"active","ping":75},{"user_id":1142,"name":"PMT_Red","steam_id":76561198958863929,"connected_time":446000000000,"state":"active","ping":89},{"user_id":1097,"name":"Lemon Pine-Sol","steam_id":76561198068326695,"connected_time":4493000000000,"state":"active","ping":60},{"user_id":1127,"name":"Gm_Trash","steam_id":76561199445091548,"connected_time":2279000000000,"state":"active","ping":74},{"user_id":1009,"name":"Kng","steam_id":76561198993248203,"connected_time":9968000000000,"state":"active","ping":81},{"user_id":1144,"name":"Skeletor","steam_id":76561199087344972,"connected_time":386000000000,"state":"active","ping":78},{"user_id":1148,"name":"❤[Candy]❤","steam_id":76561198817361963,"connected_time":24000000000,"state":"active","ping":107},{"user_id":1136,"name":"Freckles","steam_id":76561198045671386,"connected_time":1138000000000,"state":"active","ping":44},{"user_id":1117,"name":"cass","steam_id":76561198074502046,"connected_time":3103000000000,"state":"active","ping":76},{"user_id":1104,"name":"TransWomanGaming","steam_id":76561198809645656,"connected_time":3771000000000,"state":"active","ping":77},{"user_id":1133,"name":"bloooo","steam_id":76561198103515747,"connected_time":1647000000000,"state":"active","ping":82}]},{"server_id":108,"name":"Uncletopia | Dallas | 2 | All Maps","name_short":"dal-2","host":"dal-1.us.uncletopia.com","port":27025,"enabled":true,"region":"us-central","cc":"us","latitude":32.779167,"longitude":-96.80889,"reserved":0,"last_update":"0001-01-01T00:00:00Z","name_a2s":"Uncletopia | Dallas | 2 | All Maps","protocol":17,"map":"pl_upward","folder":"tf","game":"Team Fortress","app_id":440,"player_count":24,"max_players":24,"Bots":0,"server_type":"Dedicated","server_os":"Linux","password":true,"vac":true,"version":"7757534","steam_id":85568392924469988,"keywords":["nocrits","nodmgspread","payload","uncletopia"],"game_id":440,"stv_port":27026,"stv_name":"Uncletopia | Dallas | 2 | All Maps | STV","players":[{"user_id":631,"name":"BIG HOG","steam_id":76561198079923652,"connected_time":1092000000000,"state":"active","ping":63},{"user_id":614,"name":"sheep in da slipgate","steam_id":76561198076781979,"connected_time":2204000000000,"state":"active","ping":69},{"user_id":646,"name":"brock","steam_id":76561199015537819,"connected_time":384000000000,"state":"active","ping":69},{"user_id":606,"name":"tav","steam_id":76561198124270862,"connected_time":2962000000000,"state":"active","ping":71},{"user_id":607,"name":"Crom","steam_id":76561198132031007,"connected_time":2943000000000,"state":"active","ping":107},{"user_id":626,"name":"O Dog","steam_id":76561198133498912,"connected_time":1284000000000,"state":"active","ping":76},{"user_id":632,"name":"Admiral Angry","steam_id":76561198058199206,"connected_time":915000000000,"state":"active","ping":87},{"user_id":610,"name":"SatyricalSol","steam_id":76561198104484030,"connected_time":2813000000000,"state":"active","ping":90},{"user_id":635,"name":"lingulata","steam_id":76561198076208960,"connected_time":897000000000,"state":"active","ping":77},{"user_id":615,"name":"Gluteus Nebulous","steam_id":76561198024855037,"connected_time":2195000000000,"state":"active","ping":80},{"user_id":647,"name":"(TPT) Ghost","steam_id":76561198123262873,"connected_time":217000000000,"state":"active","ping":93},{"user_id":644,"name":"Cosmic sR","steam_id":76561198081738675,"connected_time":618000000000,"state":"active","ping":84},{"user_id":570,"name":"BrightOrangeMango","steam_id":76561198023144607,"connected_time":5850000000000,"state":"active","ping":79},{"user_id":636,"name":"Gary Gilbert","steam_id":76561198143988056,"connected_time":895000000000,"state":"active","ping":137},{"user_id":645,"name":"cucumper","steam_id":76561198079504588,"connected_time":516000000000,"state":"active","ping":74},{"user_id":637,"name":"kat","steam_id":76561198121070295,"connected_time":894000000000,"state":"active","ping":99},{"user_id":638,"name":"Rebecca","steam_id":76561199071867217,"connected_time":881000000000,"state":"active","ping":77},{"user_id":573,"name":"ttv/whiteboyst0ner1997","steam_id":76561198064558316,"connected_time":5751000000000,"state":"active","ping":69},{"user_id":578,"name":"plink","steam_id":76561198057829889,"connected_time":5165000000000,"state":"active","ping":75},{"user_id":639,"name":"dzcreeper","steam_id":76561198072250723,"connected_time":866000000000,"state":"active","ping":105},{"user_id":640,"name":"ButterPoptart","steam_id":76561198132999590,"connected_time":825000000000,"state":"active","ping":98},{"user_id":630,"name":"Gammaplex","steam_id":76561198981228176,"connected_time":1169000000000,"state":"active","ping":75},{"user_id":641,"name":"mel","steam_id":76561198215559840,"connected_time":823000000000,"state":"active","ping":68},{"user_id":643,"name":"Saikou!!!","steam_id":76561198044045406,"connected_time":749000000000,"state":"active","ping":75}]},{"server_id":5,"name":"Uncletopia | Frankfurt | 1 | All Maps","name_short":"frk-1","host":"frk-1.de.uncletopia.com","port":27015,"enabled":true,"region":"eu","cc":"de","latitude":50.110924,"longitude":8.682127,"reserved":0,"last_update":"0001-01-01T00:00:00Z","name_a2s":"Uncletopia | Frankfurt | 1 | All Maps","protocol":17,"map":"pl_snowycoast","folder":"tf","game":"Team Fortress","app_id":440,"player_count":0,"max_players":24,"Bots":0,"server_type":"Dedicated","server_os":"Linux","password":true,"vac":true,"version":"7757534","steam_id":85568392924469989,"keywords":["nocrits","nodmgspread","payload","uncletopia"],"game_id":440,"stv_port":27016,"stv_name":"Uncletopia | Frankfurt | 1 | All Maps | STV","players":null},{"server_id":110,"name":"Uncletopia | Frankfurt | 2 | All Maps","name_short":"frk-2","host":"frk-1.de.uncletopia.com","port":27025,"enabled":true,"region":"eu","cc":"de","latitude":50.110924,"longitude":8.682127,"reserved":0,"last_update":"0001-01-01T00:00:00Z","name_a2s":"Uncletopia | Frankfurt | 2 | All Maps","protocol":17,"map":"cp_snakewater_final1","folder":"tf","game":"Team Fortress","app_id":440,"player_count":0,"max_players":24,"Bots":0,"server_type":"Dedicated","server_os":"Linux","password":true,"vac":true,"version":"7757534","steam_id":85568392924469990,"keywords":["cp","nocrits","nodmgspread","uncletopia"],"game_id":440,"stv_port":27026,"stv_name":"Uncletopia | Frankfurt | 2 | All Maps | STV","players":null},{"server_id":308,"name":"Uncletopia | Frankfurt | 3 | All Maps","name_short":"frk-3","host":"frk-1.de.uncletopia.com","port":27035,"enabled":true,"region":"eu","cc":"de","latitude":50.110924,"longitude":8.682127,"reserved":0,"last_update":"0001-01-01T00:00:00Z","name_a2s":"Uncletopia | Frankfurt | 3 | All Maps","protocol":17,"map":"pl_swiftwater_final1","folder":"tf","game":"Team Fortress","app_id":440,"player_count":0,"max_players":24,"Bots":0,"server_type":"Dedicated","server_os":"Linux","password":true,"vac":true,"version":"7757534","steam_id":85568392924504274,"keywords":["nocrits","nodmgspread","payload","uncletopia"],"game_id":440,"stv_port":27036,"stv_name":"Uncletopia | Frankfurt | 3 | All Maps | STV","players":null},{"server_id":309,"name":"Uncletopia | Frankfurt | 4 | All Maps","name_short":"frk-4","host":"frk-1.de.uncletopia.com","port":27045,"enabled":true,"region":"eu","cc":"de","latitude":50.110924,"longitude":8.682127,"reserved":0,"last_update":"0001-01-01T00:00:00Z","name_a2s":"Uncletopia | Frankfurt | 4 | All Maps","protocol":17,"map":"koth_viaduct","folder":"tf","game":"Team Fortress","app_id":440,"player_count":0,"max_players":24,"Bots":0,"server_type":"Dedicated","server_os":"Linux","password":true,"vac":true,"version":"7757534","steam_id":85568392924504275,"keywords":["cp","nocrits","nodmgspread","uncletopia"],"game_id":440,"stv_port":27046,"stv_name":"Uncletopia | Frankfurt | 4 | All Maps | STV","players":null},{"server_id":310,"name":"Uncletopia | Frankfurt | 5 | All Maps","name_short":"frk-5","host":"frk-1.de.uncletopia.com","port":27055,"enabled":true,"region":"eu","cc":"de","latitude":50.110924,"longitude":8.682127,"reserved":0,"last_update":"0001-01-01T00:00:00Z","name_a2s":"Uncletopia | Frankfurt | 5 | All Maps","protocol":17,"map":"koth_lakeside_final","folder":"tf","game":"Team Fortress","app_id":440,"player_count":0,"max_players":24,"Bots":0,"server_type":"Dedicated","server_os":"Linux","password":true,"vac":true,"version":"7757534","steam_id":85568392924504277,"keywords":["cp","nocrits","nodmgspread","uncletopia"],"game_id":440,"stv_port":27056,"stv_name":"Uncletopia | Frankfurt | 5 | All Maps | STV","players":null},{"server_id":311,"name":"Uncletopia | Frankfurt | 6 | All Maps","name_short":"frk-6","host":"frk-1.de.uncletopia.com","port":27065,"enabled":true,"region":"eu","cc":"de","latitude":50.110924,"longitude":8.682127,"reserved":0,"last_update":"0001-01-01T00:00:00Z","name_a2s":"Uncletopia | Frankfurt | 6 | All Maps","protocol":17,"map":"pl_frontier_final","folder":"tf","game":"Team Fortress","app_id":440,"player_count":0,"max_players":24,"Bots":0,"server_type":"Dedicated","server_os":"Linux","password":true,"vac":true,"version":"7757534","steam_id":85568392924504278,"keywords":["nocrits","nodmgspread","payload","uncletopia"],"game_id":440,"stv_port":27066,"stv_name":"Uncletopia | Frankfurt | 6 | All Maps | STV","players":null},{"server_id":23,"name":"Uncletopia | Frankfurt | 7 | Stopwatch Beta","name_short":"frk-7","host":"frk-1.de.uncletopia.com","port":27075,"enabled":true,"region":"eu","cc":"de","latitude":50.110924,"longitude":8.682127,"reserved":0,"last_update":"0001-01-01T00:00:00Z","name_a2s":"Uncletopia | Frankfurt | 7 | Stopwatch Beta","protocol":17,"map":"cp_sunshine","folder":"tf","game":"Team Fortress","app_id":440,"player_count":0,"max_players":24,"Bots":0,"server_type":"Dedicated","server_os":"Linux","password":true,"vac":true,"version":"7757534","steam_id":85568392924742827,"keywords":["cp","nocrits","nodmgspread","uncletopia"],"game_id":440,"stv_port":27076,"stv_name":"Uncletopia | Frankfurt | 7 | Stopwatch Beta | STV","players":null},{"server_id":24,"name":"Uncletopia | Frankfurt | 8 | Community","name_short":"frk-8","host":"frk-1.de.uncletopia.com","port":27085,"enabled":true,"region":"eu","cc":"de","latitude":50.110924,"longitude":8.682127,"reserved":0,"last_update":"0001-01-01T00:00:00Z","name_a2s":"Uncletopia | Frankfurt | 8 | Community","protocol":17,"map":"koth_lakeside_final","folder":"tf","game":"Team Fortress","app_id":440,"player_count":0,"max_players":24,"Bots":0,"server_type":"Dedicated","server_os":"Linux","password":true,"vac":true,"version":"7757534","steam_id":85568392924742828,"keywords":["cp","nocrits","nodmgspread","uncletopia"],"game_id":440,"stv_port":27086,"stv_name":"Uncletopia | Frankfurt | 8 | Community | STV","players":null},{"server_id":202,"name":"Uncletopia | Hong Kong | 1 | All Maps","name_short":"hgk-1","host":"hgk-1.hk.uncletopia.com","port":27015,"enabled":true,"region":"asia","cc":"hk","latitude":22.302711,"longitude":114.177216,"reserved":0,"last_update":"0001-01-01T00:00:00Z","name_a2s":"Uncletopia | Hong Kong | 1 | All Maps","protocol":17,"map":"pl_thundermountain","folder":"tf","game":"Team Fortress","app_id":440,"player_count":24,"max_players":24,"Bots":0,"server_type":"Dedicated","server_os":"Linux","password":true,"vac":true,"version":"7757534","steam_id":85568392924494504,"keywords":["nocrits","nodmgspread","payload","uncletopia"],"game_id":440,"stv_port":27016,"stv_name":"Uncletopia | Hong Kong | 1 | All Maps | STV","players":[{"user_id":26,"name":"[Sour Frog]","steam_id":76561199223358471,"connected_time":6427000000000,"state":"active","ping":109},{"user_id":70,"name":"Ashe","steam_id":76561199127979769,"connected_time":1985000000000,"state":"active","ping":84},{"user_id":58,"name":"no vc no c","steam_id":76561197989503095,"connected_time":3320000000000,"state":"active","ping":93},{"user_id":67,"name":"帕","steam_id":76561198439343999,"connected_time":2514000000000,"state":"active","ping":136},{"user_id":31,"name":"silverhouse7","steam_id":76561198349634906,"connected_time":5635000000000,"state":"active","ping":99},{"user_id":40,"name":"Vortex Medico","steam_id":76561198833527091,"connected_time":4107000000000,"state":"active","ping":98},{"user_id":88,"name":"GreggieBoi","steam_id":76561199085200364,"connected_time":424000000000,"state":"active","ping":102},{"user_id":25,"name":"プロゲーマー","steam_id":76561199017344476,"connected_time":6701000000000,"state":"active","ping":82},{"user_id":68,"name":"Water Buffalo","steam_id":76561198200672038,"connected_time":2240000000000,"state":"active","ping":103},{"user_id":45,"name":"Rob L. Callistis","steam_id":76561199000135798,"connected_time":3667000000000,"state":"active","ping":121},{"user_id":59,"name":"urotsuki with da doobie","steam_id":76561198074339034,"connected_time":3211000000000,"state":"active","ping":83},{"user_id":81,"name":"meme","steam_id":76561198872566128,"connected_time":807000000000,"state":"active","ping":84},{"user_id":69,"name":"Sedna","steam_id":76561198120797504,"connected_time":2083000000000,"state":"active","ping":89},{"user_id":82,"name":"eekynetwo(F2P Piss Sniper)","steam_id":76561198990017441,"connected_time":722000000000,"state":"active","ping":95},{"user_id":71,"name":"RRR","steam_id":76561198796036009,"connected_time":1976000000000,"state":"active","ping":140},{"user_id":90,"name":"monkeyman536","steam_id":76561197997717737,"connected_time":164000000000,"state":"active","ping":134},{"user_id":85,"name":"Slonk","steam_id":76561198845070475,"connected_time":616000000000,"state":"active","ping":121},{"user_id":54,"name":"Wizzkill","steam_id":76561199131526926,"connected_time":3435000000000,"state":"active","ping":91},{"user_id":86,"name":"Giyu","steam_id":76561198299150410,"connected_time":567000000000,"state":"active","ping":116},{"user_id":77,"name":"Requiem","steam_id":76561197993400606,"connected_time":1502000000000,"state":"active","ping":115},{"user_id":61,"name":"Azyuri","steam_id":76561199087493601,"connected_time":2942000000000,"state":"active","ping":117},{"user_id":74,"name":"Nonexistent","steam_id":76561198980563251,"connected_time":1775000000000,"state":"active","ping":96},{"user_id":76,"name":"Kozupy","steam_id":76561198404352831,"connected_time":1669000000000,"state":"active","ping":70},{"user_id":78,"name":"JDSFE","steam_id":76561198975490851,"connected_time":1498000000000,"state":"active","ping":123}]},{"server_id":1,"name":"Uncletopia | Los Angeles | 1 | All Maps","name_short":"lax-1","host":"lax-1.us.uncletopia.com","port":27015,"enabled":true,"region":"us-west","cc":"us","latitude":33.94279,"longitude":-118.41004,"reserved":0,"last_update":"0001-01-01T00:00:00Z","name_a2s":"Uncletopia | Los Angeles | 1 | All Maps","protocol":17,"map":"pl_frontier_final","folder":"tf","game":"Team Fortress","app_id":440,"player_count":23,"max_players":24,"Bots":0,"server_type":"Dedicated","server_os":"Linux","password":true,"vac":true,"version":"7757534","steam_id":85568392924469991,"keywords":["nocrits","nodmgspread","payload","uncletopia"],"game_id":440,"stv_port":27016,"stv_name":"Uncletopia | Los Angeles | 1 | All Maps | STV","players":[{"user_id":625,"name":"Puskinti","steam_id":76561198032120688,"connected_time":3269000000000,"state":"active","ping":84},{"user_id":668,"name":"themadlad67","steam_id":76561199309554436,"connected_time":791000000000,"state":"active","ping":72},{"user_id":635,"name":"bocaJ","steam_id":76561198374535092,"connected_time":2491000000000,"state":"active","ping":30},{"user_id":665,"name":"Jane Doe","steam_id":76561198799781126,"connected_time":1066000000000,"state":"active","ping":63},{"user_id":581,"name":"face in the dark","steam_id":76561198132755619,"connected_time":5506000000000,"state":"active","ping":34},{"user_id":636,"name":"Maud","steam_id":76561197960283479,"connected_time":2426000000000,"state":"active","ping":93},{"user_id":582,"name":"VoodooPapa","steam_id":76561199160439066,"connected_time":5504000000000,"state":"active","ping":61},{"user_id":666,"name":"FI LO","steam_id":76561198976530881,"connected_time":1057000000000,"state":"active","ping":41},{"user_id":586,"name":"connie kins","steam_id":76561198074701151,"connected_time":5409000000000,"state":"active","ping":47},{"user_id":671,"name":"Snapcaster","steam_id":76561199127590316,"connected_time":178000000000,"state":"active","ping":66},{"user_id":670,"name":"DoctorSpy","steam_id":76561198137014095,"connected_time":296000000000,"state":"active","ping":54},{"user_id":627,"name":"demar","steam_id":76561198987713830,"connected_time":3122000000000,"state":"active","ping":159},{"user_id":664,"name":"Yakts","steam_id":76561198115044159,"connected_time":1189000000000,"state":"active","ping":71},{"user_id":599,"name":"Handsome Pete","steam_id":76561198003224229,"connected_time":4938000000000,"state":"active","ping":51},{"user_id":637,"name":"Jolly","steam_id":76561198116357972,"connected_time":2415000000000,"state":"active","ping":44},{"user_id":661,"name":"stboncho","steam_id":76561198172275301,"connected_time":1660000000000,"state":"active","ping":63},{"user_id":609,"name":"tyg","steam_id":76561198056246867,"connected_time":4262000000000,"state":"active","ping":111},{"user_id":667,"name":"warrior","steam_id":76561198074500319,"connected_time":1045000000000,"state":"active","ping":99},{"user_id":596,"name":"weird opponent","steam_id":76561199199843311,"connected_time":5055000000000,"state":"active","ping":55},{"user_id":630,"name":"new ZAland","steam_id":76561198433114405,"connected_time":2912000000000,"state":"active","ping":73},{"user_id":669,"name":"werolat","steam_id":76561197960544784,"connected_time":493000000000,"state":"active","ping":60},{"user_id":662,"name":"vioxynteris","steam_id":76561198161428666,"connected_time":1497000000000,"state":"active","ping":33},{"user_id":622,"name":"Star","steam_id":76561198150115757,"connected_time":3467000000000,"state":"active","ping":73}]},{"server_id":112,"name":"Uncletopia | Los Angeles | 2 | All Maps","name_short":"lax-2","host":"lax-1.us.uncletopia.com","port":27025,"enabled":true,"region":"us-west","cc":"us","latitude":33.94279,"longitude":-118.41004,"reserved":0,"last_update":"0001-01-01T00:00:00Z","name_a2s":"Uncletopia | Los Angeles | 2 | All Maps","protocol":17,"map":"koth_viaduct","folder":"tf","game":"Team Fortress","app_id":440,"player_count":0,"max_players":24,"Bots":0,"server_type":"Dedicated","server_os":"Linux","password":true,"vac":true,"version":"7757534","steam_id":85568392924469992,"keywords":["cp","nocrits","nodmgspread","uncletopia"],"game_id":440,"stv_port":27026,"stv_name":"Uncletopia | Los Angeles | 2 | All Maps | STV","players":null},{"server_id":324,"name":"Uncletopia | Los Angeles | 3 | All Maps","name_short":"lax-3","host":"lax-1.us.uncletopia.com","port":27035,"enabled":true,"region":"us-west","cc":"us","latitude":33.94279,"longitude":-118.41004,"reserved":0,"last_update":"0001-01-01T00:00:00Z","name_a2s":"Uncletopia | Los Angeles | 3 | All Maps","protocol":17,"map":"pl_snowycoast","folder":"tf","game":"Team Fortress","app_id":440,"player_count":0,"max_players":24,"Bots":0,"server_type":"Dedicated","server_os":"Linux","password":true,"vac":true,"version":"7757534","steam_id":85568392924510198,"keywords":["nocrits","nodmgspread","payload","uncletopia"],"game_id":440,"stv_port":27036,"stv_name":"Uncletopia | Los Angeles | 3 | All Maps | STV","players":null},{"server_id":25,"name":"Uncletopia | Los Angeles | 4 | Stopwatch Beta","name_short":"lax-4","host":"lax-1.us.uncletopia.com","port":27045,"enabled":true,"region":"us-west","cc":"us","latitude":33.94279,"longitude":-118.41004,"reserved":0,"last_update":"0001-01-01T00:00:00Z","name_a2s":"Uncletopia | Los Angeles | 4 | Stopwatch Beta","protocol":17,"map":"pl_swiftwater_final1","folder":"tf","game":"Team Fortress","app_id":440,"player_count":0,"max_players":24,"Bots":0,"server_type":"Dedicated","server_os":"Linux","password":true,"vac":true,"version":"7757534","steam_id":85568392924510199,"keywords":["nocrits","nodmgspread","payload","uncletopia"],"game_id":440,"stv_port":27046,"stv_name":"Uncletopia | Los Angeles | 4 | Stopwatch Beta | STV","players":null},{"server_id":11,"name":"Uncletopia | London | 1 | All Maps","name_short":"lon-1","host":"lon-1.uk.uncletopia.com","port":27015,"enabled":true,"region":"eu","cc":"gb","latitude":51.509865,"longitude":-0.118092,"reserved":0,"last_update":"0001-01-01T00:00:00Z","name_a2s":"Uncletopia | London | 1 | All Maps","protocol":17,"map":"cp_snakewater_final1","folder":"tf","game":"Team Fortress","app_id":440,"player_count":24,"max_players":24,"Bots":0,"server_type":"Dedicated","server_os":"Linux","password":true,"vac":true,"version":"7757534","steam_id":85568392924367362,"keywords":["cp","nocrits","nodmgspread","uncletopia"],"game_id":440,"stv_port":27016,"stv_name":"Uncletopia | London | 1 | All Maps | STV","players":[{"user_id":85,"name":"regimiro","steam_id":76561198120457008,"connected_time":4752000000000,"state":"active","ping":54},{"user_id":126,"name":"killbind irl","steam_id":76561198180637374,"connected_time":876000000000,"state":"active","ping":85},{"user_id":105,"name":"ugly","steam_id":76561199050412617,"connected_time":3489000000000,"state":"active","ping":109},{"user_id":131,"name":"Утилизатор","steam_id":76561198001490104,"connected_time":514000000000,"state":"active","ping":82},{"user_id":128,"name":"Marchioly","steam_id":76561198335079215,"connected_time":769000000000,"state":"active","ping":113},{"user_id":106,"name":"Rex Z'Beq","steam_id":76561199300590000,"connected_time":3124000000000,"state":"active","ping":77},{"user_id":90,"name":"fried","steam_id":76561198307522022,"connected_time":4339000000000,"state":"active","ping":52},{"user_id":121,"name":"ultra lox","steam_id":76561199427318825,"connected_time":1310000000000,"state":"active","ping":163},{"user_id":130,"name":"Linked","steam_id":76561198119217687,"connected_time":523000000000,"state":"active","ping":65},{"user_id":92,"name":"Romu3","steam_id":76561198055484251,"connected_time":4257000000000,"state":"active","ping":122},{"user_id":115,"name":"cooler bones","steam_id":76561199480942903,"connected_time":2026000000000,"state":"active","ping":75},{"user_id":81,"name":"pain train tf2","steam_id":76561198111568728,"connected_time":5087000000000,"state":"active","ping":52},{"user_id":44,"name":"Madokanon","steam_id":76561199392794183,"connected_time":7973000000000,"state":"active","ping":105},{"user_id":110,"name":"FlameyWisp","steam_id":76561198304303030,"connected_time":2989000000000,"state":"active","ping":59},{"user_id":132,"name":"Lumpy","steam_id":76561198426486876,"connected_time":377000000000,"state":"active","ping":96},{"user_id":93,"name":"Squash Banana","steam_id":76561198055480280,"connected_time":4187000000000,"state":"active","ping":86},{"user_id":46,"name":"Rin-Nakaret","steam_id":76561197971051188,"connected_time":7647000000000,"state":"active","ping":57},{"user_id":117,"name":"Uncle Terry","steam_id":76561198396415736,"connected_time":1767000000000,"state":"active","ping":52},{"user_id":124,"name":"wicked","steam_id":76561198164376035,"connected_time":1112000000000,"state":"active","ping":79},{"user_id":108,"name":"fmdi","steam_id":76561199433879329,"connected_time":3049000000000,"state":"active","ping":74},{"user_id":123,"name":"Marky","steam_id":76561199474556920,"connected_time":1139000000000,"state":"active","ping":105},{"user_id":133,"name":"Arti","steam_id":76561197983352845,"connected_time":299000000000,"state":"active","ping":38},{"user_id":129,"name":"цепью по спине","steam_id":76561198400043154,"connected_time":538000000000,"state":"active","ping":87},{"user_id":134,"name":"Alley_YAMBO","steam_id":76561198055651850,"connected_time":263000000000,"state":"active","ping":176}]},{"server_id":114,"name":"Uncletopia | London | 2 | All Maps","name_short":"lon-2","host":"lon-1.uk.uncletopia.com","port":27025,"enabled":true,"region":"eu","cc":"gb","latitude":51.509865,"longitude":-0.118092,"reserved":0,"last_update":"0001-01-01T00:00:00Z","name_a2s":"Uncletopia | London | 2 | All Maps","protocol":17,"map":"koth_viaduct","folder":"tf","game":"Team Fortress","app_id":440,"player_count":1,"max_players":24,"Bots":0,"server_type":"Dedicated","server_os":"Linux","password":true,"vac":true,"version":"7757534","steam_id":85568392924470941,"keywords":["cp","nocrits","nodmgspread","uncletopia"],"game_id":440,"stv_port":27026,"stv_name":"Uncletopia | London | 2 | All Maps | STV","players":[{"user_id":6,"name":"Nummi","steam_id":76561198980901935,"connected_time":56000000000,"state":"active","ping":66}]},{"server_id":320,"name":"Uncletopia | London | 3 | All Maps","name_short":"lon-3","host":"lon-1.uk.uncletopia.com","port":27035,"enabled":true,"region":"eu","cc":"gb","latitude":51.509865,"longitude":-0.118092,"reserved":0,"last_update":"0001-01-01T00:00:00Z","name_a2s":"Uncletopia | London | 3 | All Maps","protocol":17,"map":"cp_dustbowl","folder":"tf","game":"Team Fortress","app_id":440,"player_count":0,"max_players":24,"Bots":0,"server_type":"Dedicated","server_os":"Linux","password":true,"vac":true,"version":"7757534","steam_id":85568392924510192,"keywords":["cp","nocrits","nodmgspread","uncletopia"],"game_id":440,"stv_port":27036,"stv_name":"Uncletopia | London | 3 | All Maps | STV","players":null},{"server_id":321,"name":"Uncletopia | London | 4 | All Maps","name_short":"lon-4","host":"lon-1.uk.uncletopia.com","port":27045,"enabled":true,"region":"eu","cc":"gb","latitude":51.509865,"longitude":-0.118092,"reserved":0,"last_update":"0001-01-01T00:00:00Z","name_a2s":"Uncletopia | London | 4 | All Maps","protocol":17,"map":"cp_dustbowl","folder":"tf","game":"Team Fortress","app_id":440,"player_count":0,"max_players":24,"Bots":0,"server_type":"Dedicated","server_os":"Linux","password":true,"vac":true,"version":"7757534","steam_id":85568392924510193,"keywords":["cp","nocrits","nodmgspread","uncletopia"],"game_id":440,"stv_port":27046,"stv_name":"Uncletopia | London | 4 | All Maps | STV","players":null},{"server_id":21,"name":"Uncletopia | London | 5 | All Maps","name_short":"lon-5","host":"lon-1.uk.uncletopia.com","port":27055,"enabled":true,"region":"eu","cc":"gb","latitude":51.509865,"longitude":-0.118092,"reserved":0,"last_update":"0001-01-01T00:00:00Z","name_a2s":"Uncletopia | London | 5 | All Maps","protocol":17,"map":"cp_altitude","folder":"tf","game":"Team Fortress","app_id":440,"player_count":0,"max_players":24,"Bots":0,"server_type":"Dedicated","server_os":"Linux","password":true,"vac":true,"version":"7757534","steam_id":85568392924742829,"keywords":["cp","nocrits","nodmgspread","uncletopia"],"game_id":440,"stv_port":27056,"stv_name":"Uncletopia | London | 5 | All Maps | STV","players":null},{"server_id":22,"name":"Uncletopia | London | 6 | All Maps","name_short":"lon-6","host":"lon-1.uk.uncletopia.com","port":27065,"enabled":true,"region":"eu","cc":"gb","latitude":51.509865,"longitude":-0.118092,"reserved":0,"last_update":"0001-01-01T00:00:00Z","name_a2s":"Uncletopia | London | 6 | All Maps","protocol":17,"map":"cp_mountainlab","folder":"tf","game":"Team Fortress","app_id":440,"player_count":0,"max_players":24,"Bots":0,"server_type":"Dedicated","server_os":"Linux","password":true,"vac":true,"version":"7757534","steam_id":85568392924742830,"keywords":["cp","nocrits","nodmgspread","uncletopia"],"game_id":440,"stv_port":27066,"stv_name":"Uncletopia | London | 6 | All Maps | STV","players":null},{"server_id":40,"name":"Uncletopia | London | 7 | No Payload","name_short":"lon-7","host":"lon-1.uk.uncletopia.com","port":27075,"enabled":true,"region":"eu","cc":"gb","latitude":51.509865,"longitude":-0.118092,"reserved":0,"last_update":"0001-01-01T00:00:00Z","name_a2s":"Uncletopia | London | 7 | No Payload","protocol":17,"map":"pl_badwater","folder":"tf","game":"Team Fortress","app_id":440,"player_count":0,"max_players":24,"Bots":0,"server_type":"Dedicated","server_os":"Linux","password":true,"vac":true,"version":"7757534","steam_id":85568392924964314,"keywords":["nocrits","nodmgspread","payload","uncletopia"],"game_id":440,"stv_port":27076,"stv_name":"Uncletopia | London | 7 | No Payload | STV","players":null},{"server_id":41,"name":"Uncletopia | London | 8 | Community","name_short":"lon-8","host":"lon-1.uk.uncletopia.com","port":27085,"enabled":true,"region":"eu","cc":"gb","latitude":51.509865,"longitude":-0.118092,"reserved":0,"last_update":"0001-01-01T00:00:00Z","name_a2s":"Uncletopia | London | 8 | Community","protocol":17,"map":"pl_barnblitz","folder":"tf","game":"Team Fortress","app_id":440,"player_count":0,"max_players":24,"Bots":0,"server_type":"Dedicated","server_os":"Linux","password":true,"vac":true,"version":"7757534","steam_id":85568392924964315,"keywords":["nocrits","nodmgspread","payload","uncletopia"],"game_id":440,"stv_port":27086,"stv_name":"Uncletopia | London | 8 | Community | STV","players":null},{"server_id":300,"name":"Uncletopia | Montréal | 1 | All Maps","name_short":"mtl-1","host":"mtl-1.ca.uncletopia.com","port":27015,"enabled":true,"region":"us-east","cc":"ca","latitude":45.50889,"longitude":-73.56167,"reserved":0,"last_update":"0001-01-01T00:00:00Z","name_a2s":"Uncletopia | Montréal | 1 | All Maps","protocol":17,"map":"cp_mountainlab","folder":"tf","game":"Team Fortress","app_id":440,"player_count":0,"max_players":24,"Bots":0,"server_type":"Dedicated","server_os":"Linux","password":true,"vac":true,"version":"7757534","steam_id":85568392924500087,"keywords":["cp","nocrits","nodmgspread","uncletopia"],"game_id":440,"stv_port":27016,"stv_name":"Uncletopia | Montréal | 1 | All Maps | STV","players":null},{"server_id":301,"name":"Uncletopia | Montréal | 2 | All Maps","name_short":"mtl-2","host":"mtl-1.ca.uncletopia.com","port":27025,"enabled":true,"region":"us-east","cc":"ca","latitude":45.50889,"longitude":-73.56167,"reserved":0,"last_update":"0001-01-01T00:00:00Z","name_a2s":"Uncletopia | Montréal | 2 | All Maps","protocol":17,"map":"cp_process_final","folder":"tf","game":"Team Fortress","app_id":440,"player_count":0,"max_players":24,"Bots":0,"server_type":"Dedicated","server_os":"Linux","password":true,"vac":true,"version":"7757534","steam_id":85568392924500088,"keywords":["cp","nocrits","nodmgspread","uncletopia"],"game_id":440,"stv_port":27026,"stv_name":"Uncletopia | Montréal | 2 | All Maps | STV","players":null},{"server_id":302,"name":"Uncletopia | Montréal | 3 | All Maps","name_short":"mtl-3","host":"mtl-1.ca.uncletopia.com","port":27035,"enabled":true,"region":"us-east","cc":"ca","latitude":45.50889,"longitude":-73.56167,"reserved":0,"last_update":"0001-01-01T00:00:00Z","name_a2s":"Uncletopia | Montréal | 3 | All Maps","protocol":17,"map":"koth_viaduct","folder":"tf","game":"Team Fortress","app_id":440,"player_count":0,"max_players":24,"Bots":0,"server_type":"Dedicated","server_os":"Linux","password":true,"vac":true,"version":"7757534","steam_id":85568392924500089,"keywords":["cp","nocrits","nodmgspread","uncletopia"],"game_id":440,"stv_port":27036,"stv_name":"Uncletopia | Montréal | 3 | All Maps | STV","players":null},{"server_id":303,"name":"Uncletopia | Montréal | 4 | No Payload","name_short":"mtl-4","host":"mtl-1.ca.uncletopia.com","port":27045,"enabled":true,"region":"us-east","cc":"ca","latitude":45.50889,"longitude":-73.56167,"reserved":0,"last_update":"0001-01-01T00:00:00Z","name_a2s":"Uncletopia | Montréal | 4 | No Payload","protocol":17,"map":"plr_pipeline","folder":"tf","game":"Team Fortress","app_id":440,"player_count":0,"max_players":24,"Bots":0,"server_type":"Dedicated","server_os":"Linux","password":true,"vac":true,"version":"7757534","steam_id":85568392924500090,"keywords":["nocrits","nodmgspread","payload","uncletopia"],"game_id":440,"stv_port":27046,"stv_name":"Uncletopia | Montréal | 4 | No Payload | STV","players":null},{"server_id":13,"name":"Uncletopia | New York City | 1 | All Maps","name_short":"nyc-1","host":"nyc-1.us.uncletopia.com","port":27015,"enabled":true,"region":"us-east","cc":"us","latitude":40.73061,"longitude":-73.93524,"reserved":0,"last_update":"0001-01-01T00:00:00Z","name_a2s":"Uncletopia | New York City | 1 | All Maps","protocol":17,"map":"pl_upward","folder":"tf","game":"Team Fortress","app_id":440,"player_count":0,"max_players":24,"Bots":0,"server_type":"Dedicated","server_os":"Linux","password":true,"vac":true,"version":"7757534","steam_id":85568392924469993,"keywords":["nocrits","nodmgspread","payload","uncletopia"],"game_id":440,"stv_port":27016,"stv_name":"Uncletopia | New York City | 1 | All Maps | STV","players":null},{"server_id":14,"name":"Uncletopia | New York City | 2 | All Maps","name_short":"nyc-2","host":"nyc-1.us.uncletopia.com","port":27025,"enabled":true,"region":"us-east","cc":"us","latitude":40.73061,"longitude":-73.93524,"reserved":0,"last_update":"0001-01-01T00:00:00Z","name_a2s":"Uncletopia | New York City | 2 | All Maps","protocol":17,"map":"pl_snowycoast","folder":"tf","game":"Team Fortress","app_id":440,"player_count":24,"max_players":24,"Bots":0,"server_type":"Dedicated","server_os":"Linux","password":true,"vac":true,"version":"7757534","steam_id":85568392924469994,"keywords":["nocrits","nodmgspread","payload","uncletopia"],"game_id":440,"stv_port":27026,"stv_name":"Uncletopia | New York City | 2 | All Maps | STV","players":[{"user_id":552,"name":"Newt","steam_id":76561199119569440,"connected_time":2210000000000,"state":"active","ping":87},{"user_id":576,"name":"Lamedonyx","steam_id":76561198064232177,"connected_time":732000000000,"state":"active","ping":121},{"user_id":569,"name":"HeavenHearst","steam_id":76561198066083947,"connected_time":1027000000000,"state":"active","ping":44},{"user_id":566,"name":"vadim_kotler","steam_id":76561199016634369,"connected_time":1199000000000,"state":"active","ping":170},{"user_id":577,"name":"2003 chevy malibu","steam_id":76561199075669125,"connected_time":731000000000,"state":"active","ping":52},{"user_id":582,"name":"umbreon sexer (tf2bd)","steam_id":76561198334999801,"connected_time":265000000000,"state":"active","ping":71},{"user_id":550,"name":"violet.gb","steam_id":76561198248461754,"connected_time":2324000000000,"state":"active","ping":116},{"user_id":553,"name":"Living Trigger","steam_id":76561198858078512,"connected_time":2157000000000,"state":"active","ping":89},{"user_id":579,"name":"soltuno","steam_id":76561198074430565,"connected_time":573000000000,"state":"active","ping":127},{"user_id":571,"name":"box","steam_id":76561198049531483,"connected_time":989000000000,"state":"active","ping":71},{"user_id":572,"name":"ike7107","steam_id":76561198093872805,"connected_time":980000000000,"state":"active","ping":45},{"user_id":573,"name":"Pseudo","steam_id":76561198026679489,"connected_time":951000000000,"state":"active","ping":80},{"user_id":559,"name":"babe its 3am time for tf2","steam_id":76561198008332777,"connected_time":1798000000000,"state":"active","ping":58},{"user_id":581,"name":"ATL1 cheers2x","steam_id":76561198366299848,"connected_time":271000000000,"state":"active","ping":62},{"user_id":574,"name":"Rock and Stone","steam_id":76561198057374871,"connected_time":918000000000,"state":"active","ping":70},{"user_id":533,"name":"Sera","steam_id":76561197994547338,"connected_time":3821000000000,"state":"active","ping":53},{"user_id":534,"name":"-astra.gb","steam_id":76561198100477765,"connected_time":3797000000000,"state":"active","ping":62},{"user_id":548,"name":"Opossum","steam_id":76561199187337967,"connected_time":2714000000000,"state":"active","ping":70},{"user_id":518,"name":"oomper","steam_id":76561199189982701,"connected_time":5132000000000,"state":"active","ping":83},{"user_id":575,"name":"[TGP] T-Virus","steam_id":76561198001963208,"connected_time":912000000000,"state":"active","ping":106},{"user_id":562,"name":"Ace Attorney","steam_id":76561198133011705,"connected_time":1516000000000,"state":"active","ping":44},{"user_id":563,"name":"MAXIMUS","steam_id":76561198085809453,"connected_time":1483000000000,"state":"active","ping":92},{"user_id":564,"name":"VixianUwU","steam_id":76561198948815060,"connected_time":1453000000000,"state":"active","ping":92},{"user_id":565,"name":"Raizen","steam_id":76561199092445367,"connected_time":1408000000000,"state":"active","ping":60}]},{"server_id":15,"name":"Uncletopia | New York City | 3 | Stopwatch Beta","name_short":"nyc-3","host":"nyc-1.us.uncletopia.com","port":27035,"enabled":true,"region":"us-east","cc":"us","latitude":40.73061,"longitude":-73.93524,"reserved":0,"last_update":"0001-01-01T00:00:00Z","name_a2s":"Uncletopia | New York City | 3 | Stopwatch Beta","protocol":17,"map":"cp_granary","folder":"tf","game":"Team Fortress","app_id":440,"player_count":0,"max_players":24,"Bots":0,"server_type":"Dedicated","server_os":"Linux","password":true,"vac":true,"version":"7757534","steam_id":85568392924742820,"keywords":["cp","nocrits","nodmgspread","uncletopia"],"game_id":440,"stv_port":27036,"stv_name":"Uncletopia | New York City | 3 | Stopwatch Beta | STV","players":null},{"server_id":16,"name":"Uncletopia | New York City | 4 | Community","name_short":"nyc-4","host":"nyc-1.us.uncletopia.com","port":27045,"enabled":true,"region":"us-east","cc":"us","latitude":40.73061,"longitude":-73.93524,"reserved":0,"last_update":"0001-01-01T00:00:00Z","name_a2s":"Uncletopia | New York City | 4 | Community","protocol":17,"map":"workshop/koth_product_final.ugc454272353","folder":"tf","game":"Team Fortress","app_id":440,"player_count":0,"max_players":24,"Bots":0,"server_type":"Dedicated","server_os":"Linux","password":true,"vac":true,"version":"7757534","steam_id":85568392924742821,"keywords":["cp","nocrits","nodmgspread","uncletopia"],"game_id":440,"stv_port":27046,"stv_name":"Uncletopia | New York City | 4 | Community | STV","players":null},{"server_id":142,"name":"Uncletopia | São Paulo | 1 | All Maps","name_short":"sao-1","host":"sao-1.br.uncletopia.com","port":27015,"enabled":true,"region":"sa","cc":"br","latitude":-23.533773,"longitude":-46.62529,"reserved":0,"last_update":"0001-01-01T00:00:00Z","name_a2s":"Uncletopia | São Paulo | 1 | All Maps","protocol":17,"map":"koth_cascade","folder":"tf","game":"Team Fortress","app_id":440,"player_count":0,"max_players":24,"Bots":0,"server_type":"Dedicated","server_os":"Linux","password":true,"vac":true,"version":"7757534","steam_id":85568392924469996,"keywords":["cp","nocrits","nodmgspread","uncletopia"],"game_id":440,"stv_port":27016,"stv_name":"Uncletopia | São Paulo | 1 | All Maps | STV","players":null},{"server_id":143,"name":"Uncletopia | São Paulo | 2 | All Maps","name_short":"sao-2","host":"sao-2.br.uncletopia.com","port":27015,"enabled":true,"region":"sa","cc":"br","latitude":-23.533773,"longitude":-46.62529,"reserved":0,"last_update":"0001-01-01T00:00:00Z","name_a2s":"Uncletopia | São Paulo | 2 | All Maps","protocol":17,"map":"koth_lakeside_final","folder":"tf","game":"Team Fortress","app_id":440,"player_count":0,"max_players":24,"Bots":0,"server_type":"Dedicated","server_os":"Linux","password":true,"vac":true,"version":"7757534","steam_id":85568392924485349,"keywords":["cp","nocrits","nodmgspread","uncletopia"],"game_id":440,"stv_port":27016,"stv_name":"Uncletopia | São Paulo | 2 | All Maps | STV","players":null},{"server_id":7,"name":"Uncletopia | Seattle | 1 | All Maps","name_short":"sea-1","host":"sea-1.us.uncletopia.com","port":27015,"enabled":true,"region":"us-west","cc":"us","latitude":47.608013,"longitude":-122.33517,"reserved":0,"last_update":"0001-01-01T00:00:00Z","name_a2s":"Uncletopia | Seattle | 1 | All Maps","protocol":17,"map":"pl_borneo","folder":"tf","game":"Team Fortress","app_id":440,"player_count":23,"max_players":24,"Bots":0,"server_type":"Dedicated","server_os":"Linux","password":true,"vac":true,"version":"7757534","steam_id":85568392924469997,"keywords":["nocrits","nodmgspread","payload","uncletopia"],"game_id":440,"stv_port":27016,"stv_name":"Uncletopia | Seattle | 1 | All Maps | STV","players":[{"user_id":602,"name":"NEЯO","steam_id":76561197965450216,"connected_time":4101000000000,"state":"active","ping":61},{"user_id":644,"name":"toilet mafia","steam_id":76561198844273999,"connected_time":86000000000,"state":"active","ping":41},{"user_id":635,"name":"the meat man","steam_id":76561198037921140,"connected_time":976000000000,"state":"active","ping":70},{"user_id":599,"name":"teeth","steam_id":76561198103189993,"connected_time":4138000000000,"state":"active","ping":76},{"user_id":626,"name":"imtoofadedicantevendapuup","steam_id":76561198180372310,"connected_time":1677000000000,"state":"active","ping":60},{"user_id":575,"name":"toes","steam_id":76561198221151676,"connected_time":6615000000000,"state":"active","ping":52},{"user_id":645,"name":"Ena","steam_id":76561198066986108,"connected_time":67000000000,"state":"active","ping":46},{"user_id":641,"name":"colespudzo","steam_id":76561198051127147,"connected_time":606000000000,"state":"active","ping":60},{"user_id":594,"name":"Flesh Eating Turtle","steam_id":76561198116742139,"connected_time":4452000000000,"state":"active","ping":51},{"user_id":643,"name":"GuyGoom","steam_id":76561198254522178,"connected_time":157000000000,"state":"active","ping":118},{"user_id":588,"name":"XxTr4NSPH0BED3ST0YERxX","steam_id":76561198035695976,"connected_time":5341000000000,"state":"active","ping":48},{"user_id":576,"name":"Choccy Milk","steam_id":76561198085333480,"connected_time":6279000000000,"state":"active","ping":65},{"user_id":624,"name":"Wandering Waldo","steam_id":76561199089984323,"connected_time":1873000000000,"state":"active","ping":102},{"user_id":639,"name":"Bishuhp","steam_id":76561198015062850,"connected_time":819000000000,"state":"active","ping":67},{"user_id":642,"name":"goblino","steam_id":76561198068260422,"connected_time":289000000000,"state":"active","ping":89},{"user_id":630,"name":"Smeagolhoss","steam_id":76561198361514063,"connected_time":1477000000000,"state":"active","ping":96},{"user_id":646,"name":"twin","steam_id":76561198055626638,"connected_time":47000000000,"state":"active","ping":135},{"user_id":637,"name":"Toughkneigh","steam_id":76561198140455928,"connected_time":949000000000,"state":"active","ping":133},{"user_id":616,"name":"PBxJAY","steam_id":76561198402471788,"connected_time":2631000000000,"state":"active","ping":97},{"user_id":622,"name":"koolkobra76","steam_id":76561198174724163,"connected_time":2014000000000,"state":"active","ping":74},{"user_id":638,"name":"TheHelmetMan","steam_id":76561198350167307,"connected_time":935000000000,"state":"active","ping":127},{"user_id":618,"name":"Alpdhuez [✚]","steam_id":76561198013808837,"connected_time":2309000000000,"state":"active","ping":60},{"user_id":640,"name":"🎄AndreaJingling🎄","steam_id":76561198198658783,"connected_time":804000000000,"state":"active","ping":73}]},{"server_id":119,"name":"Uncletopia | Seattle | 2 | All Maps","name_short":"sea-2","host":"sea-1.us.uncletopia.com","port":27025,"enabled":true,"region":"us-west","cc":"us","latitude":47.608013,"longitude":-122.33517,"reserved":0,"last_update":"0001-01-01T00:00:00Z","name_a2s":"Uncletopia | Seattle | 2 | All Maps","protocol":17,"map":"pl_pier","folder":"tf","game":"Team Fortress","app_id":440,"player_count":23,"max_players":24,"Bots":0,"server_type":"Dedicated","server_os":"Linux","password":true,"vac":true,"version":"7757534","steam_id":85568392924469998,"keywords":["nocrits","nodmgspread","payload","uncletopia"],"game_id":440,"stv_port":27026,"stv_name":"Uncletopia | Seattle | 2 | All Maps | STV","players":[{"user_id":396,"name":"C U Next Tuesday","steam_id":76561198058493492,"connected_time":9047000000000,"state":"active","ping":80},{"user_id":561,"name":"Kamin","steam_id":76561198255299559,"connected_time":816000000000,"state":"active","ping":145},{"user_id":537,"name":"thunderous prophet","steam_id":76561198131166135,"connected_time":2923000000000,"state":"active","ping":38},{"user_id":549,"name":"ed","steam_id":76561198080475712,"connected_time":1905000000000,"state":"active","ping":73},{"user_id":547,"name":"smeasly","steam_id":76561198028718812,"connected_time":2133000000000,"state":"active","ping":42},{"user_id":555,"name":"blackjack money 4502","steam_id":76561198136535844,"connected_time":998000000000,"state":"active","ping":78},{"user_id":556,"name":"Clagger","steam_id":76561198066701092,"connected_time":984000000000,"state":"active","ping":41},{"user_id":557,"name":"♥ Milo Stefferson ♥ (Soupca","steam_id":76561198056269538,"connected_time":931000000000,"state":"active","ping":97},{"user_id":558,"name":"Kaiga","steam_id":76561198044052046,"connected_time":921000000000,"state":"active","ping":123},{"user_id":559,"name":"Knooper","steam_id":76561198096149824,"connected_time":916000000000,"state":"active","ping":138},{"user_id":564,"name":"ʀ.ʚɞ.","steam_id":76561198029580420,"connected_time":776000000000,"state":"active","ping":168},{"user_id":571,"name":"D0VE","steam_id":76561198151618566,"connected_time":252000000000,"state":"active","ping":52},{"user_id":538,"name":"delight","steam_id":76561197980280272,"connected_time":2908000000000,"state":"active","ping":63},{"user_id":552,"name":"Grim","steam_id":76561198158911860,"connected_time":1351000000000,"state":"active","ping":98},{"user_id":567,"name":"iivy","steam_id":76561198068464819,"connected_time":662000000000,"state":"active","ping":55},{"user_id":568,"name":"hidden tiger, crouching pootis","steam_id":76561198986534519,"connected_time":507000000000,"state":"active","ping":44},{"user_id":542,"name":"a pair of jeans","steam_id":76561198043558709,"connected_time":2808000000000,"state":"active","ping":83},{"user_id":535,"name":"rorywashere /ᐠ - ˕ -マ Ⳋ","steam_id":76561198065825165,"connected_time":3147000000000,"state":"active","ping":98},{"user_id":524,"name":"Misty Blu ✿","steam_id":76561198011442255,"connected_time":3347000000000,"state":"active","ping":74},{"user_id":550,"name":"oil","steam_id":76561198099980149,"connected_time":1711000000000,"state":"active","ping":80},{"user_id":566,"name":"Eric4bz","steam_id":76561198054439606,"connected_time":770000000000,"state":"active","ping":68},{"user_id":570,"name":"Jerry Bondle","steam_id":76561198337512213,"connected_time":401000000000,"state":"active","ping":122},{"user_id":543,"name":"jjorpts","steam_id":76561199041179985,"connected_time":2763000000000,"state":"active","ping":96}]},{"server_id":406,"name":"Uncletopia | Seattle | 3 | Stopwatch Beta","name_short":"sea-3","host":"sea-1.us.uncletopia.com","port":27035,"enabled":true,"region":"us-west","cc":"us","latitude":47.608013,"longitude":-122.33517,"reserved":0,"last_update":"0001-01-01T00:00:00Z","name_a2s":"Uncletopia | Seattle | 3 | Stopwatch Beta","protocol":17,"map":"workshop/pl_vigil_rc9.ugc1266210012","folder":"tf","game":"Team Fortress","app_id":440,"player_count":0,"max_players":24,"Bots":0,"server_type":"Dedicated","server_os":"Linux","password":true,"vac":true,"version":"7757534","steam_id":85568392924515217,"keywords":["nocrits","nodmgspread","payload","uncletopia"],"game_id":440,"stv_port":27036,"stv_name":"Uncletopia | Seattle | 3 | Stopwatch Beta | STV","players":null},{"server_id":17,"name":"Uncletopia | San Francisco | 1 | All Maps","name_short":"sfo-1","host":"sfo-1.us.uncletopia.com","port":27015,"enabled":true,"region":"us-west","cc":"us","latitude":37.77397,"longitude":-122.4313,"reserved":0,"last_update":"0001-01-01T00:00:00Z","name_a2s":"Uncletopia | San Francisco | 1 | All Maps","protocol":17,"map":"pl_frontier_final","folder":"tf","game":"Team Fortress","app_id":440,"player_count":24,"max_players":24,"Bots":0,"server_type":"Dedicated","server_os":"Linux","password":true,"vac":true,"version":"7757534","steam_id":85568392924469999,"keywords":["nocrits","nodmgspread","payload","uncletopia"],"game_id":440,"stv_port":27016,"stv_name":"Uncletopia | San Francisco | 1 | All Maps | STV","players":[{"user_id":945,"name":"Giorno Giovanna","steam_id":76561198044106874,"connected_time":4509000000000,"state":"active","ping":62},{"user_id":990,"name":"chocky","steam_id":76561198057491296,"connected_time":1519000000000,"state":"active","ping":60},{"user_id":977,"name":"MORE BOUNCE TO THE OUNCE","steam_id":76561198243399336,"connected_time":1926000000000,"state":"active","ping":68},{"user_id":986,"name":"Sock Puppet","steam_id":76561197983066945,"connected_time":1721000000000,"state":"active","ping":57},{"user_id":989,"name":"SpongeBucket","steam_id":76561198393553085,"connected_time":1568000000000,"state":"active","ping":61},{"user_id":954,"name":"Mak","steam_id":76561198089197922,"connected_time":3901000000000,"state":"active","ping":75},{"user_id":999,"name":"Chris","steam_id":76561198180625579,"connected_time":703000000000,"state":"active","ping":76},{"user_id":953,"name":"Sweese","steam_id":76561198863456987,"connected_time":3910000000000,"state":"active","ping":70},{"user_id":979,"name":"Seriously Bruh","steam_id":76561198070408485,"connected_time":1838000000000,"state":"active","ping":68},{"user_id":982,"name":"123","steam_id":76561198106308056,"connected_time":1754000000000,"state":"active","ping":61},{"user_id":956,"name":"Dragonsalt","steam_id":76561198141927559,"connected_time":3839000000000,"state":"active","ping":73},{"user_id":919,"name":"Wavelengths (they/it)","steam_id":76561197997621320,"connected_time":6976000000000,"state":"active","ping":83},{"user_id":848,"name":"Amogous Supreme","steam_id":76561198025476774,"connected_time":12517000000000,"state":"active","ping":60},{"user_id":1000,"name":"Wacks","steam_id":76561198079476100,"connected_time":699000000000,"state":"active","ping":55},{"user_id":964,"name":"The Foolish Samurai","steam_id":76561198094494945,"connected_time":3451000000000,"state":"active","ping":74},{"user_id":983,"name":"TacoKaiju","steam_id":76561198374190188,"connected_time":1753000000000,"state":"active","ping":114},{"user_id":998,"name":"nyoah","steam_id":76561198834915248,"connected_time":779000000000,"state":"active","ping":61},{"user_id":996,"name":"k'ouft","steam_id":76561198080207021,"connected_time":1233000000000,"state":"active","ping":52},{"user_id":985,"name":"R0hban","steam_id":76561198071163718,"connected_time":1730000000000,"state":"active","ping":62},{"user_id":1001,"name":"AAAAAAAAAAAAAAAAAAAAAAAAAAAAAAA","steam_id":76561198125467937,"connected_time":654000000000,"state":"active","ping":73},{"user_id":994,"name":"Anomalocaris Gay Ming","steam_id":76561198257921898,"connected_time":1440000000000,"state":"active","ping":82},{"user_id":879,"name":"Dob Bole","steam_id":76561198056367220,"connected_time":9954000000000,"state":"active","ping":45},{"user_id":995,"name":"Jokezonyu","steam_id":76561198213167893,"connected_time":1400000000000,"state":"active","ping":81},{"user_id":1002,"name":"Rat_king","steam_id":76561199465689129,"connected_time":600000000000,"state":"active","ping":88}]},{"server_id":18,"name":"Uncletopia | San Francisco | 2 | All Maps","name_short":"sfo-2","host":"sfo-1.us.uncletopia.com","port":27025,"enabled":true,"region":"us-west","cc":"us","latitude":37.77397,"longitude":-122.4313,"reserved":0,"last_update":"0001-01-01T00:00:00Z","name_a2s":"Uncletopia | San Francisco | 2 | All Maps","protocol":17,"map":"cp_mountainlab","folder":"tf","game":"Team Fortress","app_id":440,"player_count":1,"max_players":24,"Bots":0,"server_type":"Dedicated","server_os":"Linux","password":true,"vac":true,"version":"7757534","steam_id":85568392924470000,"keywords":["cp","nocrits","nodmgspread","uncletopia"],"game_id":440,"stv_port":27026,"stv_name":"Uncletopia | San Francisco | 2 | All Maps | STV","players":[{"user_id":325,"name":"[Zero] Lag","steam_id":76561198983494186,"connected_time":72000000000,"state":"active","ping":116}]},{"server_id":19,"name":"Uncletopia | San Francisco | 3 | Stopwatch Beta","name_short":"sfo-3","host":"sfo-1.us.uncletopia.com","port":27035,"enabled":true,"region":"us-west","cc":"us","latitude":37.77397,"longitude":-122.4313,"reserved":0,"last_update":"0001-01-01T00:00:00Z","name_a2s":"Uncletopia | San Francisco | 3 | Stopwatch Beta","protocol":17,"map":"workshop/koth_clearcut_b15.ugc2107050255","folder":"tf","game":"Team Fortress","app_id":440,"player_count":0,"max_players":24,"Bots":0,"server_type":"Dedicated","server_os":"Linux","password":true,"vac":true,"version":"7757534","steam_id":85568392924742824,"keywords":["cp","nocrits","nodmgspread","uncletopia"],"game_id":440,"stv_port":27036,"stv_name":"Uncletopia | San Francisco | 3 | Stopwatch Beta | STV","players":null},{"server_id":20,"name":"Uncletopia | San Francisco | 4 | Community","name_short":"sfo-4","host":"sfo-1.us.uncletopia.com","port":27045,"enabled":true,"region":"us-west","cc":"us","latitude":37.77397,"longitude":-122.4313,"reserved":0,"last_update":"0001-01-01T00:00:00Z","name_a2s":"Uncletopia | San Francisco | 4 | Community","protocol":17,"map":"workshop/pl_cactuscanyon_redux_final2.ugc2579644293","folder":"tf","game":"Team Fortress","app_id":440,"player_count":0,"max_players":24,"Bots":0,"server_type":"Dedicated","server_os":"Linux","password":true,"vac":true,"version":"7757534","steam_id":85568392924742826,"keywords":["nocrits","nodmgspread","payload","uncletopia"],"game_id":440,"stv_port":27046,"stv_name":"Uncletopia | San Francisco | 4 | Community | STV","players":null},{"server_id":141,"name":"Uncletopia | Sydney | 1 | All Maps","name_short":"syd-1","host":"syd-1.au.uncletopia.com","port":27015,"enabled":true,"region":"au","cc":"au","latitude":-33.865143,"longitude":151.2099,"reserved":0,"last_update":"0001-01-01T00:00:00Z","name_a2s":"Uncletopia | Sydney | 1 | All Maps","protocol":17,"map":"koth_highpass","folder":"tf","game":"Team Fortress","app_id":440,"player_count":15,"max_players":24,"Bots":0,"server_type":"Dedicated","server_os":"Linux","password":true,"vac":true,"version":"7757534","steam_id":85568392924470001,"keywords":["cp","nocrits","nodmgspread","uncletopia"],"game_id":440,"stv_port":27016,"stv_name":"Uncletopia | Sydney | 1 | All Maps | STV","players":[{"user_id":25,"name":"xiuh","steam_id":76561198117053421,"connected_time":1845000000000,"state":"active","ping":49},{"user_id":26,"name":"♥Katia♥","steam_id":76561198977212642,"connected_time":1840000000000,"state":"active","ping":346},{"user_id":27,"name":"exyorte","steam_id":76561198109927649,"connected_time":1833000000000,"state":"active","ping":47},{"user_id":28,"name":"Bing Soy","steam_id":76561198057093383,"connected_time":1821000000000,"state":"active","ping":54},{"user_id":29,"name":"Fledges","steam_id":76561198017381539,"connected_time":1732000000000,"state":"active","ping":60},{"user_id":30,"name":"Atago","steam_id":76561199379533644,"connected_time":1331000000000,"state":"active","ping":142},{"user_id":53,"name":"dreamydoggy","steam_id":76561198448243169,"connected_time":93000000000,"state":"active","ping":57},{"user_id":35,"name":"MININinja1308","steam_id":76561199040303660,"connected_time":930000000000,"state":"active","ping":54},{"user_id":36,"name":"york","steam_id":76561197996817216,"connected_time":843000000000,"state":"active","ping":48},{"user_id":47,"name":"shotgunner20","steam_id":76561198803662316,"connected_time":405000000000,"state":"spawning","ping":313},{"user_id":38,"name":"Lacking All Wit","steam_id":76561198074861141,"connected_time":667000000000,"state":"active","ping":92},{"user_id":45,"name":"[FTW] RonnieD'","steam_id":76561197993957267,"connected_time":560000000000,"state":"active","ping":51},{"user_id":49,"name":"Ryu Akiyama","steam_id":76561198382291076,"connected_time":361000000000,"state":"active","ping":146},{"user_id":41,"name":"Jubs","steam_id":76561198095660304,"connected_time":615000000000,"state":"active","ping":55},{"user_id":50,"name":"SAD MOSCOVIA","steam_id":76561198101081520,"connected_time":264000000000,"state":"active","ping":284}]},{"server_id":123,"name":"Uncletopia | Sydney | 2 | All Maps","name_short":"syd-2","host":"syd-1.au.uncletopia.com","port":27025,"enabled":true,"region":"au","cc":"au","latitude":-33.865143,"longitude":151.2099,"reserved":0,"last_update":"0001-01-01T00:00:00Z","name_a2s":"Uncletopia | Sydney | 2 | All Maps","protocol":17,"map":"cp_sunshine","folder":"tf","game":"Team Fortress","app_id":440,"player_count":23,"max_players":24,"Bots":0,"server_type":"Dedicated","server_os":"Linux","password":true,"vac":true,"version":"7757534","steam_id":85568392924470002,"keywords":["cp","nocrits","nodmgspread","uncletopia"],"game_id":440,"stv_port":27026,"stv_name":"Uncletopia | Sydney | 2 | All Maps | STV","players":[{"user_id":283,"name":"Muffin","steam_id":76561198075391119,"connected_time":394000000000,"state":"active","ping":59},{"user_id":209,"name":"Bonker","steam_id":76561198845159846,"connected_time":4171000000000,"state":"active","ping":58},{"user_id":233,"name":"SUSHIMAN","steam_id":76561199089989428,"connected_time":2382000000000,"state":"active","ping":90},{"user_id":201,"name":"weezer","steam_id":76561199439508788,"connected_time":4935000000000,"state":"active","ping":65},{"user_id":287,"name":"Crimson Aurora","steam_id":76561198157492747,"connected_time":102000000000,"state":"active","ping":105},{"user_id":275,"name":"Scrumpeh","steam_id":76561198058085957,"connected_time":724000000000,"state":"active","ping":70},{"user_id":229,"name":"cas ganister","steam_id":76561198879023728,"connected_time":2973000000000,"state":"active","ping":53},{"user_id":290,"name":"FreeBeers","steam_id":76561198095448607,"connected_time":36000000000,"state":"active","ping":65},{"user_id":285,"name":"awesome","steam_id":76561198073922951,"connected_time":120000000000,"state":"active","ping":35},{"user_id":225,"name":"little raw meat boy","steam_id":76561199248254676,"connected_time":3160000000000,"state":"active","ping":60},{"user_id":282,"name":"saudi ambassador messi","steam_id":76561198031293430,"connected_time":456000000000,"state":"active","ping":88},{"user_id":167,"name":"now","steam_id":76561198310131715,"connected_time":7571000000000,"state":"active","ping":66},{"user_id":269,"name":"korn","steam_id":76561198022563294,"connected_time":1071000000000,"state":"active","ping":107},{"user_id":231,"name":"Local Trash Expert","steam_id":76561198145598622,"connected_time":2834000000000,"state":"active","ping":76},{"user_id":288,"name":"[ѵƇity] it has been ages","steam_id":76561198016686295,"connected_time":98000000000,"state":"active","ping":73},{"user_id":289,"name":"hive","steam_id":76561199099744527,"connected_time":97000000000,"state":"active","ping":48},{"user_id":291,"name":"Pompadouraus","steam_id":76561198327530525,"connected_time":13000000000,"state":"active","ping":80},{"user_id":277,"name":"Koume","steam_id":76561198797778391,"connected_time":705000000000,"state":"active","ping":59},{"user_id":222,"name":"Lincoln2603","steam_id":76561198170236666,"connected_time":3390000000000,"state":"active","ping":37},{"user_id":280,"name":"twitch.tv/DrTreggles","steam_id":76561198042806226,"connected_time":575000000000,"state":"active","ping":82},{"user_id":265,"name":"Bigrichard","steam_id":76561198032092945,"connected_time":1451000000000,"state":"active","ping":84},{"user_id":273,"name":"RAINY BIG BRAINY","steam_id":76561198009848533,"connected_time":860000000000,"state":"active","ping":51},{"user_id":284,"name":"DeathEagle シ","steam_id":76561197997644542,"connected_time":390000000000,"state":"active","ping":60}]},{"server_id":395,"name":"Uncletopia | Sydney | 3 | All Maps","name_short":"syd-3","host":"syd-1.au.uncletopia.com","port":27035,"enabled":true,"region":"au","cc":"au","latitude":-33.865143,"longitude":151.2099,"reserved":0,"last_update":"0001-01-01T00:00:00Z","name_a2s":"Uncletopia | Sydney | 3 | All Maps","protocol":17,"map":"koth_highpass","folder":"tf","game":"Team Fortress","app_id":440,"player_count":0,"max_players":24,"Bots":0,"server_type":"Dedicated","server_os":"Linux","password":true,"vac":true,"version":"7757534","steam_id":85568392925194467,"keywords":["cp","nocrits","nodmgspread","uncletopia"],"game_id":440,"stv_port":27036,"stv_name":"Uncletopia | Sydney | 3 | All Maps | STV","players":null},{"server_id":396,"name":"Uncletopia | Sydney | 4 | All Maps","name_short":"syd-4","host":"syd-1.au.uncletopia.com","port":27045,"enabled":true,"region":"au","cc":"au","latitude":-33.865143,"longitude":151.2099,"reserved":0,"last_update":"0001-01-01T00:00:00Z","name_a2s":"Uncletopia | Sydney | 4 | All Maps","protocol":17,"map":"koth_highpass","folder":"tf","game":"Team Fortress","app_id":440,"player_count":0,"max_players":24,"Bots":0,"server_type":"Dedicated","server_os":"Linux","password":true,"vac":true,"version":"7757534","steam_id":85568392925397958,"keywords":["cp","nocrits","nodmgspread","uncletopia"],"game_id":440,"stv_port":27046,"stv_name":"Uncletopia | Sydney | 4 | All Maps | STV","players":null},{"server_id":58,"name":"Uncletopia | Sydney | 5 | Stopwatch Beta","name_short":"syd-5","host":"syd-1.au.uncletopia.com","port":27055,"enabled":true,"region":"au","cc":"au","latitude":-33.865143,"longitude":151.2099,"reserved":0,"last_update":"0001-01-01T00:00:00Z","name_a2s":"Uncletopia | Sydney | 5 | Stopwatch Beta","protocol":17,"map":"koth_cascade","folder":"tf","game":"Team Fortress","app_id":440,"player_count":0,"max_players":24,"Bots":0,"server_type":"Dedicated","server_os":"Linux","password":true,"vac":true,"version":"7757534","steam_id":85568392925397959,"keywords":["cp","nocrits","nodmgspread","uncletopia"],"game_id":440,"stv_port":27056,"stv_name":"Uncletopia | Sydney | 5 | Stopwatch Beta | STV","players":null},{"server_id":59,"name":"Uncletopia | Sydney | 6 | Community","name_short":"syd-6","host":"syd-1.au.uncletopia.com","port":27065,"enabled":true,"region":"au","cc":"au","latitude":-33.865143,"longitude":151.2099,"reserved":0,"last_update":"0001-01-01T00:00:00Z","name_a2s":"Uncletopia | Sydney | 6 | Community","protocol":17,"map":"cp_snakewater_final1","folder":"tf","game":"Team Fortress","app_id":440,"player_count":0,"max_players":24,"Bots":0,"server_type":"Dedicated","server_os":"Linux","password":true,"vac":true,"version":"7757534","steam_id":85568392925397960,"keywords":["cp","nocrits","nodmgspread","uncletopia"],"game_id":440,"stv_port":27066,"stv_name":"Uncletopia | Sydney | 6 | Community | STV","players":null},{"server_id":49,"name":"Uncletopia | Warsaw | 1 | All Maps","name_short":"waw-1","host":"waw-1.pl.uncletopia.com","port":27015,"enabled":true,"region":"eu","cc":"pl","latitude":52.2297,"longitude":21.017532,"reserved":0,"last_update":"0001-01-01T00:00:00Z","name_a2s":"","protocol":0,"map":"","folder":"","game":"","app_id":0,"player_count":0,"max_players":0,"Bots":0,"server_type":"","server_os":"","password":false,"vac":false,"version":"","steam_id":0,"keywords":null,"game_id":0,"stv_port":0,"stv_name":"","players":null},{"server_id":50,"name":"Uncletopia | Warsaw | 2 | All Maps","name_short":"waw-2","host":"waw-1.pl.uncletopia.com","port":27025,"enabled":true,"region":"eu","cc":"pl","latitude":52.2297,"longitude":21.017532,"reserved":0,"last_update":"0001-01-01T00:00:00Z","name_a2s":"Uncletopia | Warsaw | 2 | All Maps","protocol":17,"map":"koth_viaduct","folder":"tf","game":"Team Fortress","app_id":440,"player_count":0,"max_players":24,"Bots":0,"server_type":"Dedicated","server_os":"Linux","password":true,"vac":true,"version":"7757534","steam_id":85568392925397851,"keywords":["cp","nocrits","nodmgspread","uncletopia"],"game_id":440,"stv_port":27026,"stv_name":"Uncletopia | Warsaw | 2 | All Maps | STV","players":null},{"server_id":51,"name":"Uncletopia | Warsaw | 3 | All Maps","name_short":"waw-3","host":"waw-1.pl.uncletopia.com","port":27035,"enabled":true,"region":"eu","cc":"pl","latitude":52.2297,"longitude":21.017532,"reserved":0,"last_update":"0001-01-01T00:00:00Z","name_a2s":"Uncletopia | Warsaw | 3 | All Maps","protocol":17,"map":"pl_badwater","folder":"tf","game":"Team Fortress","app_id":440,"player_count":0,"max_players":24,"Bots":0,"server_type":"Dedicated","server_os":"Linux","password":true,"vac":true,"version":"7757534","steam_id":85568392925397852,"keywords":["nocrits","nodmgspread","payload","uncletopia"],"game_id":440,"stv_port":27036,"stv_name":"Uncletopia | Warsaw | 3 | All Maps | STV","players":null},{"server_id":52,"name":"Uncletopia | Warsaw | 4 | All Maps","name_short":"waw-4","host":"waw-1.pl.uncletopia.com","port":27045,"enabled":true,"region":"eu","cc":"pl","latitude":52.2297,"longitude":21.017532,"reserved":0,"last_update":"0001-01-01T00:00:00Z","name_a2s":"Uncletopia | Warsaw | 4 | All Maps","protocol":17,"map":"koth_lakeside_final","folder":"tf","game":"Team Fortress","app_id":440,"player_count":0,"max_players":24,"Bots":0,"server_type":"Dedicated","server_os":"Linux","password":true,"vac":true,"version":"7757534","steam_id":85568392925397853,"keywords":["cp","nocrits","nodmgspread","uncletopia"],"game_id":440,"stv_port":27046,"stv_name":"Uncletopia | Warsaw | 4 | All Maps | STV","players":null},{"server_id":53,"name":"Uncletopia | Warsaw | 5 | Stopwatch Beta","name_short":"waw-5","host":"waw-1.pl.uncletopia.com","port":27055,"enabled":true,"region":"eu","cc":"pl","latitude":52.2297,"longitude":21.017532,"reserved":0,"last_update":"0001-01-01T00:00:00Z","name_a2s":"Uncletopia | Warsaw | 5 | Stopwatch Beta","protocol":17,"map":"pl_borneo","folder":"tf","game":"Team Fortress","app_id":440,"player_count":0,"max_players":24,"Bots":0,"server_type":"Dedicated","server_os":"Linux","password":true,"vac":true,"version":"7757534","steam_id":85568392925397854,"keywords":["nocrits","nodmgspread","payload","uncletopia"],"game_id":440,"stv_port":27056,"stv_name":"Uncletopia | Warsaw | 5 | Stopwatch Beta | STV","players":null},{"server_id":54,"name":"Uncletopia | Warsaw | 6 | Community","name_short":"waw-6","host":"waw-1.pl.uncletopia.com","port":27065,"enabled":true,"region":"eu","cc":"pl","latitude":52.2297,"longitude":21.017532,"reserved":0,"last_update":"0001-01-01T00:00:00Z","name_a2s":"Uncletopia | Warsaw | 6 | Community","protocol":17,"map":"koth_lakeside_final","folder":"tf","game":"Team Fortress","app_id":440,"player_count":0,"max_players":24,"Bots":0,"server_type":"Dedicated","server_os":"Linux","password":true,"vac":true,"version":"7757534","steam_id":85568392925397856,"keywords":["cp","nocrits","nodmgspread","uncletopia"],"game_id":440,"stv_port":27066,"stv_name":"Uncletopia | Warsaw | 6 | Community | STV","players":null}]}