{"status":true,"message":"","result":[{"server_id":9,"name":"Uncletopia | Atlanta | 1 | All Maps","name_short":"atl-1","host":"atl-1.us.uncletopia.com","port":27015,"enabled":true,"region":"us-east","cc":"us","latitude":33.753746,"longitude":-84.38633,"reserved":0,"last_update":"0001-01-01T00:00:00Z","name_a2s":"Uncletopia | Atlanta | 1 | All Maps","protocol":17,"map":"cp_snakewater_final1","folder":"tf","game":"Team Fortress","app_id":440,"player_count":24,"max_players":24,"Bots":0,"server_type":"Dedicated","server_os":"Linux","password":true,"vac":true,"version":"7757534","steam_id":85568392924469982,"keywords":["cp","nocrits","nodmgspread","uncletopia"],"game_id":440,"stv_port":27016,"stv_name":"Uncletopia | Atlanta | 1 | All Maps | STV","players":[{"user_id":117,"name":"ammo delivery","steam_id":76561198328618417,"connected_time":9665000000000,"state":"active","ping":92},{"user_id":241,"name":"Raptortastico","steam_id":76561198105613110,"connected_time":926000000000,"state":"active","ping":74},{"user_id":219,"name":"SadVeggie","steam_id":76561198163430099,"connected_time":2917000000000,"state":"active","ping":109},{"user_id":243,"name":"Jin Gulilo","steam_id":76561198065151242,"connected_time":812000000000,"state":"active","ping":75},{"user_id":245,"name":"bad","steam_id":76561198090531755,"connected_time":531000000000,"state":"active","ping":65},{"user_id":222,"name":"CRWND","steam_id":76561198329810027,"connected_time":2812000000000,"state":"active","ping":144},{"user_id":244,"name":"morphine","steam_id":76561198072124799,"connected_time":633000000000,"state":"active","ping":88},{"user_id":233,"name":"William Wallace","steam_id":76561199343316814,"connected_time":1774000000000,"state":"active","ping":54},{"user_id":234,"name":"viaodeegsm","steam_id":76561198025295263,"connected_time":1766000000000,"state":"active","ping":87},{"user_id":216,"name":"NithyG","steam_id":76561198817102857,"connected_time":3259000000000,"state":"active","ping":132},{"user_id":236,"name":"Broken Cereal‚àö","steam_id":76561198087489795,"connected_time":1730000000000,"state":"active","ping":63},{"user_id":154,"name":"Albino Jellyfish","steam_id":76561198208561097,"connected_time":6860000000000,"state":"active","ping":65},{"user_id":155,"name":"NovaSc6ut","steam_id":76561198277163301,"connected_time":6838000000000,"state":"active","ping":82},{"user_id":227,"name":"Inkmix (F2P","steam_id":76561198854070384,"connected_time":2109000000000,"state":"active","ping":101},{"user_id":247,"name":"Thotimus Begonimus","steam_id":76561197970275938,"connected_time":188000000000,"state":"active","ping":43},{"user_id":246,"name":"im the beef","steam_id":76561198069506128,"connected_time":475000000000,"state":"active","ping":104},{"user_id":211,"name":"Ashes!","steam_id":76561197998475441,"connected_time":3658000000000,"state":"active","ping":76},{"user_id":239,"name":"Oopsie Daisy ‚ùã","steam_id":76561198042144492,"connected_time":1673000000000,"state":"active","ping":57},{"user_id":225,"name":"Toonice","steam_id":76561198402994885,"connected_time":2255000000000,"state":"active","ping":81},{"user_id":242,"name":"NBA Youngboy","steam_id":76561199118797200,"connected_time":894000000000,"state":"active","ping":65},{"user_id":37,"name":"creepycrawler","steam_id":76561198352016831,"connected_time":15764000000000,"state":"active","ping":73},{"user_id":229,"name":"C Papi","steam_id":76561198027779564,"connected_time":2047000000000,"state":"active","ping":55},{"user_id":235,"name":"Bix","steam_id":76561198120265522,"connected_time":1756000000000,"state":"active","ping":74},{"user_id":238,"name":"FreonAddict9x19","steam_id":76561198060010824,"connected_time":1693000000000,"state":"active","ping":66}]},{"server_id":104,"name":"Uncletopia | Atlanta | 2 | All Maps","name_short":"atl-2","host":"atl-1.us.uncletopia.com","port":27025,"enabled":true,"region":"us-east","cc":"us","latitude":33.753746,"longitude":-84.38633,"reserved":0,"last_update":"0001-01-01T00:00:00Z","name_a2s":"Uncletopia | Atlanta | 2 | All Maps","protocol":17,"map":"cp_gorge","folder":"tf","game":"Team Fortress","app_id":440,"player_count":24,"max_players":24,"Bots":0,"server_type":"Dedicated","server_os":"Linux","password":true,"vac":true,"version":"7757534","steam_id":85568392924469983,"keywords":["cp","nocrits","nodmgspread","uncletopia"],"game_id":440,"stv_port":27026,"stv_name":"Uncletopia | Atlanta | 2 | All Maps | STV","players":[{"user_id":90,"name":"crypltingh","steam_id":76561199008585183,"connected_time":1038000000000,"state":"active","ping":59},{"user_id":97,"name":"corpach","steam_id":76561198150418268,"connected_time":193000000000,"state":"active","ping":86},{"user_id":49,"name":"(no monitor) ayylien","steam_id":76561198042127970,"connected_time":4617000000000,"state":"active","ping":63},{"user_id":51,"name":"Games Deen","steam_id":76561198109125737,"connected_time":3799000000000,"state":"active","ping":75},{"user_id":62,"name":"Conjurer","steam_id":76561198316256275,"connected_time":3184000000000,"state":"active","ping":51},{"user_id":98,"name":"\u003cBLAH\u003e","steam_id":76561198094826838,"connected_time":162000000000,"state":"active","ping":87},{"user_id":92,"name":"troll","steam_id":76561198040890252,"connected_time":649000000000,"state":"active","ping":53},{"user_id":70,"name":"SHiFT_DeL3TE","steam_id":76561198234965064,"connected_time":2936000000000,"state":"active","ping":39},{"user_id":81,"name":"Tony Pizza","steam_id":76561198044331477,"connected_time":1917000000000,"state":"active","ping":63},{"user_id":86,"name":"MaybeMars","steam_id":76561198084736804,"connected_time":1294000000000,"state":"active","ping":67},{"user_id":18,"name":"Chaos Phoenix","steam_id":76561198121866418,"connected_time":5575000000000,"state":"active","ping":145},{"user_id":20,"name":"Eugene SunScreen","steam_id":76561198344119204,"connected_time":5565000000000,"state":"active","ping":132},{"user_id":52,"name":"Testosteroblerone","steam_id":76561199031278496,"connected_time":3601000000000,"state":"active","ping":94},{"user_id":69,"name":"Violet42","steam_id":76561198072927887,"connected_time":2983000000000,"state":"active","ping":63},{"user_id":99,"name":"Wallish","steam_id":76561198057175636,"connected_time":93000000000,"state":"active","ping":91},{"user_id":87,"name":"insane clown pussy","steam_id":76561198329087915,"connected_time":1287000000000,"state":"active","ping":96},{"user_id":73,"name":"Doorhinge","steam_id":76561198872501684,"connected_time":2569000000000,"state":"active","ping":154},{"user_id":74,"name":"Reaper","steam_id":76561198435826103,"connected_time":2504000000000,"state":"active","ping":74},{"user_id":93,"name":"do the wingle dance","steam_id":76561198165299077,"connected_time":462000000000,"state":"active","ping":73},{"user_id":59,"name":"BigBubble42","steam_id":76561198136286123,"connected_time":3346000000000,"state":"active","ping":46},{"user_id":84,"name":"Anax Alter","steam_id":76561198110249546,"connected_time":1635000000000,"state":"active","ping":66},{"user_id":85,"name":"Damian","steam_id":76561198159390231,"connected_time":1615000000000,"state":"active","ping":87},{"user_id":45,"name":"SPOOKY_","steam_id":76561198073395404,"connected_time":4774000000000,"state":"active","ping":155},{"user_id":95,"name":"Venny | Buying Company Mans","steam_id":76561198422066161,"connected_time":306000000000,"state":"active","ping":61}]},{"server_id":400,"name":"Uncletopia | Atlanta | 3 | Community","name_short":"atl-3","host":"atl-1.us.uncletopia.com","port":27035,"enabled":true,"region":"us-east","cc":"us","latitude":33.753746,"longitude":-84.38633,"reserved":0,"last_update":"0001-01-01T00:00:00Z","name_a2s":"Uncletopia | Atlanta | 3 | Community","protocol":17,"map":"workshop/cp_glacier_rc6.ugc2905735376","folder":"tf","game":"Team Fortress","app_id":440,"player_count":0,"max_players":24,"Bots":0,"server_type":"Dedicated","server_os":"Linux","password":true,"vac":true,"version":"7757534","steam_id":85568392924515187,"keywords":["cp","nocrits","nodmgspread","uncletopia"],"game_id":440,"stv_port":27036,"stv_name":"Uncletopia | Atlanta | 3 | Community | STV","players":null},{"server_id":401,"name":"Uncletopia | Atlanta | 4 | No Payload","name_short":"atl-4","host":"atl-1.us.uncletopia.com","port":27045,"enabled":true,"region":"us-east","cc":"us","latitude":33.753746,"longitude":-84.38633,"reserved":0,"last_update":"0001-01-01T00:00:00Z","name_a2s":"","protocol":0,"map":"","folder":"","game":"","app_id":0,"player_count":0,"max_players":0,"Bots":0,"server_type":"","server_os":"","password":false,"vac":false,"version":"","steam_id":0,"keywords":null,"game_id":0,"stv_port":0,"stv_name":"","players":null},{"server_id":2,"name":"Uncletopia | Chicago | 1 | All Maps","name_short":"chi-1","host":"chi-1.us.uncletopia.com","port":27015,"enabled":true,"region":"us-central","cc":"us","latitude":41.881832,"longitude":-87.62318,"reserved":0,"last_update":"0001-01-01T00:00:00Z","name_a2s":"Uncletopia | Chicago | 1 | All Maps","protocol":17,"map":"cp_process_final","folder":"tf","game":"Team Fortress","app_id":440,"player_count":24,"max_players":24,"Bots":0,"server_type":"Dedicated","server_os":"Linux","password":true,"vac":true,"version":"7757534","steam_id":85568392924469984,"keywords":["cp","nocrits","nodmgspread","uncletopia"],"game_id":440,"stv_port":27016,"stv_name":"Uncletopia | Chicago | 1 | All Maps | STV","players":[{"user_id":258,"name":"i really like this dog :)","steam_id":76561198882404753,"connected_time":6025000000000,"state":"active","ping":79},{"user_id":326,"name":"The Ghost of Jay Leno","steam_id":76561198058938897,"connected_time":849000000000,"state":"active","ping":63},{"user_id":328,"name":"Vile Gunner","steam_id":76561198806668514,"connected_time":839000000000,"state":"active","ping":103},{"user_id":345,"name":"Influrrno","steam_id":76561198398893302,"connected_time":219000000000,"state":"active","ping":63},{"user_id":344,"name":"asbestos","steam_id":76561198079178866,"connected_time":239000000000,"state":"active","ping":61},{"user_id":330,"name":"lambmyth","steam_id":76561199215261209,"connected_time":720000000000,"state":"active","ping":82},{"user_id":331,"name":"Zero","steam_id":76561199383267408,"connected_time":693000000000,"state":"active","ping":67},{"user_id":332,"name":"Cedric","steam_id":76561198072090580,"connected_time":658000000000,"state":"active","ping":105},{"user_id":317,"name":"macabre","steam_id":76561198220125111,"connected_time":1573000000000,"state":"active","ping":76},{"user_id":333,"name":"GreatColorGreen","steam_id":76561198284546954,"connected_time":650000000000,"state":"active","ping":56},{"user_id":261,"name":"hotdog water","steam_id":76561198031675881,"connected_time":5802000000000,"state":"active","ping":90},{"user_id":298,"name":"Doctor Bear  ï ‚Ä¢·¥•‚Ä¢ î","steam_id":76561197968103161,"connected_time":2848000000000,"state":"active","ping":56},{"user_id":334,"name":"catrinaisahuman","steam_id":76561198281355729,"connected_time":650000000000,"state":"active","ping":61},{"user_id":346,"name":"ContinuedBear","steam_id":76561198265176919,"connected_time":95000000000,"state":"active","ping":59},{"user_id":336,"name":"THEDINKY","steam_id":76561198190077399,"connected_time":624000000000,"state":"active","ping":67},{"user_id":337,"name":"Kieran","steam_id":76561198072788168,"connected_time":618000000000,"state":"active","ping":74},{"user_id":338,"name":"fear","steam_id":76561198063170079,"connected_time":592000000000,"state":"active","ping":63},{"user_id":339,"name":"Bon Gripper","steam_id":76561198090074621,"connected_time":589000000000,"state":"active","ping":59},{"user_id":325,"name":"rori","steam_id":76561198021227843,"connected_time":945000000000,"state":"active","ping":51},{"user_id":310,"name":"Kartyac","steam_id":76561197991069005,"connected_time":1934000000000,"state":"active","ping":76},{"user_id":324,"name":"MR MODE","steam_id":76561198046775352,"connected_time":984000000000,"state":"active","ping":91},{"user_id":340,"name":"PoisonIvy","steam_id":76561198072384574,"connected_time":558000000000,"state":"active","ping":62},{"user_id":341,"name":"EmptyB33R","steam_id":76561198993166528,"connected_time":537000000000,"state":"active","ping":132},{"user_id":343,"name":"Fred the Beard","steam_id":76561198009310649,"connected_time":248000000000,"state":"active","ping":60}]},{"server_id":106,"name":"Uncletopia | Chicago | 2 | All Maps","name_short":"chi-2","host":"chi-1.us.uncletopia.com","port":27025,"enabled":true,"region":"us-central","cc":"us","latitude":41.881832,"longitude":-87.62318,"reserved":0,"last_update":"0001-01-01T00:00:00Z","name_a2s":"Uncletopia | Chicago | 2 | All Maps","protocol":17,"map":"cp_steel","folder":"tf","game":"Team Fortress","app_id":440,"player_count":24,"max_players":24,"Bots":0,"server_type":"Dedicated","server_os":"Linux","password":true,"vac":true,"version":"7757534","steam_id":85568392924469985,"keywords":["cp","nocrits","nodmgspread","uncletopia"],"game_id":440,"stv_port":27026,"stv_name":"Uncletopia | Chicago | 2 | All Maps | STV","players":[{"user_id":324,"name":"Goldoche","steam_id":76561197995065045,"connected_time":1557000000000,"state":"active","ping":81},{"user_id":346,"name":"BasicPeaches","steam_id":76561198190890150,"connected_time":152000000000,"state":"active","ping":75},{"user_id":340,"name":"Mister Mundy","steam_id":76561198145675134,"connected_time":967000000000,"state":"active","ping":59},{"user_id":350,"name":"xXScrub_LordXx","steam_id":76561198101325632,"connected_time":59000000000,"state":"active","ping":42},{"user_id":347,"name":"Carbon","steam_id":76561198841036715,"connected_time":112000000000,"state":"active","ping":80},{"user_id":348,"name":"lego star wars on the psp","steam_id":76561198148014773,"connected_time":98000000000,"state":"active","ping":71},{"user_id":343,"name":"Fudge_Cake","steam_id":76561198059218167,"connected_time":835000000000,"state":"active","ping":71},{"user_id":224,"name":"E4Estrogen","steam_id":76561198085813708,"connected_time":11607000000000,"state":"active","ping":60},{"user_id":302,"name":"YourLocalArsonist","steam_id":76561199111922751,"connected_time":3924000000000,"state":"active","ping":84},{"user_id":329,"name":"LerN","steam_id":76561198083463877,"connected_time":1482000000000,"state":"active","ping":61},{"user_id":284,"name":"D0VE","steam_id":76561198151618566,"connected_time":5986000000000,"state":"active","ping":91},{"user_id":325,"name":"heavyArmor","steam_id":76561198191056059,"connected_time":1557000000000,"state":"active","ping":61},{"user_id":345,"name":"femboy foxgirl","steam_id":76561198056432756,"connected_time":260000000000,"state":"active","ping":55},{"user_id":328,"name":"andyiscolorless","steam_id":76561199239870921,"connected_time":1537000000000,"state":"active","ping":142},{"user_id":187,"name":"PEPPNIO SPAGHETTI","steam_id":76561198084849541,"connected_time":14218000000000,"state":"active","ping":60},{"user_id":344,"name":"TI-83 Plus","steam_id":76561198316134443,"connected_time":796000000000,"state":"active","ping":73},{"user_id":304,"name":"O o g","steam_id":76561199267535506,"connected_time":3896000000000,"state":"active","ping":72},{"user_id":338,"name":"Kamikazedoctor","steam_id":76561198157078818,"connected_time":1338000000000,"state":"active","ping":60},{"user_id":332,"name":"rock raiders enjoyer","steam_id":76561198139718219,"connected_time":1407000000000,"state":"active","ping":80},{"user_id":322,"name":"Faaaay","steam_id":76561198286392106,"connected_time":2262000000000,"state":"active","ping":176},{"user_id":319,"name":"Cliff Uppercut","steam_id":76561197999439391,"connected_time":2742000000000,"state":"active","ping":79},{"user_id":336,"name":"BOO HAWND","steam_id":76561198141617142,"connected_time":1362000000000,"state":"active","ping":100},{"user_id":337,"name":"BIDDAADY","steam_id":76561198818330188,"connected_time":1356000000000,"state":"active","ping":103},{"user_id":349,"name":"auts","steam_id":76561198055198646,"connected_time":97000000000,"state":"active","ping":75}]},{"server_id":402,"name":"Uncletopia | Chicago | 3 | All Maps","name_short":"chi-3","host":"chi-1.us.uncletopia.com","port":27035,"enabled":true,"region":"us-central","cc":"us","latitude":41.881832,"longitude":-87.62318,"reserved":0,"last_update":"0001-01-01T00:00:00Z","name_a2s":"Uncletopia | Chicago | 3 | All Maps","protocol":17,"map":"koth_lakeside_final","folder":"tf","game":"Team Fortress","app_id":440,"player_count":0,"max_players":24,"Bots":0,"server_type":"Dedicated","server_os":"Linux","password":true,"vac":true,"version":"7757534","steam_id":85568392924515191,"keywords":["cp","nocrits","nodmgspread","uncletopia"],"game_id":440,"stv_port":27036,"stv_name":"Uncletopia | Chicago | 3 | All Maps | STV","players":null},{"server_id":403,"name":"Uncletopia | Chicago | 4 | All Maps","name_short":"chi-4","host":"chi-1.us.uncletopia.com","port":27045,"enabled":true,"region":"us-central","cc":"us","latitude":41.881832,"longitude":-87.62318,"reserved":0,"last_update":"0001-01-01T00:00:00Z","name_a2s":"Uncletopia | Chicago | 4 | All Maps","protocol":17,"map":"pl_borneo","folder":"tf","game":"Team Fortress","app_id":440,"player_count":24,"max_players":24,"Bots":0,"server_type":"Dedicated","server_os":"Linux","password":true,"vac":true,"version":"7757534","steam_id":85568392924515193,"keywords":["nocrits","nodmgspread","payload","uncletopia"],"game_id":440,"stv_port":27046,"stv_name":"Uncletopia | Chicago | 4 | All Maps | STV","players":[{"user_id":157,"name":"Rowrel","steam_id":76561198394319452,"connected_time":885000000000,"state":"active","ping":89},{"user_id":126,"name":"Unregistered Hypercam 2","steam_id":76561198046895822,"connected_time":2129000000000,"state":"active","ping":74},{"user_id":158,"name":"Kael","steam_id":76561198041277031,"connected_time":880000000000,"state":"active","ping":75},{"user_id":110,"name":"Ringo x Seiran","steam_id":76561198357437908,"connected_time":2921000000000,"state":"active","ping":61},{"user_id":159,"name":"Florist","steam_id":76561198009121060,"connected_time":871000000000,"state":"active","ping":91},{"user_id":147,"name":"madturtle3","steam_id":76561198146953474,"connected_time":1088000000000,"state":"active","ping":93},{"user_id":154,"name":"ECCO","steam_id":76561198002821513,"connected_time":1000000000000,"state":"active","ping":61},{"user_id":113,"name":"Valery___Zmyshenko","steam_id":76561199387904987,"connected_time":2771000000000,"state":"active","ping":186},{"user_id":160,"name":"CyberZayne","steam_id":76561198002351356,"connected_time":854000000000,"state":"active","ping":122},{"user_id":149,"name":"LW | [wrd]HaloLagann","steam_id":76561198047561568,"connected_time":1068000000000,"state":"active","ping":65},{"user_id":151,"name":"Also Known As Assteeth","steam_id":76561198049837377,"connected_time":1036000000000,"state":"active","ping":47},{"user_id":165,"name":"Romo","steam_id":76561198243101572,"connected_time":715000000000,"state":"active","ping":85},{"user_id":167,"name":"if i miss I WILL KILL MYSELF!!!","steam_id":76561198253747839,"connected_time":305000000000,"state":"active","ping":47},{"user_id":168,"name":"Karrot","steam_id":76561198058970903,"connected_time":152000000000,"state":"active","ping":73},{"user_id":96,"name":"dabri88","steam_id":76561198103645497,"connected_time":3720000000000,"state":"active","ping":68},{"user_id":153,"name":"hightower npc","steam_id":76561198097588802,"connected_time":1001000000000,"state":"active","ping":46},{"user_id":140,"name":"Nassu","steam_id":76561198147367577,"connected_time":1725000000000,"state":"active","ping":71},{"user_id":156,"name":"Unicorn","steam_id":76561198119261280,"connected_time":979000000000,"state":"active","ping":89},{"user_id":162,"name":"Mug Moment Gaming","steam_id":76561198233098136,"connected_time":841000000000,"state":"active","ping":54},{"user_id":170,"name":"jimmyfnaf172198yay","steam_id":76561198311446636,"connected_time":27000000000,"state":"spawning","ping":59},{"user_id":101,"name":"threethree","steam_id":76561198177354155,"connected_time":3689000000000,"state":"active","ping":65},{"user_id":133,"name":"craig dishwasher","steam_id":76561198402235691,"connected_time":1966000000000,"state":"active","ping":63},{"user_id":163,"name":"Swifgz","steam_id":76561198162875756,"connected_time":841000000000,"state":"active","ping":59},{"user_id":164,"name":"A Sun","steam_id":76561198142545364,"connected_time":840000000000,"state":"active","ping":75}]},{"server_id":36,"name":"Uncletopia | Chicago | 5 | All Maps","name_short":"chi-5","host":"chi-2.us.uncletopia.com","port":27015,"enabled":true,"region":"us-central","cc":"us","latitude":41.881832,"longitude":-87.62318,"reserved":0,"last_update":"0001-01-01T00:00:00Z","name_a2s":"Uncletopia | Chicago | 5 | All Maps","protocol":17,"map":"koth_cascade","folder":"tf","game":"Team Fortress","app_id":440,"player_count":0,"max_players":24,"Bots":0,"server_type":"Dedicated","server_os":"Linux","password":true,"vac":true,"version":"7757534","steam_id":85568392924866362,"keywords":["cp","nocrits","nodmgspread","uncletopia"],"game_id":440,"stv_port":27016,"stv_name":"Uncletopia | Chicago | 5 | All Maps | STV","players":null},{"server_id":37,"name":"Uncletopia | Chicago | 6 | All Maps","name_short":"chi-6","host":"chi-2.us.uncletopia.com","port":27025,"enabled":true,"region":"us-central","cc":"us","latitude":41.881832,"longitude":-87.62318,"reserved":0,"last_update":"0001-01-01T00:00:00Z","name_a2s":"Uncletopia | Chicago | 6 | All Maps","protocol":17,"map":"koth_cascade","folder":"tf","game":"Team Fortress","app_id":440,"player_count":0,"max_players":24,"Bots":0,"server_type":"Dedicated","server_os":"Linux","password":true,"vac":true,"version":"7757534","steam_id":85568392924866363,"keywords":["cp","nocrits","nodmgspread","uncletopia"],"game_id":440,"stv_port":27026,"stv_name":"Uncletopia | Chicago | 6 | All Maps | STV","players":null},{"server_id":38,"name":"Uncletopia | Chicago | 7 | Stopwatch Beta","name_short":"chi-7","host":"chi-2.us.uncletopia.com","port":27035,"enabled":true,"region":"us-central","cc":"us","latitude":41.881832,"longitude":-87.62318,"reserved":0,"last_update":"0001-01-01T00:00:00Z","name_a2s":"Uncletopia | Chicago | 7 | Stopwatch Beta","protocol":17,"map":"pl_barnblitz","folder":"tf","game":"Team Fortress","app_id":440,"player_count":0,"max_players":24,"Bots":0,"server_type":"Dedicated","server_os":"Linux","password":true,"vac":true,"version":"7757534","steam_id":85568392924866364,"keywords":["nocrits","nodmgspread","payload","uncletopia"],"game_id":440,"stv_port":27036,"stv_name":"Uncletopia | Chicago | 7 | Stopwatch Beta | STV","players":null},{"server_id":39,"name":"Uncletopia | Chicago | 8 | Community","name_short":"chi-8","host":"chi-2.us.uncletopia.com","port":27045,"enabled":true,"region":"us-central","cc":"us","latitude":41.881832,"longitude":-87.62318,"reserved":0,"last_update":"0001-01-01T00:00:00Z","name_a2s":"Uncletopia | Chicago | 8 | Community","protocol":17,"map":"koth_cascade","folder":"tf","game":"Team Fortress","app_id":440,"player_count":0,"max_players":24,"Bots":0,"server_type":"Dedicated","server_os":"Linux","password":true,"vac":true,"version":"7757534","steam_id":85568392924866365,"keywords":["cp","nocrits","nodmgspread","uncletopia"],"game_id":440,"stv_port":27046,"stv_name":"Uncletopia | Chicago | 8 | Community | STV","players":null},{"server_id":8,"name":"Uncletopia | Dallas | 1 | All Maps","name_short":"dal-1","host":"dal-1.us.uncletopia.com","port":27015,"enabled":true,"region":"us-central","cc":"us","latitude":32.779167,"longitude":-96.80889,"reserved":0,"last_update":"0001-01-01T00:00:00Z","name_a2s":"Uncletopia | Dallas | 1 | All Maps","protocol":17,"map":"cp_powerhouse","folder":"tf","game":"Team Fortress","app_id":440,"player_count":24,"max_players":24,"Bots":0,"server_type":"Dedicated","server_os":"Linux","password":true,"vac":true,"version":"7757534","steam_id":85568392924469986,"keywords":["cp","nocrits","nodmgspread","uncletopia"],"game_id":440,"stv_port":27016,"stv_name":"Uncletopia | Dallas | 1 | All Maps | STV","players":[{"user_id":9,"name":"gamble","steam_id":76561198252320278,"connected_time":4119000000000,"state":"active","ping":33},{"user_id":48,"name":"RagingBagon","steam_id":76561198255453127,"connected_time":1362000000000,"state":"active","ping":74},{"user_id":12,"name":"Pillagon","steam_id":76561198183894834,"connected_time":3541000000000,"state":"active","ping":77},{"user_id":13,"name":"superprogamerman2009","steam_id":76561199393831863,"connected_time":3503000000000,"state":"active","ping":154},{"user_id":30,"name":"Amet","steam_id":76561198170186619,"connected_time":2158000000000,"state":"active","ping":77},{"user_id":47,"name":"Gods Drunkest Driver","steam_id":76561198390108910,"connected_time":1416000000000,"state":"active","ping":102},{"user_id":42,"name":"Tibrochief","steam_id":76561198311897153,"connected_time":1651000000000,"state":"active","ping":98},{"user_id":22,"name":"Nico_Ven_2017","steam_id":76561199088238413,"connected_time":2549000000000,"state":"active","ping":135},{"user_id":18,"name":"briggs","steam_id":76561198045655893,"connected_time":3023000000000,"state":"active","ping":78},{"user_id":53,"name":"Bogey","steam_id":76561198096227944,"connected_time":729000000000,"state":"active","ping":43},{"user_id":39,"name":"Worst Scenario","steam_id":76561199052130229,"connected_time":1852000000000,"state":"active","ping":77},{"user_id":27,"name":"Metbol","steam_id":76561198001362410,"connected_time":2227000000000,"state":"active","ping":54},{"user_id":43,"name":"Ice Tray","steam_id":76561198156184504,"connected_time":1631000000000,"state":"active","ping":84},{"user_id":55,"name":"dmlookinviolent","steam_id":76561198125863174,"connected_time":277000000000,"state":"active","ping":70},{"user_id":56,"name":"nurp","steam_id":76561198071687616,"connected_time":250000000000,"state":"active","ping":65},{"user_id":51,"name":"Lunacy","steam_id":76561199386273760,"connected_time":1077000000000,"state":"active","ping":88},{"user_id":31,"name":"robotman5","steam_id":76561197996783330,"connected_time":2002000000000,"state":"active","ping":118},{"user_id":32,"name":"MetalTao","steam_id":76561198189408110,"connected_time":1987000000000,"state":"active","ping":112},{"user_id":54,"name":"Bavi Ratto","steam_id":76561198333569494,"connected_time":517000000000,"state":"active","ping":104},{"user_id":34,"name":"Felwyn","steam_id":76561198031280239,"connected_time":1954000000000,"state":"active","ping":164},{"user_id":35,"name":"Marceline","steam_id":76561198261007627,"connected_time":1943000000000,"state":"active","ping":66},{"user_id":50,"name":"‚ô•Npenplz‚ô•","steam_id":76561197999605423,"connected_time":1147000000000,"state":"active","ping":85},{"user_id":37,"name":"LACTOSE","steam_id":76561198282604344,"connected_time":1921000000000,"state":"active","ping":85},{"user_id":38,"name":"Lonely Hat","steam_id":76561199098253679,"connected_time":1914000000000,"state":"active","ping":115}]},{"server_id":108,"name":"Uncletopia | Dallas | 2 | All Maps","name_short":"dal-2","host":"dal-1.us.uncletopia.com","port":27025,"enabled":true,"region":"us-central","cc":"us","latitude":32.779167,"longitude":-96.80889,"reserved":0,"last_update":"0001-01-01T00:00:00Z","name_a2s":"Uncletopia | Dallas | 2 | All Maps","protocol":17,"map":"pl_swiftwater_final1","folder":"tf","game":"Team Fortress","app_id":440,"player_count":1,"max_players":24,"Bots":0,"server_type":"Dedicated","server_os":"Linux","password":true,"vac":true,"version":"7757534","steam_id":85568392924469988,"keywords":["nocrits","nodmgspread","payload","uncletopia"],"game_id":440,"stv_port":27026,"stv_name":"Uncletopia | Dallas | 2 | All Maps | STV","players":[{"user_id":7,"name":"clenZORZ","steam_id":76561198835570628,"connected_time":224000000000,"state":"active","ping":67}]},{"server_id":5,"name":"Uncletopia | Frankfurt | 1 | All Maps","name_short":"frk-1","host":"frk-1.de.uncletopia.com","port":27015,"enabled":true,"region":"eu","cc":"de","latitude":50.110924,"longitude":8.682127,"reserved":0,"last_update":"0001-01-01T00:00:00Z","name_a2s":"Uncletopia | Frankfurt | 1 | All Maps","protocol":17,"map":"cp_dustbowl","folder":"tf","game":"Team Fortress","app_id":440,"player_count":23,"max_players":24,"Bots":0,"server_type":"Dedicated","server_os":"Linux","password":true,"vac":true,"version":"7757534","steam_id":85568392924469989,"keywords":["cp","nocrits","nodmgspread","uncletopia"],"game_id":440,"stv_port":27016,"stv_name":"Uncletopia | Frankfurt | 1 | All Maps | STV","players":[{"user_id":172,"name":"willus212","steam_id":76561199182615246,"connected_time":2519000000000,"state":"active","ping":85},{"user_id":199,"name":"Ducky[WADZ]","steam_id":76561198060341245,"connected_time":908000000000,"state":"active","ping":96},{"user_id":136,"name":"Artemis","steam_id":76561198199091801,"connected_time":4274000000000,"state":"active","ping":50},{"user_id":194,"name":"JohkupohkuXD","steam_id":76561198391108762,"connected_time":1409000000000,"state":"active","ping":87},{"user_id":89,"name":"someone","steam_id":76561198377208758,"connected_time":7421000000000,"state":"active","ping":88},{"user_id":179,"name":"askulap","steam_id":76561197992018795,"connected_time":2166000000000,"state":"active","ping":76},{"user_id":169,"name":"Ramzus","steam_id":76561198012385070,"connected_time":2608000000000,"state":"active","ping":85},{"user_id":135,"name":"sloppy transgirl toppy","steam_id":76561198057092208,"connected_time":4285000000000,"state":"active","ping":54},{"user_id":183,"name":"MatesThePlayer","steam_id":76561198066156449,"connected_time":1966000000000,"state":"active","ping":56},{"user_id":181,"name":"Krefa12","steam_id":76561198268375393,"connected_time":2135000000000,"state":"active","ping":117},{"user_id":184,"name":"Pope John Paul III","steam_id":76561197999421201,"connected_time":1953000000000,"state":"active","ping":71},{"user_id":203,"name":"Dimitri_612","steam_id":76561199223984137,"connected_time":687000000000,"state":"active","ping":54},{"user_id":90,"name":"Walter Hartwell White","steam_id":76561198833826885,"connected_time":7404000000000,"state":"active","ping":129},{"user_id":152,"name":"Filleman","steam_id":76561198159386946,"connected_time":3314000000000,"state":"active","ping":67},{"user_id":185,"name":"Rex Z'Beq","steam_id":76561199300590000,"connected_time":1952000000000,"state":"active","ping":86},{"user_id":186,"name":"Qatuk","steam_id":76561198857696199,"connected_time":1938000000000,"state":"active","ping":58},{"user_id":187,"name":"Doohickey mechanic","steam_id":76561198146180114,"connected_time":1867000000000,"state":"active","ping":80},{"user_id":198,"name":"REN","steam_id":76561198000596385,"connected_time":1057000000000,"state":"active","ping":72},{"user_id":200,"name":"r√∂v","steam_id":76561198170330563,"connected_time":804000000000,"state":"active","ping":106},{"user_id":201,"name":"YisusTheYellow","steam_id":76561198111343446,"connected_time":705000000000,"state":"active","ping":86},{"user_id":205,"name":"1ggy","steam_id":76561199051285912,"connected_time":502000000000,"state":"active","ping":75},{"user_id":163,"name":"Holofightz Nene","steam_id":76561198226788392,"connected_time":2968000000000,"state":"active","ping":70},{"user_id":164,"name":"howabe","steam_id":76561197996486818,"connected_time":2949000000000,"state":"active","ping":54}]},{"server_id":110,"name":"Uncletopia | Frankfurt | 2 | All Maps","name_short":"frk-2","host":"frk-1.de.uncletopia.com","port":27025,"enabled":true,"region":"eu","cc":"de","latitude":50.110924,"longitude":8.682127,"reserved":0,"last_update":"0001-01-01T00:00:00Z","name_a2s":"Uncletopia | Frankfurt | 2 | All Maps","protocol":17,"map":"cp_sunshine","folder":"tf","game":"Team Fortress","app_id":440,"player_count":24,"max_players":24,"Bots":0,"server_type":"Dedicated","server_os":"Linux","password":true,"vac":true,"version":"7757534","steam_id":85568392924469990,"keywords":["cp","nocrits","nodmgspread","uncletopia"],"game_id":440,"stv_port":27026,"stv_name":"Uncletopia | Frankfurt | 2 | All Maps | STV","players":[{"user_id":443,"name":"Spurt","steam_id":76561198078523852,"connected_time":224000000000,"state":"active","ping":54},{"user_id":424,"name":"Yrj√∂ Koskinen Yrj√∂-Koskinen","steam_id":76561198368181145,"connected_time":1112000000000,"state":"active","ping":75},{"user_id":405,"name":"Russenluster","steam_id":76561198118016220,"connected_time":2994000000000,"state":"active","ping":57},{"user_id":423,"name":"kotamine","steam_id":76561198068907991,"connected_time":1119000000000,"state":"active","ping":69},{"user_id":425,"name":"Bob Sacamano","steam_id":76561198085610701,"connected_time":1105000000000,"state":"active","ping":88},{"user_id":420,"name":"Edmost","steam_id":76561198090748165,"connected_time":1145000000000,"state":"active","ping":59},{"user_id":438,"name":"The one who knocks","steam_id":76561198089341471,"connected_time":707000000000,"state":"active","ping":71},{"user_id":444,"name":"Megapuncher","steam_id":76561198023536780,"connected_time":26000000000,"state":"active","ping":45},{"user_id":426,"name":"tallen","steam_id":76561198061708595,"connected_time":1104000000000,"state":"active","ping":84},{"user_id":435,"name":"Maxim Prime","steam_id":76561198001342231,"connected_time":881000000000,"state":"active","ping":75},{"user_id":384,"name":"Ita","steam_id":76561198147277460,"connected_time":3973000000000,"state":"active","ping":54},{"user_id":338,"name":"T der Ba","steam_id":76561198091189185,"connected_time":6574000000000,"state":"active","ping":48},{"user_id":442,"name":"Igoreshkin","steam_id":76561197990780500,"connected_time":318000000000,"state":"active","ping":84},{"user_id":385,"name":"johnny dorito","steam_id":76561198148074472,"connected_time":3973000000000,"state":"active","ping":41},{"user_id":401,"name":"Johan","steam_id":76561199380849468,"connected_time":3112000000000,"state":"active","ping":63},{"user_id":386,"name":"gangnam style moshpit","steam_id":76561198163244605,"connected_time":3971000000000,"state":"active","ping":65},{"user_id":402,"name":"Morpheus","steam_id":76561198208349835,"connected_time":3097000000000,"state":"active","ping":72},{"user_id":429,"name":"Shingo the Brit","steam_id":76561198439680647,"connected_time":1043000000000,"state":"active","ping":81},{"user_id":430,"name":"etc","steam_id":76561197998394797,"connected_time":1022000000000,"state":"active","ping":59},{"user_id":441,"name":"Neon","steam_id":76561198089944674,"connected_time":666000000000,"state":"active","ping":67},{"user_id":432,"name":"what is he doing?","steam_id":76561198139303045,"connected_time":965000000000,"state":"active","ping":90},{"user_id":433,"name":"Weenie Hut Jr's","steam_id":76561198050515739,"connected_time":952000000000,"state":"active","ping":60},{"user_id":407,"name":"The tiniest boy","steam_id":76561198044165189,"connected_time":2952000000000,"state":"active","ping":61},{"user_id":434,"name":"D√•vid","steam_id":76561198184135755,"connected_time":942000000000,"state":"active","ping":63}]},{"server_id":308,"name":"Uncletopia | Frankfurt | 3 | All Maps","name_short":"frk-3","host":"frk-1.de.uncletopia.com","port":27035,"enabled":true,"region":"eu","cc":"de","latitude":50.110924,"longitude":8.682127,"reserved":0,"last_update":"0001-01-01T00:00:00Z","name_a2s":"Uncletopia | Frankfurt | 3 | All Maps","protocol":17,"map":"cp_sunshine","folder":"tf","game":"Team Fortress","app_id":440,"player_count":0,"max_players":24,"Bots":0,"server_type":"Dedicated","server_os":"Linux","password":true,"vac":true,"version":"7757534","steam_id":85568392924504274,"keywords":["cp","nocrits","nodmgspread","uncletopia"],"game_id":440,"stv_port":27036,"stv_name":"Uncletopia | Frankfurt | 3 | All Maps | STV","players":null},{"server_id":309,"name":"Uncletopia | Frankfurt | 4 | All Maps","name_short":"frk-4","host":"frk-1.de.uncletopia.com","port":27045,"enabled":true,"region":"eu","cc":"de","latitude":50.110924,"longitude":8.682127,"reserved":0,"last_update":"0001-01-01T00:00:00Z","name_a2s":"Uncletopia | Frankfurt | 4 | All Maps","protocol":17,"map":"pl_pier","folder":"tf","game":"Team Fortress","app_id":440,"player_count":24,"max_players":24,"Bots":0,"server_type":"Dedicated","server_os":"Linux","password":true,"vac":true,"version":"7757534","steam_id":85568392924504275,"keywords":["nocrits","nodmgspread","payload","uncletopia"],"game_id":440,"stv_port":27046,"stv_name":"Uncletopia | Frankfurt | 4 | All Maps | STV","players":[{"user_id":774,"name":"–ù—ñ–∫—ñ—Ç—Ä–æ–Ω","steam_id":76561198044401080,"connected_time":16000000000,"state":"spawning","ping":59},{"user_id":760,"name":"snovi","steam_id":76561198984436595,"connected_time":758000000000,"state":"active","ping":76},{"user_id":713,"name":"xTheDarkLight","steam_id":76561198239128298,"connected_time":4368000000000,"state":"active","ping":52},{"user_id":757,"name":"Carrot","steam_id":76561198119340863,"connected_time":1130000000000,"state":"active","ping":56},{"user_id":720,"name":"roblan11","steam_id":76561198066839258,"connected_time":3777000000000,"state":"active","ping":45},{"user_id":743,"name":"Syll","steam_id":76561198040736202,"connected_time":1517000000000,"state":"active","ping":94},{"user_id":745,"name":"‚ô• trixy ‚ô•","steam_id":76561199474154775,"connected_time":1414000000000,"state":"active","ping":63},{"user_id":735,"name":"KR Illusion","steam_id":76561198058968100,"connected_time":1816000000000,"state":"active","ping":162},{"user_id":768,"name":"Currently wearing crocs","steam_id":76561198139404261,"connected_time":271000000000,"state":"active","ping":53},{"user_id":733,"name":"ufomaster1111111","steam_id":76561198837347666,"connected_time":1847000000000,"state":"active","ping":57},{"user_id":770,"name":"Dewotter","steam_id":76561198007653168,"connected_time":195000000000,"state":"active","ping":65},{"user_id":771,"name":"Maddox","steam_id":76561198026419869,"connected_time":189000000000,"state":"active","ping":74},{"user_id":763,"name":"Zune","steam_id":76561198119382708,"connected_time":426000000000,"state":"active","ping":102},{"user_id":736,"name":"VaporFrog","steam_id":76561198429688289,"connected_time":1808000000000,"state":"active","ping":148},{"user_id":767,"name":"Spectral Sloth","steam_id":76561198170083139,"connected_time":273000000000,"state":"active","ping":81},{"user_id":744,"name":"dartling gunner","steam_id":76561199042470246,"connected_time":1492000000000,"state":"active","ping":45},{"user_id":772,"name":"ultrawup[ITA]","steam_id":76561198099778717,"connected_time":114000000000,"state":"active","ping":75},{"user_id":755,"name":"sape (huntsman enjoyer)","steam_id":76561198089322416,"connected_time":1134000000000,"state":"active","ping":114},{"user_id":756,"name":"Saint","steam_id":76561198003296382,"connected_time":1134000000000,"state":"active","ping":66},{"user_id":773,"name":"Aesthetic Alcoholism","steam_id":76561198044418968,"connected_time":46000000000,"state":"active","ping":52},{"user_id":728,"name":"kornetov.vitalya","steam_id":76561199286034833,"connected_time":3556000000000,"state":"active","ping":87},{"user_id":775,"name":"zek","steam_id":76561198862763731,"connected_time":15000000000,"state":"active","ping":178},{"user_id":716,"name":"LiterallyRyanGosling","steam_id":76561199017856691,"connected_time":4260000000000,"state":"active","ping":68},{"user_id":732,"name":"Lux","steam_id":76561198060417740,"connected_time":2515000000000,"state":"active","ping":47}]},{"server_id":310,"name":"Uncletopia | Frankfurt | 5 | All Maps","name_short":"frk-5","host":"frk-1.de.uncletopia.com","port":27055,"enabled":true,"region":"eu","cc":"de","latitude":50.110924,"longitude":8.682127,"reserved":0,"last_update":"0001-01-01T00:00:00Z","name_a2s":"Uncletopia | Frankfurt | 5 | All Maps","protocol":17,"map":"pl_pier","folder":"tf","game":"Team Fortress","app_id":440,"player_count":0,"max_players":24,"Bots":0,"server_type":"Dedicated","server_os":"Linux","password":true,"vac":true,"version":"7757534","steam_id":85568392924504277,"keywords":["nocrits","nodmgspread","payload","uncletopia"],"game_id":440,"stv_port":27056,"stv_name":"Uncletopia | Frankfurt | 5 | All Maps | STV","players":null},{"server_id":311,"name":"Uncletopia | Frankfurt | 6 | All Maps","name_short":"frk-6","host":"frk-1.de.uncletopia.com","port":27065,"enabled":true,"region":"eu","cc":"de","latitude":50.110924,"longitude":8.682127,"reserved":0,"last_update":"0001-01-01T00:00:00Z","name_a2s":"Uncletopia | Frankfurt | 6 | All Maps","protocol":17,"map":"pl_frontier_final","folder":"tf","game":"Team Fortress","app_id":440,"player_count":16,"max_players":24,"Bots":0,"server_type":"Dedicated","server_os":"Linux","password":true,"vac":true,"version":"7757534","steam_id":85568392924504278,"keywords":["nocrits","nodmgspread","payload","uncletopia"],"game_id":440,"stv_port":27066,"stv_name":"Uncletopia | Frankfurt | 6 | All Maps | STV","players":[{"user_id":353,"name":"Valoxi","steam_id":76561197995042938,"connected_time":185000000000,"state":"active","ping":69},{"user_id":346,"name":"limbicsystem","steam_id":76561198025612680,"connected_time":547000000000,"state":"active","ping":65},{"user_id":330,"name":"Vidrox #savetf2","steam_id":76561199217854983,"connected_time":1665000000000,"state":"active","ping":83},{"user_id":301,"name":"New","steam_id":76561198402195911,"connected_time":3561000000000,"state":"active","ping":119},{"user_id":313,"name":"„ÉÑNekomaru„ÉÑ","steam_id":76561199011677545,"connected_time":2839000000000,"state":"active","ping":110},{"user_id":338,"name":"Pixie","steam_id":76561198044038797,"connected_time":950000000000,"state":"active","ping":81},{"user_id":339,"name":"teddyswk","steam_id":76561198404939571,"connected_time":829000000000,"state":"active","ping":83},{"user_id":354,"name":"Dill Killem","steam_id":76561199071571354,"connected_time":19000000000,"state":"active","ping":75},{"user_id":334,"name":"0","steam_id":76561198267909207,"connected_time":1216000000000,"state":"active","ping":79},{"user_id":351,"name":"DribSitoop","steam_id":76561198020597104,"connected_time":472000000000,"state":"active","ping":67},{"user_id":342,"name":"scrumpy","steam_id":76561198218787232,"connected_time":638000000000,"state":"active","ping":58},{"user_id":343,"name":"ÊÇ™","steam_id":76561198095879087,"connected_time":630000000000,"state":"active","ping":60},{"user_id":355,"name":"RT_ratatuj","steam_id":76561199149578671,"connected_time":8000000000,"state":"spawning","ping":102},{"user_id":322,"name":"MagalaxShiro","steam_id":76561198079071492,"connected_time":2421000000000,"state":"active","ping":71},{"user_id":345,"name":"‚ú™ m_br3","steam_id":76561198044981990,"connected_time":578000000000,"state":"active","ping":66},{"user_id":348,"name":"Haha?","steam_id":76561198056882245,"connected_time":535000000000,"state":"active","ping":50}]},{"server_id":23,"name":"Uncletopia | Frankfurt | 7 | Stopwatch Beta","name_short":"frk-7","host":"frk-1.de.uncletopia.com","port":27075,"enabled":true,"region":"eu","cc":"de","latitude":50.110924,"longitude":8.682127,"reserved":0,"last_update":"0001-01-01T00:00:00Z","name_a2s":"Uncletopia | Frankfurt | 7 | Stopwatch Beta","protocol":17,"map":"workshop/pl_barnblitz_pro7.ugc582280235","folder":"tf","game":"Team Fortress","app_id":440,"player_count":0,"max_players":24,"Bots":0,"server_type":"Dedicated","server_os":"Linux","password":true,"vac":true,"version":"7757534","steam_id":85568392924742827,"keywords":["nocrits","nodmgspread","payload","uncletopia"],"game_id":440,"stv_port":27076,"stv_name":"Uncletopia | Frankfurt | 7 | Stopwatch Beta | STV","players":null},{"server_id":24,"name":"Uncletopia | Frankfurt | 8 | Community","name_short":"frk-8","host":"frk-1.de.uncletopia.com","port":27085,"enabled":true,"region":"eu","cc":"de","latitude":50.110924,"longitude":8.682127,"reserved":0,"last_update":"0001-01-01T00:00:00Z","name_a2s":"Uncletopia | Frankfurt | 8 | Community","protocol":17,"map":"workshop/cp_mannbase_rc2a.ugc1900737467","folder":"tf","game":"Team Fortress","app_id":440,"player_count":5,"max_players":24,"Bots":0,"server_type":"Dedicated","server_os":"Linux","password":true,"vac":true,"version":"7757534","steam_id":85568392924742828,"keywords":["cp","nocrits","nodmgspread","uncletopia"],"game_id":440,"stv_port":27086,"stv_name":"Uncletopia | Frankfurt | 8 | Community | STV","players":[{"user_id":35,"name":"i heal gay people","steam_id":76561198032167311,"connected_time":668000000000,"state":"active","ping":83},{"user_id":19,"name":"(can't chat)mafutbolero","steam_id":76561199233664005,"connected_time":5543000000000,"state":"active","ping":75},{"user_id":36,"name":"Walter White","steam_id":76561199212444037,"connected_time":424000000000,"state":"active","ping":85},{"user_id":21,"name":"Osmo","steam_id":76561199286764992,"connected_time":4955000000000,"state":"active","ping":74},{"user_id":33,"name":"[waffles]","steam_id":76561198951206047,"connected_time":1281000000000,"state":"active","ping":73}]},{"server_id":202,"name":"Uncletopia | Hong Kong | 1 | All Maps","name_short":"hgk-1","host":"hgk-1.hk.uncletopia.com","port":27015,"enabled":true,"region":"asia","cc":"hk","latitude":22.302711,"longitude":114.177216,"reserved":0,"last_update":"0001-01-01T00:00:00Z","name_a2s":"Uncletopia | Hong Kong | 1 | All Maps","protocol":17,"map":"koth_cascade","folder":"tf","game":"Team Fortress","app_id":440,"player_count":0,"max_players":24,"Bots":0,"server_type":"Dedicated","server_os":"Linux","password":true,"vac":true,"version":"7757534","steam_id":85568392924494504,"keywords":["cp","nocrits","nodmgspread","uncletopia"],"game_id":440,"stv_port":27016,"stv_name":"Uncletopia | Hong Kong | 1 | All Maps | STV","players":null},{"server_id":1,"name":"Uncletopia | Los Angeles | 1 | All Maps","name_short":"lax-1","host":"lax-1.us.uncletopia.com","port":27015,"enabled":true,"region":"us-west","cc":"us","latitude":33.94279,"longitude":-118.41004,"reserved":0,"last_update":"0001-01-01T00:00:00Z","name_a2s":"Uncletopia | Los Angeles | 1 | All Maps","protocol":17,"map":"koth_lakeside_final","folder":"tf","game":"Team Fortress","app_id":440,"player_count":0,"max_players":24,"Bots":0,"server_type":"Dedicated","server_os":"Linux","password":true,"vac":true,"version":"7757534","steam_id":85568392924469991,"keywords":["cp","nocrits","nodmgspread","uncletopia"],"game_id":440,"stv_port":27016,"stv_name":"Uncletopia | Los Angeles | 1 | All Maps | STV","players":null},{"server_id":112,"name":"Uncletopia | Los Angeles | 2 | All Maps","name_short":"lax-2","host":"lax-1.us.uncletopia.com","port":27025,"enabled":true,"region":"us-west","cc":"us","latitude":33.94279,"longitude":-118.41004,"reserved":0,"last_update":"0001-01-01T00:00:00Z","name_a2s":"Uncletopia | Los Angeles | 2 | All Maps","protocol":17,"map":"koth_lazarus","folder":"tf","game":"Team Fortress","app_id":440,"player_count":21,"max_players":24,"Bots":0,"server_type":"Dedicated","server_os":"Linux","password":true,"vac":true,"version":"7757534","steam_id":85568392924469992,"keywords":["cp","nocrits","nodmgspread","uncletopia"],"game_id":440,"stv_port":27026,"stv_name":"Uncletopia | Los Angeles | 2 | All Maps | STV","players":[{"user_id":55,"name":"Plimbo","steam_id":76561198400838588,"connected_time":71000000000,"state":"active","ping":92},{"user_id":17,"name":"a cat plushie","steam_id":76561198080046542,"connected_time":3190000000000,"state":"active","ping":75},{"user_id":56,"name":"klonoaaaaaaaAAAAAAA","steam_id":76561198067196509,"connected_time":30000000000,"state":"active","ping":31},{"user_id":32,"name":"ayyimyou","steam_id":76561199023391779,"connected_time":1284000000000,"state":"active","ping":99},{"user_id":31,"name":"Risky","steam_id":76561198231029328,"connected_time":1319000000000,"state":"active","ping":45},{"user_id":21,"name":"Enforcer Enthusiast","steam_id":76561199124102271,"connected_time":2224000000000,"state":"active","ping":79},{"user_id":48,"name":"poopshitter33","steam_id":76561199135483712,"connected_time":286000000000,"state":"active","ping":106},{"user_id":35,"name":"sharkzilla","steam_id":76561199432721187,"connected_time":915000000000,"state":"active","ping":95},{"user_id":43,"name":"emarkyu ü¶ê","steam_id":76561198420328039,"connected_time":491000000000,"state":"active","ping":55},{"user_id":39,"name":"stwoom","steam_id":76561199388774711,"connected_time":561000000000,"state":"active","ping":89},{"user_id":53,"name":"Thequirka","steam_id":76561198968058652,"connected_time":121000000000,"state":"active","ping":138},{"user_id":34,"name":"Ros√©","steam_id":76561198132161239,"connected_time":1263000000000,"state":"active","ping":115},{"user_id":40,"name":"Ducksen","steam_id":76561198063952058,"connected_time":537000000000,"state":"active","ping":55},{"user_id":42,"name":"Seingineerfeld","steam_id":76561197985749277,"connected_time":533000000000,"state":"active","ping":49},{"user_id":44,"name":"samantha","steam_id":76561198299290069,"connected_time":470000000000,"state":"active","ping":61},{"user_id":45,"name":"‚ñ≤‚ñº‚ñ≤ Paul Atreideeznuts","steam_id":76561198015714075,"connected_time":442000000000,"state":"active","ping":117},{"user_id":47,"name":"Shalom","steam_id":76561198410005222,"connected_time":388000000000,"state":"active","ping":66},{"user_id":54,"name":"Buswolley","steam_id":76561197995205571,"connected_time":119000000000,"state":"active","ping":65},{"user_id":51,"name":"Sentry Bustin' A Move","steam_id":76561198851536991,"connected_time":259000000000,"state":"active","ping":53},{"user_id":52,"name":"squid","steam_id":76561198070236972,"connected_time":183000000000,"state":"active","ping":60},{"user_id":57,"name":"Magnus","steam_id":76561198061634483,"connected_time":24000000000,"state":"spawning","ping":86}]},{"server_id":324,"name":"Uncletopia | Los Angeles | 3 | All Maps","name_short":"lax-3","host":"lax-1.us.uncletopia.com","port":27035,"enabled":true,"region":"us-west","cc":"us","latitude":33.94279,"longitude":-118.41004,"reserved":0,"last_update":"0001-01-01T00:00:00Z","name_a2s":"Uncletopia | Los Angeles | 3 | All Maps","protocol":17,"map":"pl_borneo","folder":"tf","game":"Team Fortress","app_id":440,"player_count":0,"max_players":24,"Bots":0,"server_type":"Dedicated","server_os":"Linux","password":true,"vac":true,"version":"7757534","steam_id":85568392924510198,"keywords":["nocrits","nodmgspread","payload","uncletopia"],"game_id":440,"stv_port":27036,"stv_name":"Uncletopia | Los Angeles | 3 | All Maps | STV","players":null},{"server_id":25,"name":"Uncletopia | Los Angeles | 4 | Stopwatch Beta","name_short":"lax-4","host":"lax-1.us.uncletopia.com","port":27045,"enabled":true,"region":"us-west","cc":"us","latitude":33.94279,"longitude":-118.41004,"reserved":0,"last_update":"0001-01-01T00:00:00Z","name_a2s":"Uncletopia | Los Angeles | 4 | Stopwatch Beta","protocol":17,"map":"pl_swiftwater_final1","folder":"tf","game":"Team Fortress","app_id":440,"player_count":0,"max_players":24,"Bots":0,"server_type":"Dedicated","server_os":"Linux","password":true,"vac":true,"version":"7757534","steam_id":85568392924510199,"keywords":["nocrits","nodmgspread","payload","uncletopia"],"game_id":440,"stv_port":27046,"stv_name":"Uncletopia | Los Angeles | 4 | Stopwatch Beta | STV","players":null},{"server_id":11,"name":"Uncletopia | London | 1 | All Maps","name_short":"lon-1","host":"lon-1.uk.uncletopia.com","port":27015,"enabled":true,"region":"eu","cc":"gb","latitude":51.509865,"longitude":-0.118092,"reserved":0,"last_update":"0001-01-01T00:00:00Z","name_a2s":"Uncletopia | London | 1 | All Maps","protocol":17,"map":"koth_harvest_final","folder":"tf","game":"Team Fortress","app_id":440,"player_count":24,"max_players":24,"Bots":0,"server_type":"Dedicated","server_os":"Linux","password":true,"vac":true,"version":"7757534","steam_id":85568392924367362,"keywords":["cp","nocrits","nodmgspread","uncletopia"],"game_id":440,"stv_port":27016,"stv_name":"Uncletopia | London | 1 | All Maps | STV","players":[{"user_id":518,"name":"leg","steam_id":76561199026097466,"connected_time":3626000000000,"state":"active","ping":73},{"user_id":540,"name":"gregory","steam_id":76561198145311680,"connected_time":2471000000000,"state":"active","ping":147},{"user_id":533,"name":"Economic crisis","steam_id":76561198063562843,"connected_time":2779000000000,"state":"active","ping":60},{"user_id":477,"name":"Pilaarius","steam_id":76561198120273212,"connected_time":5931000000000,"state":"active","ping":96},{"user_id":476,"name":"Jesus Enjoyer","steam_id":76561198840259819,"connected_time":5937000000000,"state":"active","ping":48},{"user_id":501,"name":"Kvicha Kvaratskhelia","steam_id":76561198179339326,"connected_time":4359000000000,"state":"active","ping":77},{"user_id":559,"name":"fox^","steam_id":76561198173355995,"connected_time":1153000000000,"state":"active","ping":81},{"user_id":532,"name":"silvanKING","steam_id":76561198415391988,"connected_time":2849000000000,"state":"active","ping":48},{"user_id":548,"name":"900T","steam_id":76561198398456732,"connected_time":2261000000000,"state":"active","ping":65},{"user_id":569,"name":"The Fellow Feller","steam_id":76561198188864306,"connected_time":367000000000,"state":"active","ping":70},{"user_id":494,"name":"Mi Manchi","steam_id":76561198171573129,"connected_time":4562000000000,"state":"active","ping":72},{"user_id":547,"name":"Caerot","steam_id":76561198839000676,"connected_time":2358000000000,"state":"active","ping":73},{"user_id":554,"name":"Scab Collector","steam_id":76561198346425545,"connected_time":1595000000000,"state":"active","ping":157},{"user_id":491,"name":"Martyawesome23","steam_id":76561198236015392,"connected_time":4604000000000,"state":"active","ping":123},{"user_id":568,"name":"tayro","steam_id":76561198202990635,"connected_time":556000000000,"state":"active","ping":67},{"user_id":571,"name":"thepro-strong","steam_id":76561198047359132,"connected_time":204000000000,"state":"active","ping":74},{"user_id":471,"name":"Garfield Senpai","steam_id":76561198253809458,"connected_time":6049000000000,"state":"active","ping":105},{"user_id":538,"name":"united chunk","steam_id":76561199017850298,"connected_time":2530000000000,"state":"active","ping":79},{"user_id":460,"name":"goblinninja110","steam_id":76561198269159354,"connected_time":6450000000000,"state":"active","ping":69},{"user_id":570,"name":"Aaron","steam_id":76561197990046953,"connected_time":232000000000,"state":"active","ping":60},{"user_id":458,"name":"Son Goku","steam_id":76561199383437138,"connected_time":6517000000000,"state":"active","ping":121},{"user_id":573,"name":"Meth","steam_id":76561199300394949,"connected_time":18000000000,"state":"active","ping":64},{"user_id":475,"name":"Dr Ludwig","steam_id":76561198426522902,"connected_time":5956000000000,"state":"active","ping":56},{"user_id":499,"name":"xavier","steam_id":76561198076494034,"connected_time":4374000000000,"state":"active","ping":50}]},{"server_id":114,"name":"Uncletopia | London | 2 | All Maps","name_short":"lon-2","host":"lon-1.uk.uncletopia.com","port":27025,"enabled":true,"region":"eu","cc":"gb","latitude":51.509865,"longitude":-0.118092,"reserved":0,"last_update":"0001-01-01T00:00:00Z","name_a2s":"Uncletopia | London | 2 | All Maps","protocol":17,"map":"pl_frontier_final","folder":"tf","game":"Team Fortress","app_id":440,"player_count":21,"max_players":24,"Bots":0,"server_type":"Dedicated","server_os":"Linux","password":true,"vac":true,"version":"7757534","steam_id":85568392924470941,"keywords":["nocrits","nodmgspread","payload","uncletopia"],"game_id":440,"stv_port":27026,"stv_name":"Uncletopia | London | 2 | All Maps | STV","players":[{"user_id":323,"name":"the indomitable human spirit","steam_id":76561198718760200,"connected_time":418000000000,"state":"active","ping":45},{"user_id":324,"name":"K23.","steam_id":76561198842670241,"connected_time":416000000000,"state":"active","ping":91},{"user_id":316,"name":"i AM the medic gf","steam_id":76561198247284680,"connected_time":898000000000,"state":"active","ping":75},{"user_id":333,"name":"onionich","steam_id":76561198835619904,"connected_time":273000000000,"state":"active","ping":119},{"user_id":340,"name":"Largo","steam_id":76561198844368927,"connected_time":191000000000,"state":"active","ping":70},{"user_id":327,"name":"Datenegassie","steam_id":76561198089417032,"connected_time":371000000000,"state":"active","ping":60},{"user_id":300,"name":"Ôº≤ ÔºØ Ôº¢ Ôº¢ Ôº• Ôº≤ Ôº¥","steam_id":76561198134404830,"connected_time":1726000000000,"state":"active","ping":105},{"user_id":292,"name":"Vanilla","steam_id":76561198073933435,"connected_time":2554000000000,"state":"active","ping":62},{"user_id":268,"name":"[T]aKer","steam_id":76561198001778013,"connected_time":5329000000000,"state":"active","ping":44},{"user_id":328,"name":"Misctek","steam_id":76561199037541925,"connected_time":357000000000,"state":"active","ping":74},{"user_id":329,"name":"Acid","steam_id":76561198102110680,"connected_time":355000000000,"state":"active","ping":100},{"user_id":339,"name":"quickfast","steam_id":76561199438900919,"connected_time":207000000000,"state":"active","ping":44},{"user_id":335,"name":"kojitori","steam_id":76561198838072150,"connected_time":256000000000,"state":"active","ping":45},{"user_id":294,"name":"Seron-Lowell","steam_id":76561198070291347,"connected_time":2510000000000,"state":"active","ping":61},{"user_id":336,"name":"I Don't Know","steam_id":76561198841011430,"connected_time":255000000000,"state":"active","ping":77},{"user_id":306,"name":"KEEEFEX","steam_id":76561198316041208,"connected_time":1337000000000,"state":"active","ping":81},{"user_id":341,"name":"Testicular torsion","steam_id":76561198119547399,"connected_time":110000000000,"state":"active","ping":71},{"user_id":342,"name":"Taco","steam_id":76561198158621392,"connected_time":94000000000,"state":"active","ping":130},{"user_id":343,"name":"Rz!","steam_id":76561198364380889,"connected_time":26000000000,"state":"spawning","ping":121},{"user_id":338,"name":"Pyro who laughs at sentries","steam_id":76561198027699372,"connected_time":232000000000,"state":"active","ping":91},{"user_id":272,"name":"GazerBazer","steam_id":76561198879107565,"connected_time":4889000000000,"state":"active","ping":62}]},{"server_id":320,"name":"Uncletopia | London | 3 | All Maps","name_short":"lon-3","host":"lon-1.uk.uncletopia.com","port":27035,"enabled":true,"region":"eu","cc":"gb","latitude":51.509865,"longitude":-0.118092,"reserved":0,"last_update":"0001-01-01T00:00:00Z","name_a2s":"Uncletopia | London | 3 | All Maps","protocol":17,"map":"cp_sunshine","folder":"tf","game":"Team Fortress","app_id":440,"player_count":21,"max_players":24,"Bots":0,"server_type":"Dedicated","server_os":"Linux","password":true,"vac":true,"version":"7757534","steam_id":85568392924510192,"keywords":["cp","nocrits","nodmgspread","uncletopia"],"game_id":440,"stv_port":27036,"stv_name":"Uncletopia | London | 3 | All Maps | STV","players":[{"user_id":529,"name":"Mario","steam_id":76561198321794277,"connected_time":1964000000000,"state":"active","ping":146},{"user_id":524,"name":"Madmoose96","steam_id":76561198081888486,"connected_time":2548000000000,"state":"active","ping":74},{"user_id":503,"name":"Davey","steam_id":76561198256879107,"connected_time":3461000000000,"state":"active","ping":76},{"user_id":546,"name":"Unknown","steam_id":76561199091800965,"connected_time":167000000000,"state":"active","ping":90},{"user_id":536,"name":"‚ô¨ ·¥õ·¥á·¥ã…™·¥õ ‚ô¨","steam_id":76561198111704722,"connected_time":1538000000000,"state":"active","ping":102},{"user_id":526,"name":"true","steam_id":76561198031145243,"connected_time":2319000000000,"state":"active","ping":76},{"user_id":505,"name":"Vanes #savetf2","steam_id":76561198070099171,"connected_time":3430000000000,"state":"active","ping":69},{"user_id":513,"name":"daddy cheese","steam_id":76561199049128913,"connected_time":3233000000000,"state":"active","ping":60},{"user_id":538,"name":"GMsU | AuxiliusM","steam_id":76561198071903356,"connected_time":1234000000000,"state":"active","ping":45},{"user_id":492,"name":"zvekan","steam_id":76561198381101196,"connected_time":4389000000000,"state":"active","ping":71},{"user_id":547,"name":"NuGs","steam_id":76561198305550934,"connected_time":146000000000,"state":"active","ping":46},{"user_id":543,"name":"Mr. Caesar","steam_id":76561198166329161,"connected_time":634000000000,"state":"active","ping":54},{"user_id":545,"name":"JownCenta","steam_id":76561198121397124,"connected_time":251000000000,"state":"active","ping":46},{"user_id":548,"name":"swift","steam_id":76561198343472301,"connected_time":124000000000,"state":"active","ping":50},{"user_id":525,"name":"KnugenIV","steam_id":76561198127091993,"connected_time":2471000000000,"state":"active","ping":63},{"user_id":540,"name":"GMsU | Smiley","steam_id":76561198121494414,"connected_time":1176000000000,"state":"active","ping":104},{"user_id":515,"name":"Gorogaz","steam_id":76561198207157679,"connected_time":3178000000000,"state":"active","ping":67},{"user_id":479,"name":"DarkFloy","steam_id":76561198070650206,"connected_time":4887000000000,"state":"active","ping":92},{"user_id":534,"name":"Petight","steam_id":76561197999438798,"connected_time":1789000000000,"state":"active","ping":32},{"user_id":521,"name":"non guardo sanremo (e ne vado f","steam_id":76561198340262024,"connected_time":2785000000000,"state":"active","ping":65},{"user_id":450,"name":"Pan Piotr","steam_id":76561198140016126,"connected_time":7075000000000,"state":"active","ping":75}]},{"server_id":321,"name":"Uncletopia | London | 4 | All Maps","name_short":"lon-4","host":"lon-1.uk.uncletopia.com","port":27045,"enabled":true,"region":"eu","cc":"gb","latitude":51.509865,"longitude":-0.118092,"reserved":0,"last_update":"0001-01-01T00:00:00Z","name_a2s":"Uncletopia | London | 4 | All Maps","protocol":17,"map":"pl_barnblitz","folder":"tf","game":"Team Fortress","app_id":440,"player_count":24,"max_players":24,"Bots":0,"server_type":"Dedicated","server_os":"Linux","password":true,"vac":true,"version":"7757534","steam_id":85568392924510193,"keywords":["nocrits","nodmgspread","payload","uncletopia"],"game_id":440,"stv_port":27046,"stv_name":"Uncletopia | London | 4 | All Maps | STV","players":[{"user_id":240,"name":"RIFT","steam_id":76561198991622379,"connected_time":348000000000,"state":"active","ping":43},{"user_id":230,"name":"Chubby Goblin Child","steam_id":76561199088612293,"connected_time":1373000000000,"state":"active","ping":52},{"user_id":223,"name":"Combat Wombat","steam_id":76561197994720068,"connected_time":1973000000000,"state":"active","ping":64},{"user_id":232,"name":"\u003e:3","steam_id":76561198368312026,"connected_time":1194000000000,"state":"active","ping":62},{"user_id":241,"name":"H2Orange","steam_id":76561198082128552,"connected_time":308000000000,"state":"active","ping":82},{"user_id":219,"name":"S\u0026W 500 enjoyer","steam_id":76561198963841479,"connected_time":2357000000000,"state":"active","ping":90},{"user_id":171,"name":"Dabman","steam_id":76561199207417437,"connected_time":5568000000000,"state":"active","ping":101},{"user_id":64,"name":"brokenphilip","steam_id":76561198080960604,"connected_time":12640000000000,"state":"active","ping":73},{"user_id":201,"name":"Hercules","steam_id":76561198041164170,"connected_time":3340000000000,"state":"active","ping":67},{"user_id":242,"name":"WATANG!","steam_id":76561198040478926,"connected_time":295000000000,"state":"active","ping":77},{"user_id":226,"name":"KFD","steam_id":76561198157183003,"connected_time":1761000000000,"state":"active","ping":84},{"user_id":183,"name":"king251311","steam_id":76561199063310889,"connected_time":4645000000000,"state":"active","ping":88},{"user_id":243,"name":"Malkuth","steam_id":76561198058567662,"connected_time":275000000000,"state":"active","ping":85},{"user_id":218,"name":"Shovelhalfrusty","steam_id":76561198346447513,"connected_time":2571000000000,"state":"active","ping":74},{"user_id":178,"name":"Stucent","steam_id":76561198147498713,"connected_time":5218000000000,"state":"active","ping":59},{"user_id":111,"name":"Smash hit enjoyer","steam_id":76561198311322738,"connected_time":10018000000000,"state":"active","ping":64},{"user_id":216,"name":"Flint","steam_id":76561197995920776,"connected_time":2655000000000,"state":"active","ping":51},{"user_id":233,"name":"ASDF656565","steam_id":76561197995676953,"connected_time":1189000000000,"state":"active","ping":62},{"user_id":244,"name":"mt","steam_id":76561197961319303,"connected_time":262000000000,"state":"active","ping":63},{"user_id":236,"name":"„Åà„Å™„Å™„Çì","steam_id":76561199427679148,"connected_time":418000000000,"state":"active","ping":130},{"user_id":48,"name":"syndenz","steam_id":76561198176063813,"connected_time":13833000000000,"state":"active","ping":75},{"user_id":237,"name":"yaldabaoth","steam_id":76561198084606869,"connected_time":390000000000,"state":"active","ping":133},{"user_id":210,"name":"One Shiny Boi‚Ñ¢","steam_id":76561198199193627,"connected_time":3138000000000,"state":"active","ping":80},{"user_id":245,"name":"finbar","steam_id":76561198056812396,"connected_time":258000000000,"state":"active","ping":74}]},{"server_id":21,"name":"Uncletopia | London | 5 | All Maps","name_short":"lon-5","host":"lon-1.uk.uncletopia.com","port":27055,"enabled":true,"region":"eu","cc":"gb","latitude":51.509865,"longitude":-0.118092,"reserved":0,"last_update":"0001-01-01T00:00:00Z","name_a2s":"Uncletopia | London | 5 | All Maps","protocol":17,"map":"pl_borneo","folder":"tf","game":"Team Fortress","app_id":440,"player_count":22,"max_players":24,"Bots":0,"server_type":"Dedicated","server_os":"Linux","password":true,"vac":true,"version":"7757534","steam_id":85568392924742829,"keywords":["nocrits","nodmgspread","payload","uncletopia"],"game_id":440,"stv_port":27056,"stv_name":"Uncletopia | London | 5 | All Maps | STV","players":[{"user_id":191,"name":"Hans Regenkurt","steam_id":76561199100937553,"connected_time":1893000000000,"state":"active","ping":84},{"user_id":244,"name":"Random","steam_id":76561199116602799,"connected_time":222000000000,"state":"active","ping":45},{"user_id":248,"name":"soofoul","steam_id":76561198285862099,"connected_time":127000000000,"state":"active","ping":41},{"user_id":242,"name":"tube","steam_id":76561198188642265,"connected_time":231000000000,"state":"active","ping":69},{"user_id":200,"name":"FoOzTV","steam_id":76561197998636728,"connected_time":1405000000000,"state":"active","ping":66},{"user_id":153,"name":"Angelatine(slut)","steam_id":76561198101624996,"connected_time":3826000000000,"state":"active","ping":98},{"user_id":214,"name":"Thors","steam_id":76561197968739075,"connected_time":940000000000,"state":"active","ping":39},{"user_id":186,"name":"Zegovic","steam_id":76561198017694404,"connected_time":2214000000000,"state":"active","ping":65},{"user_id":245,"name":"lament","steam_id":76561198320698726,"connected_time":209000000000,"state":"active","ping":112},{"user_id":198,"name":"ComradeFloppy","steam_id":76561198295671740,"connected_time":1462000000000,"state":"active","ping":45},{"user_id":234,"name":"Dilski","steam_id":76561198048896546,"connected_time":464000000000,"state":"active","ping":61},{"user_id":217,"name":"Craig Crusade","steam_id":76561199225918086,"connected_time":900000000000,"state":"active","ping":61},{"user_id":249,"name":"nay ners","steam_id":76561199238480644,"connected_time":21000000000,"state":"active","ping":140},{"user_id":218,"name":"WeegeePJ","steam_id":76561199383362382,"connected_time":833000000000,"state":"active","ping":130},{"user_id":199,"name":"Hubble","steam_id":76561198329002678,"connected_time":1458000000000,"state":"active","ping":48},{"user_id":201,"name":"‡πñ€£€úSir Robbiewolf","steam_id":76561198001357988,"connected_time":1396000000000,"state":"active","ping":64},{"user_id":221,"name":"mud","steam_id":76561198141497461,"connected_time":812000000000,"state":"active","ping":72},{"user_id":127,"name":"Hooodeeney","steam_id":76561199013654263,"connected_time":5456000000000,"state":"active","ping":73},{"user_id":172,"name":"a straight white male","steam_id":76561198381120660,"connected_time":3028000000000,"state":"active","ping":90},{"user_id":210,"name":"Ruke 1","steam_id":76561198409908008,"connected_time":1195000000000,"state":"active","ping":60},{"user_id":208,"name":"Espa√±aa","steam_id":76561198879587832,"connected_time":1208000000000,"state":"active","ping":79},{"user_id":247,"name":"mike erhmentraut","steam_id":76561199025378498,"connected_time":164000000000,"state":"active","ping":47}]},{"server_id":22,"name":"Uncletopia | London | 6 | All Maps","name_short":"lon-6","host":"lon-1.uk.uncletopia.com","port":27065,"enabled":true,"region":"eu","cc":"gb","latitude":51.509865,"longitude":-0.118092,"reserved":0,"last_update":"0001-01-01T00:00:00Z","name_a2s":"Uncletopia | London | 6 | All Maps","protocol":17,"map":"koth_viaduct","folder":"tf","game":"Team Fortress","app_id":440,"player_count":4,"max_players":24,"Bots":0,"server_type":"Dedicated","server_os":"Linux","password":true,"vac":true,"version":"7757534","steam_id":85568392924742830,"keywords":["cp","nocrits","nodmgspread","uncletopia"],"game_id":440,"stv_port":27066,"stv_name":"Uncletopia | London | 6 | All Maps | STV","players":[{"user_id":16,"name":"‚Ñ¢‚Åß‚Åß‰πÉ»ΩOOD PRINCŒû","steam_id":76561198137835796,"connected_time":1017000000000,"state":"active","ping":59},{"user_id":8,"name":"DaDemoBottleBoy","steam_id":76561199052375561,"connected_time":3878000000000,"state":"active","ping":54},{"user_id":9,"name":"john315546","steam_id":76561199186537930,"connected_time":3612000000000,"state":"active","ping":142},{"user_id":18,"name":"beheading video from 2009","steam_id":76561198834897089,"connected_time":487000000000,"state":"active","ping":71}]},{"server_id":40,"name":"Uncletopia | London | 7 | No Payload","name_short":"lon-7","host":"lon-1.uk.uncletopia.com","port":27075,"enabled":true,"region":"eu","cc":"gb","latitude":51.509865,"longitude":-0.118092,"reserved":0,"last_update":"0001-01-01T00:00:00Z","name_a2s":"Uncletopia | London | 7 | No Payload","protocol":17,"map":"cp_standin_final","folder":"tf","game":"Team Fortress","app_id":440,"player_count":14,"max_players":24,"Bots":0,"server_type":"Dedicated","server_os":"Linux","password":true,"vac":true,"version":"7757534","steam_id":85568392924964314,"keywords":["cp","nocrits","nodmgspread","uncletopia"],"game_id":440,"stv_port":27076,"stv_name":"Uncletopia | London | 7 | No Payload | STV","players":[{"user_id":99,"name":"Grumtsior","steam_id":76561198043563111,"connected_time":153000000000,"state":"active","ping":63},{"user_id":95,"name":"halo 3 rat","steam_id":76561198439007717,"connected_time":441000000000,"state":"active","ping":63},{"user_id":94,"name":"Keks","steam_id":76561198109155202,"connected_time":513000000000,"state":"active","ping":70},{"user_id":22,"name":"Der Herr Doktor","steam_id":76561198119476089,"connected_time":4497000000000,"state":"active","ping":133},{"user_id":92,"name":"PilloF","steam_id":76561198088635943,"connected_time":562000000000,"state":"active","ping":72},{"user_id":98,"name":"Saul Goodman","steam_id":76561198115131952,"connected_time":191000000000,"state":"active","ping":98},{"user_id":82,"name":"skitarii enjoyer","steam_id":76561198220245604,"connected_time":1282000000000,"state":"active","ping":69},{"user_id":24,"name":"Kirvis","steam_id":76561198027831643,"connected_time":4475000000000,"state":"active","ping":97},{"user_id":65,"name":"Noob_with_source","steam_id":76561198870362103,"connected_time":2186000000000,"state":"active","ping":53},{"user_id":74,"name":"bass solo","steam_id":76561199117720299,"connected_time":1778000000000,"state":"active","ping":60},{"user_id":37,"name":"Space","steam_id":76561198021572167,"connected_time":4043000000000,"state":"active","ping":45},{"user_id":49,"name":"Gry","steam_id":76561198053961616,"connected_time":3301000000000,"state":"active","ping":46},{"user_id":90,"name":"SirSangoor","steam_id":76561198044462559,"connected_time":617000000000,"state":"active","ping":110},{"user_id":86,"name":"Kibby","steam_id":76561197990056450,"connected_time":839000000000,"state":"active","ping":47}]},{"server_id":41,"name":"Uncletopia | London | 8 | Community","name_short":"lon-8","host":"lon-1.uk.uncletopia.com","port":27085,"enabled":true,"region":"eu","cc":"gb","latitude":51.509865,"longitude":-0.118092,"reserved":0,"last_update":"0001-01-01T00:00:00Z","name_a2s":"Uncletopia | London | 8 | Community","protocol":17,"map":"pl_barnblitz","folder":"tf","game":"Team Fortress","app_id":440,"player_count":0,"max_players":24,"Bots":0,"server_type":"Dedicated","server_os":"Linux","password":true,"vac":true,"version":"7757534","steam_id":85568392924964315,"keywords":["nocrits","nodmgspread","payload","uncletopia"],"game_id":440,"stv_port":27086,"stv_name":"Uncletopia | London | 8 | Community | STV","players":null},{"server_id":300,"name":"Uncletopia | Montr√©al | 1 | All Maps","name_short":"mtl-1","host":"mtl-1.ca.uncletopia.com","port":27015,"enabled":true,"region":"us-east","cc":"ca","latitude":45.50889,"longitude":-73.56167,"reserved":0,"last_update":"0001-01-01T00:00:00Z","name_a2s":"Uncletopia | Montr√©al | 1 | All Maps","protocol":17,"map":"cp_sunshine","folder":"tf","game":"Team Fortress","app_id":440,"player_count":0,"max_players":24,"Bots":0,"server_type":"Dedicated","server_os":"Linux","password":true,"vac":true,"version":"7757534","steam_id":85568392924500087,"keywords":["cp","nocrits","nodmgspread","uncletopia"],"game_id":440,"stv_port":27016,"stv_name":"Uncletopia | Montr√©al | 1 | All Maps | STV","players":null},{"server_id":301,"name":"Uncletopia | Montr√©al | 2 | All Maps","name_short":"mtl-2","host":"mtl-1.ca.uncletopia.com","port":27025,"enabled":true,"region":"us-east","cc":"ca","latitude":45.50889,"longitude":-73.56167,"reserved":0,"last_update":"0001-01-01T00:00:00Z","name_a2s":"Uncletopia | Montr√©al | 2 | All Maps","protocol":17,"map":"pl_snowycoast","folder":"tf","game":"Team Fortress","app_id":440,"player_count":0,"max_players":24,"Bots":0,"server_type":"Dedicated","server_os":"Linux","password":true,"vac":true,"version":"7757534","steam_id":85568392924500088,"keywords":["nocrits","nodmgspread","payload","uncletopia"],"game_id":440,"stv_port":27026,"stv_name":"Uncletopia | Montr√©al | 2 | All Maps | STV","players":null},{"server_id":302,"name":"Uncletopia | Montr√©al | 3 | All Maps","name_short":"mtl-3","host":"mtl-1.ca.uncletopia.com","port":27035,"enabled":true,"region":"us-east","cc":"ca","latitude":45.50889,"longitude":-73.56167,"reserved":0,"last_update":"0001-01-01T00:00:00Z","name_a2s":"Uncletopia | Montr√©al | 3 | All Maps","protocol":17,"map":"pl_swiftwater_final1","folder":"tf","game":"Team Fortress","app_id":440,"player_count":0,"max_players":24,"Bots":0,"server_type":"Dedicated","server_os":"Linux","password":true,"vac":true,"version":"7757534","steam_id":85568392924500089,"keywords":["nocrits","nodmgspread","payload","uncletopia"],"game_id":440,"stv_port":27036,"stv_name":"Uncletopia | Montr√©al | 3 | All Maps | STV","players":null},{"server_id":303,"name":"Uncletopia | Montr√©al | 4 | No Payload","name_short":"mtl-4","host":"mtl-1.ca.uncletopia.com","port":27045,"enabled":true,"region":"us-east","cc":"ca","latitude":45.50889,"longitude":-73.56167,"reserved":0,"last_update":"0001-01-01T00:00:00Z","name_a2s":"Uncletopia | Montr√©al | 4 | No Payload","protocol":17,"map":"cp_steel","folder":"tf","game":"Team Fortress","app_id":440,"player_count":0,"max_players":24,"Bots":0,"server_type":"Dedicated","server_os":"Linux","password":true,"vac":true,"version":"7757534","steam_id":85568392924500090,"keywords":["cp","nocrits","nodmgspread","uncletopia"],"game_id":440,"stv_port":27046,"stv_name":"Uncletopia | Montr√©al | 4 | No Payload | STV","players":null},{"server_id":13,"name":"Uncletopia | New York City | 1 | All Maps","name_short":"nyc-1","host":"nyc-1.us.uncletopia.com","port":27015,"enabled":true,"region":"us-east","cc":"us","latitude":40.73061,"longitude":-73.93524,"reserved":0,"last_update":"0001-01-01T00:00:00Z","name_a2s":"Uncletopia | New York City | 1 | All Maps","protocol":17,"map":"pl_upward","folder":"tf","game":"Team Fortress","app_id":440,"player_count":24,"max_players":24,"Bots":0,"server_type":"Dedicated","server_os":"Linux","password":true,"vac":true,"version":"7757534","steam_id":85568392924469993,"keywords":["nocrits","nodmgspread","payload","uncletopia"],"game_id":440,"stv_port":27016,"stv_name":"Uncletopia | New York City | 1 | All Maps | STV","players":[{"user_id":251,"name":"wahooka","steam_id":76561197981211922,"connected_time":871000000000,"state":"active","ping":58},{"user_id":243,"name":"LVL 4 Dispenser Gaming","steam_id":76561198044244547,"connected_time":1482000000000,"state":"active","ping":57},{"user_id":186,"name":"Wattle","steam_id":76561198036756626,"connected_time":5081000000000,"state":"active","ping":53},{"user_id":259,"name":"Havok","steam_id":76561198063455003,"connected_time":275000000000,"state":"active","ping":54},{"user_id":244,"name":"p","steam_id":76561198030291655,"connected_time":1480000000000,"state":"active","ping":62},{"user_id":208,"name":"burger king fries on the dash","steam_id":76561199049096532,"connected_time":3836000000000,"state":"active","ping":90},{"user_id":218,"name":"Tomcouger","steam_id":76561198022866923,"connected_time":3128000000000,"state":"active","ping":131},{"user_id":250,"name":"Nekoknight","steam_id":76561198400058665,"connected_time":927000000000,"state":"active","ping":60},{"user_id":252,"name":"(1)frank","steam_id":76561198045436159,"connected_time":861000000000,"state":"active","ping":54},{"user_id":219,"name":"Bipolar Beary","steam_id":76561198042027933,"connected_time":3120000000000,"state":"active","ping":123},{"user_id":255,"name":"The Pope","steam_id":76561198313560302,"connected_time":624000000000,"state":"active","ping":60},{"user_id":203,"name":"KhorneBread Ô∏ª„Éá ‰∏Ä","steam_id":76561198097069958,"connected_time":4483000000000,"state":"active","ping":72},{"user_id":224,"name":"WarMace","steam_id":76561198395937853,"connected_time":2976000000000,"state":"active","ping":86},{"user_id":221,"name":"Training Arc","steam_id":76561198038832034,"connected_time":3041000000000,"state":"active","ping":120},{"user_id":200,"name":"4ling","steam_id":76561197994398381,"connected_time":4655000000000,"state":"active","ping":58},{"user_id":258,"name":"Ricky Dicky Doo Dah Grimes","steam_id":76561198143221900,"connected_time":587000000000,"state":"active","ping":47},{"user_id":235,"name":"[√úBER] Bunnyboy","steam_id":76561198298416058,"connected_time":2383000000000,"state":"active","ping":65},{"user_id":253,"name":"you could stop at 5 or 6 stores","steam_id":76561198170928310,"connected_time":860000000000,"state":"active","ping":59},{"user_id":236,"name":"Frank","steam_id":76561198449656454,"connected_time":2339000000000,"state":"active","ping":54},{"user_id":210,"name":"roby","steam_id":76561198044660393,"connected_time":3729000000000,"state":"active","ping":126},{"user_id":249,"name":"SomeRandomCat","steam_id":76561199107044061,"connected_time":1243000000000,"state":"active","ping":88},{"user_id":215,"name":"Aeonspassed","steam_id":76561198014016451,"connected_time":3159000000000,"state":"active","ping":82},{"user_id":241,"name":"Bluekiwi1099","steam_id":76561198969079090,"connected_time":2154000000000,"state":"active","ping":88},{"user_id":217,"name":"Dastardly","steam_id":76561198028351509,"connected_time":3157000000000,"state":"active","ping":154}]},{"server_id":14,"name":"Uncletopia | New York City | 2 | All Maps","name_short":"nyc-2","host":"nyc-1.us.uncletopia.com","port":27025,"enabled":true,"region":"us-east","cc":"us","latitude":40.73061,"longitude":-73.93524,"reserved":0,"last_update":"0001-01-01T00:00:00Z","name_a2s":"Uncletopia | New York City | 2 | All Maps","protocol":17,"map":"pl_barnblitz","folder":"tf","game":"Team Fortress","app_id":440,"player_count":24,"max_players":24,"Bots":0,"server_type":"Dedicated","server_os":"Linux","password":true,"vac":true,"version":"7757534","steam_id":85568392924469994,"keywords":["nocrits","nodmgspread","payload","uncletopia"],"game_id":440,"stv_port":27026,"stv_name":"Uncletopia | New York City | 2 | All Maps | STV","players":[{"user_id":139,"name":"Fstev ‚úò","steam_id":76561198358766202,"connected_time":2947000000000,"state":"active","ping":136},{"user_id":142,"name":"Chiki","steam_id":76561198063590320,"connected_time":2922000000000,"state":"active","ping":74},{"user_id":120,"name":"Doctor Ichor","steam_id":76561198123815761,"connected_time":4543000000000,"state":"active","ping":87},{"user_id":172,"name":"Ripley","steam_id":76561198080766916,"connected_time":189000000000,"state":"active","ping":72},{"user_id":117,"name":"Notafraid90","steam_id":76561198104072542,"connected_time":4743000000000,"state":"active","ping":56},{"user_id":161,"name":"a 1930s robber","steam_id":76561198125237406,"connected_time":1154000000000,"state":"active","ping":64},{"user_id":143,"name":"Shwal","steam_id":76561198138840448,"connected_time":2893000000000,"state":"active","ping":78},{"user_id":108,"name":"GaiBerd","steam_id":76561198177100634,"connected_time":5674000000000,"state":"active","ping":46},{"user_id":144,"name":"Aphex Twin - Stone In Focus. . ","steam_id":76561198294013916,"connected_time":2817000000000,"state":"active","ping":42},{"user_id":154,"name":"QwilfishFan22","steam_id":76561198078565975,"connected_time":2067000000000,"state":"active","ping":51},{"user_id":140,"name":"The Jizzler","steam_id":76561198199708198,"connected_time":2947000000000,"state":"active","ping":88},{"user_id":169,"name":"h","steam_id":76561198319179446,"connected_time":791000000000,"state":"active","ping":97},{"user_id":146,"name":"Schmingus","steam_id":76561199476148332,"connected_time":2760000000000,"state":"active","ping":92},{"user_id":59,"name":"Smoke","steam_id":76561198140627349,"connected_time":9605000000000,"state":"active","ping":73},{"user_id":167,"name":"NanoBite","steam_id":76561197999426452,"connected_time":991000000000,"state":"active","ping":115},{"user_id":163,"name":"Atoc","steam_id":76561198300877325,"connected_time":1148000000000,"state":"active","ping":56},{"user_id":170,"name":"Chestnut","steam_id":76561198078198968,"connected_time":746000000000,"state":"active","ping":78},{"user_id":85,"name":"Aviyarn","steam_id":76561199074194652,"connected_time":6954000000000,"state":"active","ping":67},{"user_id":155,"name":"Your Wurst Nightmare","steam_id":76561198874531590,"connected_time":1930000000000,"state":"active","ping":61},{"user_id":149,"name":"SINEPLLAMS","steam_id":76561198316993833,"connected_time":2484000000000,"state":"active","ping":56},{"user_id":168,"name":"acurlyquote","steam_id":76561198110033420,"connected_time":991000000000,"state":"active","ping":77},{"user_id":165,"name":"Scourge","steam_id":76561198140584050,"connected_time":1118000000000,"state":"active","ping":46},{"user_id":171,"name":"gIBBY","steam_id":76561198080099598,"connected_time":456000000000,"state":"active","ping":40},{"user_id":166,"name":"Midlife Crisis Jotaro","steam_id":76561199023562280,"connected_time":1116000000000,"state":"active","ping":56}]},{"server_id":15,"name":"Uncletopia | New York City | 3 | Stopwatch Beta","name_short":"nyc-3","host":"nyc-1.us.uncletopia.com","port":27035,"enabled":true,"region":"us-east","cc":"us","latitude":40.73061,"longitude":-73.93524,"reserved":0,"last_update":"0001-01-01T00:00:00Z","name_a2s":"Uncletopia | New York City | 3 | Stopwatch Beta","protocol":17,"map":"cp_gullywash_final1","folder":"tf","game":"Team Fortress","app_id":440,"player_count":0,"max_players":24,"Bots":0,"server_type":"Dedicated","server_os":"Linux","password":true,"vac":true,"version":"7757534","steam_id":85568392924742820,"keywords":["cp","nocrits","nodmgspread","uncletopia"],"game_id":440,"stv_port":27036,"stv_name":"Uncletopia | New York City | 3 | Stopwatch Beta | STV","players":null},{"server_id":16,"name":"Uncletopia | New York City | 4 | Community","name_short":"nyc-4","host":"nyc-1.us.uncletopia.com","port":27045,"enabled":true,"region":"us-east","cc":"us","latitude":40.73061,"longitude":-73.93524,"reserved":0,"last_update":"0001-01-01T00:00:00Z","name_a2s":"Uncletopia | New York City | 4 | Community","protocol":17,"map":"workshop/koth_ramjam_rc1.ugc459778887","folder":"tf","game":"Team Fortress","app_id":440,"player_count":0,"max_players":24,"Bots":0,"server_type":"Dedicated","server_os":"Linux","password":true,"vac":true,"version":"7757534","steam_id":85568392924742821,"keywords":["cp","nocrits","nodmgspread","uncletopia"],"game_id":440,"stv_port":27046,"stv_name":"Uncletopia | New York City | 4 | Community | STV","players":null},{"server_id":142,"name":"Uncletopia | S√£o Paulo | 1 | All Maps","name_short":"sao-1","host":"sao-1.br.uncletopia.com","port":27015,"enabled":true,"region":"sa","cc":"br","latitude":-23.533773,"longitude":-46.62529,"reserved":0,"last_update":"0001-01-01T00:00:00Z","name_a2s":"Uncletopia | S√£o Paulo | 1 | All Maps","protocol":17,"map":"koth_highpass","folder":"tf","game":"Team Fortress","app_id":440,"player_count":0,"max_players":24,"Bots":0,"server_type":"Dedicated","server_os":"Linux","password":true,"vac":true,"version":"7757534","steam_id":85568392924469996,"keywords":["cp","nocrits","nodmgspread","uncletopia"],"game_id":440,"stv_port":27016,"stv_name":"Uncletopia | S√£o Paulo | 1 | All Maps | STV","players":null},{"server_id":143,"name":"Uncletopia | S√£o Paulo | 2 | All Maps","name_short":"sao-2","host":"sao-2.br.uncletopia.com","port":27015,"enabled":true,"region":"sa","cc":"br","latitude":-23.533773,"longitude":-46.62529,"reserved":0,"last_update":"0001-01-01T00:00:00Z","name_a2s":"Uncletopia | S√£o Paulo | 2 | All Maps","protocol":17,"map":"koth_cascade","folder":"tf","game":"Team Fortress","app_id":440,"player_count":7,"max_players":24,"Bots":0,"server_type":"Dedicated","server_os":"Linux","password":true,"vac":true,"version":"7757534","steam_id":85568392924485349,"keywords":["cp","nocrits","nodmgspread","uncletopia"],"game_id":440,"stv_port":27016,"stv_name":"Uncletopia | S√£o Paulo | 2 | All Maps | STV","players":[{"user_id":10,"name":"Meenctory","steam_id":76561198268374166,"connected_time":1727000000000,"state":"active","ping":55},{"user_id":11,"name":"dudescore","steam_id":76561199091453555,"connected_time":1544000000000,"state":"active","ping":240},{"user_id":12,"name":"FoxRealGaming","steam_id":76561199363992142,"connected_time":1398000000000,"state":"active","ping":259},{"user_id":20,"name":"Doc","steam_id":76561198321726940,"connected_time":89000000000,"state":"active","ping":57},{"user_id":16,"name":"Blingblingboy","steam_id":76561198187161833,"connected_time":839000000000,"state":"active","ping":50},{"user_id":17,"name":"Tigas","steam_id":76561198151597169,"connected_time":753000000000,"state":"active","ping":46},{"user_id":21,"name":"Ninethyed","steam_id":76561198208071575,"connected_time":5000000000,"state":"spawning","ping":48}]},{"server_id":7,"name":"Uncletopia | Seattle | 1 | All Maps","name_short":"sea-1","host":"sea-1.us.uncletopia.com","port":27015,"enabled":true,"region":"us-west","cc":"us","latitude":47.608013,"longitude":-122.33517,"reserved":0,"last_update":"0001-01-01T00:00:00Z","name_a2s":"Uncletopia | Seattle | 1 | All Maps","protocol":17,"map":"pl_pier","folder":"tf","game":"Team Fortress","app_id":440,"player_count":24,"max_players":24,"Bots":0,"server_type":"Dedicated","server_os":"Linux","password":true,"vac":true,"version":"7757534","steam_id":85568392924469997,"keywords":["nocrits","nodmgspread","payload","uncletopia"],"game_id":440,"stv_port":27016,"stv_name":"Uncletopia | Seattle | 1 | All Maps | STV","players":[{"user_id":187,"name":"AmiableNebula","steam_id":76561198094306627,"connected_time":6675000000000,"state":"active","ping":74},{"user_id":236,"name":"soda","steam_id":76561198105924953,"connected_time":3640000000000,"state":"active","ping":70},{"user_id":279,"name":"SneekiCheekiQbone","steam_id":76561198045077980,"connected_time":184000000000,"state":"active","ping":71},{"user_id":259,"name":"aden","steam_id":76561199083568754,"connected_time":2457000000000,"state":"active","ping":76},{"user_id":172,"name":"monkey squirts","steam_id":76561197983101644,"connected_time":8110000000000,"state":"active","ping":63},{"user_id":202,"name":"Prof. Eggnog","steam_id":76561198193389166,"connected_time":5387000000000,"state":"active","ping":136},{"user_id":275,"name":"Frank (#ripJimmyCarter)","steam_id":76561198126681511,"connected_time":775000000000,"state":"active","ping":77},{"user_id":250,"name":"purple‚Ñ¢ | they/she","steam_id":76561198057459725,"connected_time":2744000000000,"state":"active","ping":56},{"user_id":266,"name":"Strikerbolt","steam_id":76561199095622897,"connected_time":1578000000000,"state":"active","ping":82},{"user_id":261,"name":"BraxBird","steam_id":76561199262535082,"connected_time":2302000000000,"state":"active","ping":85},{"user_id":252,"name":"Vacc Onetrick","steam_id":76561198207987376,"connected_time":2717000000000,"state":"active","ping":119},{"user_id":100,"name":"Kick Down Door 6:00AM TUCK‚òÉRO","steam_id":76561197976146738,"connected_time":14350000000000,"state":"active","ping":135},{"user_id":264,"name":"Cyber Cowboy","steam_id":76561198799697984,"connected_time":1824000000000,"state":"active","ping":87},{"user_id":244,"name":"Lou Wii Gee","steam_id":76561198308449320,"connected_time":3354000000000,"state":"active","ping":94},{"user_id":255,"name":"Peppy","steam_id":76561198866629645,"connected_time":2677000000000,"state":"active","ping":60},{"user_id":282,"name":"lavender","steam_id":76561199069518286,"connected_time":116000000000,"state":"active","ping":67},{"user_id":271,"name":"Lightish Red","steam_id":76561198060879701,"connected_time":980000000000,"state":"active","ping":95},{"user_id":262,"name":"charm quark","steam_id":76561198098770777,"connected_time":2244000000000,"state":"active","ping":46},{"user_id":276,"name":"weenie hut jr","steam_id":76561198206922028,"connected_time":358000000000,"state":"active","ping":74},{"user_id":281,"name":"Try Gardening","steam_id":76561198120311340,"connected_time":141000000000,"state":"active","ping":100},{"user_id":200,"name":"Cloud","steam_id":76561198272454184,"connected_time":5669000000000,"state":"active","ping":173},{"user_id":277,"name":"Keamy","steam_id":76561199471434875,"connected_time":297000000000,"state":"active","ping":45},{"user_id":272,"name":"help","steam_id":76561199056338917,"connected_time":964000000000,"state":"active","ping":130},{"user_id":280,"name":"COKEISBAD","steam_id":76561198443746507,"connected_time":168000000000,"state":"active","ping":100}]},{"server_id":119,"name":"Uncletopia | Seattle | 2 | All Maps","name_short":"sea-2","host":"sea-1.us.uncletopia.com","port":27025,"enabled":true,"region":"us-west","cc":"us","latitude":47.608013,"longitude":-122.33517,"reserved":0,"last_update":"0001-01-01T00:00:00Z","name_a2s":"Uncletopia | Seattle | 2 | All Maps","protocol":17,"map":"koth_nucleus","folder":"tf","game":"Team Fortress","app_id":440,"player_count":14,"max_players":24,"Bots":0,"server_type":"Dedicated","server_os":"Linux","password":true,"vac":true,"version":"7757534","steam_id":85568392924469998,"keywords":["cp","nocrits","nodmgspread","uncletopia"],"game_id":440,"stv_port":27026,"stv_name":"Uncletopia | Seattle | 2 | All Maps | STV","players":[{"user_id":182,"name":"Rue","steam_id":76561198013135993,"connected_time":55000000000,"state":"spawning","ping":221},{"user_id":172,"name":"DK360","steam_id":76561198796783094,"connected_time":405000000000,"state":"spawning","ping":105},{"user_id":136,"name":"PinguEnjoyer6","steam_id":76561199186723516,"connected_time":2523000000000,"state":"spawning","ping":220},{"user_id":169,"name":"Imyuteus","steam_id":76561198097837285,"connected_time":697000000000,"state":"spawning","ping":135},{"user_id":180,"name":"Dabidio","steam_id":76561198347107425,"connected_time":158000000000,"state":"spawning","ping":126},{"user_id":181,"name":"weegeebad","steam_id":76561198280841437,"connected_time":116000000000,"state":"spawning","ping":151},{"user_id":173,"name":"earthbound393","steam_id":76561199444276547,"connected_time":403000000000,"state":"spawning","ping":161},{"user_id":118,"name":"Rango","steam_id":76561198067275912,"connected_time":4403000000000,"state":"spawning","ping":142},{"user_id":161,"name":"MisterManne","steam_id":76561198106598600,"connected_time":1194000000000,"state":"spawning","ping":85},{"user_id":51,"name":"Little Linguine","steam_id":76561198816986370,"connected_time":8330000000000,"state":"spawning","ping":88},{"user_id":162,"name":"booger","steam_id":76561198333832807,"connected_time":1182000000000,"state":"spawning","ping":100},{"user_id":178,"name":"qscope","steam_id":76561199075528394,"connected_time":310000000000,"state":"spawning","ping":136},{"user_id":148,"name":"yup","steam_id":76561199190800520,"connected_time":2014000000000,"state":"spawning","ping":102},{"user_id":167,"name":"G‡∂ûMER","steam_id":76561198340389876,"connected_time":920000000000,"state":"spawning","ping":153}]},{"server_id":406,"name":"Uncletopia | Seattle | 3 | Stopwatch Beta","name_short":"sea-3","host":"sea-1.us.uncletopia.com","port":27035,"enabled":true,"region":"us-west","cc":"us","latitude":47.608013,"longitude":-122.33517,"reserved":0,"last_update":"0001-01-01T00:00:00Z","name_a2s":"Uncletopia | Seattle | 3 | Stopwatch Beta","protocol":17,"map":"cp_metalworks","folder":"tf","game":"Team Fortress","app_id":440,"player_count":0,"max_players":24,"Bots":0,"server_type":"Dedicated","server_os":"Linux","password":true,"vac":true,"version":"7757534","steam_id":85568392924515217,"keywords":["cp","nocrits","nodmgspread","uncletopia"],"game_id":440,"stv_port":27036,"stv_name":"Uncletopia | Seattle | 3 | Stopwatch Beta | STV","players":null},{"server_id":17,"name":"Uncletopia | San Francisco | 1 | All Maps","name_short":"sfo-1","host":"sfo-1.us.uncletopia.com","port":27015,"enabled":true,"region":"us-west","cc":"us","latitude":37.77397,"longitude":-122.4313,"reserved":0,"last_update":"0001-01-01T00:00:00Z","name_a2s":"Uncletopia | San Francisco | 1 | All Maps","protocol":17,"map":"cp_snakewater_final1","folder":"tf","game":"Team Fortress","app_id":440,"player_count":0,"max_players":24,"Bots":0,"server_type":"Dedicated","server_os":"Linux","password":true,"vac":true,"version":"7757534","steam_id":85568392924469999,"keywords":["cp","nocrits","nodmgspread","uncletopia"],"game_id":440,"stv_port":27016,"stv_name":"Uncletopia | San Francisco | 1 | All Maps | STV","players":null},{"server_id":18,"name":"Uncletopia | San Francisco | 2 | All Maps","name_short":"sfo-2","host":"sfo-1.us.uncletopia.com","port":27025,"enabled":true,"region":"us-west","cc":"us","latitude":37.77397,"longitude":-122.4313,"reserved":0,"last_update":"0001-01-01T00:00:00Z","name_a2s":"Uncletopia | San Francisco | 2 | All Maps","protocol":17,"map":"koth_highpass","folder":"tf","game":"Team Fortress","app_id":440,"player_count":0,"max_players":24,"Bots":0,"server_type":"Dedicated","server_os":"Linux","password":true,"vac":true,"version":"7757534","steam_id":85568392924470000,"keywords":["cp","nocrits","nodmgspread","uncletopia"],"game_id":440,"stv_port":27026,"stv_name":"Uncletopia | San Francisco | 2 | All Maps | STV","players":null},{"server_id":19,"name":"Uncletopia | San Francisco | 3 | Stopwatch Beta","name_short":"sfo-3","host":"sfo-1.us.uncletopia.com","port":27035,"enabled":true,"region":"us-west","cc":"us","latitude":37.77397,"longitude":-122.4313,"reserved":0,"last_update":"0001-01-01T00:00:00Z","name_a2s":"Uncletopia | San Francisco | 3 | Stopwatch Beta","protocol":17,"map":"koth_lakeside_final","folder":"tf","game":"Team Fortress","app_id":440,"player_count":0,"max_players":24,"Bots":0,"server_type":"Dedicated","server_os":"Linux","password":true,"vac":true,"version":"7757534","steam_id":85568392924742824,"keywords":["cp","nocrits","nodmgspread","uncletopia"],"game_id":440,"stv_port":27036,"stv_name":"Uncletopia | San Francisco | 3 | Stopwatch Beta | STV","players":null},{"server_id":20,"name":"Uncletopia | San Francisco | 4 | Community","name_short":"sfo-4","host":"sfo-1.us.uncletopia.com","port":27045,"enabled":true,"region":"us-west","cc":"us","latitude":37.77397,"longitude":-122.4313,"reserved":0,"last_update":"0001-01-01T00:00:00Z","name_a2s":"Uncletopia | San Francisco | 4 | Community","protocol":17,"map":"workshop/pl_cashworks_final1.ugc2904065412","folder":"tf","game":"Team Fortress","app_id":440,"player_count":0,"max_players":24,"Bots":0,"server_type":"Dedicated","server_os":"Linux","password":true,"vac":true,"version":"7757534","steam_id":85568392924742826,"keywords":["nocrits","nodmgspread","payload","uncletopia"],"game_id":440,"stv_port":27046,"stv_name":"Uncletopia | San Francisco | 4 | Community | STV","players":null},{"server_id":141,"name":"Uncletopia | Sydney | 1 | All Maps","name_short":"syd-1","host":"syd-1.au.uncletopia.com","port":27015,"enabled":true,"region":"au","cc":"au","latitude":-33.865143,"longitude":151.2099,"reserved":0,"last_update":"0001-01-01T00:00:00Z","name_a2s":"Uncletopia | Sydney | 1 | All Maps","protocol":17,"map":"koth_viaduct","folder":"tf","game":"Team Fortress","app_id":440,"player_count":0,"max_players":24,"Bots":0,"server_type":"Dedicated","server_os":"Linux","password":true,"vac":true,"version":"7757534","steam_id":85568392924470001,"keywords":["cp","nocrits","nodmgspread","uncletopia"],"game_id":440,"stv_port":27016,"stv_name":"Uncletopia | Sydney | 1 | All Maps | STV","players":null},{"server_id":123,"name":"Uncletopia | Sydney | 2 | All Maps","name_short":"syd-2","host":"syd-1.au.uncletopia.com","port":27025,"enabled":true,"region":"au","cc":"au","latitude":-33.865143,"longitude":151.2099,"reserved":0,"last_update":"0001-01-01T00:00:00Z","name_a2s":"Uncletopia | Sydney | 2 | All Maps","protocol":17,"map":"cp_process_final","folder":"tf","game":"Team Fortress","app_id":440,"player_count":0,"max_players":24,"Bots":0,"server_type":"Dedicated","server_os":"Linux","password":true,"vac":true,"version":"7757534","steam_id":85568392924470002,"keywords":["cp","nocrits","nodmgspread","uncletopia"],"game_id":440,"stv_port":27026,"stv_name":"Uncletopia | Sydney | 2 | All Maps | STV","players":null},{"server_id":395,"name":"Uncletopia | Sydney | 3 | All Maps","name_short":"syd-3","host":"syd-1.au.uncletopia.com","port":27035,"enabled":true,"region":"au","cc":"au","latitude":-33.865143,"longitude":151.2099,"reserved":0,"last_update":"0001-01-01T00:00:00Z","name_a2s":"Uncletopia | Sydney | 3 | All Maps","protocol":17,"map":"pl_swiftwater_final1","folder":"tf","game":"Team Fortress","app_id":440,"player_count":0,"max_players":24,"Bots":0,"server_type":"Dedicated","server_os":"Linux","password":true,"vac":true,"version":"7757534","steam_id":85568392925194467,"keywords":["nocrits","nodmgspread","payload","uncletopia"],"game_id":440,"stv_port":27036,"stv_name":"Uncletopia | Sydney | 3 | All Maps | STV","players":null},{"server_id":396,"name":"Uncletopia | Sydney | 4 | All Maps","name_short":"syd-4","host":"syd-1.au.uncletopia.com","port":27045,"enabled":true,"region":"au","cc":"au","latitude":-33.865143,"longitude":151.2099,"reserved":0,"last_update":"0001-01-01T00:00:00Z","name_a2s":"Uncletopia | Sydney | 4 | All Maps","protocol":17,"map":"koth_highpass","folder":"tf","game":"Team Fortress","app_id":440,"player_count":0,"max_players":24,"Bots":0,"server_type":"Dedicated","server_os":"Linux","password":true,"vac":true,"version":"7757534","steam_id":85568392925397958,"keywords":["cp","nocrits","nodmgspread","uncletopia"],"game_id":440,"stv_port":27046,"stv_name":"Uncletopia | Sydney | 4 | All Maps | STV","players":null},{"server_id":58,"name":"Uncletopia | Sydney | 5 | Stopwatch Beta","name_short":"syd-5","host":"syd-1.au.uncletopia.com","port":27055,"enabled":true,"region":"au","cc":"au","latitude":-33.865143,"longitude":151.2099,"reserved":0,"last_update":"0001-01-01T00:00:00Z","name_a2s":"Uncletopia | Sydney | 5 | Stopwatch Beta","protocol":17,"map":"koth_cascade","folder":"tf","game":"Team Fortress","app_id":440,"player_count":0,"max_players":24,"Bots":0,"server_type":"Dedicated","server_os":"Linux","password":true,"vac":true,"version":"7757534","steam_id":85568392925397959,"keywords":["cp","nocrits","nodmgspread","uncletopia"],"game_id":440,"stv_port":27056,"stv_name":"Uncletopia | Sydney | 5 | Stopwatch Beta | STV","players":null},{"server_id":59,"name":"Uncletopia | Sydney | 6 | Community","name_short":"syd-6","host":"syd-1.au.uncletopia.com","port":27065,"enabled":true,"region":"au","cc":"au","latitude":-33.865143,"longitude":151.2099,"reserved":0,"last_update":"0001-01-01T00:00:00Z","name_a2s":"Uncletopia | Sydney | 6 | Community","protocol":17,"map":"cp_snakewater_final1","folder":"tf","game":"Team Fortress","app_id":440,"player_count":0,"max_players":24,"Bots":0,"server_type":"Dedicated","server_os":"Linux","password":true,"vac":true,"version":"7757534","steam_id":85568392925397960,"keywords":["cp","nocrits","nodmgspread","uncletopia"],"game_id":440,"stv_port":27066,"stv_name":"Uncletopia | Sydney | 6 | Community | STV","players":null},{"server_id":49,"name":"Uncletopia | Warsaw | 1 | All Maps","name_short":"waw-1","host":"waw-1.pl.uncletopia.com","port":27015,"enabled":true,"region":"eu","cc":"pl","latitude":52.2297,"longitude":21.017532,"reserved":0,"last_update":"0001-01-01T00:00:00Z","name_a2s":"","protocol":0,"map":"","folder":"","game":"","app_id":0,"player_count":0,"max_players":0,"Bots":0,"server_type":"","server_os":"","password":false,"vac":false,"version":"","steam_id":0,"keywords":null,"game_id":0,"stv_port":0,"stv_name":"","players":null},{"server_id":50,"name":"Uncletopia | Warsaw | 2 | All Maps","name_short":"waw-2","host":"waw-1.pl.uncletopia.com","port":27025,"enabled":true,"region":"eu","cc":"pl","latitude":52.2297,"longitude":21.017532,"reserved":0,"last_update":"0001-01-01T00:00:00Z","name_a2s":"Uncletopia | Warsaw | 2 | All Maps","protocol":17,"map":"pl_frontier_final","folder":"tf","game":"Team Fortress","app_id":440,"player_count":0,"max_players":24,"Bots":0,"server_type":"Dedicated","server_os":"Linux","password":true,"vac":true,"version":"7757534","steam_id":85568392925397851,"keywords":["nocrits","nodmgspread","payload","uncletopia"],"game_id":440,"stv_port":27026,"stv_name":"Uncletopia | Warsaw | 2 | All Maps | STV","players":null},{"server_id":51,"name":"Uncletopia | Warsaw | 3 | All Maps","name_short":"waw-3","host":"waw-1.pl.uncletopia.com","port":27035,"enabled":true,"region":"eu","cc":"pl","latitude":52.2297,"longitude":21.017532,"reserved":0,"last_update":"0001-01-01T00:00:00Z","name_a2s":"Uncletopia | Warsaw | 3 | All Maps","protocol":17,"map":"pl_badwater","folder":"tf","game":"Team Fortress","app_id":440,"player_count":0,"max_players":24,"Bots":0,"server_type":"Dedicated","server_os":"Linux","password":true,"vac":true,"version":"7757534","steam_id":85568392925397852,"keywords":["nocrits","nodmgspread","payload","uncletopia"],"game_id":440,"stv_port":27036,"stv_name":"Uncletopia | Warsaw | 3 | All Maps | STV","players":null},{"server_id":52,"name":"Uncletopia | Warsaw | 4 | All Maps","name_short":"waw-4","host":"waw-1.pl.uncletopia.com","port":27045,"enabled":true,"region":"eu","cc":"pl","latitude":52.2297,"longitude":21.017532,"reserved":0,"last_update":"0001-01-01T00:00:00Z","name_a2s":"Uncletopia | Warsaw | 4 | All Maps","protocol":17,"map":"koth_lakeside_final","folder":"tf","game":"Team Fortress","app_id":440,"player_count":0,"max_players":24,"Bots":0,"server_type":"Dedicated","server_os":"Linux","password":true,"vac":true,"version":"7757534","steam_id":85568392925397853,"keywords":["cp","nocrits","nodmgspread","uncletopia"],"game_id":440,"stv_port":27046,"stv_name":"Uncletopia | Warsaw | 4 | All Maps | STV","players":null},{"server_id":53,"name":"Uncletopia | Warsaw | 5 | Stopwatch Beta","name_short":"waw-5","host":"waw-1.pl.uncletopia.com","port":27055,"enabled":true,"region":"eu","cc":"pl","latitude":52.2297,"longitude":21.017532,"reserved":0,"last_update":"0001-01-01T00:00:00Z","name_a2s":"Uncletopia | Warsaw | 5 | Stopwatch Beta","protocol":17,"map":"pl_borneo","folder":"tf","game":"Team Fortress","app_id":440,"player_count":0,"max_players":24,"Bots":0,"server_type":"Dedicated","server_os":"Linux","password":true,"vac":true,"version":"7757534","steam_id":85568392925397854,"keywords":["nocrits","nodmgspread","payload","uncletopia"],"game_id":440,"stv_port":27056,"stv_name":"Uncletopia | Warsaw | 5 | Stopwatch Beta | STV","players":null},{"server_id":54,"name":"Uncletopia | Warsaw | 6 | Community","name_short":"waw-6","host":"waw-1.pl.uncletopia.com","port":27065,"enabled":true,"region":"eu","cc":"pl","latitude":52.2297,"longitude":21.017532,"reserved":0,"last_update":"0001-01-01T00:00:00Z","name_a2s":"Uncletopia | Warsaw | 6 | Community","protocol":17,"map":"koth_lakeside_final","folder":"tf","game":"Team Fortress","app_id":440,"player_count":0,"max_players":24,"Bots":0,"server_type":"Dedicated","server_os":"Linux","password":true,"vac":true,"version":"7757534","steam_id":85568392925397856,"keywords":["cp","nocrits","nodmgspread","uncletopia"],"game_id":440,"stv_port":27066,"stv_name":"Uncletopia | Warsaw | 6 | Community | STV","players":null}]}