{"status":true,"message":"","result":[{"server_id":9,"name":"Uncletopia | Atlanta | 1 | All Maps","name_short":"atl-1","host":"atl-1.us.uncletopia.com","port":27015,"enabled":true,"region":"us-east","cc":"us","latitude":33.753746,"longitude":-84.38633,"reserved":0,"last_update":"0001-01-01T00:00:00Z","name_a2s":"Uncletopia | Atlanta | 1 | All Maps","protocol":17,"map":"pl_pier","folder":"tf","game":"Team Fortress","app_id":440,"player_count":0,"max_players":24,"Bots":0,"server_type":"Dedicated","server_os":"Linux","password":true,"vac":true,"version":"7757534","steam_id":85568392924469982,"keywords":["nocrits","nodmgspread","payload","uncletopia"],"game_id":440,"stv_port":27016,"stv_name":"Uncletopia | Atlanta | 1 | All Maps | STV","players":null},{"server_id":400,"name":"Uncletopia | Atlanta | 3 | Community","name_short":"atl-3","host":"atl-1.us.uncletopia.com","port":27035,"enabled":true,"region":"us-east","cc":"us","latitude":33.753746,"longitude":-84.38633,"reserved":0,"last_update":"0001-01-01T00:00:00Z","name_a2s":"Uncletopia | Atlanta | 3 | Community","protocol":17,"map":"pl_swiftwater_final1","folder":"tf","game":"Team Fortress","app_id":440,"player_count":0,"max_players":32,"Bots":0,"server_type":"Dedicated","server_os":"Linux","password":true,"vac":true,"version":"7757534","steam_id":85568392924515187,"keywords":["increased_maxplayers","nocrits","nodmgspread","payload","uncletopia"],"game_id":440,"stv_port":27036,"stv_name":"Uncletopia | Atlanta | 3 | Community | STV","players":null},{"server_id":401,"name":"Uncletopia | Atlanta | 4 | No Payload","name_short":"atl-4","host":"atl-1.us.uncletopia.com","port":27045,"enabled":true,"region":"us-east","cc":"us","latitude":33.753746,"longitude":-84.38633,"reserved":0,"last_update":"0001-01-01T00:00:00Z","name_a2s":"","protocol":0,"map":"","folder":"","game":"","app_id":0,"player_count":0,"max_players":0,"Bots":0,"server_type":"","server_os":"","password":false,"vac":false,"version":"","steam_id":0,"keywords":null,"game_id":0,"stv_port":0,"stv_name":"","players":null},{"server_id":2,"name":"Uncletopia | Chicago | 1 | All Maps","name_short":"chi-1","host":"chi-1.us.uncletopia.com","port":27015,"enabled":true,"region":"us-central","cc":"us","latitude":41.881832,"longitude":-87.62318,"reserved":0,"last_update":"0001-01-01T00:00:00Z","name_a2s":"Uncletopia | Chicago | 1 | All Maps","protocol":17,"map":"koth_highpass","folder":"tf","game":"Team Fortress","app_id":440,"player_count":24,"max_players":24,"Bots":0,"server_type":"Dedicated","server_os":"Linux","password":true,"vac":true,"version":"7757534","steam_id":85568392924469984,"keywords":["cp","nocrits","nodmgspread","uncletopia"],"game_id":440,"stv_port":27016,"stv_name":"Uncletopia | Chicago | 1 | All Maps | STV","players":[{"user_id":40,"name":"ZBaldTop","steam_id":76561199396318132,"connected_time":772000000000,"state":"active","ping":44},{"user_id":5,"name":"Dergi","steam_id":76561198040843250,"connected_time":3410000000000,"state":"active","ping":162},{"user_id":54,"name":"CritVi","steam_id":76561197993203233,"connected_time":331000000000,"state":"active","ping":61},{"user_id":41,"name":"marshmallowdragon999","steam_id":76561199129773712,"connected_time":763000000000,"state":"active","ping":66},{"user_id":9,"name":"ChuChu","steam_id":76561199443647976,"connected_time":3372000000000,"state":"active","ping":160},{"user_id":10,"name":"Beetster","steam_id":76561199403344978,"connected_time":3367000000000,"state":"active","ping":125},{"user_id":12,"name":"proppis","steam_id":76561198024680215,"connected_time":3323000000000,"state":"active","ping":182},{"user_id":13,"name":"Trusty","steam_id":76561198035444237,"connected_time":3310000000000,"state":"active","ping":62},{"user_id":15,"name":"Ediot","steam_id":76561199349494096,"connected_time":3092000000000,"state":"active","ping":87},{"user_id":33,"name":"SylviePuff","steam_id":76561198067030601,"connected_time":1786000000000,"state":"active","ping":44},{"user_id":42,"name":"MemesFor1","steam_id":76561199235615445,"connected_time":752000000000,"state":"active","ping":62},{"user_id":24,"name":"owlbortch","steam_id":76561198042849350,"connected_time":2558000000000,"state":"active","ping":77},{"user_id":37,"name":"myspace girl","steam_id":76561198054925421,"connected_time":947000000000,"state":"active","ping":54},{"user_id":39,"name":"heavy who says pootis in spawn","steam_id":76561198115874625,"connected_time":903000000000,"state":"active","ping":73},{"user_id":43,"name":"_Chelik_","steam_id":76561199076069284,"connected_time":713000000000,"state":"active","ping":164},{"user_id":46,"name":"Battle Medic(scunt)","steam_id":76561198306105623,"connected_time":632000000000,"state":"active","ping":169},{"user_id":47,"name":"TheMad_Golfer","steam_id":76561198125572962,"connected_time":572000000000,"state":"active","ping":67},{"user_id":49,"name":"› snow","steam_id":76561198109783729,"connected_time":410000000000,"state":"active","ping":46},{"user_id":50,"name":"lazyhead","steam_id":76561198044358804,"connected_time":410000000000,"state":"active","ping":48},{"user_id":51,"name":"Huey","steam_id":76561198972816386,"connected_time":397000000000,"state":"active","ping":82},{"user_id":52,"name":"cavelife","steam_id":76561198091369097,"connected_time":343000000000,"state":"active","ping":72},{"user_id":53,"name":"saywoo","steam_id":76561198904469197,"connected_time":341000000000,"state":"active","ping":147},{"user_id":57,"name":"4+1MyriadFuturesCosMo@BousouFC","steam_id":76561198181929019,"connected_time":236000000000,"state":"active","ping":50},{"user_id":56,"name":"LawfulWaffle","steam_id":76561198156269264,"connected_time":320000000000,"state":"active","ping":112}]},{"server_id":106,"name":"Uncletopia | Chicago | 2 | All Maps","name_short":"chi-2","host":"chi-1.us.uncletopia.com","port":27025,"enabled":true,"region":"us-central","cc":"us","latitude":41.881832,"longitude":-87.62318,"reserved":0,"last_update":"0001-01-01T00:00:00Z","name_a2s":"Uncletopia | Chicago | 2 | All Maps","protocol":17,"map":"koth_viaduct","folder":"tf","game":"Team Fortress","app_id":440,"player_count":0,"max_players":24,"Bots":0,"server_type":"Dedicated","server_os":"Linux","password":true,"vac":true,"version":"7757534","steam_id":85568392924469985,"keywords":["cp","nocrits","nodmgspread","uncletopia"],"game_id":440,"stv_port":27026,"stv_name":"Uncletopia | Chicago | 2 | All Maps | STV","players":null},{"server_id":402,"name":"Uncletopia | Chicago | 3 | All Maps","name_short":"chi-3","host":"chi-1.us.uncletopia.com","port":27035,"enabled":true,"region":"us-central","cc":"us","latitude":41.881832,"longitude":-87.62318,"reserved":0,"last_update":"0001-01-01T00:00:00Z","name_a2s":"Uncletopia | Chicago | 3 | All Maps","protocol":17,"map":"koth_lakeside_final","folder":"tf","game":"Team Fortress","app_id":440,"player_count":0,"max_players":24,"Bots":0,"server_type":"Dedicated","server_os":"Linux","password":true,"vac":true,"version":"7757534","steam_id":85568392924515191,"keywords":["cp","nocrits","nodmgspread","uncletopia"],"game_id":440,"stv_port":27036,"stv_name":"Uncletopia | Chicago | 3 | All Maps | STV","players":null},{"server_id":403,"name":"Uncletopia | Chicago | 4 | All Maps","name_short":"chi-4","host":"chi-1.us.uncletopia.com","port":27045,"enabled":true,"region":"us-central","cc":"us","latitude":41.881832,"longitude":-87.62318,"reserved":0,"last_update":"0001-01-01T00:00:00Z","name_a2s":"Uncletopia | Chicago | 4 | All Maps","protocol":17,"map":"pl_badwater","folder":"tf","game":"Team Fortress","app_id":440,"player_count":0,"max_players":24,"Bots":0,"server_type":"Dedicated","server_os":"Linux","password":true,"vac":true,"version":"7757534","steam_id":85568392924515193,"keywords":["nocrits","nodmgspread","payload","uncletopia"],"game_id":440,"stv_port":27046,"stv_name":"Uncletopia | Chicago | 4 | All Maps | STV","players":null},{"server_id":36,"name":"Uncletopia | Chicago | 5 | All Maps","name_short":"chi-5","host":"chi-2.us.uncletopia.com","port":27015,"enabled":true,"region":"us-central","cc":"us","latitude":41.881832,"longitude":-87.62318,"reserved":0,"last_update":"0001-01-01T00:00:00Z","name_a2s":"Uncletopia | Chicago | 5 | All Maps","protocol":17,"map":"koth_cascade","folder":"tf","game":"Team Fortress","app_id":440,"player_count":0,"max_players":24,"Bots":0,"server_type":"Dedicated","server_os":"Linux","password":true,"vac":true,"version":"7757534","steam_id":85568392924866362,"keywords":["cp","nocrits","nodmgspread","uncletopia"],"game_id":440,"stv_port":27016,"stv_name":"Uncletopia | Chicago | 5 | All Maps | STV","players":null},{"server_id":37,"name":"Uncletopia | Chicago | 6 | All Maps","name_short":"chi-6","host":"chi-2.us.uncletopia.com","port":27025,"enabled":true,"region":"us-central","cc":"us","latitude":41.881832,"longitude":-87.62318,"reserved":0,"last_update":"0001-01-01T00:00:00Z","name_a2s":"Uncletopia | Chicago | 6 | All Maps","protocol":17,"map":"koth_cascade","folder":"tf","game":"Team Fortress","app_id":440,"player_count":0,"max_players":24,"Bots":0,"server_type":"Dedicated","server_os":"Linux","password":true,"vac":true,"version":"7757534","steam_id":85568392924866363,"keywords":["cp","nocrits","nodmgspread","uncletopia"],"game_id":440,"stv_port":27026,"stv_name":"Uncletopia | Chicago | 6 | All Maps | STV","players":null},{"server_id":38,"name":"Uncletopia | Chicago | 7 | Stopwatch Beta","name_short":"chi-7","host":"chi-2.us.uncletopia.com","port":27035,"enabled":true,"region":"us-central","cc":"us","latitude":41.881832,"longitude":-87.62318,"reserved":0,"last_update":"0001-01-01T00:00:00Z","name_a2s":"Uncletopia | Chicago | 7 | Stopwatch Beta","protocol":17,"map":"pl_upward","folder":"tf","game":"Team Fortress","app_id":440,"player_count":0,"max_players":24,"Bots":0,"server_type":"Dedicated","server_os":"Linux","password":true,"vac":true,"version":"7757534","steam_id":85568392924866364,"keywords":["nocrits","nodmgspread","payload","uncletopia"],"game_id":440,"stv_port":27036,"stv_name":"Uncletopia | Chicago | 7 | Stopwatch Beta | STV","players":null},{"server_id":39,"name":"Uncletopia | Chicago | 8 | Community","name_short":"chi-8","host":"chi-2.us.uncletopia.com","port":27045,"enabled":true,"region":"us-central","cc":"us","latitude":41.881832,"longitude":-87.62318,"reserved":0,"last_update":"0001-01-01T00:00:00Z","name_a2s":"Uncletopia | Chicago | 8 | Community","protocol":17,"map":"pl_barnblitz","folder":"tf","game":"Team Fortress","app_id":440,"player_count":0,"max_players":24,"Bots":0,"server_type":"Dedicated","server_os":"Linux","password":true,"vac":true,"version":"7757534","steam_id":85568392924866365,"keywords":["nocrits","nodmgspread","payload","uncletopia"],"game_id":440,"stv_port":27046,"stv_name":"Uncletopia | Chicago | 8 | Community | STV","players":null},{"server_id":8,"name":"Uncletopia | Dallas | 1 | All Maps","name_short":"dal-1","host":"dal-1.us.uncletopia.com","port":27015,"enabled":true,"region":"us-central","cc":"us","latitude":32.779167,"longitude":-96.80889,"reserved":0,"last_update":"0001-01-01T00:00:00Z","name_a2s":"Uncletopia | Dallas | 1 | All Maps","protocol":17,"map":"koth_cascade","folder":"tf","game":"Team Fortress","app_id":440,"player_count":0,"max_players":24,"Bots":0,"server_type":"Dedicated","server_os":"Linux","password":true,"vac":true,"version":"7757534","steam_id":85568392924469986,"keywords":["cp","nocrits","nodmgspread","uncletopia"],"game_id":440,"stv_port":27016,"stv_name":"Uncletopia | Dallas | 1 | All Maps | STV","players":null},{"server_id":108,"name":"Uncletopia | Dallas | 2 | All Maps","name_short":"dal-2","host":"dal-1.us.uncletopia.com","port":27025,"enabled":true,"region":"us-central","cc":"us","latitude":32.779167,"longitude":-96.80889,"reserved":0,"last_update":"0001-01-01T00:00:00Z","name_a2s":"Uncletopia | Dallas | 2 | All Maps","protocol":17,"map":"pl_badwater","folder":"tf","game":"Team Fortress","app_id":440,"player_count":4,"max_players":24,"Bots":0,"server_type":"Dedicated","server_os":"Linux","password":true,"vac":true,"version":"7757534","steam_id":85568392924469988,"keywords":["nocrits","nodmgspread","payload","uncletopia"],"game_id":440,"stv_port":27026,"stv_name":"Uncletopia | Dallas | 2 | All Maps | STV","players":[{"user_id":3,"name":"SSNope","steam_id":76561198300092011,"connected_time":3421000000000,"state":"active","ping":55},{"user_id":36,"name":"Bing Chilling","steam_id":76561198140651185,"connected_time":865000000000,"state":"active","ping":56},{"user_id":9,"name":"Noticeme","steam_id":76561198393790024,"connected_time":3418000000000,"state":"active","ping":148},{"user_id":18,"name":"Sartupial","steam_id":76561198443169940,"connected_time":3081000000000,"state":"active","ping":44}]},{"server_id":5,"name":"Uncletopia | Frankfurt | 1 | All Maps","name_short":"frk-1","host":"frk-1.de.uncletopia.com","port":27015,"enabled":true,"region":"eu","cc":"de","latitude":50.110924,"longitude":8.682127,"reserved":0,"last_update":"0001-01-01T00:00:00Z","name_a2s":"Uncletopia | Frankfurt | 1 | All Maps","protocol":17,"map":"pl_badwater","folder":"tf","game":"Team Fortress","app_id":440,"player_count":24,"max_players":24,"Bots":0,"server_type":"Dedicated","server_os":"Linux","password":true,"vac":true,"version":"7757534","steam_id":85568392924469989,"keywords":["nocrits","nodmgspread","payload","uncletopia"],"game_id":440,"stv_port":27016,"stv_name":"Uncletopia | Frankfurt | 1 | All Maps | STV","players":[{"user_id":19,"name":"Acanda","steam_id":76561198123246537,"connected_time":2995000000000,"state":"active","ping":44},{"user_id":8,"name":"Xiqui","steam_id":76561198818386611,"connected_time":3564000000000,"state":"active","ping":85},{"user_id":50,"name":"Yelowchy","steam_id":76561198199416121,"connected_time":1252000000000,"state":"active","ping":69},{"user_id":54,"name":"Ljubi Te Brat . . .","steam_id":76561198054582971,"connected_time":775000000000,"state":"active","ping":75},{"user_id":46,"name":"TK","steam_id":76561199384193338,"connected_time":1587000000000,"state":"active","ping":52},{"user_id":12,"name":"big hoops","steam_id":76561198004703799,"connected_time":3382000000000,"state":"active","ping":56},{"user_id":51,"name":"the kid named finger","steam_id":76561198449930192,"connected_time":1171000000000,"state":"active","ping":145},{"user_id":58,"name":"Pissisti","steam_id":76561198262231733,"connected_time":60000000000,"state":"active","ping":60},{"user_id":55,"name":"Nick","steam_id":76561198036109469,"connected_time":486000000000,"state":"active","ping":90},{"user_id":17,"name":"[P-roc] Cmm Bert","steam_id":76561198016658674,"connected_time":3070000000000,"state":"active","ping":70},{"user_id":32,"name":"luma","steam_id":76561198081649669,"connected_time":2579000000000,"state":"active","ping":60},{"user_id":45,"name":"Im Fucker You Lol!","steam_id":76561198074917015,"connected_time":1736000000000,"state":"active","ping":70},{"user_id":56,"name":"smrk","steam_id":76561198066926098,"connected_time":243000000000,"state":"active","ping":58},{"user_id":22,"name":"Jayco","steam_id":76561198122497262,"connected_time":2914000000000,"state":"active","ping":87},{"user_id":23,"name":"TMC","steam_id":76561198077956157,"connected_time":2911000000000,"state":"active","ping":59},{"user_id":38,"name":"VEH-DEH-VEH","steam_id":76561198010978989,"connected_time":2387000000000,"state":"active","ping":60},{"user_id":25,"name":"relic_","steam_id":76561199053114167,"connected_time":2837000000000,"state":"active","ping":84},{"user_id":26,"name":"Kiwami","steam_id":76561198307503265,"connected_time":2710000000000,"state":"active","ping":99},{"user_id":29,"name":"Hot Bean","steam_id":76561198803639155,"connected_time":2654000000000,"state":"active","ping":84},{"user_id":30,"name":"FUKAYU","steam_id":76561198380484033,"connected_time":2648000000000,"state":"active","ping":53},{"user_id":48,"name":"as usual","steam_id":76561199042470246,"connected_time":1412000000000,"state":"active","ping":50},{"user_id":33,"name":"hourglass","steam_id":76561198166613799,"connected_time":2573000000000,"state":"active","ping":89},{"user_id":42,"name":"¬°Nice","steam_id":76561198387871867,"connected_time":1835000000000,"state":"active","ping":73},{"user_id":36,"name":"Tynnyri","steam_id":76561198075516541,"connected_time":2541000000000,"state":"active","ping":116}]},{"server_id":110,"name":"Uncletopia | Frankfurt | 2 | All Maps","name_short":"frk-2","host":"frk-1.de.uncletopia.com","port":27025,"enabled":true,"region":"eu","cc":"de","latitude":50.110924,"longitude":8.682127,"reserved":0,"last_update":"0001-01-01T00:00:00Z","name_a2s":"Uncletopia | Frankfurt | 2 | All Maps","protocol":17,"map":"plr_bananabay","folder":"tf","game":"Team Fortress","app_id":440,"player_count":24,"max_players":24,"Bots":0,"server_type":"Dedicated","server_os":"Linux","password":true,"vac":true,"version":"7757534","steam_id":85568392924469990,"keywords":["nocrits","nodmgspread","payload","uncletopia"],"game_id":440,"stv_port":27026,"stv_name":"Uncletopia | Frankfurt | 2 | All Maps | STV","players":[{"user_id":111,"name":"JeanCorben","steam_id":76561197965133561,"connected_time":1000000000000,"state":"active","ping":45},{"user_id":121,"name":"Tangra","steam_id":76561199216124328,"connected_time":505000000000,"state":"active","ping":73},{"user_id":116,"name":"DayRocketZero","steam_id":76561198331999006,"connected_time":887000000000,"state":"active","ping":64},{"user_id":120,"name":"Dzan50","steam_id":76561198059758591,"connected_time":510000000000,"state":"active","ping":77},{"user_id":39,"name":"Birdseye","steam_id":76561198025852216,"connected_time":6448000000000,"state":"active","ping":60},{"user_id":112,"name":"El`Capitano Flex","steam_id":76561198061813730,"connected_time":995000000000,"state":"active","ping":60},{"user_id":117,"name":"7arc","steam_id":76561198146405761,"connected_time":578000000000,"state":"active","ping":65},{"user_id":125,"name":"Russenluster","steam_id":76561198118016220,"connected_time":61000000000,"state":"active","ping":59},{"user_id":87,"name":"Clamor_","steam_id":76561198104368295,"connected_time":2901000000000,"state":"active","ping":80},{"user_id":106,"name":"Goodmouth","steam_id":76561198097645042,"connected_time":1373000000000,"state":"active","ping":74},{"user_id":113,"name":"Green Banana","steam_id":76561198055480280,"connected_time":955000000000,"state":"active","ping":86},{"user_id":109,"name":"synoptic","steam_id":76561198995397050,"connected_time":1160000000000,"state":"active","ping":74},{"user_id":115,"name":"Coyote29 elitegamers.ro","steam_id":76561198344502070,"connected_time":904000000000,"state":"active","ping":75},{"user_id":99,"name":"Blyatwork","steam_id":76561198825379598,"connected_time":1864000000000,"state":"active","ping":40},{"user_id":82,"name":"Munibe","steam_id":76561198107967904,"connected_time":3300000000000,"state":"active","ping":88},{"user_id":93,"name":"Pyro","steam_id":76561198860424456,"connected_time":2149000000000,"state":"active","ping":59},{"user_id":96,"name":"masterpiSS","steam_id":76561198323290950,"connected_time":2027000000000,"state":"active","ping":89},{"user_id":122,"name":"Hydnhof","steam_id":76561198120989805,"connected_time":225000000000,"state":"active","ping":70},{"user_id":102,"name":"KRATOS MESSI","steam_id":76561199072919985,"connected_time":1735000000000,"state":"active","ping":86},{"user_id":90,"name":"wepon (I/me)","steam_id":76561198097789669,"connected_time":2594000000000,"state":"active","ping":61},{"user_id":76,"name":"Truegr","steam_id":76561198811912339,"connected_time":4245000000000,"state":"active","ping":63},{"user_id":66,"name":"Are","steam_id":76561197986728531,"connected_time":5128000000000,"state":"active","ping":124},{"user_id":107,"name":"Sverhrazym","steam_id":76561198868708664,"connected_time":1323000000000,"state":"active","ping":90},{"user_id":124,"name":"lupus","steam_id":76561198019146522,"connected_time":213000000000,"state":"active","ping":60}]},{"server_id":308,"name":"Uncletopia | Frankfurt | 3 | All Maps","name_short":"frk-3","host":"frk-1.de.uncletopia.com","port":27035,"enabled":true,"region":"eu","cc":"de","latitude":50.110924,"longitude":8.682127,"reserved":0,"last_update":"0001-01-01T00:00:00Z","name_a2s":"Uncletopia | Frankfurt | 3 | All Maps","protocol":17,"map":"pl_snowycoast","folder":"tf","game":"Team Fortress","app_id":440,"player_count":24,"max_players":24,"Bots":0,"server_type":"Dedicated","server_os":"Linux","password":true,"vac":true,"version":"7757534","steam_id":85568392924504274,"keywords":["nocrits","nodmgspread","payload","uncletopia"],"game_id":440,"stv_port":27036,"stv_name":"Uncletopia | Frankfurt | 3 | All Maps | STV","players":[{"user_id":176,"name":"zwbl","steam_id":76561198360811196,"connected_time":3210000000000,"state":"active","ping":87},{"user_id":206,"name":"GMsU | Rebikas","steam_id":76561198077053764,"connected_time":1362000000000,"state":"active","ping":41},{"user_id":222,"name":"NitPig","steam_id":76561198212991935,"connected_time":711000000000,"state":"active","ping":103},{"user_id":207,"name":"peruna","steam_id":76561198000721196,"connected_time":1360000000000,"state":"active","ping":90},{"user_id":170,"name":"redditsexdefender","steam_id":76561198255904077,"connected_time":3830000000000,"state":"active","ping":68},{"user_id":189,"name":"Miatthew","steam_id":76561198034102895,"connected_time":2742000000000,"state":"active","ping":64},{"user_id":219,"name":"Dora","steam_id":76561198072207649,"connected_time":768000000000,"state":"active","ping":71},{"user_id":198,"name":"Pachakamakk","steam_id":76561197989010401,"connected_time":1682000000000,"state":"active","ping":55},{"user_id":188,"name":"Gunslinger BOT","steam_id":76561198126762760,"connected_time":2874000000000,"state":"active","ping":58},{"user_id":199,"name":"Bob.","steam_id":76561198330093822,"connected_time":1624000000000,"state":"active","ping":74},{"user_id":203,"name":"JohnTraveltime","steam_id":76561199244281754,"connected_time":1506000000000,"state":"active","ping":81},{"user_id":224,"name":"Ivan the Terrible","steam_id":76561198139595241,"connected_time":641000000000,"state":"active","ping":77},{"user_id":179,"name":"Farmercy","steam_id":76561198000038039,"connected_time":3062000000000,"state":"active","ping":60},{"user_id":225,"name":"nky","steam_id":76561198086229832,"connected_time":615000000000,"state":"active","ping":60},{"user_id":227,"name":"Virigos","steam_id":76561198322441994,"connected_time":358000000000,"state":"active","ping":60},{"user_id":216,"name":"Gordon","steam_id":76561198303652059,"connected_time":903000000000,"state":"active","ping":92},{"user_id":210,"name":"LemonLeCitron","steam_id":76561198215545267,"connected_time":1235000000000,"state":"active","ping":72},{"user_id":221,"name":"guarda-chuva","steam_id":76561198078694330,"connected_time":749000000000,"state":"active","ping":49},{"user_id":220,"name":"POSHTO0 :o","steam_id":76561198106182078,"connected_time":765000000000,"state":"active","ping":99},{"user_id":211,"name":"Ohad","steam_id":76561198067989324,"connected_time":1232000000000,"state":"active","ping":110},{"user_id":212,"name":"Dr.Sees [F2P]","steam_id":76561199219233587,"connected_time":1212000000000,"state":"active","ping":88},{"user_id":228,"name":"SantiThePug #ReviveTheCaber","steam_id":76561199049615996,"connected_time":354000000000,"state":"active","ping":73},{"user_id":192,"name":"Old Hat","steam_id":76561197994673297,"connected_time":2133000000000,"state":"active","ping":64},{"user_id":194,"name":"Yassine","steam_id":76561198140565712,"connected_time":2019000000000,"state":"active","ping":58}]},{"server_id":309,"name":"Uncletopia | Frankfurt | 4 | All Maps","name_short":"frk-4","host":"frk-1.de.uncletopia.com","port":27045,"enabled":true,"region":"eu","cc":"de","latitude":50.110924,"longitude":8.682127,"reserved":0,"last_update":"0001-01-01T00:00:00Z","name_a2s":"Uncletopia | Frankfurt | 4 | All Maps","protocol":17,"map":"cp_altitude","folder":"tf","game":"Team Fortress","app_id":440,"player_count":5,"max_players":24,"Bots":0,"server_type":"Dedicated","server_os":"Linux","password":true,"vac":true,"version":"7757534","steam_id":85568392924504275,"keywords":["cp","nocrits","nodmgspread","uncletopia"],"game_id":440,"stv_port":27046,"stv_name":"Uncletopia | Frankfurt | 4 | All Maps | STV","players":[{"user_id":3,"name":"Mowelic","steam_id":76561198873641222,"connected_time":471000000000,"state":"active","ping":83},{"user_id":4,"name":"( ͡ ͡° ͜ ʖ ͡ ͡°) \\ ☞","steam_id":76561198084597975,"connected_time":398000000000,"state":"active","ping":64},{"user_id":5,"name":"snooper main","steam_id":76561199073802389,"connected_time":348000000000,"state":"active","ping":94},{"user_id":7,"name":"Fortuit","steam_id":76561198065143703,"connected_time":222000000000,"state":"active","ping":61},{"user_id":8,"name":"-0vosh","steam_id":76561199204439819,"connected_time":56000000000,"state":"active","ping":111}]},{"server_id":310,"name":"Uncletopia | Frankfurt | 5 | All Maps","name_short":"frk-5","host":"frk-1.de.uncletopia.com","port":27055,"enabled":true,"region":"eu","cc":"de","latitude":50.110924,"longitude":8.682127,"reserved":0,"last_update":"0001-01-01T00:00:00Z","name_a2s":"Uncletopia | Frankfurt | 5 | All Maps","protocol":17,"map":"cp_altitude","folder":"tf","game":"Team Fortress","app_id":440,"player_count":0,"max_players":24,"Bots":0,"server_type":"Dedicated","server_os":"Linux","password":true,"vac":true,"version":"7757534","steam_id":85568392924504277,"keywords":["cp","nocrits","nodmgspread","uncletopia"],"game_id":440,"stv_port":27056,"stv_name":"Uncletopia | Frankfurt | 5 | All Maps | STV","players":null},{"server_id":311,"name":"Uncletopia | Frankfurt | 6 | All Maps","name_short":"frk-6","host":"frk-1.de.uncletopia.com","port":27065,"enabled":true,"region":"eu","cc":"de","latitude":50.110924,"longitude":8.682127,"reserved":0,"last_update":"0001-01-01T00:00:00Z","name_a2s":"Uncletopia | Frankfurt | 6 | All Maps","protocol":17,"map":"koth_highpass","folder":"tf","game":"Team Fortress","app_id":440,"player_count":0,"max_players":24,"Bots":0,"server_type":"Dedicated","server_os":"Linux","password":true,"vac":true,"version":"7757534","steam_id":85568392924504278,"keywords":["cp","nocrits","nodmgspread","uncletopia"],"game_id":440,"stv_port":27066,"stv_name":"Uncletopia | Frankfurt | 6 | All Maps | STV","players":null},{"server_id":23,"name":"Uncletopia | Frankfurt | 7 | Stopwatch Beta","name_short":"frk-7","host":"frk-1.de.uncletopia.com","port":27075,"enabled":true,"region":"eu","cc":"de","latitude":50.110924,"longitude":8.682127,"reserved":0,"last_update":"0001-01-01T00:00:00Z","name_a2s":"Uncletopia | Frankfurt | 7 | Stopwatch Beta","protocol":17,"map":"pl_frontier_final","folder":"tf","game":"Team Fortress","app_id":440,"player_count":0,"max_players":24,"Bots":0,"server_type":"Dedicated","server_os":"Linux","password":true,"vac":true,"version":"7757534","steam_id":85568392924742827,"keywords":["nocrits","nodmgspread","payload","uncletopia"],"game_id":440,"stv_port":27076,"stv_name":"Uncletopia | Frankfurt | 7 | Stopwatch Beta | STV","players":null},{"server_id":24,"name":"Uncletopia | Frankfurt | 8 | Community","name_short":"frk-8","host":"frk-1.de.uncletopia.com","port":27085,"enabled":true,"region":"eu","cc":"de","latitude":50.110924,"longitude":8.682127,"reserved":0,"last_update":"0001-01-01T00:00:00Z","name_a2s":"Uncletopia | Frankfurt | 8 | Community","protocol":17,"map":"workshop/cp_overgrown_rc7b.ugc503939302","folder":"tf","game":"Team Fortress","app_id":440,"player_count":0,"max_players":24,"Bots":0,"server_type":"Dedicated","server_os":"Linux","password":true,"vac":true,"version":"7757534","steam_id":85568392924742828,"keywords":["cp","nocrits","nodmgspread","uncletopia"],"game_id":440,"stv_port":27086,"stv_name":"Uncletopia | Frankfurt | 8 | Community | STV","players":null},{"server_id":202,"name":"Uncletopia | Hong Kong | 1 | All Maps","name_short":"hgk-1","host":"hgk-1.hk.uncletopia.com","port":27015,"enabled":true,"region":"asia","cc":"hk","latitude":22.302711,"longitude":114.177216,"reserved":0,"last_update":"0001-01-01T00:00:00Z","name_a2s":"Uncletopia | Hong Kong | 1 | All Maps","protocol":17,"map":"pl_barnblitz","folder":"tf","game":"Team Fortress","app_id":440,"player_count":24,"max_players":24,"Bots":0,"server_type":"Dedicated","server_os":"Linux","password":true,"vac":true,"version":"7757534","steam_id":85568392924494504,"keywords":["nocrits","nodmgspread","payload","uncletopia"],"game_id":440,"stv_port":27016,"stv_name":"Uncletopia | Hong Kong | 1 | All Maps | STV","players":[{"user_id":329,"name":"PissDrinker98","steam_id":76561198856157761,"connected_time":717000000000,"state":"active","ping":113},{"user_id":229,"name":"KaT","steam_id":76561198261879602,"connected_time":4742000000000,"state":"active","ping":106},{"user_id":156,"name":"loreley","steam_id":76561198230213828,"connected_time":10443000000000,"state":"active","ping":60},{"user_id":230,"name":"Milk❤ (UT Enjoyer)","steam_id":76561198163911560,"connected_time":4731000000000,"state":"active","ping":156},{"user_id":231,"name":"bravo","steam_id":76561199081419313,"connected_time":4676000000000,"state":"active","ping":64},{"user_id":335,"name":"EEEEdgy","steam_id":76561199096849508,"connected_time":93000000000,"state":"active","ping":59},{"user_id":336,"name":"Noyour","steam_id":76561198323259830,"connected_time":32000000000,"state":"active","ping":120},{"user_id":234,"name":"brizzard","steam_id":76561198048438653,"connected_time":4344000000000,"state":"active","ping":46},{"user_id":298,"name":"screaming sniper","steam_id":76561199085568674,"connected_time":1713000000000,"state":"active","ping":80},{"user_id":328,"name":"Lelouch","steam_id":76561198828840546,"connected_time":724000000000,"state":"active","ping":72},{"user_id":318,"name":"母の肉団子@hao123.com","steam_id":76561198069561896,"connected_time":1497000000000,"state":"active","ping":44},{"user_id":242,"name":"twitch.tv/vision515","steam_id":76561198065293729,"connected_time":3525000000000,"state":"active","ping":149},{"user_id":177,"name":"sloth of the fragment clan","steam_id":76561198214192048,"connected_time":8454000000000,"state":"active","ping":113},{"user_id":240,"name":"ConHoshi","steam_id":76561199387718733,"connected_time":3883000000000,"state":"active","ping":84},{"user_id":214,"name":"nick","steam_id":76561198400698408,"connected_time":6543000000000,"state":"active","ping":88},{"user_id":100,"name":"✧BaKa BAzooKA✧(◕▿◕ )","steam_id":76561198061628689,"connected_time":15822000000000,"state":"active","ping":58},{"user_id":183,"name":"let cook","steam_id":76561198055553140,"connected_time":8137000000000,"state":"active","ping":76},{"user_id":238,"name":"yw","steam_id":76561199382726488,"connected_time":4093000000000,"state":"active","ping":47},{"user_id":221,"name":"Vortex Artemisio","steam_id":76561198833527091,"connected_time":5890000000000,"state":"active","ping":86},{"user_id":326,"name":"쿠키","steam_id":76561197997220367,"connected_time":1429000000000,"state":"active","ping":52},{"user_id":182,"name":"Urotsuki","steam_id":76561198074339034,"connected_time":8182000000000,"state":"active","ping":74},{"user_id":224,"name":"Batbob","steam_id":76561198999413123,"connected_time":5521000000000,"state":"active","ping":78},{"user_id":296,"name":"vanidy \u003c3","steam_id":76561198147851090,"connected_time":2069000000000,"state":"active","ping":96},{"user_id":334,"name":"SunShine","steam_id":76561198323642446,"connected_time":304000000000,"state":"active","ping":105}]},{"server_id":1,"name":"Uncletopia | Los Angeles | 1 | All Maps","name_short":"lax-1","host":"lax-1.us.uncletopia.com","port":27015,"enabled":true,"region":"us-west","cc":"us","latitude":33.94279,"longitude":-118.41004,"reserved":0,"last_update":"0001-01-01T00:00:00Z","name_a2s":"Uncletopia | Los Angeles | 1 | All Maps","protocol":17,"map":"koth_highpass","folder":"tf","game":"Team Fortress","app_id":440,"player_count":0,"max_players":24,"Bots":0,"server_type":"Dedicated","server_os":"Linux","password":true,"vac":true,"version":"7757534","steam_id":85568392924469991,"keywords":["cp","nocrits","nodmgspread","uncletopia"],"game_id":440,"stv_port":27016,"stv_name":"Uncletopia | Los Angeles | 1 | All Maps | STV","players":null},{"server_id":112,"name":"Uncletopia | Los Angeles | 2 | All Maps","name_short":"lax-2","host":"lax-1.us.uncletopia.com","port":27025,"enabled":true,"region":"us-west","cc":"us","latitude":33.94279,"longitude":-118.41004,"reserved":0,"last_update":"0001-01-01T00:00:00Z","name_a2s":"Uncletopia | Los Angeles | 2 | All Maps","protocol":17,"map":"koth_lakeside_final","folder":"tf","game":"Team Fortress","app_id":440,"player_count":0,"max_players":24,"Bots":0,"server_type":"Dedicated","server_os":"Linux","password":true,"vac":true,"version":"7757534","steam_id":85568392924469992,"keywords":["cp","nocrits","nodmgspread","uncletopia"],"game_id":440,"stv_port":27026,"stv_name":"Uncletopia | Los Angeles | 2 | All Maps | STV","players":null},{"server_id":324,"name":"Uncletopia | Los Angeles | 3 | All Maps","name_short":"lax-3","host":"lax-1.us.uncletopia.com","port":27035,"enabled":true,"region":"us-west","cc":"us","latitude":33.94279,"longitude":-118.41004,"reserved":0,"last_update":"0001-01-01T00:00:00Z","name_a2s":"Uncletopia | Los Angeles | 3 | All Maps","protocol":17,"map":"cp_mountainlab","folder":"tf","game":"Team Fortress","app_id":440,"player_count":0,"max_players":24,"Bots":0,"server_type":"Dedicated","server_os":"Linux","password":true,"vac":true,"version":"7757534","steam_id":85568392924510198,"keywords":["cp","nocrits","nodmgspread","uncletopia"],"game_id":440,"stv_port":27036,"stv_name":"Uncletopia | Los Angeles | 3 | All Maps | STV","players":null},{"server_id":25,"name":"Uncletopia | Los Angeles | 4 | Stopwatch Beta","name_short":"lax-4","host":"lax-1.us.uncletopia.com","port":27045,"enabled":true,"region":"us-west","cc":"us","latitude":33.94279,"longitude":-118.41004,"reserved":0,"last_update":"0001-01-01T00:00:00Z","name_a2s":"Uncletopia | Los Angeles | 4 | Stopwatch Beta","protocol":17,"map":"pl_frontier_final","folder":"tf","game":"Team Fortress","app_id":440,"player_count":0,"max_players":24,"Bots":0,"server_type":"Dedicated","server_os":"Linux","password":true,"vac":true,"version":"7757534","steam_id":85568392924510199,"keywords":["nocrits","nodmgspread","payload","uncletopia"],"game_id":440,"stv_port":27046,"stv_name":"Uncletopia | Los Angeles | 4 | Stopwatch Beta | STV","players":null},{"server_id":11,"name":"Uncletopia | London | 1 | All Maps","name_short":"lon-1","host":"lon-1.uk.uncletopia.com","port":27015,"enabled":true,"region":"eu","cc":"gb","latitude":51.509865,"longitude":-0.118092,"reserved":0,"last_update":"0001-01-01T00:00:00Z","name_a2s":"Uncletopia | London | 1 | All Maps","protocol":17,"map":"koth_viaduct","folder":"tf","game":"Team Fortress","app_id":440,"player_count":0,"max_players":24,"Bots":0,"server_type":"Dedicated","server_os":"Linux","password":true,"vac":true,"version":"7757534","steam_id":85568392924367362,"keywords":["cp","nocrits","nodmgspread","uncletopia"],"game_id":440,"stv_port":27016,"stv_name":"Uncletopia | London | 1 | All Maps | STV","players":null},{"server_id":114,"name":"Uncletopia | London | 2 | All Maps","name_short":"lon-2","host":"lon-1.uk.uncletopia.com","port":27025,"enabled":true,"region":"eu","cc":"gb","latitude":51.509865,"longitude":-0.118092,"reserved":0,"last_update":"0001-01-01T00:00:00Z","name_a2s":"Uncletopia | London | 2 | All Maps","protocol":17,"map":"cp_dustbowl","folder":"tf","game":"Team Fortress","app_id":440,"player_count":0,"max_players":24,"Bots":0,"server_type":"Dedicated","server_os":"Linux","password":true,"vac":true,"version":"7757534","steam_id":85568392924470941,"keywords":["cp","nocrits","nodmgspread","uncletopia"],"game_id":440,"stv_port":27026,"stv_name":"Uncletopia | London | 2 | All Maps | STV","players":null},{"server_id":320,"name":"Uncletopia | London | 3 | All Maps","name_short":"lon-3","host":"lon-1.uk.uncletopia.com","port":27035,"enabled":true,"region":"eu","cc":"gb","latitude":51.509865,"longitude":-0.118092,"reserved":0,"last_update":"0001-01-01T00:00:00Z","name_a2s":"Uncletopia | London | 3 | All Maps","protocol":17,"map":"pl_borneo","folder":"tf","game":"Team Fortress","app_id":440,"player_count":23,"max_players":24,"Bots":0,"server_type":"Dedicated","server_os":"Linux","password":true,"vac":true,"version":"7757534","steam_id":85568392924510192,"keywords":["nocrits","nodmgspread","payload","uncletopia"],"game_id":440,"stv_port":27036,"stv_name":"Uncletopia | London | 3 | All Maps | STV","players":[{"user_id":208,"name":"Pauler le one","steam_id":76561198398152855,"connected_time":1162000000000,"state":"active","ping":113},{"user_id":174,"name":"Laru","steam_id":76561197998838438,"connected_time":3901000000000,"state":"active","ping":63},{"user_id":198,"name":"Pls.do.it!","steam_id":76561198211638119,"connected_time":2047000000000,"state":"active","ping":95},{"user_id":217,"name":"Mortiis","steam_id":76561198000795072,"connected_time":500000000000,"state":"active","ping":55},{"user_id":191,"name":"Narvhalø","steam_id":76561198147495474,"connected_time":2370000000000,"state":"active","ping":45},{"user_id":177,"name":"Vic maher","steam_id":76561198097523768,"connected_time":3768000000000,"state":"active","ping":67},{"user_id":201,"name":"twitch.tv/morvill_","steam_id":76561198809859945,"connected_time":1915000000000,"state":"active","ping":50},{"user_id":193,"name":"Zippy","steam_id":76561198279229422,"connected_time":2179000000000,"state":"active","ping":142},{"user_id":192,"name":"Welder","steam_id":76561198355300561,"connected_time":2243000000000,"state":"active","ping":72},{"user_id":212,"name":"rummy","steam_id":76561197997573379,"connected_time":1106000000000,"state":"active","ping":46},{"user_id":214,"name":"Hÿlkje","steam_id":76561198998581449,"connected_time":1054000000000,"state":"active","ping":72},{"user_id":148,"name":"rizook","steam_id":76561198055010039,"connected_time":6592000000000,"state":"active","ping":75},{"user_id":158,"name":"tactical783","steam_id":76561199051688560,"connected_time":5933000000000,"state":"active","ping":94},{"user_id":203,"name":":3","steam_id":76561198301481739,"connected_time":1723000000000,"state":"active","ping":55},{"user_id":207,"name":"Záporák","steam_id":76561198207175503,"connected_time":1178000000000,"state":"active","ping":63},{"user_id":181,"name":"DocTwoEight","steam_id":76561198153488940,"connected_time":3250000000000,"state":"active","ping":75},{"user_id":213,"name":"Zenos","steam_id":76561198212366199,"connected_time":1086000000000,"state":"active","ping":52},{"user_id":209,"name":"nightmare","steam_id":76561198386928726,"connected_time":1162000000000,"state":"active","ping":106},{"user_id":210,"name":"ciliorkun18","steam_id":76561198228942500,"connected_time":1161000000000,"state":"active","ping":90},{"user_id":173,"name":"Watson","steam_id":76561197974362869,"connected_time":4058000000000,"state":"active","ping":50},{"user_id":204,"name":"monke gaming","steam_id":76561199062738005,"connected_time":1313000000000,"state":"active","ping":68},{"user_id":219,"name":"Soya Suki","steam_id":76561197998106435,"connected_time":140000000000,"state":"active","ping":51},{"user_id":188,"name":"DarkFady","steam_id":76561198179099523,"connected_time":2995000000000,"state":"active","ping":107}]},{"server_id":321,"name":"Uncletopia | London | 4 | All Maps","name_short":"lon-4","host":"lon-1.uk.uncletopia.com","port":27045,"enabled":true,"region":"eu","cc":"gb","latitude":51.509865,"longitude":-0.118092,"reserved":0,"last_update":"0001-01-01T00:00:00Z","name_a2s":"Uncletopia | London | 4 | All Maps","protocol":17,"map":"koth_viaduct","folder":"tf","game":"Team Fortress","app_id":440,"player_count":0,"max_players":24,"Bots":0,"server_type":"Dedicated","server_os":"Linux","password":true,"vac":true,"version":"7757534","steam_id":85568392924510193,"keywords":["cp","nocrits","nodmgspread","uncletopia"],"game_id":440,"stv_port":27046,"stv_name":"Uncletopia | London | 4 | All Maps | STV","players":null},{"server_id":21,"name":"Uncletopia | London | 5 | All Maps","name_short":"lon-5","host":"lon-1.uk.uncletopia.com","port":27055,"enabled":true,"region":"eu","cc":"gb","latitude":51.509865,"longitude":-0.118092,"reserved":0,"last_update":"0001-01-01T00:00:00Z","name_a2s":"Uncletopia | London | 5 | All Maps","protocol":17,"map":"pl_frontier_final","folder":"tf","game":"Team Fortress","app_id":440,"player_count":0,"max_players":24,"Bots":0,"server_type":"Dedicated","server_os":"Linux","password":true,"vac":true,"version":"7757534","steam_id":85568392924742829,"keywords":["nocrits","nodmgspread","payload","uncletopia"],"game_id":440,"stv_port":27056,"stv_name":"Uncletopia | London | 5 | All Maps | STV","players":null},{"server_id":22,"name":"Uncletopia | London | 6 | All Maps","name_short":"lon-6","host":"lon-1.uk.uncletopia.com","port":27065,"enabled":true,"region":"eu","cc":"gb","latitude":51.509865,"longitude":-0.118092,"reserved":0,"last_update":"0001-01-01T00:00:00Z","name_a2s":"Uncletopia | London | 6 | All Maps","protocol":17,"map":"koth_cascade","folder":"tf","game":"Team Fortress","app_id":440,"player_count":0,"max_players":24,"Bots":0,"server_type":"Dedicated","server_os":"Linux","password":true,"vac":true,"version":"7757534","steam_id":85568392924742830,"keywords":["cp","nocrits","nodmgspread","uncletopia"],"game_id":440,"stv_port":27066,"stv_name":"Uncletopia | London | 6 | All Maps | STV","players":null},{"server_id":40,"name":"Uncletopia | London | 7 | No Payload","name_short":"lon-7","host":"lon-1.uk.uncletopia.com","port":27075,"enabled":true,"region":"eu","cc":"gb","latitude":51.509865,"longitude":-0.118092,"reserved":0,"last_update":"0001-01-01T00:00:00Z","name_a2s":"Uncletopia | London | 7 | No Payload","protocol":17,"map":"koth_king","folder":"tf","game":"Team Fortress","app_id":440,"player_count":0,"max_players":24,"Bots":0,"server_type":"Dedicated","server_os":"Linux","password":true,"vac":true,"version":"7757534","steam_id":85568392924964314,"keywords":["cp","nocrits","nodmgspread","uncletopia"],"game_id":440,"stv_port":27076,"stv_name":"Uncletopia | London | 7 | No Payload | STV","players":null},{"server_id":41,"name":"Uncletopia | London | 8 | Community","name_short":"lon-8","host":"lon-1.uk.uncletopia.com","port":27085,"enabled":true,"region":"eu","cc":"gb","latitude":51.509865,"longitude":-0.118092,"reserved":0,"last_update":"0001-01-01T00:00:00Z","name_a2s":"Uncletopia | London | 8 | Community","protocol":17,"map":"pl_upward","folder":"tf","game":"Team Fortress","app_id":440,"player_count":0,"max_players":24,"Bots":0,"server_type":"Dedicated","server_os":"Linux","password":true,"vac":true,"version":"7757534","steam_id":85568392924964315,"keywords":["nocrits","nodmgspread","payload","uncletopia"],"game_id":440,"stv_port":27086,"stv_name":"Uncletopia | London | 8 | Community | STV","players":null},{"server_id":300,"name":"Uncletopia | Montréal | 1 | All Maps","name_short":"mtl-1","host":"mtl-1.ca.uncletopia.com","port":27015,"enabled":true,"region":"us-east","cc":"ca","latitude":45.50889,"longitude":-73.56167,"reserved":0,"last_update":"0001-01-01T00:00:00Z","name_a2s":"Uncletopia | Montréal | 1 | All Maps","protocol":17,"map":"pl_snowycoast","folder":"tf","game":"Team Fortress","app_id":440,"player_count":0,"max_players":24,"Bots":0,"server_type":"Dedicated","server_os":"Linux","password":true,"vac":true,"version":"7757534","steam_id":85568392924500087,"keywords":["nocrits","nodmgspread","payload","uncletopia"],"game_id":440,"stv_port":27016,"stv_name":"Uncletopia | Montréal | 1 | All Maps | STV","players":null},{"server_id":301,"name":"Uncletopia | Montréal | 2 | All Maps","name_short":"mtl-2","host":"mtl-1.ca.uncletopia.com","port":27025,"enabled":true,"region":"us-east","cc":"ca","latitude":45.50889,"longitude":-73.56167,"reserved":0,"last_update":"0001-01-01T00:00:00Z","name_a2s":"Uncletopia | Montréal | 2 | All Maps","protocol":17,"map":"pl_snowycoast","folder":"tf","game":"Team Fortress","app_id":440,"player_count":0,"max_players":24,"Bots":0,"server_type":"Dedicated","server_os":"Linux","password":true,"vac":true,"version":"7757534","steam_id":85568392924500088,"keywords":["nocrits","nodmgspread","payload","uncletopia"],"game_id":440,"stv_port":27026,"stv_name":"Uncletopia | Montréal | 2 | All Maps | STV","players":null},{"server_id":302,"name":"Uncletopia | Montréal | 3 | All Maps","name_short":"mtl-3","host":"mtl-1.ca.uncletopia.com","port":27035,"enabled":true,"region":"us-east","cc":"ca","latitude":45.50889,"longitude":-73.56167,"reserved":0,"last_update":"0001-01-01T00:00:00Z","name_a2s":"Uncletopia | Montréal | 3 | All Maps","protocol":17,"map":"cp_dustbowl","folder":"tf","game":"Team Fortress","app_id":440,"player_count":0,"max_players":24,"Bots":0,"server_type":"Dedicated","server_os":"Linux","password":true,"vac":true,"version":"7757534","steam_id":85568392924500089,"keywords":["cp","nocrits","nodmgspread","uncletopia"],"game_id":440,"stv_port":27036,"stv_name":"Uncletopia | Montréal | 3 | All Maps | STV","players":null},{"server_id":303,"name":"Uncletopia | Montréal | 4 | No Payload","name_short":"mtl-4","host":"mtl-1.ca.uncletopia.com","port":27045,"enabled":true,"region":"us-east","cc":"ca","latitude":45.50889,"longitude":-73.56167,"reserved":0,"last_update":"0001-01-01T00:00:00Z","name_a2s":"Uncletopia | Montréal | 4 | No Payload","protocol":17,"map":"pl_borneo","folder":"tf","game":"Team Fortress","app_id":440,"player_count":0,"max_players":24,"Bots":0,"server_type":"Dedicated","server_os":"Linux","password":true,"vac":true,"version":"7757534","steam_id":85568392924500090,"keywords":["nocrits","nodmgspread","payload","uncletopia"],"game_id":440,"stv_port":27046,"stv_name":"Uncletopia | Montréal | 4 | No Payload | STV","players":null},{"server_id":13,"name":"Uncletopia | New York City | 1 | All Maps","name_short":"nyc-1","host":"nyc-1.us.uncletopia.com","port":27015,"enabled":true,"region":"us-east","cc":"us","latitude":40.73061,"longitude":-73.93524,"reserved":0,"last_update":"0001-01-01T00:00:00Z","name_a2s":"Uncletopia | New York City | 1 | All Maps","protocol":17,"map":"pl_swiftwater_final1","folder":"tf","game":"Team Fortress","app_id":440,"player_count":0,"max_players":24,"Bots":0,"server_type":"Dedicated","server_os":"Linux","password":true,"vac":true,"version":"7757534","steam_id":85568392924469993,"keywords":["nocrits","nodmgspread","payload","uncletopia"],"game_id":440,"stv_port":27016,"stv_name":"Uncletopia | New York City | 1 | All Maps | STV","players":null},{"server_id":14,"name":"Uncletopia | New York City | 2 | All Maps","name_short":"nyc-2","host":"nyc-1.us.uncletopia.com","port":27025,"enabled":true,"region":"us-east","cc":"us","latitude":40.73061,"longitude":-73.93524,"reserved":0,"last_update":"0001-01-01T00:00:00Z","name_a2s":"Uncletopia | New York City | 2 | All Maps","protocol":17,"map":"pl_pier","folder":"tf","game":"Team Fortress","app_id":440,"player_count":0,"max_players":24,"Bots":0,"server_type":"Dedicated","server_os":"Linux","password":true,"vac":true,"version":"7757534","steam_id":85568392924469994,"keywords":["nocrits","nodmgspread","payload","uncletopia"],"game_id":440,"stv_port":27026,"stv_name":"Uncletopia | New York City | 2 | All Maps | STV","players":null},{"server_id":15,"name":"Uncletopia | New York City | 3 | Stopwatch Beta","name_short":"nyc-3","host":"nyc-1.us.uncletopia.com","port":27035,"enabled":true,"region":"us-east","cc":"us","latitude":40.73061,"longitude":-73.93524,"reserved":0,"last_update":"0001-01-01T00:00:00Z","name_a2s":"Uncletopia | New York City | 3 | Stopwatch Beta","protocol":17,"map":"cp_mountainlab","folder":"tf","game":"Team Fortress","app_id":440,"player_count":0,"max_players":24,"Bots":0,"server_type":"Dedicated","server_os":"Linux","password":true,"vac":true,"version":"7757534","steam_id":85568392924742820,"keywords":["cp","nocrits","nodmgspread","uncletopia"],"game_id":440,"stv_port":27036,"stv_name":"Uncletopia | New York City | 3 | Stopwatch Beta | STV","players":null},{"server_id":16,"name":"Uncletopia | New York City | 4 | Community","name_short":"nyc-4","host":"nyc-1.us.uncletopia.com","port":27045,"enabled":true,"region":"us-east","cc":"us","latitude":40.73061,"longitude":-73.93524,"reserved":0,"last_update":"0001-01-01T00:00:00Z","name_a2s":"Uncletopia | New York City | 4 | Community","protocol":17,"map":"pl_borneo","folder":"tf","game":"Team Fortress","app_id":440,"player_count":0,"max_players":24,"Bots":0,"server_type":"Dedicated","server_os":"Linux","password":true,"vac":true,"version":"7757534","steam_id":85568392924742821,"keywords":["nocrits","nodmgspread","payload","uncletopia"],"game_id":440,"stv_port":27046,"stv_name":"Uncletopia | New York City | 4 | Community | STV","players":null},{"server_id":142,"name":"Uncletopia | São Paulo | 1 | All Maps","name_short":"sao-1","host":"sao-1.br.uncletopia.com","port":27015,"enabled":true,"region":"sa","cc":"br","latitude":-23.533773,"longitude":-46.62529,"reserved":0,"last_update":"0001-01-01T00:00:00Z","name_a2s":"Uncletopia | São Paulo | 1 | All Maps","protocol":17,"map":"pl_badwater","folder":"tf","game":"Team Fortress","app_id":440,"player_count":0,"max_players":24,"Bots":0,"server_type":"Dedicated","server_os":"Linux","password":true,"vac":true,"version":"7757534","steam_id":85568392924469996,"keywords":["nocrits","nodmgspread","payload","uncletopia"],"game_id":440,"stv_port":27016,"stv_name":"Uncletopia | São Paulo | 1 | All Maps | STV","players":null},{"server_id":143,"name":"Uncletopia | São Paulo | 2 | All Maps","name_short":"sao-2","host":"sao-2.br.uncletopia.com","port":27015,"enabled":true,"region":"sa","cc":"br","latitude":-23.533773,"longitude":-46.62529,"reserved":0,"last_update":"0001-01-01T00:00:00Z","name_a2s":"Uncletopia | São Paulo | 2 | All Maps","protocol":17,"map":"cp_altitude","folder":"tf","game":"Team Fortress","app_id":440,"player_count":0,"max_players":24,"Bots":0,"server_type":"Dedicated","server_os":"Linux","password":true,"vac":true,"version":"7757534","steam_id":85568392924485349,"keywords":["cp","nocrits","nodmgspread","uncletopia"],"game_id":440,"stv_port":27016,"stv_name":"Uncletopia | São Paulo | 2 | All Maps | STV","players":null},{"server_id":7,"name":"Uncletopia | Seattle | 1 | All Maps","name_short":"sea-1","host":"sea-1.us.uncletopia.com","port":27015,"enabled":true,"region":"us-west","cc":"us","latitude":47.608013,"longitude":-122.33517,"reserved":0,"last_update":"0001-01-01T00:00:00Z","name_a2s":"Uncletopia | Seattle | 1 | All Maps","protocol":17,"map":"pl_upward","folder":"tf","game":"Team Fortress","app_id":440,"player_count":24,"max_players":24,"Bots":0,"server_type":"Dedicated","server_os":"Linux","password":true,"vac":true,"version":"7757534","steam_id":85568392924469997,"keywords":["nocrits","nodmgspread","payload","uncletopia"],"game_id":440,"stv_port":27016,"stv_name":"Uncletopia | Seattle | 1 | All Maps | STV","players":[{"user_id":984,"name":"Bubblegum Tip","steam_id":76561198048131308,"connected_time":4807000000000,"state":"active","ping":70},{"user_id":1013,"name":"BLANK3T (They/He) | RGL.gg","steam_id":76561198028875624,"connected_time":224000000000,"state":"active","ping":57},{"user_id":1005,"name":"aversa","steam_id":76561198840460101,"connected_time":1312000000000,"state":"active","ping":119},{"user_id":1014,"name":"[Mysterious♥Human]","steam_id":76561198334777882,"connected_time":194000000000,"state":"active","ping":104},{"user_id":937,"name":"Blue 2001 Subaru Forester","steam_id":76561198161200131,"connected_time":8649000000000,"state":"active","ping":83},{"user_id":1009,"name":"LessCazador","steam_id":76561198447785056,"connected_time":968000000000,"state":"active","ping":90},{"user_id":973,"name":"if watermelons were human","steam_id":76561199044624946,"connected_time":5211000000000,"state":"active","ping":125},{"user_id":991,"name":"hypercarnivore","steam_id":76561198383246825,"connected_time":3243000000000,"state":"active","ping":118},{"user_id":967,"name":"Merci?","steam_id":76561198096823118,"connected_time":6162000000000,"state":"active","ping":88},{"user_id":1010,"name":"sunkist","steam_id":76561199473449638,"connected_time":966000000000,"state":"active","ping":105},{"user_id":1000,"name":"Chemo","steam_id":76561197961308370,"connected_time":2145000000000,"state":"active","ping":123},{"user_id":1004,"name":"anglo-saxon gamer","steam_id":76561198281612642,"connected_time":1399000000000,"state":"active","ping":58},{"user_id":1008,"name":"Mico (Goblin Mode)","steam_id":76561198125462953,"connected_time":1021000000000,"state":"active","ping":54},{"user_id":992,"name":"loser","steam_id":76561198132182386,"connected_time":3224000000000,"state":"active","ping":89},{"user_id":981,"name":"Communist Killing Candy Cactus\ufffd","steam_id":76561198074980635,"connected_time":4836000000000,"state":"active","ping":105},{"user_id":1012,"name":"Lavender","steam_id":76561198142770666,"connected_time":525000000000,"state":"active","ping":109},{"user_id":964,"name":"Drakon","steam_id":76561198078210822,"connected_time":6648000000000,"state":"active","ping":95},{"user_id":998,"name":"overwatch refugee","steam_id":76561199003985688,"connected_time":2558000000000,"state":"active","ping":99},{"user_id":974,"name":"Dragon Shmurda","steam_id":76561199079655568,"connected_time":5158000000000,"state":"active","ping":143},{"user_id":988,"name":"Anarchy/GNU Enjoyer","steam_id":76561199024862645,"connected_time":4056000000000,"state":"active","ping":117},{"user_id":1011,"name":"floppy muppet","steam_id":76561198003076261,"connected_time":874000000000,"state":"active","ping":147},{"user_id":1007,"name":"PaintMyMeow","steam_id":76561198056860387,"connected_time":1110000000000,"state":"active","ping":86},{"user_id":993,"name":"Frank","steam_id":76561198261851104,"connected_time":3202000000000,"state":"active","ping":144},{"user_id":1003,"name":"4Real","steam_id":76561199051709367,"connected_time":1483000000000,"state":"active","ping":71}]},{"server_id":119,"name":"Uncletopia | Seattle | 2 | All Maps","name_short":"sea-2","host":"sea-1.us.uncletopia.com","port":27025,"enabled":true,"region":"us-west","cc":"us","latitude":47.608013,"longitude":-122.33517,"reserved":0,"last_update":"0001-01-01T00:00:00Z","name_a2s":"Uncletopia | Seattle | 2 | All Maps","protocol":17,"map":"pl_snowycoast","folder":"tf","game":"Team Fortress","app_id":440,"player_count":22,"max_players":24,"Bots":0,"server_type":"Dedicated","server_os":"Linux","password":true,"vac":true,"version":"7757534","steam_id":85568392924469998,"keywords":["nocrits","nodmgspread","payload","uncletopia"],"game_id":440,"stv_port":27026,"stv_name":"Uncletopia | Seattle | 2 | All Maps | STV","players":[{"user_id":805,"name":"Lucerne★Flower","steam_id":76561198264105406,"connected_time":3278000000000,"state":"spawning","ping":126},{"user_id":846,"name":"Screwwie","steam_id":76561198006892781,"connected_time":1047000000000,"state":"spawning","ping":48},{"user_id":832,"name":"The Announcer's Feet","steam_id":76561199443456893,"connected_time":2014000000000,"state":"spawning","ping":126},{"user_id":804,"name":"Hotsaucebauce","steam_id":76561199070938363,"connected_time":3302000000000,"state":"spawning","ping":75},{"user_id":863,"name":"doodoo_flinger32","steam_id":76561198820816614,"connected_time":13000000000,"state":"spawning","ping":178},{"user_id":824,"name":"Alt1 l Epifiny","steam_id":76561198027958086,"connected_time":2674000000000,"state":"spawning","ping":109},{"user_id":861,"name":"Back with the milk","steam_id":76561199020105501,"connected_time":41000000000,"state":"spawning","ping":132},{"user_id":845,"name":"Packet [ :P","steam_id":76561197963257621,"connected_time":1300000000000,"state":"spawning","ping":95},{"user_id":847,"name":"SgtMaj Soggy Titties","steam_id":76561198067732216,"connected_time":930000000000,"state":"spawning","ping":93},{"user_id":864,"name":"Frank","steam_id":76561198206712848,"connected_time":2000000000,"state":"spawning","ping":96},{"user_id":848,"name":"arse77","steam_id":76561198169613105,"connected_time":892000000000,"state":"spawning","ping":107},{"user_id":849,"name":"TheGreatDong","steam_id":76561198000634178,"connected_time":827000000000,"state":"spawning","ping":53},{"user_id":731,"name":"whiskey on the rocks but cum","steam_id":76561198044180341,"connected_time":10227000000000,"state":"spawning","ping":68},{"user_id":859,"name":"ʀ.ꕤ｡.","steam_id":76561198029580420,"connected_time":235000000000,"state":"spawning","ping":165},{"user_id":844,"name":"RacoonGamer","steam_id":76561198100907657,"connected_time":1339000000000,"state":"spawning","ping":105},{"user_id":850,"name":"rorywashere /ᐠ - ˕ -マ Ⳋ","steam_id":76561198065825165,"connected_time":819000000000,"state":"spawning","ping":142},{"user_id":830,"name":"oof","steam_id":76561198068031860,"connected_time":2175000000000,"state":"spawning","ping":90},{"user_id":855,"name":"Provocator","steam_id":76561197961830410,"connected_time":630000000000,"state":"spawning","ping":123},{"user_id":839,"name":"Blue Banana","steam_id":76561198100077411,"connected_time":1784000000000,"state":"spawning","ping":82},{"user_id":801,"name":"M E M E  M A N","steam_id":76561198103179061,"connected_time":3368000000000,"state":"spawning","ping":106},{"user_id":852,"name":"Bucket Head Zombie","steam_id":76561198125725244,"connected_time":769000000000,"state":"spawning","ping":138},{"user_id":858,"name":"sss9","steam_id":76561198065339248,"connected_time":485000000000,"state":"spawning","ping":57}]},{"server_id":406,"name":"Uncletopia | Seattle | 3 | Stopwatch Beta","name_short":"sea-3","host":"sea-1.us.uncletopia.com","port":27035,"enabled":true,"region":"us-west","cc":"us","latitude":47.608013,"longitude":-122.33517,"reserved":0,"last_update":"0001-01-01T00:00:00Z","name_a2s":"Uncletopia | Seattle | 3 | Stopwatch Beta","protocol":17,"map":"workshop/koth_clearcut_b15.ugc2107050255","folder":"tf","game":"Team Fortress","app_id":440,"player_count":0,"max_players":24,"Bots":0,"server_type":"Dedicated","server_os":"Linux","password":true,"vac":true,"version":"7757534","steam_id":85568392924515217,"keywords":["cp","nocrits","nodmgspread","uncletopia"],"game_id":440,"stv_port":27036,"stv_name":"Uncletopia | Seattle | 3 | Stopwatch Beta | STV","players":null},{"server_id":17,"name":"Uncletopia | San Francisco | 1 | All Maps","name_short":"sfo-1","host":"sfo-1.us.uncletopia.com","port":27015,"enabled":true,"region":"us-west","cc":"us","latitude":37.77397,"longitude":-122.4313,"reserved":0,"last_update":"0001-01-01T00:00:00Z","name_a2s":"Uncletopia | San Francisco | 1 | All Maps","protocol":17,"map":"koth_viaduct","folder":"tf","game":"Team Fortress","app_id":440,"player_count":0,"max_players":24,"Bots":0,"server_type":"Dedicated","server_os":"Linux","password":true,"vac":true,"version":"7757534","steam_id":85568392924469999,"keywords":["cp","nocrits","nodmgspread","uncletopia"],"game_id":440,"stv_port":27016,"stv_name":"Uncletopia | San Francisco | 1 | All Maps | STV","players":null},{"server_id":18,"name":"Uncletopia | San Francisco | 2 | All Maps","name_short":"sfo-2","host":"sfo-1.us.uncletopia.com","port":27025,"enabled":true,"region":"us-west","cc":"us","latitude":37.77397,"longitude":-122.4313,"reserved":0,"last_update":"0001-01-01T00:00:00Z","name_a2s":"Uncletopia | San Francisco | 2 | All Maps","protocol":17,"map":"koth_lakeside_final","folder":"tf","game":"Team Fortress","app_id":440,"player_count":0,"max_players":24,"Bots":0,"server_type":"Dedicated","server_os":"Linux","password":true,"vac":true,"version":"7757534","steam_id":85568392924470000,"keywords":["cp","nocrits","nodmgspread","uncletopia"],"game_id":440,"stv_port":27026,"stv_name":"Uncletopia | San Francisco | 2 | All Maps | STV","players":null},{"server_id":19,"name":"Uncletopia | San Francisco | 3 | Stopwatch Beta","name_short":"sfo-3","host":"sfo-1.us.uncletopia.com","port":27035,"enabled":true,"region":"us-west","cc":"us","latitude":37.77397,"longitude":-122.4313,"reserved":0,"last_update":"0001-01-01T00:00:00Z","name_a2s":"Uncletopia | San Francisco | 3 | Stopwatch Beta","protocol":17,"map":"pl_borneo","folder":"tf","game":"Team Fortress","app_id":440,"player_count":0,"max_players":24,"Bots":0,"server_type":"Dedicated","server_os":"Linux","password":true,"vac":true,"version":"7757534","steam_id":85568392924742824,"keywords":["nocrits","nodmgspread","payload","uncletopia"],"game_id":440,"stv_port":27036,"stv_name":"Uncletopia | San Francisco | 3 | Stopwatch Beta | STV","players":null},{"server_id":20,"name":"Uncletopia | San Francisco | 4 | Community","name_short":"sfo-4","host":"sfo-1.us.uncletopia.com","port":27045,"enabled":true,"region":"us-west","cc":"us","latitude":37.77397,"longitude":-122.4313,"reserved":0,"last_update":"0001-01-01T00:00:00Z","name_a2s":"Uncletopia | San Francisco | 4 | Community","protocol":17,"map":"workshop/cp_hazyfort_rc6.ugc1365963729","folder":"tf","game":"Team Fortress","app_id":440,"player_count":0,"max_players":24,"Bots":0,"server_type":"Dedicated","server_os":"Linux","password":true,"vac":true,"version":"7757534","steam_id":85568392924742826,"keywords":["cp","nocrits","nodmgspread","uncletopia"],"game_id":440,"stv_port":27046,"stv_name":"Uncletopia | San Francisco | 4 | Community | STV","players":null},{"server_id":141,"name":"Uncletopia | Sydney | 1 | All Maps","name_short":"syd-1","host":"syd-1.au.uncletopia.com","port":27015,"enabled":true,"region":"au","cc":"au","latitude":-33.865143,"longitude":151.2099,"reserved":0,"last_update":"0001-01-01T00:00:00Z","name_a2s":"Uncletopia | Sydney | 1 | All Maps","protocol":17,"map":"plr_hightower","folder":"tf","game":"Team Fortress","app_id":440,"player_count":11,"max_players":24,"Bots":0,"server_type":"Dedicated","server_os":"Linux","password":true,"vac":true,"version":"7757534","steam_id":85568392924470001,"keywords":["nocrits","nodmgspread","payload","uncletopia"],"game_id":440,"stv_port":27016,"stv_name":"Uncletopia | Sydney | 1 | All Maps | STV","players":[{"user_id":616,"name":"Branko","steam_id":76561199262196710,"connected_time":705000000000,"state":"active","ping":42},{"user_id":585,"name":"KILLER WHALES","steam_id":76561198012422705,"connected_time":3731000000000,"state":"active","ping":55},{"user_id":617,"name":"Buster","steam_id":76561198135286738,"connected_time":695000000000,"state":"active","ping":55},{"user_id":618,"name":"whiteshaq","steam_id":76561198131988811,"connected_time":450000000000,"state":"active","ping":74},{"user_id":623,"name":"floop flub","steam_id":76561198418968979,"connected_time":113000000000,"state":"active","ping":99},{"user_id":619,"name":"osiris","steam_id":76561198172640226,"connected_time":384000000000,"state":"active","ping":92},{"user_id":589,"name":"Cafe","steam_id":76561198061587693,"connected_time":3701000000000,"state":"active","ping":95},{"user_id":584,"name":"Blaze Deval","steam_id":76561198045536914,"connected_time":4079000000000,"state":"active","ping":78},{"user_id":580,"name":"hive","steam_id":76561199099744527,"connected_time":4307000000000,"state":"active","ping":55},{"user_id":581,"name":"Eugene (built different)","steam_id":76561198079108027,"connected_time":4307000000000,"state":"active","ping":54},{"user_id":582,"name":"Henry.","steam_id":76561198218565309,"connected_time":4283000000000,"state":"active","ping":71}]},{"server_id":123,"name":"Uncletopia | Sydney | 2 | All Maps","name_short":"syd-2","host":"syd-1.au.uncletopia.com","port":27025,"enabled":true,"region":"au","cc":"au","latitude":-33.865143,"longitude":151.2099,"reserved":0,"last_update":"0001-01-01T00:00:00Z","name_a2s":"Uncletopia | Sydney | 2 | All Maps","protocol":17,"map":"pl_frontier_final","folder":"tf","game":"Team Fortress","app_id":440,"player_count":24,"max_players":24,"Bots":0,"server_type":"Dedicated","server_os":"Linux","password":true,"vac":true,"version":"7757534","steam_id":85568392924470002,"keywords":["nocrits","nodmgspread","payload","uncletopia"],"game_id":440,"stv_port":27026,"stv_name":"Uncletopia | Sydney | 2 | All Maps | STV","players":[{"user_id":424,"name":"Aubrey","steam_id":76561198177748597,"connected_time":1584000000000,"state":"active","ping":52},{"user_id":429,"name":"Jad","steam_id":76561198453862581,"connected_time":1086000000000,"state":"active","ping":94},{"user_id":421,"name":"beans","steam_id":76561198202908888,"connected_time":1918000000000,"state":"active","ping":64},{"user_id":425,"name":"Chrispeh Kreme","steam_id":76561198077262390,"connected_time":1567000000000,"state":"active","ping":55},{"user_id":437,"name":"JustifiedJordan","steam_id":76561198064538629,"connected_time":205000000000,"state":"active","ping":61},{"user_id":369,"name":"The Fesh Pince Of Blair","steam_id":76561198124442611,"connected_time":5382000000000,"state":"active","ping":86},{"user_id":391,"name":"Assasin43","steam_id":76561198067678083,"connected_time":3756000000000,"state":"active","ping":104},{"user_id":426,"name":"xenolotl","steam_id":76561198045610545,"connected_time":1564000000000,"state":"active","ping":90},{"user_id":413,"name":"Jrool","steam_id":76561198130635051,"connected_time":2164000000000,"state":"active","ping":70},{"user_id":407,"name":"RubyPilot","steam_id":76561198042429921,"connected_time":2479000000000,"state":"active","ping":68},{"user_id":434,"name":"Griffin","steam_id":76561198024926514,"connected_time":230000000000,"state":"active","ping":92},{"user_id":404,"name":"Lincoln2603","steam_id":76561198170236666,"connected_time":2794000000000,"state":"active","ping":39},{"user_id":423,"name":"g0bbo","steam_id":76561198045787416,"connected_time":1782000000000,"state":"active","ping":66},{"user_id":438,"name":"SoundlessPlum","steam_id":76561198077872547,"connected_time":116000000000,"state":"active","ping":59},{"user_id":439,"name":"Gold_","steam_id":76561198262477186,"connected_time":114000000000,"state":"active","ping":69},{"user_id":415,"name":"futso","steam_id":76561198106076530,"connected_time":2136000000000,"state":"active","ping":75},{"user_id":389,"name":"LightningBlock","steam_id":76561198289997742,"connected_time":3913000000000,"state":"active","ping":35},{"user_id":417,"name":"Bob Ross","steam_id":76561198081686896,"connected_time":2025000000000,"state":"active","ping":61},{"user_id":431,"name":"Matt","steam_id":76561198006791420,"connected_time":842000000000,"state":"active","ping":94},{"user_id":418,"name":"calculusfish","steam_id":76561198067205959,"connected_time":2016000000000,"state":"active","ping":68},{"user_id":430,"name":"timboe","steam_id":76561198003442007,"connected_time":1004000000000,"state":"active","ping":57},{"user_id":410,"name":"Abraham Lincoln","steam_id":76561198095292515,"connected_time":2344000000000,"state":"active","ping":58},{"user_id":435,"name":"Griffith did nothing wrong","steam_id":76561198176111621,"connected_time":229000000000,"state":"active","ping":99},{"user_id":436,"name":"Chooksy","steam_id":76561198078797929,"connected_time":229000000000,"state":"active","ping":57}]},{"server_id":395,"name":"Uncletopia | Sydney | 3 | All Maps","name_short":"syd-3","host":"syd-1.au.uncletopia.com","port":27035,"enabled":true,"region":"au","cc":"au","latitude":-33.865143,"longitude":151.2099,"reserved":0,"last_update":"0001-01-01T00:00:00Z","name_a2s":"Uncletopia | Sydney | 3 | All Maps","protocol":17,"map":"pl_pier","folder":"tf","game":"Team Fortress","app_id":440,"player_count":0,"max_players":24,"Bots":0,"server_type":"Dedicated","server_os":"Linux","password":true,"vac":true,"version":"7757534","steam_id":85568392925194467,"keywords":["nocrits","nodmgspread","payload","uncletopia"],"game_id":440,"stv_port":27036,"stv_name":"Uncletopia | Sydney | 3 | All Maps | STV","players":null},{"server_id":396,"name":"Uncletopia | Sydney | 4 | All Maps","name_short":"syd-4","host":"syd-1.au.uncletopia.com","port":27045,"enabled":true,"region":"au","cc":"au","latitude":-33.865143,"longitude":151.2099,"reserved":0,"last_update":"0001-01-01T00:00:00Z","name_a2s":"Uncletopia | Sydney | 4 | All Maps","protocol":17,"map":"koth_cascade","folder":"tf","game":"Team Fortress","app_id":440,"player_count":2,"max_players":24,"Bots":0,"server_type":"Dedicated","server_os":"Linux","password":true,"vac":true,"version":"7757534","steam_id":85568392925397958,"keywords":["cp","nocrits","nodmgspread","uncletopia"],"game_id":440,"stv_port":27046,"stv_name":"Uncletopia | Sydney | 4 | All Maps | STV","players":[{"user_id":20,"name":"Y0shua3","steam_id":76561199381627916,"connected_time":5552000000000,"state":"active","ping":92},{"user_id":22,"name":"TheCardboardKing","steam_id":76561199099769110,"connected_time":3381000000000,"state":"active","ping":48}]},{"server_id":58,"name":"Uncletopia | Sydney | 5 | Stopwatch Beta","name_short":"syd-5","host":"syd-1.au.uncletopia.com","port":27055,"enabled":true,"region":"au","cc":"au","latitude":-33.865143,"longitude":151.2099,"reserved":0,"last_update":"0001-01-01T00:00:00Z","name_a2s":"Uncletopia | Sydney | 5 | Stopwatch Beta","protocol":17,"map":"koth_highpass","folder":"tf","game":"Team Fortress","app_id":440,"player_count":0,"max_players":24,"Bots":0,"server_type":"Dedicated","server_os":"Linux","password":true,"vac":true,"version":"7757534","steam_id":85568392925397959,"keywords":["cp","nocrits","nodmgspread","uncletopia"],"game_id":440,"stv_port":27056,"stv_name":"Uncletopia | Sydney | 5 | Stopwatch Beta | STV","players":null},{"server_id":59,"name":"Uncletopia | Sydney | 6 | Community","name_short":"syd-6","host":"syd-1.au.uncletopia.com","port":27065,"enabled":true,"region":"au","cc":"au","latitude":-33.865143,"longitude":151.2099,"reserved":0,"last_update":"0001-01-01T00:00:00Z","name_a2s":"Uncletopia | Sydney | 6 | Community","protocol":17,"map":"workshop/cp_alloy_rc3.ugc592805587","folder":"tf","game":"Team Fortress","app_id":440,"player_count":0,"max_players":24,"Bots":0,"server_type":"Dedicated","server_os":"Linux","password":true,"vac":true,"version":"7757534","steam_id":85568392925397960,"keywords":["cp","nocrits","nodmgspread","uncletopia"],"game_id":440,"stv_port":27066,"stv_name":"Uncletopia | Sydney | 6 | Community | STV","players":null},{"server_id":49,"name":"Uncletopia | Warsaw | 1 | All Maps","name_short":"waw-1","host":"waw-1.pl.uncletopia.com","port":27015,"enabled":true,"region":"eu","cc":"pl","latitude":52.2297,"longitude":21.017532,"reserved":0,"last_update":"0001-01-01T00:00:00Z","name_a2s":"","protocol":0,"map":"","folder":"","game":"","app_id":0,"player_count":0,"max_players":0,"Bots":0,"server_type":"","server_os":"","password":false,"vac":false,"version":"","steam_id":0,"keywords":null,"game_id":0,"stv_port":0,"stv_name":"","players":null},{"server_id":50,"name":"Uncletopia | Warsaw | 2 | All Maps","name_short":"waw-2","host":"waw-1.pl.uncletopia.com","port":27025,"enabled":true,"region":"eu","cc":"pl","latitude":52.2297,"longitude":21.017532,"reserved":0,"last_update":"0001-01-01T00:00:00Z","name_a2s":"Uncletopia | Warsaw | 2 | All Maps","protocol":17,"map":"cp_altitude","folder":"tf","game":"Team Fortress","app_id":440,"player_count":0,"max_players":24,"Bots":0,"server_type":"Dedicated","server_os":"Linux","password":true,"vac":true,"version":"7757534","steam_id":85568392925397851,"keywords":["cp","nocrits","nodmgspread","uncletopia"],"game_id":440,"stv_port":27026,"stv_name":"Uncletopia | Warsaw | 2 | All Maps | STV","players":null},{"server_id":51,"name":"Uncletopia | Warsaw | 3 | All Maps","name_short":"waw-3","host":"waw-1.pl.uncletopia.com","port":27035,"enabled":true,"region":"eu","cc":"pl","latitude":52.2297,"longitude":21.017532,"reserved":0,"last_update":"0001-01-01T00:00:00Z","name_a2s":"Uncletopia | Warsaw | 3 | All Maps","protocol":17,"map":"cp_snakewater_final1","folder":"tf","game":"Team Fortress","app_id":440,"player_count":0,"max_players":24,"Bots":0,"server_type":"Dedicated","server_os":"Linux","password":true,"vac":true,"version":"7757534","steam_id":85568392925397852,"keywords":["cp","nocrits","nodmgspread","uncletopia"],"game_id":440,"stv_port":27036,"stv_name":"Uncletopia | Warsaw | 3 | All Maps | STV","players":null},{"server_id":52,"name":"Uncletopia | Warsaw | 4 | All Maps","name_short":"waw-4","host":"waw-1.pl.uncletopia.com","port":27045,"enabled":true,"region":"eu","cc":"pl","latitude":52.2297,"longitude":21.017532,"reserved":0,"last_update":"0001-01-01T00:00:00Z","name_a2s":"Uncletopia | Warsaw | 4 | All Maps","protocol":17,"map":"pl_snowycoast","folder":"tf","game":"Team Fortress","app_id":440,"player_count":0,"max_players":24,"Bots":0,"server_type":"Dedicated","server_os":"Linux","password":true,"vac":true,"version":"7757534","steam_id":85568392925397853,"keywords":["nocrits","nodmgspread","payload","uncletopia"],"game_id":440,"stv_port":27046,"stv_name":"Uncletopia | Warsaw | 4 | All Maps | STV","players":null},{"server_id":53,"name":"Uncletopia | Warsaw | 5 | Stopwatch Beta","name_short":"waw-5","host":"waw-1.pl.uncletopia.com","port":27055,"enabled":true,"region":"eu","cc":"pl","latitude":52.2297,"longitude":21.017532,"reserved":0,"last_update":"0001-01-01T00:00:00Z","name_a2s":"Uncletopia | Warsaw | 5 | Stopwatch Beta","protocol":17,"map":"pl_barnblitz","folder":"tf","game":"Team Fortress","app_id":440,"player_count":0,"max_players":24,"Bots":0,"server_type":"Dedicated","server_os":"Linux","password":true,"vac":true,"version":"7757534","steam_id":85568392925397854,"keywords":["nocrits","nodmgspread","payload","uncletopia"],"game_id":440,"stv_port":27056,"stv_name":"Uncletopia | Warsaw | 5 | Stopwatch Beta | STV","players":null},{"server_id":54,"name":"Uncletopia | Warsaw | 6 | Community","name_short":"waw-6","host":"waw-1.pl.uncletopia.com","port":27065,"enabled":true,"region":"eu","cc":"pl","latitude":52.2297,"longitude":21.017532,"reserved":0,"last_update":"0001-01-01T00:00:00Z","name_a2s":"Uncletopia | Warsaw | 6 | Community","protocol":17,"map":"pl_swiftwater_final1","folder":"tf","game":"Team Fortress","app_id":440,"player_count":0,"max_players":24,"Bots":0,"server_type":"Dedicated","server_os":"Linux","password":true,"vac":true,"version":"7757534","steam_id":85568392925397856,"keywords":["nocrits","nodmgspread","payload","uncletopia"],"game_id":440,"stv_port":27066,"stv_name":"Uncletopia | Warsaw | 6 | Community | STV","players":null}]}