{"status":true,"message":"","result":[{"server_id":9,"name":"Uncletopia | Atlanta | 1 | All Maps","name_short":"atl-1","host":"atl-1.us.uncletopia.com","port":27015,"enabled":true,"region":"us-east","cc":"us","latitude":33.753746,"longitude":-84.38633,"reserved":0,"last_update":"0001-01-01T00:00:00Z","name_a2s":"Uncletopia | Atlanta | 1 | All Maps","protocol":17,"map":"pl_swiftwater_final1","folder":"tf","game":"Team Fortress","app_id":440,"player_count":24,"max_players":24,"Bots":0,"server_type":"Dedicated","server_os":"Linux","password":true,"vac":true,"version":"7882260","steam_id":85568392924469982,"keywords":["nocrits","nodmgspread","payload","uncletopia"],"game_id":440,"stv_port":27016,"stv_name":"Uncletopia | Atlanta | 1 | All Maps | STV","players":[{"user_id":131,"name":"chubbbo","steam_id":76561198943598378,"connected_time":7262000000000,"state":"active","ping":36},{"user_id":202,"name":"CapnKris22","steam_id":76561198049010994,"connected_time":1152000000000,"state":"active","ping":78},{"user_id":132,"name":"ATL1 | on my hunting trip","steam_id":76561198315341646,"connected_time":7261000000000,"state":"active","ping":77},{"user_id":222,"name":"ma0re","steam_id":76561199231971506,"connected_time":379000000000,"state":"active","ping":67},{"user_id":194,"name":"Skinny pete","steam_id":76561198801608576,"connected_time":2224000000000,"state":"active","ping":71},{"user_id":216,"name":"J O V A","steam_id":76561198090333536,"connected_time":710000000000,"state":"active","ping":75},{"user_id":213,"name":"junkrat source engine","steam_id":76561198170381402,"connected_time":741000000000,"state":"active","ping":60},{"user_id":184,"name":"Lavender they/them","steam_id":76561198825997674,"connected_time":3091000000000,"state":"active","ping":46},{"user_id":188,"name":"troutsupply.net punks","steam_id":76561199140940650,"connected_time":2572000000000,"state":"active","ping":54},{"user_id":220,"name":"[GL] Lord Stolas","steam_id":76561199228319575,"connected_time":675000000000,"state":"active","ping":95},{"user_id":201,"name":"Inkmix(donkey kong enjoyer)","steam_id":76561198854070384,"connected_time":1162000000000,"state":"active","ping":100},{"user_id":217,"name":"heritage","steam_id":76561198108685037,"connected_time":695000000000,"state":"active","ping":89},{"user_id":198,"name":"Cap'n Short Legs","steam_id":76561198164139410,"connected_time":1697000000000,"state":"active","ping":77},{"user_id":197,"name":"Epifiny","steam_id":76561198027958086,"connected_time":1949000000000,"state":"active","ping":85},{"user_id":182,"name":"Goofball","steam_id":76561198061211537,"connected_time":3232000000000,"state":"active","ping":75},{"user_id":221,"name":"rommb","steam_id":76561198090159427,"connected_time":660000000000,"state":"active","ping":75},{"user_id":214,"name":"Scorpie Doodle","steam_id":76561198021845763,"connected_time":735000000000,"state":"active","ping":74},{"user_id":203,"name":"limp.bizkit.lover1977@gmail.com","steam_id":76561198018677833,"connected_time":1137000000000,"state":"active","ping":98},{"user_id":218,"name":"sunny","steam_id":76561198069380992,"connected_time":682000000000,"state":"active","ping":73},{"user_id":219,"name":"Suspiciously Black Spy","steam_id":76561199050642411,"connected_time":679000000000,"state":"active","ping":76},{"user_id":177,"name":"luxin","steam_id":76561198399383047,"connected_time":3840000000000,"state":"active","ping":55},{"user_id":211,"name":"Got Poop in my Soup","steam_id":76561198059678425,"connected_time":762000000000,"state":"active","ping":68},{"user_id":165,"name":"Hope","steam_id":76561199201900779,"connected_time":5030000000000,"state":"active","ping":81},{"user_id":186,"name":"ZooWeeMama","steam_id":76561198353593569,"connected_time":2644000000000,"state":"active","ping":46}]},{"server_id":104,"name":"Uncletopia | Atlanta | 2 | All Maps","name_short":"atl-2","host":"atl-1.us.uncletopia.com","port":27025,"enabled":true,"region":"us-east","cc":"us","latitude":33.753746,"longitude":-84.38633,"reserved":0,"last_update":"0001-01-01T00:00:00Z","name_a2s":"Uncletopia | Atlanta | 2 | All Maps","protocol":17,"map":"pl_upward","folder":"tf","game":"Team Fortress","app_id":440,"player_count":24,"max_players":24,"Bots":0,"server_type":"Dedicated","server_os":"Linux","password":true,"vac":true,"version":"7882260","steam_id":85568392924469983,"keywords":["nocrits","nodmgspread","payload","uncletopia"],"game_id":440,"stv_port":27026,"stv_name":"Uncletopia | Atlanta | 2 | All Maps | STV","players":[{"user_id":14,"name":"The Transgender Cat","steam_id":76561198807069433,"connected_time":2116000000000,"state":"active","ping":87},{"user_id":15,"name":"Transfem Furry \u003c3","steam_id":76561198288036403,"connected_time":2114000000000,"state":"active","ping":104},{"user_id":16,"name":"L + iberty Launcher + Ratio","steam_id":76561199027981643,"connected_time":1128000000000,"state":"active","ping":46},{"user_id":19,"name":"Scoutsarebad","steam_id":76561199013705323,"connected_time":702000000000,"state":"active","ping":67},{"user_id":18,"name":"Cutcleaner","steam_id":76561199000925667,"connected_time":832000000000,"state":"active","ping":80},{"user_id":20,"name":"Ion","steam_id":76561198066211080,"connected_time":664000000000,"state":"active","ping":98},{"user_id":21,"name":"e11even","steam_id":76561198335940099,"connected_time":619000000000,"state":"active","ping":100},{"user_id":22,"name":"Reposas","steam_id":76561198058803197,"connected_time":602000000000,"state":"active","ping":90},{"user_id":23,"name":"Alma Smego does it again","steam_id":76561199195104977,"connected_time":578000000000,"state":"active","ping":61},{"user_id":24,"name":"Warpy","steam_id":76561198055852599,"connected_time":578000000000,"state":"active","ping":113},{"user_id":25,"name":"Korv","steam_id":76561199486445506,"connected_time":559000000000,"state":"active","ping":65},{"user_id":26,"name":"drevott74","steam_id":76561199262592779,"connected_time":544000000000,"state":"active","ping":109},{"user_id":27,"name":"sleepy (Pocket choice)","steam_id":76561199283485895,"connected_time":505000000000,"state":"active","ping":111},{"user_id":28,"name":"chaffy","steam_id":76561198021754567,"connected_time":484000000000,"state":"active","ping":60},{"user_id":29,"name":"Rock Kickass","steam_id":76561198450510841,"connected_time":460000000000,"state":"active","ping":115},{"user_id":30,"name":"Hatsune Shoomsie","steam_id":76561198047405791,"connected_time":444000000000,"state":"active","ping":93},{"user_id":31,"name":"Slippin' Jimmy","steam_id":76561198812921824,"connected_time":419000000000,"state":"active","ping":72},{"user_id":39,"name":"uzr","steam_id":76561198799343084,"connected_time":171000000000,"state":"active","ping":109},{"user_id":33,"name":"Serenue","steam_id":76561199040361250,"connected_time":322000000000,"state":"active","ping":85},{"user_id":34,"name":"Allyn","steam_id":76561198999161827,"connected_time":316000000000,"state":"active","ping":81},{"user_id":35,"name":"hopeless","steam_id":76561198305056374,"connected_time":302000000000,"state":"active","ping":74},{"user_id":36,"name":"Drewey","steam_id":76561199258609863,"connected_time":275000000000,"state":"active","ping":82},{"user_id":37,"name":"ericgoodheart","steam_id":76561198871056612,"connected_time":269000000000,"state":"active","ping":82},{"user_id":38,"name":"playguy carter","steam_id":76561198080679337,"connected_time":234000000000,"state":"active","ping":72}]},{"server_id":400,"name":"Uncletopia | Atlanta | 3 | Community","name_short":"atl-3","host":"atl-1.us.uncletopia.com","port":27035,"enabled":true,"region":"us-east","cc":"us","latitude":33.753746,"longitude":-84.38633,"reserved":0,"last_update":"0001-01-01T00:00:00Z","name_a2s":"Uncletopia | Atlanta | 3 | Community","protocol":17,"map":"workshop/cp_caldera_rc2.ugc2834196889","folder":"tf","game":"Team Fortress","app_id":440,"player_count":22,"max_players":24,"Bots":0,"server_type":"Dedicated","server_os":"Linux","password":true,"vac":true,"version":"7882260","steam_id":85568392924515187,"keywords":["cp","nocrits","nodmgspread","uncletopia"],"game_id":440,"stv_port":27036,"stv_name":"Uncletopia | Atlanta | 3 | Community | STV","players":[{"user_id":390,"name":"Centipede on a Game Boy","steam_id":76561199016285746,"connected_time":475000000000,"state":"active","ping":69},{"user_id":382,"name":"ShadyKitty","steam_id":76561198056312200,"connected_time":960000000000,"state":"active","ping":80},{"user_id":391,"name":"bushman","steam_id":76561197996548146,"connected_time":336000000000,"state":"active","ping":84},{"user_id":372,"name":"Boungiorno","steam_id":76561198135131867,"connected_time":1982000000000,"state":"active","ping":44},{"user_id":393,"name":"pizza patrol","steam_id":76561199238923581,"connected_time":262000000000,"state":"active","ping":120},{"user_id":369,"name":"crashymicsplody","steam_id":76561198213916765,"connected_time":2146000000000,"state":"active","ping":82},{"user_id":340,"name":"E4Estrogen","steam_id":76561198085813708,"connected_time":4732000000000,"state":"active","ping":57},{"user_id":349,"name":"Career","steam_id":76561198028542212,"connected_time":3967000000000,"state":"active","ping":54},{"user_id":383,"name":"Skyblade64","steam_id":76561198042177790,"connected_time":943000000000,"state":"active","ping":87},{"user_id":363,"name":"Pixel","steam_id":76561198096221632,"connected_time":2364000000000,"state":"active","ping":45},{"user_id":384,"name":"RonaldKun","steam_id":76561198113841433,"connected_time":927000000000,"state":"active","ping":52},{"user_id":394,"name":"my tummy hurts","steam_id":76561198154774185,"connected_time":155000000000,"state":"active","ping":39},{"user_id":316,"name":"potatotomato","steam_id":76561199092769902,"connected_time":6057000000000,"state":"active","ping":71},{"user_id":385,"name":"isaacbigcheese","steam_id":76561198123087556,"connected_time":924000000000,"state":"active","ping":44},{"user_id":386,"name":"Mediocre Gaming","steam_id":76561199230467980,"connected_time":923000000000,"state":"active","ping":85},{"user_id":387,"name":"Lexabyte","steam_id":76561198065032237,"connected_time":869000000000,"state":"active","ping":77},{"user_id":374,"name":"Sexual Butt","steam_id":76561198102241399,"connected_time":1754000000000,"state":"active","ping":82},{"user_id":375,"name":"typhoon","steam_id":76561198165123178,"connected_time":1731000000000,"state":"active","ping":76},{"user_id":376,"name":"The road whorrior","steam_id":76561198329087915,"connected_time":1730000000000,"state":"active","ping":97},{"user_id":378,"name":"BackroomDread","steam_id":76561199434585584,"connected_time":1684000000000,"state":"active","ping":76},{"user_id":379,"name":"prezolt","steam_id":76561198253358566,"connected_time":1564000000000,"state":"active","ping":52},{"user_id":380,"name":"„ÅÑ„Å°„Åî„Åæ„Çç","steam_id":76561198166100997,"connected_time":1523000000000,"state":"active","ping":64}]},{"server_id":401,"name":"Uncletopia | Atlanta | 4 | No Payload","name_short":"atl-4","host":"atl-1.us.uncletopia.com","port":27045,"enabled":true,"region":"us-east","cc":"us","latitude":33.753746,"longitude":-84.38633,"reserved":0,"last_update":"0001-01-01T00:00:00Z","name_a2s":"","protocol":0,"map":"","folder":"","game":"","app_id":0,"player_count":0,"max_players":0,"Bots":0,"server_type":"","server_os":"","password":false,"vac":false,"version":"","steam_id":0,"keywords":null,"game_id":0,"stv_port":0,"stv_name":"","players":null},{"server_id":2,"name":"Uncletopia | Chicago | 1 | All Maps","name_short":"chi-1","host":"chi-1.us.uncletopia.com","port":27015,"enabled":true,"region":"us-central","cc":"us","latitude":41.881832,"longitude":-87.62318,"reserved":0,"last_update":"0001-01-01T00:00:00Z","name_a2s":"Uncletopia | Chicago | 1 | All Maps","protocol":17,"map":"pl_frontier_final","folder":"tf","game":"Team Fortress","app_id":440,"player_count":24,"max_players":24,"Bots":0,"server_type":"Dedicated","server_os":"Linux","password":true,"vac":true,"version":"7882260","steam_id":85568392924469984,"keywords":["nocrits","nodmgspread","payload","uncletopia"],"game_id":440,"stv_port":27016,"stv_name":"Uncletopia | Chicago | 1 | All Maps | STV","players":[{"user_id":430,"name":"Daz","steam_id":76561198041431938,"connected_time":1772000000000,"state":"active","ping":101},{"user_id":457,"name":"Jihad","steam_id":76561198199803242,"connected_time":246000000000,"state":"active","ping":78},{"user_id":450,"name":"Eins","steam_id":76561199030343810,"connected_time":1293000000000,"state":"active","ping":53},{"user_id":448,"name":"jolo","steam_id":76561198042831480,"connected_time":1421000000000,"state":"active","ping":72},{"user_id":445,"name":"Praise_to_the_Flashlight!","steam_id":76561199001728789,"connected_time":1452000000000,"state":"active","ping":59},{"user_id":443,"name":"oinkpig234","steam_id":76561198883733811,"connected_time":1473000000000,"state":"active","ping":78},{"user_id":428,"name":"asbestos","steam_id":76561198079178866,"connected_time":2069000000000,"state":"active","ping":70},{"user_id":451,"name":"Fantastic","steam_id":76561198079088978,"connected_time":1118000000000,"state":"active","ping":45},{"user_id":442,"name":"synther","steam_id":76561199028048344,"connected_time":1482000000000,"state":"active","ping":52},{"user_id":456,"name":"DetectiveHorse","steam_id":76561198278726152,"connected_time":273000000000,"state":"active","ping":68},{"user_id":453,"name":"hi again","steam_id":76561198126358045,"connected_time":480000000000,"state":"active","ping":64},{"user_id":454,"name":"discoman","steam_id":76561198106945614,"connected_time":294000000000,"state":"active","ping":67},{"user_id":437,"name":"feliser","steam_id":76561198084336096,"connected_time":1711000000000,"state":"active","ping":53},{"user_id":409,"name":"Ringo x Seiran","steam_id":76561198357437908,"connected_time":3752000000000,"state":"active","ping":63},{"user_id":372,"name":"üé≠","steam_id":76561199486702999,"connected_time":5609000000000,"state":"active","ping":75},{"user_id":460,"name":"Gheeotine","steam_id":76561198010181698,"connected_time":46000000000,"state":"active","ping":89},{"user_id":446,"name":"spinglebarp","steam_id":76561198091472345,"connected_time":1450000000000,"state":"active","ping":75},{"user_id":459,"name":"womp womp ‚∏∏","steam_id":76561198177893343,"connected_time":130000000000,"state":"active","ping":81},{"user_id":417,"name":"Trotsky Gaming","steam_id":76561199101638460,"connected_time":2767000000000,"state":"active","ping":75},{"user_id":455,"name":"Whilthis","steam_id":76561198079227153,"connected_time":276000000000,"state":"active","ping":373},{"user_id":426,"name":"Metaman","steam_id":76561198149543644,"connected_time":2399000000000,"state":"active","ping":69},{"user_id":429,"name":"Belloq","steam_id":76561198060279052,"connected_time":1979000000000,"state":"active","ping":47},{"user_id":420,"name":"[ŸäŸáŸàÿØŸä] Bill Clinton [◊ê◊ú","steam_id":76561198163291190,"connected_time":2741000000000,"state":"active","ping":87},{"user_id":449,"name":"JustTryMeNow","steam_id":76561198262681545,"connected_time":1420000000000,"state":"active","ping":62}]},{"server_id":106,"name":"Uncletopia | Chicago | 2 | All Maps","name_short":"chi-2","host":"chi-1.us.uncletopia.com","port":27025,"enabled":true,"region":"us-central","cc":"us","latitude":41.881832,"longitude":-87.62318,"reserved":0,"last_update":"0001-01-01T00:00:00Z","name_a2s":"Uncletopia | Chicago | 2 | All Maps","protocol":17,"map":"pl_upward","folder":"tf","game":"Team Fortress","app_id":440,"player_count":24,"max_players":24,"Bots":0,"server_type":"Dedicated","server_os":"Linux","password":true,"vac":true,"version":"7882260","steam_id":85568392924469985,"keywords":["nocrits","nodmgspread","payload","uncletopia"],"game_id":440,"stv_port":27026,"stv_name":"Uncletopia | Chicago | 2 | All Maps | STV","players":[{"user_id":8,"name":"Triples_","steam_id":76561198094249561,"connected_time":15271000000000,"state":"active","ping":62},{"user_id":150,"name":"notatrip(mommymoding)","steam_id":76561198046109327,"connected_time":2990000000000,"state":"active","ping":55},{"user_id":191,"name":"CroutonCriminal","steam_id":76561198252145166,"connected_time":840000000000,"state":"active","ping":67},{"user_id":178,"name":"The Nikocado Enjoyer","steam_id":76561198263154374,"connected_time":1773000000000,"state":"active","ping":50},{"user_id":159,"name":"Snow‚òÜ","steam_id":76561198031290573,"connected_time":2811000000000,"state":"active","ping":46},{"user_id":195,"name":"IMM0RTAL","steam_id":76561198013747901,"connected_time":484000000000,"state":"active","ping":74},{"user_id":181,"name":"WhoIsFrosty","steam_id":76561198880588117,"connected_time":1402000000000,"state":"active","ping":49},{"user_id":176,"name":"Banks","steam_id":76561198276505537,"connected_time":1880000000000,"state":"active","ping":68},{"user_id":192,"name":"ThatGamingKiwi","steam_id":76561199170522237,"connected_time":786000000000,"state":"active","ping":77},{"user_id":186,"name":"Hertz","steam_id":76561198245322982,"connected_time":1017000000000,"state":"active","ping":50},{"user_id":200,"name":"Heartgold","steam_id":76561199062592062,"connected_time":47000000000,"state":"active","ping":82},{"user_id":169,"name":"Fobby #Savetf2","steam_id":76561198047681469,"connected_time":2560000000000,"state":"active","ping":75},{"user_id":175,"name":"ttv/lilirouxxx","steam_id":76561198000522179,"connected_time":2196000000000,"state":"active","ping":65},{"user_id":196,"name":"Try Gardening","steam_id":76561198120311340,"connected_time":430000000000,"state":"active","ping":51},{"user_id":188,"name":"chiswola","steam_id":76561198046920142,"connected_time":1001000000000,"state":"active","ping":70},{"user_id":117,"name":"A Puppy","steam_id":76561198828184456,"connected_time":7129000000000,"state":"active","ping":60},{"user_id":105,"name":"Pheonix","steam_id":76561199470538309,"connected_time":8680000000000,"state":"active","ping":58},{"user_id":182,"name":"‚ô• L U N A R ‚ô•","steam_id":76561199010112750,"connected_time":1193000000000,"state":"active","ping":51},{"user_id":123,"name":"Marlboro Man","steam_id":76561198117279677,"connected_time":6507000000000,"state":"active","ping":90},{"user_id":190,"name":"spy sex ‚òæÔ∏é‚ôöÔ∏é‚òΩ","steam_id":76561199138738952,"connected_time":988000000000,"state":"active","ping":77},{"user_id":155,"name":"Sunfly","steam_id":76561198034307439,"connected_time":2901000000000,"state":"active","ping":45},{"user_id":183,"name":"The Fiend","steam_id":76561199229771413,"connected_time":1149000000000,"state":"active","ping":91},{"user_id":199,"name":"TechLegion","steam_id":76561198951606276,"connected_time":93000000000,"state":"spawning","ping":103}]},{"server_id":402,"name":"Uncletopia | Chicago | 3 | All Maps","name_short":"chi-3","host":"chi-1.us.uncletopia.com","port":27035,"enabled":true,"region":"us-central","cc":"us","latitude":41.881832,"longitude":-87.62318,"reserved":0,"last_update":"0001-01-01T00:00:00Z","name_a2s":"Uncletopia | Chicago | 3 | All Maps","protocol":17,"map":"pl_borneo","folder":"tf","game":"Team Fortress","app_id":440,"player_count":24,"max_players":24,"Bots":0,"server_type":"Dedicated","server_os":"Linux","password":true,"vac":true,"version":"7882260","steam_id":85568392924515191,"keywords":["nocrits","nodmgspread","payload","uncletopia"],"game_id":440,"stv_port":27036,"stv_name":"Uncletopia | Chicago | 3 | All Maps | STV","players":[{"user_id":121,"name":"A Trigger Happy Chipmunk","steam_id":76561198013608736,"connected_time":2244000000000,"state":"active","ping":59},{"user_id":98,"name":"Nephs","steam_id":76561198136763403,"connected_time":4159000000000,"state":"active","ping":71},{"user_id":99,"name":"Scooter O'Boyl","steam_id":76561197971687069,"connected_time":4077000000000,"state":"active","ping":70},{"user_id":93,"name":"milo","steam_id":76561199061380038,"connected_time":4503000000000,"state":"active","ping":61},{"user_id":108,"name":"Salty","steam_id":76561198019195732,"connected_time":2972000000000,"state":"active","ping":72},{"user_id":27,"name":"INVEST IN SKYNET::œÑRU œÑAO","steam_id":76561198144436132,"connected_time":8852000000000,"state":"active","ping":77},{"user_id":83,"name":"richarven","steam_id":76561198189429665,"connected_time":5179000000000,"state":"active","ping":75},{"user_id":86,"name":"AstroVulpes","steam_id":76561198384277161,"connected_time":4867000000000,"state":"active","ping":159},{"user_id":126,"name":"WatchWill","steam_id":76561198157237945,"connected_time":1886000000000,"state":"active","ping":71},{"user_id":127,"name":"Smug ¬¨‚Äø¬¨ Smug","steam_id":76561198325526945,"connected_time":1826000000000,"state":"active","ping":69},{"user_id":132,"name":"sal","steam_id":76561198814096380,"connected_time":1099000000000,"state":"active","ping":78},{"user_id":128,"name":"jas_the_man","steam_id":76561198147991471,"connected_time":1820000000000,"state":"active","ping":79},{"user_id":137,"name":"Jim Crow","steam_id":76561198129241486,"connected_time":466000000000,"state":"active","ping":62},{"user_id":131,"name":"JetZ","steam_id":76561199122488957,"connected_time":1194000000000,"state":"active","ping":71},{"user_id":85,"name":"bape","steam_id":76561198253731826,"connected_time":5012000000000,"state":"active","ping":51},{"user_id":113,"name":"just a gamer","steam_id":76561199208833695,"connected_time":2635000000000,"state":"active","ping":82},{"user_id":53,"name":"Gaskranx","steam_id":76561198020269547,"connected_time":7870000000000,"state":"active","ping":69},{"user_id":138,"name":"Provocator","steam_id":76561197961830410,"connected_time":317000000000,"state":"active","ping":71},{"user_id":50,"name":"meth ape","steam_id":76561199110579692,"connected_time":8312000000000,"state":"active","ping":89},{"user_id":81,"name":"Horsecat","steam_id":76561198061653283,"connected_time":5961000000000,"state":"active","ping":132},{"user_id":123,"name":"Pluto","steam_id":76561198338593690,"connected_time":2193000000000,"state":"active","ping":79},{"user_id":136,"name":"KingofNothing","steam_id":76561198269174117,"connected_time":499000000000,"state":"active","ping":76},{"user_id":135,"name":"kasp","steam_id":76561198263271697,"connected_time":653000000000,"state":"active","ping":41},{"user_id":61,"name":"souljaboytellem.com","steam_id":76561198111975583,"connected_time":7558000000000,"state":"active","ping":75}]},{"server_id":403,"name":"Uncletopia | Chicago | 4 | All Maps","name_short":"chi-4","host":"chi-1.us.uncletopia.com","port":27045,"enabled":true,"region":"us-central","cc":"us","latitude":41.881832,"longitude":-87.62318,"reserved":0,"last_update":"0001-01-01T00:00:00Z","name_a2s":"Uncletopia | Chicago | 4 | All Maps","protocol":17,"map":"pl_upward","folder":"tf","game":"Team Fortress","app_id":440,"player_count":0,"max_players":24,"Bots":0,"server_type":"Dedicated","server_os":"Linux","password":true,"vac":true,"version":"7882260","steam_id":85568392924515193,"keywords":["nocrits","nodmgspread","payload","uncletopia"],"game_id":440,"stv_port":27046,"stv_name":"Uncletopia | Chicago | 4 | All Maps | STV","players":null},{"server_id":36,"name":"Uncletopia | Chicago | 5 | All Maps","name_short":"chi-5","host":"chi-2.us.uncletopia.com","port":27015,"enabled":true,"region":"us-central","cc":"us","latitude":41.881832,"longitude":-87.62318,"reserved":0,"last_update":"0001-01-01T00:00:00Z","name_a2s":"Uncletopia | Chicago | 5 | All Maps","protocol":17,"map":"koth_viaduct","folder":"tf","game":"Team Fortress","app_id":440,"player_count":0,"max_players":24,"Bots":0,"server_type":"Dedicated","server_os":"Linux","password":true,"vac":true,"version":"7882260","steam_id":85568392924866362,"keywords":["cp","nocrits","nodmgspread","uncletopia"],"game_id":440,"stv_port":27016,"stv_name":"Uncletopia | Chicago | 5 | All Maps | STV","players":null},{"server_id":37,"name":"Uncletopia | Chicago | 6 | All Maps","name_short":"chi-6","host":"chi-2.us.uncletopia.com","port":27025,"enabled":true,"region":"us-central","cc":"us","latitude":41.881832,"longitude":-87.62318,"reserved":0,"last_update":"0001-01-01T00:00:00Z","name_a2s":"Uncletopia | Chicago | 6 | All Maps","protocol":17,"map":"cp_altitude","folder":"tf","game":"Team Fortress","app_id":440,"player_count":0,"max_players":24,"Bots":0,"server_type":"Dedicated","server_os":"Linux","password":true,"vac":true,"version":"7882260","steam_id":85568392924866363,"keywords":["cp","nocrits","nodmgspread","uncletopia"],"game_id":440,"stv_port":27026,"stv_name":"Uncletopia | Chicago | 6 | All Maps | STV","players":null},{"server_id":38,"name":"Uncletopia | Chicago | 7 | Stopwatch Beta","name_short":"chi-7","host":"chi-2.us.uncletopia.com","port":27035,"enabled":true,"region":"us-central","cc":"us","latitude":41.881832,"longitude":-87.62318,"reserved":0,"last_update":"0001-01-01T00:00:00Z","name_a2s":"Uncletopia | Chicago | 7 | Stopwatch Beta","protocol":17,"map":"pl_upward","folder":"tf","game":"Team Fortress","app_id":440,"player_count":0,"max_players":24,"Bots":0,"server_type":"Dedicated","server_os":"Linux","password":true,"vac":true,"version":"7882260","steam_id":85568392924866364,"keywords":["nocrits","nodmgspread","payload","uncletopia"],"game_id":440,"stv_port":27036,"stv_name":"Uncletopia | Chicago | 7 | Stopwatch Beta | STV","players":null},{"server_id":39,"name":"Uncletopia | Chicago | 8 | Community","name_short":"chi-8","host":"chi-2.us.uncletopia.com","port":27045,"enabled":true,"region":"us-central","cc":"us","latitude":41.881832,"longitude":-87.62318,"reserved":0,"last_update":"0001-01-01T00:00:00Z","name_a2s":"Uncletopia | Chicago | 8 | Community","protocol":17,"map":"workshop/cp_mannbase_rc2a.ugc1900737467","folder":"tf","game":"Team Fortress","app_id":440,"player_count":1,"max_players":24,"Bots":0,"server_type":"Dedicated","server_os":"Linux","password":true,"vac":true,"version":"7882260","steam_id":85568392924866365,"keywords":["cp","nocrits","nodmgspread","uncletopia"],"game_id":440,"stv_port":27046,"stv_name":"Uncletopia | Chicago | 8 | Community | STV","players":[{"user_id":5,"name":"justNO11","steam_id":76561198915411375,"connected_time":2644000000000,"state":"active","ping":70}]},{"server_id":8,"name":"Uncletopia | Dallas | 1 | All Maps","name_short":"dal-1","host":"dal-1.us.uncletopia.com","port":27015,"enabled":true,"region":"us-central","cc":"us","latitude":32.779167,"longitude":-96.80889,"reserved":0,"last_update":"0001-01-01T00:00:00Z","name_a2s":"Uncletopia | Dallas | 1 | All Maps","protocol":17,"map":"pl_frontier_final","folder":"tf","game":"Team Fortress","app_id":440,"player_count":24,"max_players":24,"Bots":0,"server_type":"Dedicated","server_os":"Linux","password":true,"vac":true,"version":"7882260","steam_id":85568392924469986,"keywords":["nocrits","nodmgspread","payload","uncletopia"],"game_id":440,"stv_port":27016,"stv_name":"Uncletopia | Dallas | 1 | All Maps | STV","players":[{"user_id":153,"name":"aiming with drawing tablet","steam_id":76561198397662124,"connected_time":1661000000000,"state":"active","ping":62},{"user_id":111,"name":"bicth","steam_id":76561198086314381,"connected_time":4155000000000,"state":"active","ping":64},{"user_id":163,"name":"Holp","steam_id":76561199019186848,"connected_time":412000000000,"state":"active","ping":406},{"user_id":133,"name":"GLaDOS Simp","steam_id":76561198084849541,"connected_time":3185000000000,"state":"active","ping":46},{"user_id":150,"name":"Da Bankman","steam_id":76561199127423378,"connected_time":1946000000000,"state":"active","ping":86},{"user_id":110,"name":"Yummy Kabobz","steam_id":76561198067661705,"connected_time":4170000000000,"state":"active","ping":75},{"user_id":161,"name":"MEDIC!!!","steam_id":76561198265522923,"connected_time":780000000000,"state":"active","ping":45},{"user_id":134,"name":"bing","steam_id":76561198005160560,"connected_time":3167000000000,"state":"active","ping":102},{"user_id":166,"name":"errant","steam_id":76561197961758410,"connected_time":385000000000,"state":"active","ping":41},{"user_id":138,"name":"dad vibes","steam_id":76561197990714447,"connected_time":2511000000000,"state":"active","ping":52},{"user_id":155,"name":"ihave80hp","steam_id":76561199251621911,"connected_time":1194000000000,"state":"active","ping":127},{"user_id":165,"name":"BrightOrangeMango","steam_id":76561198023144607,"connected_time":406000000000,"state":"active","ping":76},{"user_id":167,"name":"Dude Guy Bruh","steam_id":76561198006569710,"connected_time":369000000000,"state":"active","ping":103},{"user_id":168,"name":"Dallas","steam_id":76561198066542919,"connected_time":356000000000,"state":"active","ping":120},{"user_id":145,"name":"BlancaLamb","steam_id":76561198025646073,"connected_time":2246000000000,"state":"active","ping":79},{"user_id":141,"name":"Punished \"Venom\" Snick","steam_id":76561198066566813,"connected_time":2314000000000,"state":"active","ping":104},{"user_id":146,"name":"Sableye","steam_id":76561198061247147,"connected_time":2196000000000,"state":"active","ping":73},{"user_id":162,"name":"ChottoAMinute","steam_id":76561198873157775,"connected_time":462000000000,"state":"active","ping":44},{"user_id":169,"name":"Scared Duck","steam_id":76561198081348409,"connected_time":356000000000,"state":"active","ping":113},{"user_id":164,"name":"Kid B8","steam_id":76561198086764710,"connected_time":411000000000,"state":"active","ping":82},{"user_id":151,"name":"Chunk Stuffer","steam_id":76561198856508573,"connected_time":1848000000000,"state":"active","ping":34},{"user_id":170,"name":"FUNNY JOKE(pls laugh)","steam_id":76561199070877046,"connected_time":355000000000,"state":"active","ping":102},{"user_id":136,"name":"g00bur","steam_id":76561197993622520,"connected_time":2924000000000,"state":"active","ping":88},{"user_id":90,"name":"MINILEGOLAS","steam_id":76561198859362058,"connected_time":5746000000000,"state":"active","ping":86}]},{"server_id":108,"name":"Uncletopia | Dallas | 2 | All Maps","name_short":"dal-2","host":"dal-1.us.uncletopia.com","port":27025,"enabled":true,"region":"us-central","cc":"us","latitude":32.779167,"longitude":-96.80889,"reserved":0,"last_update":"0001-01-01T00:00:00Z","name_a2s":"Uncletopia | Dallas | 2 | All Maps","protocol":17,"map":"ctf_2fort","folder":"tf","game":"Team Fortress","app_id":440,"player_count":22,"max_players":24,"Bots":0,"server_type":"Dedicated","server_os":"Linux","password":true,"vac":true,"version":"7882260","steam_id":85568392924469988,"keywords":["ctf","nocrits","nodmgspread","uncletopia"],"game_id":440,"stv_port":27026,"stv_name":"Uncletopia | Dallas | 2 | All Maps | STV","players":[{"user_id":83,"name":"bean goblin","steam_id":76561199185148234,"connected_time":391000000000,"state":"active","ping":129},{"user_id":84,"name":"Aureum","steam_id":76561199001172403,"connected_time":306000000000,"state":"active","ping":97},{"user_id":57,"name":"MellowBoy-2354","steam_id":76561199080630632,"connected_time":2611000000000,"state":"active","ping":85},{"user_id":85,"name":"Doomagedden","steam_id":76561198272589475,"connected_time":224000000000,"state":"active","ping":57},{"user_id":12,"name":"CreativeCoffeeCake","steam_id":76561198323542875,"connected_time":5553000000000,"state":"active","ping":66},{"user_id":93,"name":"Woakes","steam_id":76561198139122301,"connected_time":51000000000,"state":"active","ping":55},{"user_id":20,"name":"ApplesMate","steam_id":76561198832763278,"connected_time":4230000000000,"state":"active","ping":68},{"user_id":67,"name":"Sol","steam_id":76561198121500201,"connected_time":1766000000000,"state":"active","ping":60},{"user_id":91,"name":"skittle ducks jr.","steam_id":76561198309823950,"connected_time":147000000000,"state":"active","ping":92},{"user_id":79,"name":"clammy egg","steam_id":76561198151876384,"connected_time":760000000000,"state":"active","ping":76},{"user_id":68,"name":"deb","steam_id":76561198414336279,"connected_time":1724000000000,"state":"active","ping":59},{"user_id":94,"name":"Contorted Desires","steam_id":76561198149241554,"connected_time":13000000000,"state":"active","ping":64},{"user_id":88,"name":"Mr_Starman","steam_id":76561199083428007,"connected_time":190000000000,"state":"active","ping":64},{"user_id":48,"name":"Boomer Gaming","steam_id":76561198037803087,"connected_time":3133000000000,"state":"active","ping":62},{"user_id":89,"name":"Bacon Hoodie","steam_id":76561198843822629,"connected_time":189000000000,"state":"active","ping":46},{"user_id":71,"name":"Only One Jhakobi","steam_id":76561197993641141,"connected_time":1686000000000,"state":"active","ping":80},{"user_id":80,"name":"Aloha :3","steam_id":76561198148517055,"connected_time":542000000000,"state":"active","ping":122},{"user_id":90,"name":"robot6226","steam_id":76561198849973320,"connected_time":187000000000,"state":"active","ping":89},{"user_id":35,"name":"Zach Reeee","steam_id":76561198096698210,"connected_time":3736000000000,"state":"active","ping":60},{"user_id":43,"name":"Sartupial","steam_id":76561198443169940,"connected_time":3328000000000,"state":"active","ping":46},{"user_id":65,"name":"Soldier4Christ11","steam_id":76561198983406673,"connected_time":1841000000000,"state":"active","ping":107},{"user_id":78,"name":"thorn648","steam_id":76561198012565777,"connected_time":1061000000000,"state":"active","ping":83}]},{"server_id":5,"name":"Uncletopia | Frankfurt | 1 | All Maps","name_short":"frk-1","host":"frk-1.de.uncletopia.com","port":27015,"enabled":true,"region":"eu","cc":"de","latitude":50.110924,"longitude":8.682127,"reserved":0,"last_update":"0001-01-01T00:00:00Z","name_a2s":"Uncletopia | Frankfurt | 1 | All Maps","protocol":17,"map":"pl_badwater","folder":"tf","game":"Team Fortress","app_id":440,"player_count":24,"max_players":24,"Bots":0,"server_type":"Dedicated","server_os":"Linux","password":true,"vac":true,"version":"7882260","steam_id":85568392924469989,"keywords":["nocrits","nodmgspread","payload","uncletopia"],"game_id":440,"stv_port":27016,"stv_name":"Uncletopia | Frankfurt | 1 | All Maps | STV","players":[{"user_id":484,"name":"fyodor","steam_id":76561199384813153,"connected_time":1993000000000,"state":"active","ping":60},{"user_id":516,"name":"Doggo225","steam_id":76561198166707002,"connected_time":14000000000,"state":"active","ping":54},{"user_id":508,"name":"‚úûhe joy of recycling","steam_id":76561198415564349,"connected_time":472000000000,"state":"active","ping":66},{"user_id":462,"name":"Ratatatatatatouille","steam_id":76561198182267098,"connected_time":3513000000000,"state":"active","ping":84},{"user_id":418,"name":"OPUR \u003e:(","steam_id":76561197993123284,"connected_time":5916000000000,"state":"active","ping":68},{"user_id":514,"name":"Jabussy","steam_id":76561198111148719,"connected_time":68000000000,"state":"active","ping":70},{"user_id":515,"name":"bart","steam_id":76561198317737261,"connected_time":46000000000,"state":"active","ping":59},{"user_id":511,"name":"Zero (Orbital Gear Mastermind)","steam_id":76561198017416816,"connected_time":358000000000,"state":"active","ping":59},{"user_id":416,"name":"–ë–∞—Ä—Ö–∞—Ç–Ω—ã–µ —Ç—è–≥–∏, –ö","steam_id":76561198214926087,"connected_time":6087000000000,"state":"active","ping":89},{"user_id":471,"name":"modavak","steam_id":76561198946290908,"connected_time":2879000000000,"state":"active","ping":105},{"user_id":501,"name":"slippin' jimmy","steam_id":76561198161854243,"connected_time":856000000000,"state":"active","ping":75},{"user_id":502,"name":"mp1mp2mp3","steam_id":76561198088967665,"connected_time":827000000000,"state":"active","ping":87},{"user_id":494,"name":"margaret thatcher's girl power","steam_id":76561199401283123,"connected_time":1548000000000,"state":"active","ping":64},{"user_id":451,"name":"ODanial","steam_id":76561198034854402,"connected_time":4228000000000,"state":"active","ping":98},{"user_id":483,"name":"BrotherPotato","steam_id":76561198049948120,"connected_time":1997000000000,"state":"active","ping":74},{"user_id":512,"name":"snowycoast","steam_id":76561198346638308,"connected_time":350000000000,"state":"active","ping":60},{"user_id":490,"name":"Carrotcracker","steam_id":76561198034862396,"connected_time":1741000000000,"state":"active","ping":73},{"user_id":510,"name":"Krabs","steam_id":76561198161679477,"connected_time":407000000000,"state":"active","ping":53},{"user_id":407,"name":"Katealyst","steam_id":76561198331215039,"connected_time":7240000000000,"state":"active","ping":69},{"user_id":509,"name":"Kaishakunin","steam_id":76561198028123874,"connected_time":465000000000,"state":"active","ping":98},{"user_id":485,"name":"eeeeee","steam_id":76561198017786875,"connected_time":1970000000000,"state":"active","ping":56},{"user_id":488,"name":"SpaceNut","steam_id":76561198059198302,"connected_time":1836000000000,"state":"active","ping":67},{"user_id":487,"name":"Lugialf","steam_id":76561198069050794,"connected_time":1957000000000,"state":"active","ping":96},{"user_id":503,"name":"kaze","steam_id":76561198997095048,"connected_time":814000000000,"state":"active","ping":69}]},{"server_id":110,"name":"Uncletopia | Frankfurt | 2 | All Maps","name_short":"frk-2","host":"frk-1.de.uncletopia.com","port":27025,"enabled":true,"region":"eu","cc":"de","latitude":50.110924,"longitude":8.682127,"reserved":0,"last_update":"0001-01-01T00:00:00Z","name_a2s":"Uncletopia | Frankfurt | 2 | All Maps","protocol":17,"map":"pl_pier","folder":"tf","game":"Team Fortress","app_id":440,"player_count":0,"max_players":24,"Bots":0,"server_type":"Dedicated","server_os":"Linux","password":true,"vac":true,"version":"7882260","steam_id":85568392924469990,"keywords":["nocrits","nodmgspread","payload","uncletopia"],"game_id":440,"stv_port":27026,"stv_name":"Uncletopia | Frankfurt | 2 | All Maps | STV","players":null},{"server_id":308,"name":"Uncletopia | Frankfurt | 3 | All Maps","name_short":"frk-3","host":"frk-1.de.uncletopia.com","port":27035,"enabled":true,"region":"eu","cc":"de","latitude":50.110924,"longitude":8.682127,"reserved":0,"last_update":"0001-01-01T00:00:00Z","name_a2s":"Uncletopia | Frankfurt | 3 | All Maps","protocol":17,"map":"pl_barnblitz","folder":"tf","game":"Team Fortress","app_id":440,"player_count":20,"max_players":24,"Bots":0,"server_type":"Dedicated","server_os":"Linux","password":true,"vac":true,"version":"7882260","steam_id":85568392924504274,"keywords":["nocrits","nodmgspread","payload","uncletopia"],"game_id":440,"stv_port":27036,"stv_name":"Uncletopia | Frankfurt | 3 | All Maps | STV","players":[{"user_id":303,"name":"That1Guy","steam_id":76561199147916051,"connected_time":501000000000,"state":"active","ping":190},{"user_id":279,"name":"Texas Red","steam_id":76561198974730691,"connected_time":2642000000000,"state":"active","ping":76},{"user_id":270,"name":"Piox","steam_id":76561198125689157,"connected_time":3093000000000,"state":"active","ping":75},{"user_id":296,"name":"VampiuS","steam_id":76561197998827007,"connected_time":1737000000000,"state":"active","ping":49},{"user_id":294,"name":"Beni ü¶ßüçå","steam_id":76561198011340227,"connected_time":1990000000000,"state":"active","ping":62},{"user_id":282,"name":"|||||||||||||||||||","steam_id":76561198139995810,"connected_time":2564000000000,"state":"active","ping":82},{"user_id":299,"name":"Mav","steam_id":76561198004403881,"connected_time":1259000000000,"state":"active","ping":56},{"user_id":297,"name":"madijo","steam_id":76561198012617400,"connected_time":1469000000000,"state":"active","ping":59},{"user_id":300,"name":"Trusty","steam_id":76561198123441319,"connected_time":947000000000,"state":"active","ping":127},{"user_id":266,"name":"berkay","steam_id":76561199112328384,"connected_time":3241000000000,"state":"active","ping":75},{"user_id":269,"name":"Family guy try not to laugh","steam_id":76561198031455800,"connected_time":3145000000000,"state":"active","ping":76},{"user_id":260,"name":"peanut butter jelly time!!!!!!!","steam_id":76561198034955422,"connected_time":3679000000000,"state":"active","ping":74},{"user_id":239,"name":"wieto","steam_id":76561198050626427,"connected_time":4891000000000,"state":"active","ping":59},{"user_id":288,"name":"Filleman","steam_id":76561198159386946,"connected_time":2447000000000,"state":"active","ping":66},{"user_id":273,"name":"Carrot","steam_id":76561198119340863,"connected_time":2981000000000,"state":"active","ping":58},{"user_id":286,"name":"Claw","steam_id":76561198060985181,"connected_time":2469000000000,"state":"active","ping":71},{"user_id":305,"name":"CarrotFlowers LFT","steam_id":76561198154714698,"connected_time":435000000000,"state":"active","ping":55},{"user_id":261,"name":"Ozzie","steam_id":76561197992915315,"connected_time":3677000000000,"state":"active","ping":75},{"user_id":291,"name":"joachym","steam_id":76561198428579761,"connected_time":2082000000000,"state":"active","ping":66},{"user_id":246,"name":"Carrot (woman)","steam_id":76561198139404261,"connected_time":4612000000000,"state":"active","ping":56}]},{"server_id":309,"name":"Uncletopia | Frankfurt | 4 | All Maps","name_short":"frk-4","host":"frk-1.de.uncletopia.com","port":27045,"enabled":true,"region":"eu","cc":"de","latitude":50.110924,"longitude":8.682127,"reserved":0,"last_update":"0001-01-01T00:00:00Z","name_a2s":"Uncletopia | Frankfurt | 4 | All Maps","protocol":17,"map":"pl_thundermountain","folder":"tf","game":"Team Fortress","app_id":440,"player_count":24,"max_players":24,"Bots":0,"server_type":"Dedicated","server_os":"Linux","password":true,"vac":true,"version":"7882260","steam_id":85568392924504275,"keywords":["nocrits","nodmgspread","payload","uncletopia"],"game_id":440,"stv_port":27046,"stv_name":"Uncletopia | Frankfurt | 4 | All Maps | STV","players":[{"user_id":404,"name":"ksg","steam_id":76561198042894236,"connected_time":4488000000000,"state":"active","ping":67},{"user_id":427,"name":"Carrot Arc","steam_id":76561198164957006,"connected_time":2967000000000,"state":"active","ping":76},{"user_id":473,"name":"crolee","steam_id":76561198865817316,"connected_time":430000000000,"state":"active","ping":54},{"user_id":413,"name":"wgbubl","steam_id":76561199133004884,"connected_time":3906000000000,"state":"active","ping":93},{"user_id":444,"name":"Renolox","steam_id":76561198036590182,"connected_time":2167000000000,"state":"active","ping":71},{"user_id":474,"name":"Yuzu","steam_id":76561198121694613,"connected_time":365000000000,"state":"active","ping":55},{"user_id":471,"name":"DobreStarachowickie","steam_id":76561198027126737,"connected_time":633000000000,"state":"active","ping":66},{"user_id":461,"name":"SchneezySchitzel","steam_id":76561198401693881,"connected_time":1487000000000,"state":"active","ping":41},{"user_id":464,"name":"truebosnianking","steam_id":76561199440060597,"connected_time":1476000000000,"state":"active","ping":84},{"user_id":432,"name":"big carrot field. growing well","steam_id":76561198069649097,"connected_time":2892000000000,"state":"active","ping":71},{"user_id":477,"name":"Well, off to hang myself","steam_id":76561198053374944,"connected_time":304000000000,"state":"active","ping":71},{"user_id":369,"name":"sunshine (he/him)","steam_id":76561198084597975,"connected_time":6934000000000,"state":"active","ping":62},{"user_id":475,"name":"faze girldick","steam_id":76561199044306780,"connected_time":357000000000,"state":"active","ping":90},{"user_id":467,"name":"gimmick","steam_id":76561198930670117,"connected_time":1434000000000,"state":"active","ping":53},{"user_id":403,"name":"Tegnerud","steam_id":76561198214185612,"connected_time":4689000000000,"state":"active","ping":75},{"user_id":472,"name":"ZmackToThaNutZack","steam_id":76561198162948708,"connected_time":555000000000,"state":"active","ping":90},{"user_id":443,"name":"Burpman","steam_id":76561198022897937,"connected_time":2193000000000,"state":"active","ping":64},{"user_id":382,"name":"[UB]Destiny","steam_id":76561198023243402,"connected_time":6479000000000,"state":"active","ping":71},{"user_id":479,"name":"Akkie.","steam_id":76561198017619091,"connected_time":17000000000,"state":"active","ping":72},{"user_id":478,"name":"chess club manager","steam_id":76561198011047413,"connected_time":174000000000,"state":"active","ping":74},{"user_id":446,"name":"wicked","steam_id":76561198164376035,"connected_time":2153000000000,"state":"active","ping":68},{"user_id":426,"name":"aavikkorotta420","steam_id":76561199429407130,"connected_time":3014000000000,"state":"active","ping":82},{"user_id":476,"name":"kilo","steam_id":76561198015641339,"connected_time":328000000000,"state":"active","ping":71},{"user_id":455,"name":"bad farter","steam_id":76561198261853441,"connected_time":1752000000000,"state":"active","ping":60}]},{"server_id":310,"name":"Uncletopia | Frankfurt | 5 | All Maps","name_short":"frk-5","host":"frk-1.de.uncletopia.com","port":27055,"enabled":true,"region":"eu","cc":"de","latitude":50.110924,"longitude":8.682127,"reserved":0,"last_update":"0001-01-01T00:00:00Z","name_a2s":"Uncletopia | Frankfurt | 5 | All Maps","protocol":17,"map":"pl_upward","folder":"tf","game":"Team Fortress","app_id":440,"player_count":24,"max_players":24,"Bots":0,"server_type":"Dedicated","server_os":"Linux","password":true,"vac":true,"version":"7882260","steam_id":85568392924504277,"keywords":["nocrits","nodmgspread","payload","uncletopia"],"game_id":440,"stv_port":27056,"stv_name":"Uncletopia | Frankfurt | 5 | All Maps | STV","players":[{"user_id":380,"name":"–ö–æ–Ω–Ω–æ—Ä","steam_id":76561198020304242,"connected_time":2426000000000,"state":"active","ping":64},{"user_id":422,"name":"screenshot2020-25-09","steam_id":76561198255275650,"connected_time":746000000000,"state":"active","ping":46},{"user_id":434,"name":"Remizer","steam_id":76561198799755616,"connected_time":149000000000,"state":"active","ping":60},{"user_id":432,"name":"akciq ‚Åß‚Åßrespect","steam_id":76561198390963456,"connected_time":239000000000,"state":"active","ping":71},{"user_id":404,"name":"Irbynx","steam_id":76561197980421195,"connected_time":1651000000000,"state":"active","ping":79},{"user_id":339,"name":"zee","steam_id":76561197994492154,"connected_time":4892000000000,"state":"active","ping":68},{"user_id":418,"name":"Dio[MASK]","steam_id":76561198045841081,"connected_time":971000000000,"state":"active","ping":99},{"user_id":426,"name":"That Phlog mfer","steam_id":76561198050416948,"connected_time":710000000000,"state":"active","ping":67},{"user_id":405,"name":"Lumpy","steam_id":76561198426486876,"connected_time":1625000000000,"state":"active","ping":78},{"user_id":400,"name":"Pacyfista Feminista Frutarianin","steam_id":76561198435883762,"connected_time":1755000000000,"state":"active","ping":165},{"user_id":412,"name":"Qdarks","steam_id":76561198013391340,"connected_time":1349000000000,"state":"active","ping":136},{"user_id":393,"name":"united chunk","steam_id":76561199017850298,"connected_time":1851000000000,"state":"active","ping":70},{"user_id":413,"name":"Controller Housewife","steam_id":76561198093441706,"connected_time":1273000000000,"state":"active","ping":67},{"user_id":420,"name":"amdon.art","steam_id":76561198066251000,"connected_time":912000000000,"state":"active","ping":44},{"user_id":427,"name":"‚úà","steam_id":76561198296214683,"connected_time":698000000000,"state":"active","ping":68},{"user_id":397,"name":"Peen","steam_id":76561198124862665,"connected_time":1781000000000,"state":"active","ping":113},{"user_id":435,"name":"Gordon","steam_id":76561198303652059,"connected_time":137000000000,"state":"active","ping":71},{"user_id":429,"name":"Wattoz","steam_id":76561198127779511,"connected_time":693000000000,"state":"active","ping":70},{"user_id":411,"name":"I jazzed myself","steam_id":76561198203016603,"connected_time":1355000000000,"state":"active","ping":70},{"user_id":402,"name":"Dewotter","steam_id":76561198007653168,"connected_time":1732000000000,"state":"active","ping":74},{"user_id":403,"name":":P","steam_id":76561198106399430,"connected_time":1672000000000,"state":"active","ping":60},{"user_id":415,"name":"[SWMG]","steam_id":76561198872013525,"connected_time":1166000000000,"state":"active","ping":123},{"user_id":416,"name":"mt","steam_id":76561197961319303,"connected_time":1057000000000,"state":"active","ping":54},{"user_id":421,"name":"Have A Blessed Day","steam_id":76561198030956814,"connected_time":838000000000,"state":"active","ping":93}]},{"server_id":311,"name":"Uncletopia | Frankfurt | 6 | All Maps","name_short":"frk-6","host":"frk-1.de.uncletopia.com","port":27065,"enabled":true,"region":"eu","cc":"de","latitude":50.110924,"longitude":8.682127,"reserved":0,"last_update":"0001-01-01T00:00:00Z","name_a2s":"Uncletopia | Frankfurt | 6 | All Maps","protocol":17,"map":"cp_granary","folder":"tf","game":"Team Fortress","app_id":440,"player_count":24,"max_players":24,"Bots":0,"server_type":"Dedicated","server_os":"Linux","password":true,"vac":true,"version":"7882260","steam_id":85568392924504278,"keywords":["cp","nocrits","nodmgspread","uncletopia"],"game_id":440,"stv_port":27066,"stv_name":"Uncletopia | Frankfurt | 6 | All Maps | STV","players":[{"user_id":173,"name":"Mussolini","steam_id":76561198218384865,"connected_time":2446000000000,"state":"active","ping":93},{"user_id":138,"name":"hananamanna","steam_id":76561198006570285,"connected_time":4860000000000,"state":"active","ping":112},{"user_id":164,"name":"paguro","steam_id":76561198119560871,"connected_time":2722000000000,"state":"active","ping":74},{"user_id":160,"name":"FlameTheGame","steam_id":76561198841108519,"connected_time":2768000000000,"state":"active","ping":84},{"user_id":195,"name":"Klokov","steam_id":76561198240633534,"connected_time":812000000000,"state":"active","ping":65},{"user_id":184,"name":"Harenko","steam_id":76561198090153676,"connected_time":1266000000000,"state":"active","ping":101},{"user_id":199,"name":"Eme","steam_id":76561198171619442,"connected_time":629000000000,"state":"active","ping":96},{"user_id":192,"name":"le big mac","steam_id":76561199026378253,"connected_time":906000000000,"state":"active","ping":50},{"user_id":196,"name":"Pumpkin Pie","steam_id":76561198115230959,"connected_time":779000000000,"state":"active","ping":78},{"user_id":193,"name":"Nithle","steam_id":76561198025372740,"connected_time":898000000000,"state":"active","ping":45},{"user_id":207,"name":"Dope","steam_id":76561198318858892,"connected_time":346000000000,"state":"active","ping":70},{"user_id":209,"name":"Tomex999","steam_id":76561198049587675,"connected_time":311000000000,"state":"active","ping":76},{"user_id":205,"name":"powej","steam_id":76561198056381418,"connected_time":481000000000,"state":"active","ping":44},{"user_id":198,"name":"Miolen","steam_id":76561198083366424,"connected_time":726000000000,"state":"active","ping":109},{"user_id":214,"name":"Puka_May","steam_id":76561198141231457,"connected_time":227000000000,"state":"active","ping":95},{"user_id":150,"name":"finbar","steam_id":76561198056812396,"connected_time":3827000000000,"state":"active","ping":83},{"user_id":204,"name":"Brage","steam_id":76561198111623044,"connected_time":550000000000,"state":"active","ping":86},{"user_id":217,"name":"O4W P1nball Tf2hard.com","steam_id":76561198382749493,"connected_time":26000000000,"state":"active","ping":78},{"user_id":189,"name":"emesis green","steam_id":76561198059699043,"connected_time":1073000000000,"state":"active","ping":71},{"user_id":210,"name":"astigmatic","steam_id":76561199103959197,"connected_time":306000000000,"state":"active","ping":88},{"user_id":71,"name":"Freddy Fazbear Gaming","steam_id":76561198299179114,"connected_time":9278000000000,"state":"active","ping":85},{"user_id":211,"name":"O4W Guz tf2medium.com","steam_id":76561198384689388,"connected_time":287000000000,"state":"active","ping":47},{"user_id":109,"name":"Lyncurion","steam_id":76561199260022725,"connected_time":6458000000000,"state":"active","ping":78},{"user_id":213,"name":"Bond","steam_id":76561198070654906,"connected_time":245000000000,"state":"active","ping":55}]},{"server_id":23,"name":"Uncletopia | Frankfurt | 7 | Stopwatch Beta","name_short":"frk-7","host":"frk-1.de.uncletopia.com","port":27075,"enabled":true,"region":"eu","cc":"de","latitude":50.110924,"longitude":8.682127,"reserved":0,"last_update":"0001-01-01T00:00:00Z","name_a2s":"Uncletopia | Frankfurt | 7 | Stopwatch Beta","protocol":17,"map":"koth_lakeside_final","folder":"tf","game":"Team Fortress","app_id":440,"player_count":0,"max_players":24,"Bots":0,"server_type":"Dedicated","server_os":"Linux","password":true,"vac":true,"version":"7882260","steam_id":85568392924742827,"keywords":["cp","nocrits","nodmgspread","uncletopia"],"game_id":440,"stv_port":27076,"stv_name":"Uncletopia | Frankfurt | 7 | Stopwatch Beta | STV","players":null},{"server_id":24,"name":"Uncletopia | Frankfurt | 8 | Community","name_short":"frk-8","host":"frk-1.de.uncletopia.com","port":27085,"enabled":true,"region":"eu","cc":"de","latitude":50.110924,"longitude":8.682127,"reserved":0,"last_update":"0001-01-01T00:00:00Z","name_a2s":"Uncletopia | Frankfurt | 8 | Community","protocol":17,"map":"workshop/koth_product_final.ugc454272353","folder":"tf","game":"Team Fortress","app_id":440,"player_count":0,"max_players":24,"Bots":0,"server_type":"Dedicated","server_os":"Linux","password":true,"vac":true,"version":"7882260","steam_id":85568392924742828,"keywords":["cp","nocrits","nodmgspread","uncletopia"],"game_id":440,"stv_port":27086,"stv_name":"Uncletopia | Frankfurt | 8 | Community | STV","players":null},{"server_id":202,"name":"Uncletopia | Hong Kong | 1 | All Maps","name_short":"hgk-1","host":"hgk-1.hk.uncletopia.com","port":27015,"enabled":true,"region":"asia","cc":"hk","latitude":22.302711,"longitude":114.177216,"reserved":0,"last_update":"0001-01-01T00:00:00Z","name_a2s":"Uncletopia | Hong Kong | 1 | All Maps","protocol":17,"map":"koth_cascade","folder":"tf","game":"Team Fortress","app_id":440,"player_count":0,"max_players":24,"Bots":0,"server_type":"Dedicated","server_os":"Linux","password":true,"vac":true,"version":"7882260","steam_id":85568392924494504,"keywords":["cp","nocrits","nodmgspread","uncletopia"],"game_id":440,"stv_port":27016,"stv_name":"Uncletopia | Hong Kong | 1 | All Maps | STV","players":null},{"server_id":1,"name":"Uncletopia | Los Angeles | 1 | All Maps","name_short":"lax-1","host":"lax-1.us.uncletopia.com","port":27015,"enabled":true,"region":"us-west","cc":"us","latitude":33.94279,"longitude":-118.41004,"reserved":0,"last_update":"0001-01-01T00:00:00Z","name_a2s":"Uncletopia | Los Angeles | 1 | All Maps","protocol":17,"map":"pl_upward","folder":"tf","game":"Team Fortress","app_id":440,"player_count":0,"max_players":24,"Bots":0,"server_type":"Dedicated","server_os":"Linux","password":true,"vac":true,"version":"7882260","steam_id":85568392924469991,"keywords":["nocrits","nodmgspread","payload","uncletopia"],"game_id":440,"stv_port":27016,"stv_name":"Uncletopia | Los Angeles | 1 | All Maps | STV","players":null},{"server_id":112,"name":"Uncletopia | Los Angeles | 2 | All Maps","name_short":"lax-2","host":"lax-1.us.uncletopia.com","port":27025,"enabled":true,"region":"us-west","cc":"us","latitude":33.94279,"longitude":-118.41004,"reserved":0,"last_update":"0001-01-01T00:00:00Z","name_a2s":"Uncletopia | Los Angeles | 2 | All Maps","protocol":17,"map":"cp_sunshine","folder":"tf","game":"Team Fortress","app_id":440,"player_count":0,"max_players":24,"Bots":0,"server_type":"Dedicated","server_os":"Linux","password":true,"vac":true,"version":"7882260","steam_id":85568392924469992,"keywords":["cp","nocrits","nodmgspread","uncletopia"],"game_id":440,"stv_port":27026,"stv_name":"Uncletopia | Los Angeles | 2 | All Maps | STV","players":null},{"server_id":324,"name":"Uncletopia | Los Angeles | 3 | All Maps","name_short":"lax-3","host":"lax-1.us.uncletopia.com","port":27035,"enabled":true,"region":"us-west","cc":"us","latitude":33.94279,"longitude":-118.41004,"reserved":0,"last_update":"0001-01-01T00:00:00Z","name_a2s":"Uncletopia | Los Angeles | 3 | All Maps","protocol":17,"map":"cp_altitude","folder":"tf","game":"Team Fortress","app_id":440,"player_count":0,"max_players":24,"Bots":0,"server_type":"Dedicated","server_os":"Linux","password":true,"vac":true,"version":"7882260","steam_id":85568392924510198,"keywords":["cp","nocrits","nodmgspread","uncletopia"],"game_id":440,"stv_port":27036,"stv_name":"Uncletopia | Los Angeles | 3 | All Maps | STV","players":null},{"server_id":25,"name":"Uncletopia | Los Angeles | 4 | Stopwatch Beta","name_short":"lax-4","host":"lax-1.us.uncletopia.com","port":27045,"enabled":true,"region":"us-west","cc":"us","latitude":33.94279,"longitude":-118.41004,"reserved":0,"last_update":"0001-01-01T00:00:00Z","name_a2s":"Uncletopia | Los Angeles | 4 | Stopwatch Beta","protocol":17,"map":"koth_viaduct","folder":"tf","game":"Team Fortress","app_id":440,"player_count":0,"max_players":24,"Bots":0,"server_type":"Dedicated","server_os":"Linux","password":true,"vac":true,"version":"7882260","steam_id":85568392924510199,"keywords":["cp","nocrits","nodmgspread","uncletopia"],"game_id":440,"stv_port":27046,"stv_name":"Uncletopia | Los Angeles | 4 | Stopwatch Beta | STV","players":null},{"server_id":11,"name":"Uncletopia | London | 1 | All Maps","name_short":"lon-1","host":"lon-1.uk.uncletopia.com","port":27015,"enabled":true,"region":"eu","cc":"gb","latitude":51.509865,"longitude":-0.118092,"reserved":0,"last_update":"0001-01-01T00:00:00Z","name_a2s":"Uncletopia | London | 1 | All Maps","protocol":17,"map":"pl_frontier_final","folder":"tf","game":"Team Fortress","app_id":440,"player_count":24,"max_players":24,"Bots":0,"server_type":"Dedicated","server_os":"Linux","password":true,"vac":true,"version":"7882260","steam_id":85568392924367362,"keywords":["nocrits","nodmgspread","payload","uncletopia"],"game_id":440,"stv_port":27016,"stv_name":"Uncletopia | London | 1 | All Maps | STV","players":[{"user_id":1313,"name":"jimmy bob","steam_id":76561198319583692,"connected_time":1003000000000,"state":"active","ping":56},{"user_id":1325,"name":"Hyperek","steam_id":76561198130797464,"connected_time":240000000000,"state":"active","ping":80},{"user_id":1324,"name":"Alice in Rubberland","steam_id":76561198087328346,"connected_time":340000000000,"state":"active","ping":136},{"user_id":1160,"name":"e9","steam_id":76561198890193313,"connected_time":13067000000000,"state":"active","ping":60},{"user_id":1228,"name":"Mr. Heavy LFT Premiership","steam_id":76561198080912087,"connected_time":8293000000000,"state":"active","ping":60},{"user_id":1318,"name":"Medieval Doktor","steam_id":76561198075373362,"connected_time":737000000000,"state":"active","ping":36},{"user_id":1219,"name":"oh my science","steam_id":76561198190583242,"connected_time":9154000000000,"state":"active","ping":102},{"user_id":1323,"name":"sks ÀÑÀÖ","steam_id":76561197996485230,"connected_time":428000000000,"state":"active","ping":72},{"user_id":1320,"name":"dino","steam_id":76561198055575747,"connected_time":722000000000,"state":"active","ping":71},{"user_id":1274,"name":"UltimateAura","steam_id":76561198338361324,"connected_time":4735000000000,"state":"active","ping":36},{"user_id":1273,"name":"Chilly Snipples","steam_id":76561198203326293,"connected_time":4762000000000,"state":"active","ping":73},{"user_id":1279,"name":"Fish 'n' Chips","steam_id":76561198033476886,"connected_time":4269000000000,"state":"active","ping":52},{"user_id":1312,"name":"Skiider","steam_id":76561198100726379,"connected_time":1043000000000,"state":"active","ping":82},{"user_id":1326,"name":"Wan Shi Tong","steam_id":76561198076441225,"connected_time":218000000000,"state":"active","ping":118},{"user_id":1327,"name":"Buddy","steam_id":76561198050185582,"connected_time":213000000000,"state":"active","ping":55},{"user_id":1308,"name":"Townsend And Sons","steam_id":76561199072698153,"connected_time":1279000000000,"state":"active","ping":64},{"user_id":1319,"name":"dunduu","steam_id":76561198875240717,"connected_time":734000000000,"state":"active","ping":80},{"user_id":1256,"name":"Healix","steam_id":76561198130270161,"connected_time":6510000000000,"state":"active","ping":60},{"user_id":1321,"name":"lullers","steam_id":76561198119470669,"connected_time":717000000000,"state":"active","ping":58},{"user_id":1328,"name":"After8","steam_id":76561198090750865,"connected_time":2000000000,"state":"spawning","ping":56},{"user_id":1287,"name":"something","steam_id":76561198198581615,"connected_time":3022000000000,"state":"active","ping":63},{"user_id":1322,"name":"James","steam_id":76561198168882012,"connected_time":654000000000,"state":"active","ping":55},{"user_id":1189,"name":"ksndr","steam_id":76561198051084840,"connected_time":11319000000000,"state":"active","ping":50},{"user_id":1305,"name":"Ziemniaczki z koperkiem","steam_id":76561198829123464,"connected_time":1428000000000,"state":"active","ping":84}]},{"server_id":114,"name":"Uncletopia | London | 2 | All Maps","name_short":"lon-2","host":"lon-1.uk.uncletopia.com","port":27025,"enabled":true,"region":"eu","cc":"gb","latitude":51.509865,"longitude":-0.118092,"reserved":0,"last_update":"0001-01-01T00:00:00Z","name_a2s":"Uncletopia | London | 2 | All Maps","protocol":17,"map":"pl_barnblitz","folder":"tf","game":"Team Fortress","app_id":440,"player_count":24,"max_players":24,"Bots":0,"server_type":"Dedicated","server_os":"Linux","password":true,"vac":true,"version":"7882260","steam_id":85568392924470941,"keywords":["nocrits","nodmgspread","payload","uncletopia"],"game_id":440,"stv_port":27026,"stv_name":"Uncletopia | London | 2 | All Maps | STV","players":[{"user_id":563,"name":"frosty","steam_id":76561198094560834,"connected_time":2036000000000,"state":"active","ping":52},{"user_id":570,"name":"Uncle Moomin","steam_id":76561198011628656,"connected_time":1506000000000,"state":"active","ping":85},{"user_id":564,"name":"t√Øger","steam_id":76561198260483157,"connected_time":1786000000000,"state":"active","ping":85},{"user_id":557,"name":"Voks_","steam_id":76561198159687785,"connected_time":3060000000000,"state":"active","ping":69},{"user_id":530,"name":"beurgeur","steam_id":76561198872426314,"connected_time":4485000000000,"state":"active","ping":36},{"user_id":497,"name":"i'm a movement player lois","steam_id":76561198112681438,"connected_time":6530000000000,"state":"active","ping":94},{"user_id":579,"name":"Foto-nio","steam_id":76561199084765056,"connected_time":1028000000000,"state":"active","ping":78},{"user_id":578,"name":"cinny","steam_id":76561198832112629,"connected_time":1051000000000,"state":"active","ping":82},{"user_id":566,"name":"I Don't Know","steam_id":76561198841011430,"connected_time":1560000000000,"state":"active","ping":76},{"user_id":585,"name":"Scarlet","steam_id":76561198075966579,"connected_time":780000000000,"state":"active","ping":42},{"user_id":588,"name":"Erin in Soup","steam_id":76561198416493306,"connected_time":636000000000,"state":"active","ping":58},{"user_id":528,"name":"Circular","steam_id":76561198001536710,"connected_time":4570000000000,"state":"active","ping":47},{"user_id":590,"name":"flr","steam_id":76561198249327786,"connected_time":240000000000,"state":"active","ping":71},{"user_id":544,"name":"microwavedelights","steam_id":76561199260959455,"connected_time":3988000000000,"state":"active","ping":118},{"user_id":559,"name":"call of duty","steam_id":76561198235814492,"connected_time":2230000000000,"state":"active","ping":81},{"user_id":586,"name":"voco","steam_id":76561198179250642,"connected_time":729000000000,"state":"active","ping":114},{"user_id":575,"name":"Dirty Joe","steam_id":76561198142418870,"connected_time":1306000000000,"state":"active","ping":45},{"user_id":577,"name":"Carney","steam_id":76561198064078751,"connected_time":1094000000000,"state":"active","ping":64},{"user_id":482,"name":"Spurt","steam_id":76561198078523852,"connected_time":7486000000000,"state":"active","ping":49},{"user_id":558,"name":"generic alias","steam_id":76561198271607226,"connected_time":2619000000000,"state":"active","ping":96},{"user_id":556,"name":"SuperBob103","steam_id":76561199175360012,"connected_time":3101000000000,"state":"active","ping":71},{"user_id":519,"name":"Birds Aren't Real","steam_id":76561199380849468,"connected_time":5265000000000,"state":"active","ping":64},{"user_id":589,"name":"Michael Raw","steam_id":76561198319181326,"connected_time":342000000000,"state":"active","ping":69},{"user_id":574,"name":"Loperin","steam_id":76561198111237338,"connected_time":1361000000000,"state":"active","ping":80}]},{"server_id":320,"name":"Uncletopia | London | 3 | All Maps","name_short":"lon-3","host":"lon-1.uk.uncletopia.com","port":27035,"enabled":true,"region":"eu","cc":"gb","latitude":51.509865,"longitude":-0.118092,"reserved":0,"last_update":"0001-01-01T00:00:00Z","name_a2s":"Uncletopia | London | 3 | All Maps","protocol":17,"map":"cp_dustbowl","folder":"tf","game":"Team Fortress","app_id":440,"player_count":24,"max_players":24,"Bots":0,"server_type":"Dedicated","server_os":"Linux","password":true,"vac":true,"version":"7882260","steam_id":85568392924510192,"keywords":["cp","nocrits","nodmgspread","uncletopia"],"game_id":440,"stv_port":27036,"stv_name":"Uncletopia | London | 3 | All Maps | STV","players":[{"user_id":648,"name":"Lazy","steam_id":76561199244421220,"connected_time":1835000000000,"state":"active","ping":75},{"user_id":631,"name":"silicon based life form","steam_id":76561199127121346,"connected_time":2634000000000,"state":"active","ping":55},{"user_id":634,"name":"Lubrsi","steam_id":76561198040208195,"connected_time":2561000000000,"state":"active","ping":50},{"user_id":647,"name":"the least schizo med main","steam_id":76561198048530109,"connected_time":1887000000000,"state":"active","ping":78},{"user_id":674,"name":"Finn","steam_id":76561198179960193,"connected_time":117000000000,"state":"active","ping":37},{"user_id":667,"name":"Frampoid","steam_id":76561197997137121,"connected_time":822000000000,"state":"active","ping":60},{"user_id":670,"name":"Testicular torsion","steam_id":76561198119547399,"connected_time":555000000000,"state":"active","ping":70},{"user_id":628,"name":"Shamrock","steam_id":76561199013951917,"connected_time":2894000000000,"state":"active","ping":53},{"user_id":672,"name":"TheGrayGamer","steam_id":76561198862727465,"connected_time":389000000000,"state":"active","ping":55},{"user_id":639,"name":"Merrie Melodies","steam_id":76561199086808471,"connected_time":2218000000000,"state":"active","ping":93},{"user_id":641,"name":"ThatTFguy","steam_id":76561198056794321,"connected_time":2138000000000,"state":"active","ping":59},{"user_id":616,"name":"gajo","steam_id":76561199172260370,"connected_time":4402000000000,"state":"active","ping":70},{"user_id":620,"name":"Doctor Marijuana","steam_id":76561198288289879,"connected_time":4323000000000,"state":"active","ping":48},{"user_id":666,"name":"Meddler","steam_id":76561198033001402,"connected_time":990000000000,"state":"active","ping":40},{"user_id":642,"name":"Gorzel","steam_id":76561198828273330,"connected_time":2130000000000,"state":"active","ping":85},{"user_id":669,"name":"Squirrel Enthusiast","steam_id":76561198048759212,"connected_time":640000000000,"state":"active","ping":56},{"user_id":665,"name":"Skinny101","steam_id":76561197985599360,"connected_time":1032000000000,"state":"active","ping":55},{"user_id":652,"name":"Whiff","steam_id":76561198086264411,"connected_time":1763000000000,"state":"active","ping":73},{"user_id":664,"name":"keir","steam_id":76561198328258942,"connected_time":1571000000000,"state":"active","ping":60},{"user_id":655,"name":"kananugettikeitto","steam_id":76561198071162890,"connected_time":1724000000000,"state":"active","ping":87},{"user_id":618,"name":"Sakari","steam_id":76561197997811299,"connected_time":4369000000000,"state":"active","ping":61},{"user_id":671,"name":"Fizz","steam_id":76561197994814990,"connected_time":411000000000,"state":"active","ping":74},{"user_id":660,"name":"Tren User","steam_id":76561198999443110,"connected_time":1655000000000,"state":"active","ping":83},{"user_id":658,"name":"Mike Ehrmantraut","steam_id":76561198377839143,"connected_time":1693000000000,"state":"active","ping":75}]},{"server_id":321,"name":"Uncletopia | London | 4 | All Maps","name_short":"lon-4","host":"lon-1.uk.uncletopia.com","port":27045,"enabled":true,"region":"eu","cc":"gb","latitude":51.509865,"longitude":-0.118092,"reserved":0,"last_update":"0001-01-01T00:00:00Z","name_a2s":"Uncletopia | London | 4 | All Maps","protocol":17,"map":"cp_altitude","folder":"tf","game":"Team Fortress","app_id":440,"player_count":24,"max_players":24,"Bots":0,"server_type":"Dedicated","server_os":"Linux","password":true,"vac":true,"version":"7882260","steam_id":85568392924510193,"keywords":["cp","nocrits","nodmgspread","uncletopia"],"game_id":440,"stv_port":27046,"stv_name":"Uncletopia | London | 4 | All Maps | STV","players":[{"user_id":252,"name":"SKFBoge","steam_id":76561198269038278,"connected_time":4520000000000,"state":"active","ping":87},{"user_id":315,"name":"Leche","steam_id":76561198816888764,"connected_time":203000000000,"state":"active","ping":61},{"user_id":320,"name":"akakez","steam_id":76561198095432821,"connected_time":27000000000,"state":"active","ping":129},{"user_id":299,"name":"slifer the executive producer","steam_id":76561198322087870,"connected_time":1271000000000,"state":"active","ping":118},{"user_id":284,"name":"Methanol Slurper","steam_id":76561198804835507,"connected_time":2143000000000,"state":"active","ping":89},{"user_id":237,"name":"Bayoyo","steam_id":76561199069591774,"connected_time":5436000000000,"state":"active","ping":86},{"user_id":250,"name":"Themadnessman","steam_id":76561198079732032,"connected_time":4569000000000,"state":"active","ping":85},{"user_id":292,"name":"BOT T√∏fler","steam_id":76561198070606923,"connected_time":1808000000000,"state":"active","ping":73},{"user_id":275,"name":"and i'm javert!","steam_id":76561198117033273,"connected_time":2797000000000,"state":"active","ping":55},{"user_id":319,"name":"Portal2Player","steam_id":76561198062870114,"connected_time":130000000000,"state":"active","ping":128},{"user_id":303,"name":"pl0nt","steam_id":76561198093176999,"connected_time":898000000000,"state":"active","ping":51},{"user_id":253,"name":"prolog","steam_id":76561198356421550,"connected_time":4503000000000,"state":"active","ping":100},{"user_id":305,"name":"Jugg","steam_id":76561198384417257,"connected_time":785000000000,"state":"active","ping":56},{"user_id":306,"name":"Miss Scruples","steam_id":76561198047951860,"connected_time":774000000000,"state":"active","ping":63},{"user_id":307,"name":"Jaroofsin","steam_id":76561198031739388,"connected_time":764000000000,"state":"active","ping":101},{"user_id":270,"name":"Munibe","steam_id":76561198107967904,"connected_time":2998000000000,"state":"active","ping":68},{"user_id":317,"name":"Tobleroney","steam_id":76561198154402655,"connected_time":189000000000,"state":"active","ping":36},{"user_id":308,"name":"Grease Huffer","steam_id":76561198982674420,"connected_time":727000000000,"state":"active","ping":39},{"user_id":314,"name":"LemonLeCitron","steam_id":76561198215545267,"connected_time":274000000000,"state":"active","ping":69},{"user_id":313,"name":"iokoieon","steam_id":76561198065009070,"connected_time":385000000000,"state":"active","ping":93},{"user_id":290,"name":"Extra Degenerate Weeb","steam_id":76561198352648923,"connected_time":1925000000000,"state":"active","ping":86},{"user_id":300,"name":"RicardoChL","steam_id":76561198452299994,"connected_time":1171000000000,"state":"active","ping":69},{"user_id":312,"name":"antman","steam_id":76561198017352695,"connected_time":429000000000,"state":"active","ping":138},{"user_id":263,"name":"Hattmannen","steam_id":76561198340884902,"connected_time":4092000000000,"state":"active","ping":77}]},{"server_id":21,"name":"Uncletopia | London | 5 | All Maps","name_short":"lon-5","host":"lon-1.uk.uncletopia.com","port":27055,"enabled":true,"region":"eu","cc":"gb","latitude":51.509865,"longitude":-0.118092,"reserved":0,"last_update":"0001-01-01T00:00:00Z","name_a2s":"Uncletopia | London | 5 | All Maps","protocol":17,"map":"pl_borneo","folder":"tf","game":"Team Fortress","app_id":440,"player_count":23,"max_players":24,"Bots":0,"server_type":"Dedicated","server_os":"Linux","password":true,"vac":true,"version":"7882260","steam_id":85568392924742829,"keywords":["nocrits","nodmgspread","payload","uncletopia"],"game_id":440,"stv_port":27056,"stv_name":"Uncletopia | London | 5 | All Maps | STV","players":[{"user_id":298,"name":"Thors","steam_id":76561197968739075,"connected_time":656000000000,"state":"active","ping":44},{"user_id":265,"name":"Udinese Dion","steam_id":76561198067931573,"connected_time":2762000000000,"state":"active","ping":62},{"user_id":295,"name":"inebriation of the senses","steam_id":76561198977420882,"connected_time":732000000000,"state":"active","ping":44},{"user_id":287,"name":"BottledSprite","steam_id":76561199131957081,"connected_time":885000000000,"state":"active","ping":73},{"user_id":264,"name":"Omyskull","steam_id":76561198131711758,"connected_time":3044000000000,"state":"active","ping":66},{"user_id":280,"name":"Stigurna","steam_id":76561198063906822,"connected_time":1848000000000,"state":"active","ping":97},{"user_id":286,"name":"Xallog","steam_id":76561198050061597,"connected_time":1067000000000,"state":"active","ping":40},{"user_id":246,"name":"British Disapproval","steam_id":76561198001375260,"connected_time":4871000000000,"state":"active","ping":56},{"user_id":289,"name":"Klunkerino","steam_id":76561197971081655,"connected_time":783000000000,"state":"active","ping":76},{"user_id":291,"name":"Larry Penus","steam_id":76561198207546233,"connected_time":774000000000,"state":"active","ping":43},{"user_id":293,"name":"dog","steam_id":76561198063919822,"connected_time":739000000000,"state":"active","ping":38},{"user_id":305,"name":"Spoofr","steam_id":76561199267825043,"connected_time":179000000000,"state":"active","ping":64},{"user_id":301,"name":"Sylvanas","steam_id":76561198154904165,"connected_time":389000000000,"state":"active","ping":117},{"user_id":258,"name":"Ciria‚Åß‚Åß k","steam_id":76561198084111951,"connected_time":3809000000000,"state":"active","ping":105},{"user_id":283,"name":"f√©nix","steam_id":76561198083199151,"connected_time":1433000000000,"state":"active","ping":56},{"user_id":294,"name":"Bobo","steam_id":76561198052308399,"connected_time":735000000000,"state":"active","ping":69},{"user_id":303,"name":"Locke","steam_id":76561198339408300,"connected_time":320000000000,"state":"active","ping":61},{"user_id":302,"name":"JownCenta","steam_id":76561198121397124,"connected_time":389000000000,"state":"active","ping":49},{"user_id":300,"name":"John Noob","steam_id":76561197999170026,"connected_time":530000000000,"state":"active","ping":82},{"user_id":297,"name":"NuGs","steam_id":76561198305550934,"connected_time":711000000000,"state":"active","ping":52},{"user_id":306,"name":"saturn505","steam_id":76561198143921841,"connected_time":119000000000,"state":"active","ping":89},{"user_id":308,"name":"Cataleptic","steam_id":76561197997966949,"connected_time":55000000000,"state":"active","ping":59},{"user_id":299,"name":"LUM","steam_id":76561198069976825,"connected_time":588000000000,"state":"active","ping":152}]},{"server_id":22,"name":"Uncletopia | London | 6 | All Maps","name_short":"lon-6","host":"lon-1.uk.uncletopia.com","port":27065,"enabled":true,"region":"eu","cc":"gb","latitude":51.509865,"longitude":-0.118092,"reserved":0,"last_update":"0001-01-01T00:00:00Z","name_a2s":"Uncletopia | London | 6 | All Maps","protocol":17,"map":"pl_badwater","folder":"tf","game":"Team Fortress","app_id":440,"player_count":17,"max_players":24,"Bots":0,"server_type":"Dedicated","server_os":"Linux","password":true,"vac":true,"version":"7882260","steam_id":85568392924742830,"keywords":["nocrits","nodmgspread","payload","uncletopia"],"game_id":440,"stv_port":27066,"stv_name":"Uncletopia | London | 6 | All Maps | STV","players":[{"user_id":56,"name":"AsshatFuhrer","steam_id":76561198047784233,"connected_time":555000000000,"state":"active","ping":127},{"user_id":28,"name":"King Of Kings","steam_id":76561199224534493,"connected_time":3032000000000,"state":"active","ping":139},{"user_id":62,"name":"POU cherry","steam_id":76561199006915718,"connected_time":71000000000,"state":"active","ping":61},{"user_id":38,"name":"Thellsec","steam_id":76561198144608611,"connected_time":2269000000000,"state":"active","ping":145},{"user_id":48,"name":"‚òÜMiNTERRRRR‚òÜ","steam_id":76561198799866156,"connected_time":1135000000000,"state":"active","ping":110},{"user_id":44,"name":"SupLemon","steam_id":76561199147537491,"connected_time":1181000000000,"state":"active","ping":93},{"user_id":33,"name":"Envy","steam_id":76561198132723219,"connected_time":2620000000000,"state":"active","ping":105},{"user_id":46,"name":"jacktangent","steam_id":76561198846704532,"connected_time":1166000000000,"state":"active","ping":57},{"user_id":63,"name":"air arrow legacy","steam_id":76561198180361759,"connected_time":46000000000,"state":"active","ping":34},{"user_id":54,"name":"Methril Gremloch","steam_id":76561198071454092,"connected_time":656000000000,"state":"active","ping":63},{"user_id":50,"name":"Borat","steam_id":76561198122226417,"connected_time":1052000000000,"state":"active","ping":36},{"user_id":53,"name":"hedon/","steam_id":76561198249832770,"connected_time":980000000000,"state":"active","ping":45},{"user_id":55,"name":"Streaky Haddock","steam_id":76561197982320554,"connected_time":648000000000,"state":"active","ping":58},{"user_id":57,"name":"ArtMun","steam_id":76561198211527160,"connected_time":513000000000,"state":"active","ping":155},{"user_id":59,"name":"Axord","steam_id":76561199289652176,"connected_time":298000000000,"state":"active","ping":67},{"user_id":60,"name":"Not_Shure","steam_id":76561198162391280,"connected_time":224000000000,"state":"active","ping":94},{"user_id":61,"name":"Living disappointment","steam_id":76561198075276962,"connected_time":211000000000,"state":"active","ping":58}]},{"server_id":40,"name":"Uncletopia | London | 7 | No Payload","name_short":"lon-7","host":"lon-1.uk.uncletopia.com","port":27075,"enabled":true,"region":"eu","cc":"gb","latitude":51.509865,"longitude":-0.118092,"reserved":0,"last_update":"0001-01-01T00:00:00Z","name_a2s":"Uncletopia | London | 7 | No Payload","protocol":17,"map":"koth_cascade","folder":"tf","game":"Team Fortress","app_id":440,"player_count":24,"max_players":24,"Bots":0,"server_type":"Dedicated","server_os":"Linux","password":true,"vac":true,"version":"7882260","steam_id":85568392924964314,"keywords":["cp","nocrits","nodmgspread","uncletopia"],"game_id":440,"stv_port":27076,"stv_name":"Uncletopia | London | 7 | No Payload | STV","players":[{"user_id":118,"name":"hhhhhh","steam_id":76561198031982574,"connected_time":1531000000000,"state":"active","ping":62},{"user_id":139,"name":"Flying skyhigh","steam_id":76561198372971096,"connected_time":250000000000,"state":"active","ping":63},{"user_id":143,"name":"\u003c blank \u003e","steam_id":76561198059375315,"connected_time":141000000000,"state":"active","ping":78},{"user_id":132,"name":"Monara12th","steam_id":76561199478607360,"connected_time":1113000000000,"state":"active","ping":68},{"user_id":101,"name":"Holofightz Nene","steam_id":76561198226788392,"connected_time":2596000000000,"state":"active","ping":60},{"user_id":103,"name":"Dr.Nefario","steam_id":76561198874586020,"connected_time":2536000000000,"state":"active","ping":75},{"user_id":123,"name":"Greencoffee","steam_id":76561198842090589,"connected_time":1318000000000,"state":"active","ping":72},{"user_id":120,"name":"calum92","steam_id":76561197992188760,"connected_time":1402000000000,"state":"active","ping":64},{"user_id":126,"name":"png.png","steam_id":76561198444446521,"connected_time":1255000000000,"state":"active","ping":106},{"user_id":77,"name":"Scobra [FR]","steam_id":76561198000734400,"connected_time":4492000000000,"state":"active","ping":109},{"user_id":87,"name":"sandvich demolisher","steam_id":76561198192343263,"connected_time":3376000000000,"state":"active","ping":41},{"user_id":125,"name":"Kinnetic","steam_id":76561198161313074,"connected_time":1279000000000,"state":"active","ping":114},{"user_id":127,"name":"Pinkchup","steam_id":76561198106802803,"connected_time":1249000000000,"state":"active","ping":89},{"user_id":140,"name":"S E X P R E S I D E N T","steam_id":76561198139714370,"connected_time":231000000000,"state":"active","ping":68},{"user_id":128,"name":"Minimi","steam_id":76561198873850443,"connected_time":1247000000000,"state":"active","ping":48},{"user_id":129,"name":"wrpipe","steam_id":76561198854305411,"connected_time":1243000000000,"state":"active","ping":74},{"user_id":105,"name":"mitical uknown","steam_id":76561198844852761,"connected_time":2454000000000,"state":"active","ping":73},{"user_id":96,"name":"eva.","steam_id":76561198054474684,"connected_time":2966000000000,"state":"active","ping":89},{"user_id":142,"name":"conquistadorgt","steam_id":76561198848812449,"connected_time":193000000000,"state":"active","ping":66},{"user_id":130,"name":"quickfast","steam_id":76561199438900919,"connected_time":1230000000000,"state":"active","ping":46},{"user_id":138,"name":"HilldogGaming","steam_id":76561198082209322,"connected_time":480000000000,"state":"active","ping":81},{"user_id":134,"name":"ikc159","steam_id":76561198020559026,"connected_time":924000000000,"state":"active","ping":60},{"user_id":53,"name":"Lana Ev√∏l √Öttog","steam_id":76561198066287297,"connected_time":5734000000000,"state":"active","ping":45},{"user_id":136,"name":"Osek","steam_id":76561197972646003,"connected_time":631000000000,"state":"active","ping":71}]},{"server_id":41,"name":"Uncletopia | London | 8 | Community","name_short":"lon-8","host":"lon-1.uk.uncletopia.com","port":27085,"enabled":true,"region":"eu","cc":"gb","latitude":51.509865,"longitude":-0.118092,"reserved":0,"last_update":"0001-01-01T00:00:00Z","name_a2s":"Uncletopia | London | 8 | Community","protocol":17,"map":"workshop/koth_bagel_rc6.ugc2514036946","folder":"tf","game":"Team Fortress","app_id":440,"player_count":0,"max_players":24,"Bots":0,"server_type":"Dedicated","server_os":"Linux","password":true,"vac":true,"version":"7882260","steam_id":85568392924964315,"keywords":["cp","nocrits","nodmgspread","uncletopia"],"game_id":440,"stv_port":27086,"stv_name":"Uncletopia | London | 8 | Community | STV","players":null},{"server_id":300,"name":"Uncletopia | Montr√©al | 1 | All Maps","name_short":"mtl-1","host":"mtl-1.ca.uncletopia.com","port":27015,"enabled":true,"region":"us-east","cc":"ca","latitude":45.50889,"longitude":-73.56167,"reserved":0,"last_update":"0001-01-01T00:00:00Z","name_a2s":"Uncletopia | Montr√©al | 1 | All Maps","protocol":17,"map":"koth_cascade","folder":"tf","game":"Team Fortress","app_id":440,"player_count":0,"max_players":24,"Bots":0,"server_type":"Dedicated","server_os":"Linux","password":true,"vac":true,"version":"7882260","steam_id":85568392924500087,"keywords":["cp","nocrits","nodmgspread","uncletopia"],"game_id":440,"stv_port":27016,"stv_name":"Uncletopia | Montr√©al | 1 | All Maps | STV","players":null},{"server_id":301,"name":"Uncletopia | Montr√©al | 2 | All Maps","name_short":"mtl-2","host":"mtl-1.ca.uncletopia.com","port":27025,"enabled":true,"region":"us-east","cc":"ca","latitude":45.50889,"longitude":-73.56167,"reserved":0,"last_update":"0001-01-01T00:00:00Z","name_a2s":"Uncletopia | Montr√©al | 2 | All Maps","protocol":17,"map":"pl_swiftwater_final1","folder":"tf","game":"Team Fortress","app_id":440,"player_count":0,"max_players":24,"Bots":0,"server_type":"Dedicated","server_os":"Linux","password":true,"vac":true,"version":"7882260","steam_id":85568392924500088,"keywords":["nocrits","nodmgspread","payload","uncletopia"],"game_id":440,"stv_port":27026,"stv_name":"Uncletopia | Montr√©al | 2 | All Maps | STV","players":null},{"server_id":302,"name":"Uncletopia | Montr√©al | 3 | All Maps","name_short":"mtl-3","host":"mtl-1.ca.uncletopia.com","port":27035,"enabled":true,"region":"us-east","cc":"ca","latitude":45.50889,"longitude":-73.56167,"reserved":0,"last_update":"0001-01-01T00:00:00Z","name_a2s":"Uncletopia | Montr√©al | 3 | All Maps","protocol":17,"map":"koth_highpass","folder":"tf","game":"Team Fortress","app_id":440,"player_count":0,"max_players":24,"Bots":0,"server_type":"Dedicated","server_os":"Linux","password":true,"vac":true,"version":"7882260","steam_id":85568392924500089,"keywords":["cp","nocrits","nodmgspread","uncletopia"],"game_id":440,"stv_port":27036,"stv_name":"Uncletopia | Montr√©al | 3 | All Maps | STV","players":null},{"server_id":303,"name":"Uncletopia | Montr√©al | 4 | No Payload","name_short":"mtl-4","host":"mtl-1.ca.uncletopia.com","port":27045,"enabled":true,"region":"us-east","cc":"ca","latitude":45.50889,"longitude":-73.56167,"reserved":0,"last_update":"0001-01-01T00:00:00Z","name_a2s":"Uncletopia | Montr√©al | 4 | No Payload","protocol":17,"map":"koth_highpass","folder":"tf","game":"Team Fortress","app_id":440,"player_count":0,"max_players":24,"Bots":0,"server_type":"Dedicated","server_os":"Linux","password":true,"vac":true,"version":"7882260","steam_id":85568392924500090,"keywords":["cp","nocrits","nodmgspread","uncletopia"],"game_id":440,"stv_port":27046,"stv_name":"Uncletopia | Montr√©al | 4 | No Payload | STV","players":null},{"server_id":13,"name":"Uncletopia | New York City | 1 | All Maps","name_short":"nyc-1","host":"nyc-1.us.uncletopia.com","port":27015,"enabled":true,"region":"us-east","cc":"us","latitude":40.73061,"longitude":-73.93524,"reserved":0,"last_update":"0001-01-01T00:00:00Z","name_a2s":"Uncletopia | New York City | 1 | All Maps","protocol":17,"map":"plr_pipeline","folder":"tf","game":"Team Fortress","app_id":440,"player_count":24,"max_players":24,"Bots":0,"server_type":"Dedicated","server_os":"Linux","password":true,"vac":true,"version":"7882260","steam_id":85568392924469993,"keywords":["nocrits","nodmgspread","payload","uncletopia"],"game_id":440,"stv_port":27016,"stv_name":"Uncletopia | New York City | 1 | All Maps | STV","players":[{"user_id":257,"name":"ThreeEggs, Sunnyside Up","steam_id":76561198416948344,"connected_time":226000000000,"state":"active","ping":60},{"user_id":251,"name":"Bananas Peel Together","steam_id":76561197998580969,"connected_time":605000000000,"state":"active","ping":59},{"user_id":247,"name":"TheDinkster","steam_id":76561198163582675,"connected_time":798000000000,"state":"active","ping":73},{"user_id":222,"name":"Rended_","steam_id":76561199067091873,"connected_time":2050000000000,"state":"active","ping":81},{"user_id":215,"name":"Professional HotDog","steam_id":76561199250225639,"connected_time":3311000000000,"state":"active","ping":70},{"user_id":245,"name":"Nova","steam_id":76561198296902861,"connected_time":835000000000,"state":"active","ping":60},{"user_id":158,"name":"Constellar Nova","steam_id":76561198868215392,"connected_time":7212000000000,"state":"active","ping":64},{"user_id":254,"name":"Fantastibad","steam_id":76561199087329262,"connected_time":435000000000,"state":"active","ping":60},{"user_id":232,"name":"Primal","steam_id":76561197983118203,"connected_time":1626000000000,"state":"active","ping":76},{"user_id":231,"name":"steef","steam_id":76561199023495206,"connected_time":1634000000000,"state":"active","ping":68},{"user_id":235,"name":"Frog","steam_id":76561199388637537,"connected_time":1516000000000,"state":"active","ping":57},{"user_id":243,"name":"Garfield","steam_id":76561198447358116,"connected_time":1083000000000,"state":"active","ping":52},{"user_id":236,"name":"JD","steam_id":76561198202669250,"connected_time":1476000000000,"state":"active","ping":66},{"user_id":237,"name":"Wattle","steam_id":76561198036756626,"connected_time":1473000000000,"state":"active","ping":55},{"user_id":256,"name":"The Zoidberg Medic","steam_id":76561197994285087,"connected_time":315000000000,"state":"active","ping":45},{"user_id":238,"name":"kingjeffry2012@hotmail.com","steam_id":76561198314104415,"connected_time":1434000000000,"state":"active","ping":82},{"user_id":255,"name":"Genuine","steam_id":76561198253471115,"connected_time":431000000000,"state":"active","ping":60},{"user_id":183,"name":"Dusken","steam_id":76561198020696265,"connected_time":5944000000000,"state":"active","ping":68},{"user_id":240,"name":"Kyle H. McCloud","steam_id":76561198025050432,"connected_time":1360000000000,"state":"active","ping":86},{"user_id":248,"name":"the gamer hermit crab","steam_id":76561198969402276,"connected_time":787000000000,"state":"active","ping":54},{"user_id":249,"name":"sex","steam_id":76561198198787713,"connected_time":725000000000,"state":"active","ping":60},{"user_id":258,"name":"Sample","steam_id":76561198001722404,"connected_time":100000000000,"state":"active","ping":51},{"user_id":259,"name":"inphlate","steam_id":76561199016973013,"connected_time":11000000000,"state":"active","ping":62},{"user_id":246,"name":"Sully","steam_id":76561198055418425,"connected_time":834000000000,"state":"active","ping":96}]},{"server_id":14,"name":"Uncletopia | New York City | 2 | All Maps","name_short":"nyc-2","host":"nyc-1.us.uncletopia.com","port":27025,"enabled":true,"region":"us-east","cc":"us","latitude":40.73061,"longitude":-73.93524,"reserved":0,"last_update":"0001-01-01T00:00:00Z","name_a2s":"Uncletopia | New York City | 2 | All Maps","protocol":17,"map":"pl_borneo","folder":"tf","game":"Team Fortress","app_id":440,"player_count":23,"max_players":24,"Bots":0,"server_type":"Dedicated","server_os":"Linux","password":true,"vac":true,"version":"7882260","steam_id":85568392924469994,"keywords":["nocrits","nodmgspread","payload","uncletopia"],"game_id":440,"stv_port":27026,"stv_name":"Uncletopia | New York City | 2 | All Maps | STV","players":[{"user_id":109,"name":"Violet42","steam_id":76561198072927887,"connected_time":247000000000,"state":"active","ping":44},{"user_id":108,"name":"MagicMuffinman","steam_id":76561198149255313,"connected_time":287000000000,"state":"active","ping":81},{"user_id":110,"name":"GROOVYROOM","steam_id":76561199153684166,"connected_time":200000000000,"state":"active","ping":75},{"user_id":85,"name":"Femtofarad","steam_id":76561198308583053,"connected_time":1870000000000,"state":"active","ping":67},{"user_id":111,"name":"ItsBigBird","steam_id":76561197992743142,"connected_time":193000000000,"state":"active","ping":72},{"user_id":98,"name":"Gildedire","steam_id":76561198063959574,"connected_time":1255000000000,"state":"active","ping":59},{"user_id":83,"name":"Aqua","steam_id":76561198136989701,"connected_time":1887000000000,"state":"active","ping":53},{"user_id":102,"name":"walrus","steam_id":76561198057853319,"connected_time":863000000000,"state":"active","ping":48},{"user_id":86,"name":"CousinCarL","steam_id":76561198028421250,"connected_time":1804000000000,"state":"active","ping":51},{"user_id":117,"name":"The Entire Population of Canada","steam_id":76561198090187112,"connected_time":23000000000,"state":"spawning","ping":62},{"user_id":112,"name":"Shwa","steam_id":76561198122613101,"connected_time":183000000000,"state":"active","ping":51},{"user_id":70,"name":"Frank the Tank","steam_id":76561198014574925,"connected_time":3665000000000,"state":"active","ping":65},{"user_id":65,"name":"who is gavin?","steam_id":76561198069415057,"connected_time":3907000000000,"state":"active","ping":44},{"user_id":103,"name":"Tea Enthusiast","steam_id":76561198185583925,"connected_time":668000000000,"state":"active","ping":35},{"user_id":89,"name":"twix","steam_id":76561198040912048,"connected_time":1585000000000,"state":"active","ping":64},{"user_id":93,"name":"SkaCola","steam_id":76561198880242934,"connected_time":1332000000000,"state":"active","ping":77},{"user_id":88,"name":"Muromasa","steam_id":76561198069883531,"connected_time":1780000000000,"state":"active","ping":67},{"user_id":118,"name":"Z4LTte","steam_id":76561198283258068,"connected_time":6000000000,"state":"spawning","ping":45},{"user_id":119,"name":"Urbanzpinapple","steam_id":76561198115426938,"connected_time":2000000000,"state":"spawning","ping":140},{"user_id":106,"name":"A_Malebolgia","steam_id":76561198097722818,"connected_time":624000000000,"state":"active","ping":84},{"user_id":115,"name":"nori_420 (mute)","steam_id":76561199117134203,"connected_time":139000000000,"state":"active","ping":121},{"user_id":96,"name":"Peter Hook","steam_id":76561197999105979,"connected_time":1297000000000,"state":"active","ping":64},{"user_id":114,"name":"Nic0","steam_id":76561198305690218,"connected_time":179000000000,"state":"active","ping":53}]},{"server_id":15,"name":"Uncletopia | New York City | 3 | Stopwatch Beta","name_short":"nyc-3","host":"nyc-1.us.uncletopia.com","port":27035,"enabled":true,"region":"us-east","cc":"us","latitude":40.73061,"longitude":-73.93524,"reserved":0,"last_update":"0001-01-01T00:00:00Z","name_a2s":"Uncletopia | New York City | 3 | Stopwatch Beta","protocol":17,"map":"pl_borneo","folder":"tf","game":"Team Fortress","app_id":440,"player_count":0,"max_players":24,"Bots":0,"server_type":"Dedicated","server_os":"Linux","password":true,"vac":true,"version":"7882260","steam_id":85568392924742820,"keywords":["nocrits","nodmgspread","payload","uncletopia"],"game_id":440,"stv_port":27036,"stv_name":"Uncletopia | New York City | 3 | Stopwatch Beta | STV","players":null},{"server_id":16,"name":"Uncletopia | New York City | 4 | Community","name_short":"nyc-4","host":"nyc-1.us.uncletopia.com","port":27045,"enabled":true,"region":"us-east","cc":"us","latitude":40.73061,"longitude":-73.93524,"reserved":0,"last_update":"0001-01-01T00:00:00Z","name_a2s":"Uncletopia | New York City | 4 | Community","protocol":17,"map":"workshop/cp_hazyfort_rc6.ugc1365963729","folder":"tf","game":"Team Fortress","app_id":440,"player_count":0,"max_players":24,"Bots":0,"server_type":"Dedicated","server_os":"Linux","password":true,"vac":true,"version":"7882260","steam_id":85568392924742821,"keywords":["cp","nocrits","nodmgspread","uncletopia"],"game_id":440,"stv_port":27046,"stv_name":"Uncletopia | New York City | 4 | Community | STV","players":null},{"server_id":142,"name":"Uncletopia | S√£o Paulo | 1 | All Maps","name_short":"sao-1","host":"sao-1.br.uncletopia.com","port":27015,"enabled":true,"region":"sa","cc":"br","latitude":-23.533773,"longitude":-46.62529,"reserved":0,"last_update":"0001-01-01T00:00:00Z","name_a2s":"Uncletopia | S√£o Paulo | 1 | All Maps","protocol":17,"map":"cp_altitude","folder":"tf","game":"Team Fortress","app_id":440,"player_count":0,"max_players":24,"Bots":0,"server_type":"Dedicated","server_os":"Linux","password":true,"vac":true,"version":"7882260","steam_id":85568392924469996,"keywords":["cp","nocrits","nodmgspread","uncletopia"],"game_id":440,"stv_port":27016,"stv_name":"Uncletopia | S√£o Paulo | 1 | All Maps | STV","players":null},{"server_id":143,"name":"Uncletopia | S√£o Paulo | 2 | All Maps","name_short":"sao-2","host":"sao-2.br.uncletopia.com","port":27015,"enabled":true,"region":"sa","cc":"br","latitude":-23.533773,"longitude":-46.62529,"reserved":0,"last_update":"0001-01-01T00:00:00Z","name_a2s":"Uncletopia | S√£o Paulo | 2 | All Maps","protocol":17,"map":"koth_king","folder":"tf","game":"Team Fortress","app_id":440,"player_count":0,"max_players":24,"Bots":0,"server_type":"Dedicated","server_os":"Linux","password":true,"vac":true,"version":"7882260","steam_id":85568392924485349,"keywords":["cp","nocrits","nodmgspread","uncletopia"],"game_id":440,"stv_port":27016,"stv_name":"Uncletopia | S√£o Paulo | 2 | All Maps | STV","players":null},{"server_id":7,"name":"Uncletopia | Seattle | 1 | All Maps","name_short":"sea-1","host":"sea-1.us.uncletopia.com","port":27015,"enabled":true,"region":"us-west","cc":"us","latitude":47.608013,"longitude":-122.33517,"reserved":0,"last_update":"0001-01-01T00:00:00Z","name_a2s":"Uncletopia | Seattle | 1 | All Maps","protocol":17,"map":"pl_swiftwater_final1","folder":"tf","game":"Team Fortress","app_id":440,"player_count":24,"max_players":24,"Bots":0,"server_type":"Dedicated","server_os":"Linux","password":true,"vac":true,"version":"7882260","steam_id":85568392924469997,"keywords":["nocrits","nodmgspread","payload","uncletopia"],"game_id":440,"stv_port":27016,"stv_name":"Uncletopia | Seattle | 1 | All Maps | STV","players":[{"user_id":375,"name":"challen","steam_id":76561197961277967,"connected_time":41000000000,"state":"active","ping":72},{"user_id":369,"name":"Bishuhp","steam_id":76561198015062850,"connected_time":356000000000,"state":"active","ping":55},{"user_id":370,"name":"Noremac_","steam_id":76561198074701001,"connected_time":224000000000,"state":"active","ping":126},{"user_id":326,"name":"forg","steam_id":76561199160422863,"connected_time":2770000000000,"state":"active","ping":175},{"user_id":367,"name":"ZeDoktor","steam_id":76561198067035643,"connected_time":759000000000,"state":"active","ping":54},{"user_id":345,"name":"Fh","steam_id":76561198000903511,"connected_time":1340000000000,"state":"active","ping":72},{"user_id":329,"name":"Keyboardbreaker","steam_id":76561198372836132,"connected_time":2574000000000,"state":"active","ping":85},{"user_id":359,"name":"diddy boppin","steam_id":76561198327633561,"connected_time":1032000000000,"state":"active","ping":85},{"user_id":337,"name":"Taylor Swift","steam_id":76561198078130694,"connected_time":1633000000000,"state":"active","ping":84},{"user_id":360,"name":"Padort","steam_id":76561199076297069,"connected_time":1000000000000,"state":"active","ping":47},{"user_id":338,"name":"Democrat","steam_id":76561198280832649,"connected_time":1609000000000,"state":"active","ping":106},{"user_id":372,"name":"Gaiduk","steam_id":76561198112323877,"connected_time":170000000000,"state":"active","ping":126},{"user_id":340,"name":"KonJac","steam_id":76561198027812652,"connected_time":1541000000000,"state":"active","ping":75},{"user_id":341,"name":"Scampi","steam_id":76561198318349886,"connected_time":1531000000000,"state":"active","ping":133},{"user_id":342,"name":"bodie._.","steam_id":76561198079474904,"connected_time":1504000000000,"state":"active","ping":71},{"user_id":343,"name":"hart","steam_id":76561198046073848,"connected_time":1451000000000,"state":"active","ping":49},{"user_id":361,"name":"a chicken","steam_id":76561198313121580,"connected_time":998000000000,"state":"active","ping":81},{"user_id":347,"name":"Chad the Sex Haver","steam_id":76561198058236528,"connected_time":1317000000000,"state":"active","ping":81},{"user_id":366,"name":"Mico (Mico)","steam_id":76561198125462953,"connected_time":767000000000,"state":"active","ping":45},{"user_id":373,"name":"Overvote","steam_id":76561198067641129,"connected_time":169000000000,"state":"active","ping":57},{"user_id":356,"name":"Peppino Spaghetti","steam_id":76561198090353077,"connected_time":1106000000000,"state":"active","ping":143},{"user_id":352,"name":"$lime k‚úîng WHYYYTEb0y^-^","steam_id":76561198283687382,"connected_time":1243000000000,"state":"active","ping":122},{"user_id":374,"name":"Apollo","steam_id":76561198162364702,"connected_time":53000000000,"state":"active","ping":45},{"user_id":357,"name":"Henchie!","steam_id":76561198047567464,"connected_time":1103000000000,"state":"active","ping":104}]},{"server_id":119,"name":"Uncletopia | Seattle | 2 | All Maps","name_short":"sea-2","host":"sea-1.us.uncletopia.com","port":27025,"enabled":true,"region":"us-west","cc":"us","latitude":47.608013,"longitude":-122.33517,"reserved":0,"last_update":"0001-01-01T00:00:00Z","name_a2s":"Uncletopia | Seattle | 2 | All Maps","protocol":17,"map":"koth_viaduct","folder":"tf","game":"Team Fortress","app_id":440,"player_count":24,"max_players":24,"Bots":0,"server_type":"Dedicated","server_os":"Linux","password":true,"vac":true,"version":"7882260","steam_id":85568392924469998,"keywords":["cp","nocrits","nodmgspread","uncletopia"],"game_id":440,"stv_port":27026,"stv_name":"Uncletopia | Seattle | 2 | All Maps | STV","players":[{"user_id":142,"name":"Sorry","steam_id":76561198040722720,"connected_time":1701000000000,"state":"active","ping":131},{"user_id":140,"name":"COOL master_9","steam_id":76561198073041151,"connected_time":1795000000000,"state":"active","ping":101},{"user_id":141,"name":"ChefBunny","steam_id":76561198243610560,"connected_time":1791000000000,"state":"active","ping":80},{"user_id":165,"name":"oil","steam_id":76561198099980149,"connected_time":106000000000,"state":"active","ping":75},{"user_id":138,"name":"SAD MOSCOVIA","steam_id":76561198101081520,"connected_time":1880000000000,"state":"active","ping":69},{"user_id":114,"name":"SolarusD","steam_id":76561198029279861,"connected_time":3270000000000,"state":"active","ping":61},{"user_id":115,"name":"Honeybunch","steam_id":76561198014850580,"connected_time":3265000000000,"state":"active","ping":36},{"user_id":111,"name":"Keamy","steam_id":76561199471434875,"connected_time":3395000000000,"state":"active","ping":40},{"user_id":157,"name":"ProNoob","steam_id":76561197966068103,"connected_time":702000000000,"state":"active","ping":97},{"user_id":130,"name":"PURPLE","steam_id":76561199140133516,"connected_time":2659000000000,"state":"active","ping":76},{"user_id":146,"name":"Lapisüíõ ","steam_id":76561198009198502,"connected_time":1272000000000,"state":"active","ping":128},{"user_id":127,"name":"WaffleWithNoToppings","steam_id":76561199088280111,"connected_time":2942000000000,"state":"active","ping":47},{"user_id":164,"name":"long hairs for bald people","steam_id":76561198133360797,"connected_time":166000000000,"state":"active","ping":86},{"user_id":162,"name":"dep","steam_id":76561198044106812,"connected_time":219000000000,"state":"active","ping":60},{"user_id":131,"name":"Potato57","steam_id":76561198144282089,"connected_time":2648000000000,"state":"active","ping":130},{"user_id":149,"name":"Juuichi11","steam_id":76561198141955085,"connected_time":1209000000000,"state":"active","ping":46},{"user_id":150,"name":"RICE A RONI JABRONI","steam_id":76561198251653444,"connected_time":1208000000000,"state":"active","ping":139},{"user_id":151,"name":"Giva Mike","steam_id":76561199151189522,"connected_time":1199000000000,"state":"active","ping":133},{"user_id":153,"name":"Elora","steam_id":76561198040510572,"connected_time":1136000000000,"state":"active","ping":178},{"user_id":122,"name":"Chocc","steam_id":76561198068070211,"connected_time":3178000000000,"state":"active","ping":82},{"user_id":159,"name":"Glazed","steam_id":76561198043020404,"connected_time":287000000000,"state":"active","ping":108},{"user_id":124,"name":"jorts","steam_id":76561199041179985,"connected_time":3141000000000,"state":"active","ping":63},{"user_id":155,"name":"OneManEnsemble","steam_id":76561198200890163,"connected_time":1093000000000,"state":"active","ping":132},{"user_id":166,"name":"Flyingcat9000","steam_id":76561198179561797,"connected_time":44000000000,"state":"active","ping":54}]},{"server_id":406,"name":"Uncletopia | Seattle | 3 | Stopwatch Beta","name_short":"sea-3","host":"sea-1.us.uncletopia.com","port":27035,"enabled":true,"region":"us-west","cc":"us","latitude":47.608013,"longitude":-122.33517,"reserved":0,"last_update":"0001-01-01T00:00:00Z","name_a2s":"Uncletopia | Seattle | 3 | Stopwatch Beta","protocol":17,"map":"workshop/koth_product_final.ugc454272353","folder":"tf","game":"Team Fortress","app_id":440,"player_count":1,"max_players":24,"Bots":0,"server_type":"Dedicated","server_os":"Linux","password":true,"vac":true,"version":"7882260","steam_id":85568392924515217,"keywords":["cp","nocrits","nodmgspread","uncletopia"],"game_id":440,"stv_port":27036,"stv_name":"Uncletopia | Seattle | 3 | Stopwatch Beta | STV","players":[{"user_id":6,"name":"Vagrant","steam_id":76561198242536886,"connected_time":788000000000,"state":"active","ping":63}]},{"server_id":17,"name":"Uncletopia | San Francisco | 1 | All Maps","name_short":"sfo-1","host":"sfo-1.us.uncletopia.com","port":27015,"enabled":true,"region":"us-west","cc":"us","latitude":37.77397,"longitude":-122.4313,"reserved":0,"last_update":"0001-01-01T00:00:00Z","name_a2s":"Uncletopia | San Francisco | 1 | All Maps","protocol":17,"map":"cp_sunshine","folder":"tf","game":"Team Fortress","app_id":440,"player_count":1,"max_players":24,"Bots":0,"server_type":"Dedicated","server_os":"Linux","password":true,"vac":true,"version":"7882260","steam_id":85568392924469999,"keywords":["cp","nocrits","nodmgspread","uncletopia"],"game_id":440,"stv_port":27016,"stv_name":"Uncletopia | San Francisco | 1 | All Maps | STV","players":[{"user_id":277,"name":"[TL] Andy","steam_id":76561198011133956,"connected_time":24000000000,"state":"spawning","ping":88}]},{"server_id":18,"name":"Uncletopia | San Francisco | 2 | All Maps","name_short":"sfo-2","host":"sfo-1.us.uncletopia.com","port":27025,"enabled":true,"region":"us-west","cc":"us","latitude":37.77397,"longitude":-122.4313,"reserved":0,"last_update":"0001-01-01T00:00:00Z","name_a2s":"Uncletopia | San Francisco | 2 | All Maps","protocol":17,"map":"pl_upward","folder":"tf","game":"Team Fortress","app_id":440,"player_count":0,"max_players":24,"Bots":0,"server_type":"Dedicated","server_os":"Linux","password":true,"vac":true,"version":"7882260","steam_id":85568392924470000,"keywords":["nocrits","nodmgspread","payload","uncletopia"],"game_id":440,"stv_port":27026,"stv_name":"Uncletopia | San Francisco | 2 | All Maps | STV","players":null},{"server_id":19,"name":"Uncletopia | San Francisco | 3 | Stopwatch Beta","name_short":"sfo-3","host":"sfo-1.us.uncletopia.com","port":27035,"enabled":true,"region":"us-west","cc":"us","latitude":37.77397,"longitude":-122.4313,"reserved":0,"last_update":"0001-01-01T00:00:00Z","name_a2s":"Uncletopia | San Francisco | 3 | Stopwatch Beta","protocol":17,"map":"pl_snowycoast","folder":"tf","game":"Team Fortress","app_id":440,"player_count":0,"max_players":24,"Bots":0,"server_type":"Dedicated","server_os":"Linux","password":true,"vac":true,"version":"7882260","steam_id":85568392924742824,"keywords":["nocrits","nodmgspread","payload","uncletopia"],"game_id":440,"stv_port":27036,"stv_name":"Uncletopia | San Francisco | 3 | Stopwatch Beta | STV","players":null},{"server_id":20,"name":"Uncletopia | San Francisco | 4 | Community","name_short":"sfo-4","host":"sfo-1.us.uncletopia.com","port":27045,"enabled":true,"region":"us-west","cc":"us","latitude":37.77397,"longitude":-122.4313,"reserved":0,"last_update":"0001-01-01T00:00:00Z","name_a2s":"Uncletopia | San Francisco | 4 | Community","protocol":17,"map":"pl_swiftwater_final1","folder":"tf","game":"Team Fortress","app_id":440,"player_count":0,"max_players":24,"Bots":0,"server_type":"Dedicated","server_os":"Linux","password":true,"vac":true,"version":"7882260","steam_id":85568392924742826,"keywords":["nocrits","nodmgspread","payload","uncletopia"],"game_id":440,"stv_port":27046,"stv_name":"Uncletopia | San Francisco | 4 | Community | STV","players":null},{"server_id":141,"name":"Uncletopia | Sydney | 1 | All Maps","name_short":"syd-1","host":"syd-1.au.uncletopia.com","port":27015,"enabled":true,"region":"au","cc":"au","latitude":-33.865143,"longitude":151.2099,"reserved":0,"last_update":"0001-01-01T00:00:00Z","name_a2s":"Uncletopia | Sydney | 1 | All Maps","protocol":17,"map":"cp_altitude","folder":"tf","game":"Team Fortress","app_id":440,"player_count":0,"max_players":24,"Bots":0,"server_type":"Dedicated","server_os":"Linux","password":true,"vac":true,"version":"7882260","steam_id":85568392924470001,"keywords":["cp","nocrits","nodmgspread","uncletopia"],"game_id":440,"stv_port":27016,"stv_name":"Uncletopia | Sydney | 1 | All Maps | STV","players":null},{"server_id":123,"name":"Uncletopia | Sydney | 2 | All Maps","name_short":"syd-2","host":"syd-1.au.uncletopia.com","port":27025,"enabled":true,"region":"au","cc":"au","latitude":-33.865143,"longitude":151.2099,"reserved":0,"last_update":"0001-01-01T00:00:00Z","name_a2s":"Uncletopia | Sydney | 2 | All Maps","protocol":17,"map":"cp_snakewater_final1","folder":"tf","game":"Team Fortress","app_id":440,"player_count":0,"max_players":24,"Bots":0,"server_type":"Dedicated","server_os":"Linux","password":true,"vac":true,"version":"7882260","steam_id":85568392924470002,"keywords":["cp","nocrits","nodmgspread","uncletopia"],"game_id":440,"stv_port":27026,"stv_name":"Uncletopia | Sydney | 2 | All Maps | STV","players":null},{"server_id":395,"name":"Uncletopia | Sydney | 3 | All Maps","name_short":"syd-3","host":"syd-1.au.uncletopia.com","port":27035,"enabled":true,"region":"au","cc":"au","latitude":-33.865143,"longitude":151.2099,"reserved":0,"last_update":"0001-01-01T00:00:00Z","name_a2s":"Uncletopia | Sydney | 3 | All Maps","protocol":17,"map":"pl_badwater","folder":"tf","game":"Team Fortress","app_id":440,"player_count":0,"max_players":24,"Bots":0,"server_type":"Dedicated","server_os":"Linux","password":true,"vac":true,"version":"7882260","steam_id":85568392925194467,"keywords":["nocrits","nodmgspread","payload","uncletopia"],"game_id":440,"stv_port":27036,"stv_name":"Uncletopia | Sydney | 3 | All Maps | STV","players":null},{"server_id":396,"name":"Uncletopia | Sydney | 4 | All Maps","name_short":"syd-4","host":"syd-1.au.uncletopia.com","port":27045,"enabled":true,"region":"au","cc":"au","latitude":-33.865143,"longitude":151.2099,"reserved":0,"last_update":"0001-01-01T00:00:00Z","name_a2s":"Uncletopia | Sydney | 4 | All Maps","protocol":17,"map":"cp_altitude","folder":"tf","game":"Team Fortress","app_id":440,"player_count":0,"max_players":24,"Bots":0,"server_type":"Dedicated","server_os":"Linux","password":true,"vac":true,"version":"7882260","steam_id":85568392925397958,"keywords":["cp","nocrits","nodmgspread","uncletopia"],"game_id":440,"stv_port":27046,"stv_name":"Uncletopia | Sydney | 4 | All Maps | STV","players":null},{"server_id":58,"name":"Uncletopia | Sydney | 5 | Stopwatch Beta","name_short":"syd-5","host":"syd-1.au.uncletopia.com","port":27055,"enabled":true,"region":"au","cc":"au","latitude":-33.865143,"longitude":151.2099,"reserved":0,"last_update":"0001-01-01T00:00:00Z","name_a2s":"Uncletopia | Sydney | 5 | Stopwatch Beta","protocol":17,"map":"koth_viaduct","folder":"tf","game":"Team Fortress","app_id":440,"player_count":0,"max_players":24,"Bots":0,"server_type":"Dedicated","server_os":"Linux","password":true,"vac":true,"version":"7882260","steam_id":85568392925397959,"keywords":["cp","nocrits","nodmgspread","uncletopia"],"game_id":440,"stv_port":27056,"stv_name":"Uncletopia | Sydney | 5 | Stopwatch Beta | STV","players":null},{"server_id":59,"name":"Uncletopia | Sydney | 6 | Community","name_short":"syd-6","host":"syd-1.au.uncletopia.com","port":27065,"enabled":true,"region":"au","cc":"au","latitude":-33.865143,"longitude":151.2099,"reserved":0,"last_update":"0001-01-01T00:00:00Z","name_a2s":"Uncletopia | Sydney | 6 | Community","protocol":17,"map":"pl_upward","folder":"tf","game":"Team Fortress","app_id":440,"player_count":0,"max_players":24,"Bots":0,"server_type":"Dedicated","server_os":"Linux","password":true,"vac":true,"version":"7882260","steam_id":85568392925397960,"keywords":["nocrits","nodmgspread","payload","uncletopia"],"game_id":440,"stv_port":27066,"stv_name":"Uncletopia | Sydney | 6 | Community | STV","players":null},{"server_id":49,"name":"Uncletopia | Warsaw | 1 | All Maps","name_short":"waw-1","host":"waw-1.pl.uncletopia.com","port":27015,"enabled":true,"region":"eu","cc":"pl","latitude":52.2297,"longitude":21.017532,"reserved":0,"last_update":"0001-01-01T00:00:00Z","name_a2s":"","protocol":0,"map":"","folder":"","game":"","app_id":0,"player_count":0,"max_players":0,"Bots":0,"server_type":"","server_os":"","password":false,"vac":false,"version":"","steam_id":0,"keywords":null,"game_id":0,"stv_port":0,"stv_name":"","players":null},{"server_id":50,"name":"Uncletopia | Warsaw | 2 | All Maps","name_short":"waw-2","host":"waw-1.pl.uncletopia.com","port":27025,"enabled":true,"region":"eu","cc":"pl","latitude":52.2297,"longitude":21.017532,"reserved":0,"last_update":"0001-01-01T00:00:00Z","name_a2s":"Uncletopia | Warsaw | 2 | All Maps","protocol":17,"map":"koth_viaduct","folder":"tf","game":"Team Fortress","app_id":440,"player_count":0,"max_players":24,"Bots":0,"server_type":"Dedicated","server_os":"Linux","password":true,"vac":true,"version":"7882260","steam_id":85568392925397851,"keywords":["cp","nocrits","nodmgspread","uncletopia"],"game_id":440,"stv_port":27026,"stv_name":"Uncletopia | Warsaw | 2 | All Maps | STV","players":null},{"server_id":51,"name":"Uncletopia | Warsaw | 3 | All Maps","name_short":"waw-3","host":"waw-1.pl.uncletopia.com","port":27035,"enabled":true,"region":"eu","cc":"pl","latitude":52.2297,"longitude":21.017532,"reserved":0,"last_update":"0001-01-01T00:00:00Z","name_a2s":"Uncletopia | Warsaw | 3 | All Maps","protocol":17,"map":"cp_process_final","folder":"tf","game":"Team Fortress","app_id":440,"player_count":0,"max_players":24,"Bots":0,"server_type":"Dedicated","server_os":"Linux","password":true,"vac":true,"version":"7882260","steam_id":85568392925397852,"keywords":["cp","nocrits","nodmgspread","uncletopia"],"game_id":440,"stv_port":27036,"stv_name":"Uncletopia | Warsaw | 3 | All Maps | STV","players":null},{"server_id":52,"name":"Uncletopia | Warsaw | 4 | All Maps","name_short":"waw-4","host":"waw-1.pl.uncletopia.com","port":27045,"enabled":true,"region":"eu","cc":"pl","latitude":52.2297,"longitude":21.017532,"reserved":0,"last_update":"0001-01-01T00:00:00Z","name_a2s":"Uncletopia | Warsaw | 4 | All Maps","protocol":17,"map":"koth_cascade","folder":"tf","game":"Team Fortress","app_id":440,"player_count":2,"max_players":24,"Bots":0,"server_type":"Dedicated","server_os":"Linux","password":true,"vac":true,"version":"7882260","steam_id":85568392925397853,"keywords":["cp","nocrits","nodmgspread","uncletopia"],"game_id":440,"stv_port":27046,"stv_name":"Uncletopia | Warsaw | 4 | All Maps | STV","players":[{"user_id":10,"name":"EgorIV","steam_id":76561198134660047,"connected_time":600000000000,"state":"active","ping":71},{"user_id":11,"name":"‚ù§ ‚Ñ£ukmir Vukmi‚Ñü ‚ù§","steam_id":76561198323579583,"connected_time":562000000000,"state":"active","ping":74}]},{"server_id":53,"name":"Uncletopia | Warsaw | 5 | Stopwatch Beta","name_short":"waw-5","host":"waw-1.pl.uncletopia.com","port":27055,"enabled":true,"region":"eu","cc":"pl","latitude":52.2297,"longitude":21.017532,"reserved":0,"last_update":"0001-01-01T00:00:00Z","name_a2s":"Uncletopia | Warsaw | 5 | Stopwatch Beta","protocol":17,"map":"cp_granary","folder":"tf","game":"Team Fortress","app_id":440,"player_count":0,"max_players":24,"Bots":0,"server_type":"Dedicated","server_os":"Linux","password":true,"vac":true,"version":"7882260","steam_id":85568392925397854,"keywords":["cp","nocrits","nodmgspread","uncletopia"],"game_id":440,"stv_port":27056,"stv_name":"Uncletopia | Warsaw | 5 | Stopwatch Beta | STV","players":null},{"server_id":54,"name":"Uncletopia | Warsaw | 6 | Community","name_short":"waw-6","host":"waw-1.pl.uncletopia.com","port":27065,"enabled":true,"region":"eu","cc":"pl","latitude":52.2297,"longitude":21.017532,"reserved":0,"last_update":"0001-01-01T00:00:00Z","name_a2s":"Uncletopia | Warsaw | 6 | Community","protocol":17,"map":"workshop/koth_bagel_rc6.ugc2514036946","folder":"tf","game":"Team Fortress","app_id":440,"player_count":0,"max_players":24,"Bots":0,"server_type":"Dedicated","server_os":"Linux","password":true,"vac":true,"version":"7882260","steam_id":85568392925397856,"keywords":["cp","nocrits","nodmgspread","uncletopia"],"game_id":440,"stv_port":27066,"stv_name":"Uncletopia | Warsaw | 6 | Community | STV","players":null}]}