{"status":true,"message":"","result":[{"server_id":9,"name":"Uncletopia | Atlanta | 1 | All Maps","name_short":"atl-1","host":"atl-1.us.uncletopia.com","port":27015,"enabled":true,"region":"us-east","cc":"us","latitude":33.753746,"longitude":-84.38633,"reserved":0,"last_update":"0001-01-01T00:00:00Z","name_a2s":"Uncletopia | Atlanta | 1 | All Maps","protocol":17,"map":"pl_badwater","folder":"tf","game":"Team Fortress","app_id":440,"player_count":24,"max_players":24,"Bots":0,"server_type":"Dedicated","server_os":"Linux","password":true,"vac":true,"version":"7961495","steam_id":85568392924469982,"keywords":["nocrits","nodmgspread","payload","uncletopia"],"game_id":440,"stv_port":27016,"stv_name":"Uncletopia | Atlanta | 1 | All Maps | STV","players":null},{"server_id":104,"name":"Uncletopia | Atlanta | 2 | All Maps","name_short":"atl-2","host":"atl-1.us.uncletopia.com","port":27025,"enabled":true,"region":"us-east","cc":"us","latitude":33.753746,"longitude":-84.38633,"reserved":0,"last_update":"0001-01-01T00:00:00Z","name_a2s":"Uncletopia | Atlanta | 2 | All Maps","protocol":17,"map":"cp_altitude","folder":"tf","game":"Team Fortress","app_id":440,"player_count":24,"max_players":24,"Bots":0,"server_type":"Dedicated","server_os":"Linux","password":true,"vac":true,"version":"7961495","steam_id":85568392924469983,"keywords":["cp","nocrits","nodmgspread","uncletopia"],"game_id":440,"stv_port":27026,"stv_name":"Uncletopia | Atlanta | 2 | All Maps | STV","players":null},{"server_id":400,"name":"Uncletopia | Atlanta | 3 | Stopwatch","name_short":"atl-3","host":"atl-1.us.uncletopia.com","port":27035,"enabled":true,"region":"us-east","cc":"us","latitude":33.753746,"longitude":-84.38633,"reserved":0,"last_update":"0001-01-01T00:00:00Z","name_a2s":"Uncletopia | Atlanta | 3 | Stopwatch","protocol":17,"map":"pl_badwater","folder":"tf","game":"Team Fortress","app_id":440,"player_count":0,"max_players":24,"Bots":0,"server_type":"Dedicated","server_os":"Linux","password":true,"vac":true,"version":"7961495","steam_id":85568392924515187,"keywords":["nocrits","nodmgspread","payload","uncletopia"],"game_id":440,"stv_port":27036,"stv_name":"Uncletopia | Atlanta | 3 | Stopwatch | STV","players":null},{"server_id":401,"name":"Uncletopia | Atlanta | 4 | Community","name_short":"atl-4","host":"atl-1.us.uncletopia.com","port":27045,"enabled":true,"region":"us-east","cc":"us","latitude":33.753746,"longitude":-84.38633,"reserved":0,"last_update":"0001-01-01T00:00:00Z","name_a2s":"Uncletopia | Atlanta | 4 | Community","protocol":17,"map":"pl_boundary_final1","folder":"tf","game":"Team Fortress","app_id":440,"player_count":5,"max_players":24,"Bots":0,"server_type":"Dedicated","server_os":"Linux","password":true,"vac":true,"version":"7961495","steam_id":85568392924515188,"keywords":["nocrits","nodmgspread","payload","uncletopia"],"game_id":440,"stv_port":27046,"stv_name":"Uncletopia | Atlanta | 4 | Community | STV","players":null},{"server_id":2,"name":"Uncletopia | Chicago | 1 | All Maps","name_short":"chi-1","host":"chi-1.us.uncletopia.com","port":27015,"enabled":true,"region":"us-central","cc":"us","latitude":41.881832,"longitude":-87.62318,"reserved":0,"last_update":"0001-01-01T00:00:00Z","name_a2s":"Uncletopia | Chicago | 1 | All Maps","protocol":17,"map":"pl_barnblitz","folder":"tf","game":"Team Fortress","app_id":440,"player_count":23,"max_players":24,"Bots":0,"server_type":"Dedicated","server_os":"Linux","password":true,"vac":true,"version":"7961495","steam_id":85568392924469984,"keywords":["nocrits","nodmgspread","payload","uncletopia"],"game_id":440,"stv_port":27016,"stv_name":"Uncletopia | Chicago | 1 | All Maps | STV","players":[{"user_id":373,"name":"Jango","steam_id":76561198084589742,"connected_time":1339000000000,"state":"active","ping":77},{"user_id":341,"name":"Artgrendadier","steam_id":76561198063305359,"connected_time":3265000000000,"state":"active","ping":68},{"user_id":375,"name":"HexT","steam_id":76561199085359931,"connected_time":1283000000000,"state":"active","ping":57},{"user_id":385,"name":"Platano Power","steam_id":76561198407122992,"connected_time":730000000000,"state":"active","ping":71},{"user_id":382,"name":"money getting 1 percenter","steam_id":76561198012796388,"connected_time":857000000000,"state":"active","ping":52},{"user_id":371,"name":"Grimace D. Drippings","steam_id":76561198050849790,"connected_time":1462000000000,"state":"active","ping":113},{"user_id":376,"name":"Im High","steam_id":76561198049954886,"connected_time":1243000000000,"state":"active","ping":70},{"user_id":377,"name":"Bisque","steam_id":76561198327661850,"connected_time":1243000000000,"state":"active","ping":84},{"user_id":378,"name":"Ras","steam_id":76561198123546775,"connected_time":1242000000000,"state":"active","ping":60},{"user_id":368,"name":"Gaming","steam_id":76561198107080532,"connected_time":1518000000000,"state":"active","ping":70},{"user_id":313,"name":"the zoo","steam_id":76561198013732450,"connected_time":5033000000000,"state":"active","ping":54},{"user_id":390,"name":"[chef] iron","steam_id":76561197970888616,"connected_time":178000000000,"state":"active","ping":43},{"user_id":360,"name":"Dongus","steam_id":76561197979056451,"connected_time":1962000000000,"state":"active","ping":103},{"user_id":383,"name":"NukaTheRabbit {Fur}","steam_id":76561198058692928,"connected_time":786000000000,"state":"active","ping":56},{"user_id":344,"name":"ElephantHydrogen4277882","steam_id":76561198175741741,"connected_time":3258000000000,"state":"active","ping":74},{"user_id":349,"name":"autisthicc","steam_id":76561198003918928,"connected_time":2778000000000,"state":"active","ping":141},{"user_id":386,"name":"Space","steam_id":76561198350489754,"connected_time":671000000000,"state":"active","ping":49},{"user_id":345,"name":"barney","steam_id":76561198166433332,"connected_time":3237000000000,"state":"active","ping":105},{"user_id":387,"name":"wheat","steam_id":76561197971158435,"connected_time":665000000000,"state":"active","ping":56},{"user_id":352,"name":"Moshi Man","steam_id":76561198038249762,"connected_time":2331000000000,"state":"active","ping":53},{"user_id":363,"name":"Mug Moment Gaming","steam_id":76561198233098136,"connected_time":1765000000000,"state":"active","ping":53},{"user_id":318,"name":"Voodo133","steam_id":76561198042670351,"connected_time":4592000000000,"state":"active","ping":92},{"user_id":325,"name":"Clean Lines","steam_id":76561197960691518,"connected_time":4151000000000,"state":"active","ping":58}]},{"server_id":106,"name":"Uncletopia | Chicago | 2 | All Maps","name_short":"chi-2","host":"chi-1.us.uncletopia.com","port":27025,"enabled":true,"region":"us-central","cc":"us","latitude":41.881832,"longitude":-87.62318,"reserved":0,"last_update":"0001-01-01T00:00:00Z","name_a2s":"Uncletopia | Chicago | 2 | All Maps","protocol":17,"map":"pl_upward","folder":"tf","game":"Team Fortress","app_id":440,"player_count":24,"max_players":24,"Bots":0,"server_type":"Dedicated","server_os":"Linux","password":true,"vac":true,"version":"7961495","steam_id":85568392924469985,"keywords":["nocrits","nodmgspread","payload","uncletopia"],"game_id":440,"stv_port":27026,"stv_name":"Uncletopia | Chicago | 2 | All Maps | STV","players":[{"user_id":411,"name":"Mister Panic","steam_id":76561198373404338,"connected_time":2287000000000,"state":"active","ping":100},{"user_id":433,"name":"timestew 1","steam_id":76561198367583372,"connected_time":987000000000,"state":"active","ping":80},{"user_id":407,"name":"Mushroom","steam_id":76561198980693043,"connected_time":2425000000000,"state":"active","ping":75},{"user_id":402,"name":"Greg_M74","steam_id":76561198823492311,"connected_time":2554000000000,"state":"active","ping":74},{"user_id":425,"name":"[NAME-REDACTED]","steam_id":76561198035682975,"connected_time":1590000000000,"state":"active","ping":67},{"user_id":403,"name":"Elm","steam_id":76561198127972568,"connected_time":2545000000000,"state":"active","ping":79},{"user_id":362,"name":"cv xfdAS v","steam_id":76561198304661367,"connected_time":6181000000000,"state":"active","ping":71},{"user_id":434,"name":"sartre","steam_id":76561198885376777,"connected_time":985000000000,"state":"active","ping":70},{"user_id":435,"name":"hjönk","steam_id":76561197998953817,"connected_time":974000000000,"state":"active","ping":58},{"user_id":444,"name":"Joe Biden (Me)","steam_id":76561198904087936,"connected_time":139000000000,"state":"active","ping":84},{"user_id":440,"name":"♫ kobold ♫","steam_id":76561198038330881,"connected_time":829000000000,"state":"active","ping":72},{"user_id":393,"name":"og biden pack cart","steam_id":76561198253731826,"connected_time":3653000000000,"state":"active","ping":66},{"user_id":426,"name":"Acatzulia","steam_id":76561198418564403,"connected_time":1572000000000,"state":"active","ping":69},{"user_id":442,"name":"wearing my sunday pants","steam_id":76561198834106533,"connected_time":368000000000,"state":"active","ping":79},{"user_id":443,"name":"Bacon","steam_id":76561198069497716,"connected_time":303000000000,"state":"active","ping":101},{"user_id":439,"name":"Sicko Mode (Chris Pratt Cover)","steam_id":76561198315786174,"connected_time":946000000000,"state":"active","ping":74},{"user_id":384,"name":"Chezaus","steam_id":76561198317397837,"connected_time":4364000000000,"state":"active","ping":68},{"user_id":445,"name":"NoobCesar","steam_id":76561198095250755,"connected_time":53000000000,"state":"active","ping":62},{"user_id":394,"name":"Ballsack Shaver","steam_id":76561199011739378,"connected_time":3647000000000,"state":"active","ping":73},{"user_id":419,"name":"sawrik","steam_id":76561198018808213,"connected_time":2198000000000,"state":"active","ping":69},{"user_id":420,"name":"None of that $9.99 bullshit","steam_id":76561198116169903,"connected_time":2188000000000,"state":"active","ping":47},{"user_id":432,"name":"adult tim","steam_id":76561198075510786,"connected_time":1152000000000,"state":"active","ping":83},{"user_id":428,"name":"JtsRes","steam_id":76561197994809241,"connected_time":1568000000000,"state":"active","ping":64}]},{"server_id":402,"name":"Uncletopia | Chicago | 3 | All Maps","name_short":"chi-3","host":"chi-1.us.uncletopia.com","port":27035,"enabled":true,"region":"us-central","cc":"us","latitude":41.881832,"longitude":-87.62318,"reserved":0,"last_update":"0001-01-01T00:00:00Z","name_a2s":"Uncletopia | Chicago | 3 | All Maps","protocol":17,"map":"pl_upward","folder":"tf","game":"Team Fortress","app_id":440,"player_count":24,"max_players":24,"Bots":0,"server_type":"Dedicated","server_os":"Linux","password":true,"vac":true,"version":"7961495","steam_id":85568392924515191,"keywords":["nocrits","nodmgspread","payload","uncletopia"],"game_id":440,"stv_port":27036,"stv_name":"Uncletopia | Chicago | 3 | All Maps | STV","players":[{"user_id":338,"name":"Nefy","steam_id":76561198030017316,"connected_time":969000000000,"state":"active","ping":87},{"user_id":351,"name":"Lorberry","steam_id":76561198023706058,"connected_time":473000000000,"state":"active","ping":43},{"user_id":339,"name":"gIBBY","steam_id":76561198080099598,"connected_time":967000000000,"state":"active","ping":59},{"user_id":340,"name":"cyclops","steam_id":76561197970370198,"connected_time":967000000000,"state":"active","ping":59},{"user_id":317,"name":"AbbyRoads","steam_id":76561198868564212,"connected_time":2328000000000,"state":"active","ping":86},{"user_id":321,"name":"Meerkat","steam_id":76561199245435539,"connected_time":2143000000000,"state":"active","ping":97},{"user_id":291,"name":"M249 | Spectre","steam_id":76561198118334485,"connected_time":3724000000000,"state":"active","ping":74},{"user_id":347,"name":"Shame","steam_id":76561198100490994,"connected_time":889000000000,"state":"active","ping":75},{"user_id":256,"name":"ameritech","steam_id":76561198064769089,"connected_time":5199000000000,"state":"active","ping":65},{"user_id":322,"name":"jimmyfnaf172198yay","steam_id":76561198311446636,"connected_time":2101000000000,"state":"active","ping":59},{"user_id":336,"name":"Lucide","steam_id":76561197998530400,"connected_time":1258000000000,"state":"active","ping":107},{"user_id":353,"name":"rickyrickyricky","steam_id":76561198041765918,"connected_time":29000000000,"state":"spawning","ping":61},{"user_id":332,"name":"StraySheep","steam_id":76561198256003811,"connected_time":1716000000000,"state":"active","ping":69},{"user_id":345,"name":"Yam Jazzy Jim","steam_id":76561198000788950,"connected_time":956000000000,"state":"active","ping":74},{"user_id":319,"name":"lili winters","steam_id":76561199488457138,"connected_time":2219000000000,"state":"active","ping":109},{"user_id":270,"name":"Dirtbike rider","steam_id":76561198030457066,"connected_time":4329000000000,"state":"active","ping":79},{"user_id":349,"name":"Wolfmeme","steam_id":76561198115713601,"connected_time":714000000000,"state":"active","ping":79},{"user_id":341,"name":"My balls hurt","steam_id":76561198158206236,"connected_time":965000000000,"state":"active","ping":116},{"user_id":337,"name":"Young-OG","steam_id":76561198058800479,"connected_time":1110000000000,"state":"active","ping":75},{"user_id":324,"name":"Nungel","steam_id":76561198272961376,"connected_time":2073000000000,"state":"active","ping":82},{"user_id":344,"name":"Imagine being trash at Medic","steam_id":76561197986530028,"connected_time":959000000000,"state":"active","ping":102},{"user_id":161,"name":"RandomRainbow","steam_id":76561199107573588,"connected_time":13205000000000,"state":"active","ping":50},{"user_id":348,"name":"phantom","steam_id":76561197963860777,"connected_time":815000000000,"state":"active","ping":60},{"user_id":352,"name":"MeatShield 2000","steam_id":76561199375192850,"connected_time":472000000000,"state":"active","ping":87}]},{"server_id":403,"name":"Uncletopia | Chicago | 4 | All Maps","name_short":"chi-4","host":"chi-1.us.uncletopia.com","port":27045,"enabled":true,"region":"us-central","cc":"us","latitude":41.881832,"longitude":-87.62318,"reserved":0,"last_update":"0001-01-01T00:00:00Z","name_a2s":"Uncletopia | Chicago | 4 | All Maps","protocol":17,"map":"cp_dustbowl","folder":"tf","game":"Team Fortress","app_id":440,"player_count":24,"max_players":24,"Bots":0,"server_type":"Dedicated","server_os":"Linux","password":true,"vac":true,"version":"7961495","steam_id":85568392924515193,"keywords":["cp","nocrits","nodmgspread","uncletopia"],"game_id":440,"stv_port":27046,"stv_name":"Uncletopia | Chicago | 4 | All Maps | STV","players":[{"user_id":103,"name":"Elm","steam_id":76561198098589740,"connected_time":719000000000,"state":"active","ping":106},{"user_id":104,"name":"-W3E- grim10465","steam_id":76561198045698581,"connected_time":650000000000,"state":"active","ping":45},{"user_id":65,"name":"Matthew 10:39","steam_id":76561198121933439,"connected_time":2325000000000,"state":"active","ping":97},{"user_id":50,"name":"shitass (Reaping and Sowing)","steam_id":76561198210572481,"connected_time":3683000000000,"state":"active","ping":89},{"user_id":73,"name":"damiel","steam_id":76561198196374619,"connected_time":1867000000000,"state":"active","ping":105},{"user_id":108,"name":"Jack","steam_id":76561198254716942,"connected_time":399000000000,"state":"active","ping":64},{"user_id":94,"name":"guppy","steam_id":76561198041380190,"connected_time":870000000000,"state":"active","ping":96},{"user_id":112,"name":"Transgender Spider Priestess","steam_id":76561198111286397,"connected_time":52000000000,"state":"active","ping":102},{"user_id":54,"name":"Spyincorporated","steam_id":76561198080956951,"connected_time":3518000000000,"state":"active","ping":60},{"user_id":95,"name":"Try Gardening","steam_id":76561198120311340,"connected_time":866000000000,"state":"active","ping":47},{"user_id":66,"name":"Biscipline","steam_id":76561198019206178,"connected_time":2305000000000,"state":"active","ping":76},{"user_id":96,"name":"Crazy Insane Proboscis Monkey","steam_id":76561198061011176,"connected_time":842000000000,"state":"active","ping":89},{"user_id":76,"name":"The Hose on Upward","steam_id":76561197965092192,"connected_time":1701000000000,"state":"active","ping":84},{"user_id":77,"name":"jose.gonzales.2003","steam_id":76561199217620385,"connected_time":1697000000000,"state":"active","ping":68},{"user_id":78,"name":"Bang","steam_id":76561198279426326,"connected_time":1685000000000,"state":"active","ping":83},{"user_id":99,"name":"Balerion the Black Dread","steam_id":76561198003728369,"connected_time":794000000000,"state":"active","ping":57},{"user_id":109,"name":"rock raiders enjoyer","steam_id":76561198139718219,"connected_time":356000000000,"state":"active","ping":86},{"user_id":111,"name":"trilobita","steam_id":76561198428215606,"connected_time":94000000000,"state":"active","ping":58},{"user_id":89,"name":"notuncooldude","steam_id":76561199129819858,"connected_time":1315000000000,"state":"active","ping":112},{"user_id":35,"name":"Mr.ToasterOven","steam_id":76561199120586450,"connected_time":4103000000000,"state":"active","ping":57},{"user_id":106,"name":"cat","steam_id":76561198366828434,"connected_time":642000000000,"state":"active","ping":75},{"user_id":38,"name":"HUESO","steam_id":76561198276383681,"connected_time":3989000000000,"state":"active","ping":93},{"user_id":88,"name":"NeonBean","steam_id":76561198088335827,"connected_time":1382000000000,"state":"active","ping":90},{"user_id":102,"name":"Quark","steam_id":76561198328155605,"connected_time":738000000000,"state":"active","ping":55}]},{"server_id":36,"name":"Uncletopia | Chicago | 5 | All Maps","name_short":"chi-5","host":"chi-2.us.uncletopia.com","port":27015,"enabled":true,"region":"us-central","cc":"us","latitude":41.881832,"longitude":-87.62318,"reserved":0,"last_update":"0001-01-01T00:00:00Z","name_a2s":"Uncletopia | Chicago | 5 | All Maps","protocol":17,"map":"cp_snakewater_final1","folder":"tf","game":"Team Fortress","app_id":440,"player_count":24,"max_players":24,"Bots":0,"server_type":"Dedicated","server_os":"Linux","password":true,"vac":true,"version":"7961495","steam_id":85568392924866362,"keywords":["cp","nocrits","nodmgspread","uncletopia"],"game_id":440,"stv_port":27016,"stv_name":"Uncletopia | Chicago | 5 | All Maps | STV","players":[{"user_id":7,"name":"Tri-Dot","steam_id":76561199075186597,"connected_time":3824000000000,"state":"active","ping":69},{"user_id":73,"name":"Joshy","steam_id":76561198061405421,"connected_time":503000000000,"state":"active","ping":84},{"user_id":48,"name":"for the king","steam_id":76561197973488858,"connected_time":1882000000000,"state":"active","ping":58},{"user_id":67,"name":"Skeleton Hotel","steam_id":76561198041704727,"connected_time":666000000000,"state":"active","ping":58},{"user_id":15,"name":"NotNewbie","steam_id":76561198164645568,"connected_time":3194000000000,"state":"active","ping":64},{"user_id":81,"name":"gaming elliptical","steam_id":76561198013456569,"connected_time":104000000000,"state":"active","ping":51},{"user_id":55,"name":"Idk","steam_id":76561198971629959,"connected_time":1328000000000,"state":"active","ping":138},{"user_id":56,"name":"Captain Chicken","steam_id":76561198207977640,"connected_time":1298000000000,"state":"active","ping":63},{"user_id":70,"name":"scoops_ [OHV]","steam_id":76561198202365194,"connected_time":590000000000,"state":"active","ping":42},{"user_id":69,"name":"Grit","steam_id":76561198142063989,"connected_time":612000000000,"state":"active","ping":65},{"user_id":78,"name":"hboflexin","steam_id":76561198323411839,"connected_time":341000000000,"state":"active","ping":58},{"user_id":82,"name":"Mr. Meow II","steam_id":76561199476440897,"connected_time":13000000000,"state":"spawning","ping":60},{"user_id":38,"name":"songcreator","steam_id":76561198076822464,"connected_time":2789000000000,"state":"active","ping":47},{"user_id":60,"name":"rept","steam_id":76561198022100969,"connected_time":1172000000000,"state":"active","ping":48},{"user_id":72,"name":"the keebler","steam_id":76561199486326945,"connected_time":569000000000,"state":"active","ping":75},{"user_id":52,"name":"Menace to Sobriety","steam_id":76561198245103000,"connected_time":1767000000000,"state":"active","ping":73},{"user_id":54,"name":"johnny nicklenuts","steam_id":76561198361326855,"connected_time":1342000000000,"state":"active","ping":62},{"user_id":75,"name":"Benky","steam_id":76561198062469194,"connected_time":407000000000,"state":"active","ping":65},{"user_id":62,"name":"soldier bot #52","steam_id":76561198799974610,"connected_time":1078000000000,"state":"active","ping":65},{"user_id":34,"name":"Jonah Hill from 21 Jump Street","steam_id":76561198811130843,"connected_time":2814000000000,"state":"active","ping":79},{"user_id":40,"name":"ThatScarfDude #NekoIsLife","steam_id":76561198140963271,"connected_time":2658000000000,"state":"active","ping":81},{"user_id":36,"name":"Rock Kickass","steam_id":76561198450510841,"connected_time":2811000000000,"state":"active","ping":126},{"user_id":65,"name":"KRUSHER","steam_id":76561198072157019,"connected_time":890000000000,"state":"active","ping":81},{"user_id":77,"name":"trobin120","steam_id":76561199122420273,"connected_time":362000000000,"state":"active","ping":67}]},{"server_id":37,"name":"Uncletopia | Chicago | 6 | All Maps","name_short":"chi-6","host":"chi-2.us.uncletopia.com","port":27025,"enabled":true,"region":"us-central","cc":"us","latitude":41.881832,"longitude":-87.62318,"reserved":0,"last_update":"0001-01-01T00:00:00Z","name_a2s":"Uncletopia | Chicago | 6 | All Maps","protocol":17,"map":"pl_frontier_final","folder":"tf","game":"Team Fortress","app_id":440,"player_count":0,"max_players":24,"Bots":0,"server_type":"Dedicated","server_os":"Linux","password":true,"vac":true,"version":"7961495","steam_id":85568392924866363,"keywords":["nocrits","nodmgspread","payload","uncletopia"],"game_id":440,"stv_port":27026,"stv_name":"Uncletopia | Chicago | 6 | All Maps | STV","players":null},{"server_id":38,"name":"Uncletopia | Chicago | 7 | Stopwatch","name_short":"chi-7","host":"chi-2.us.uncletopia.com","port":27035,"enabled":true,"region":"us-central","cc":"us","latitude":41.881832,"longitude":-87.62318,"reserved":0,"last_update":"0001-01-01T00:00:00Z","name_a2s":"Uncletopia | Chicago | 7 | Stopwatch","protocol":17,"map":"koth_highpass","folder":"tf","game":"Team Fortress","app_id":440,"player_count":6,"max_players":24,"Bots":0,"server_type":"Dedicated","server_os":"Linux","password":true,"vac":true,"version":"7961495","steam_id":85568392924866364,"keywords":["cp","nocrits","nodmgspread","uncletopia"],"game_id":440,"stv_port":27036,"stv_name":"Uncletopia | Chicago | 7 | Stopwatch | STV","players":[{"user_id":13,"name":"Scrappy J. Dogwater","steam_id":76561199419345617,"connected_time":1812000000000,"state":"active","ping":52},{"user_id":12,"name":"fodder0069","steam_id":76561198186399727,"connected_time":2254000000000,"state":"active","ping":99},{"user_id":14,"name":"Tornflesh","steam_id":76561198034193476,"connected_time":360000000000,"state":"active","ping":92},{"user_id":15,"name":"kdhbuilder","steam_id":76561199058095193,"connected_time":234000000000,"state":"active","ping":65},{"user_id":16,"name":"The Quickster","steam_id":76561199051906724,"connected_time":74000000000,"state":"active","ping":109},{"user_id":17,"name":"FliturbiousRex","steam_id":76561199217583334,"connected_time":49000000000,"state":"active","ping":57}]},{"server_id":39,"name":"Uncletopia | Chicago | 8 | Community","name_short":"chi-8","host":"chi-2.us.uncletopia.com","port":27045,"enabled":true,"region":"us-central","cc":"us","latitude":41.881832,"longitude":-87.62318,"reserved":0,"last_update":"0001-01-01T00:00:00Z","name_a2s":"Uncletopia | Chicago | 8 | Community","protocol":17,"map":"pl_pier","folder":"tf","game":"Team Fortress","app_id":440,"player_count":0,"max_players":24,"Bots":0,"server_type":"Dedicated","server_os":"Linux","password":true,"vac":true,"version":"7961495","steam_id":85568392924866365,"keywords":["nocrits","nodmgspread","payload","uncletopia"],"game_id":440,"stv_port":27046,"stv_name":"Uncletopia | Chicago | 8 | Community | STV","players":null},{"server_id":8,"name":"Uncletopia | Dallas | 1 | All Maps","name_short":"dal-1","host":"dal-1.us.uncletopia.com","port":27015,"enabled":true,"region":"us-central","cc":"us","latitude":32.779167,"longitude":-96.80889,"reserved":0,"last_update":"0001-01-01T00:00:00Z","name_a2s":"Uncletopia | Dallas | 1 | All Maps","protocol":17,"map":"koth_viaduct","folder":"tf","game":"Team Fortress","app_id":440,"player_count":23,"max_players":24,"Bots":0,"server_type":"Dedicated","server_os":"Linux","password":true,"vac":true,"version":"7961495","steam_id":85568392924469986,"keywords":["cp","nocrits","nodmgspread","uncletopia"],"game_id":440,"stv_port":27016,"stv_name":"Uncletopia | Dallas | 1 | All Maps | STV","players":[{"user_id":484,"name":"jf_Killer","steam_id":76561198002258800,"connected_time":860000000000,"state":"active","ping":116},{"user_id":498,"name":"lobotomized","steam_id":76561198135559825,"connected_time":96000000000,"state":"active","ping":54},{"user_id":432,"name":"Bucket Hat Trick","steam_id":76561198381785132,"connected_time":6969000000000,"state":"active","ping":63},{"user_id":449,"name":"Boingo","steam_id":76561199086931535,"connected_time":5846000000000,"state":"active","ping":57},{"user_id":473,"name":"mechiimi","steam_id":76561198321627268,"connected_time":1739000000000,"state":"active","ping":121},{"user_id":474,"name":"laughs bigman","steam_id":76561198067714032,"connected_time":1719000000000,"state":"active","ping":77},{"user_id":487,"name":"My roast is ruined!","steam_id":76561198085815757,"connected_time":806000000000,"state":"active","ping":92},{"user_id":458,"name":"dobby","steam_id":76561198012274834,"connected_time":5145000000000,"state":"active","ping":63},{"user_id":481,"name":"Sugar Rush","steam_id":76561198094620058,"connected_time":1125000000000,"state":"active","ping":67},{"user_id":488,"name":"freeyja","steam_id":76561198249206656,"connected_time":760000000000,"state":"active","ping":96},{"user_id":489,"name":"Not_Douglas","steam_id":76561199024184136,"connected_time":727000000000,"state":"active","ping":92},{"user_id":466,"name":"Darling","steam_id":76561198127525888,"connected_time":3739000000000,"state":"active","ping":47},{"user_id":464,"name":"Fewny","steam_id":76561198225977000,"connected_time":3981000000000,"state":"active","ping":61},{"user_id":499,"name":"Ko - こ - 코","steam_id":76561198035726982,"connected_time":32000000000,"state":"active","ping":70},{"user_id":492,"name":"TheSecretNewbie","steam_id":76561198194671218,"connected_time":617000000000,"state":"active","ping":52},{"user_id":448,"name":"kermitcreeper(ZAZA)","steam_id":76561199222829972,"connected_time":5996000000000,"state":"active","ping":61},{"user_id":497,"name":"Stillkill","steam_id":76561198065069057,"connected_time":392000000000,"state":"active","ping":41},{"user_id":475,"name":"UNIT 220","steam_id":76561198042243497,"connected_time":1718000000000,"state":"active","ping":91},{"user_id":414,"name":"CeLeb144","steam_id":76561199089907740,"connected_time":7719000000000,"state":"active","ping":75},{"user_id":495,"name":"artichoke","steam_id":76561198980994364,"connected_time":474000000000,"state":"active","ping":110},{"user_id":476,"name":"creeber guy","steam_id":76561198392539722,"connected_time":1712000000000,"state":"active","ping":91},{"user_id":463,"name":"THRONGLER","steam_id":76561198198563466,"connected_time":4002000000000,"state":"active","ping":41},{"user_id":478,"name":"pluto","steam_id":76561198354990729,"connected_time":1430000000000,"state":"active","ping":103}]},{"server_id":108,"name":"Uncletopia | Dallas | 2 | All Maps","name_short":"dal-2","host":"dal-1.us.uncletopia.com","port":27025,"enabled":true,"region":"us-central","cc":"us","latitude":32.779167,"longitude":-96.80889,"reserved":0,"last_update":"0001-01-01T00:00:00Z","name_a2s":"Uncletopia | Dallas | 2 | All Maps","protocol":17,"map":"pl_badwater","folder":"tf","game":"Team Fortress","app_id":440,"player_count":24,"max_players":24,"Bots":0,"server_type":"Dedicated","server_os":"Linux","password":true,"vac":true,"version":"7961495","steam_id":85568392924469988,"keywords":["nocrits","nodmgspread","payload","uncletopia"],"game_id":440,"stv_port":27026,"stv_name":"Uncletopia | Dallas | 2 | All Maps | STV","players":[{"user_id":224,"name":"mn","steam_id":76561198042357436,"connected_time":69000000000,"state":"active","ping":95},{"user_id":222,"name":"Just washed","steam_id":76561199030160932,"connected_time":140000000000,"state":"active","ping":77},{"user_id":201,"name":"MULK","steam_id":76561198207895249,"connected_time":1441000000000,"state":"active","ping":85},{"user_id":192,"name":"sunglasses","steam_id":76561198173747227,"connected_time":1823000000000,"state":"active","ping":77},{"user_id":223,"name":"rayneerussell","steam_id":76561199432233824,"connected_time":133000000000,"state":"active","ping":92},{"user_id":191,"name":"MAN","steam_id":76561199030717991,"connected_time":1869000000000,"state":"active","ping":81},{"user_id":208,"name":"Hernandez$","steam_id":76561198019324588,"connected_time":1168000000000,"state":"active","ping":64},{"user_id":211,"name":"big ol' buford","steam_id":76561198290675957,"connected_time":874000000000,"state":"active","ping":45},{"user_id":220,"name":"Bones0010","steam_id":76561198096186958,"connected_time":174000000000,"state":"active","ping":68},{"user_id":217,"name":"Sir.TopHats","steam_id":76561198267326839,"connected_time":582000000000,"state":"active","ping":70},{"user_id":185,"name":"dog","steam_id":76561198263873491,"connected_time":2072000000000,"state":"active","ping":60},{"user_id":128,"name":"Paradon","steam_id":76561198242214772,"connected_time":7383000000000,"state":"active","ping":76},{"user_id":196,"name":"Epifiny","steam_id":76561198027958086,"connected_time":1647000000000,"state":"active","ping":90},{"user_id":207,"name":"TacoMan","steam_id":76561198049405741,"connected_time":1235000000000,"state":"active","ping":117},{"user_id":197,"name":"Sideways Whoopi Goldberg","steam_id":76561198003736560,"connected_time":1605000000000,"state":"active","ping":41},{"user_id":171,"name":"Sir Arthur Monkeynuts","steam_id":76561198143615215,"connected_time":3814000000000,"state":"active","ping":95},{"user_id":214,"name":"Engineer_Gaming","steam_id":76561199230005387,"connected_time":725000000000,"state":"active","ping":51},{"user_id":221,"name":"Your Dad™","steam_id":76561198254739340,"connected_time":172000000000,"state":"active","ping":92},{"user_id":162,"name":"Dutch","steam_id":76561198040969743,"connected_time":4111000000000,"state":"active","ping":75},{"user_id":188,"name":"Sup m8","steam_id":76561198081659121,"connected_time":1972000000000,"state":"active","ping":46},{"user_id":209,"name":"Prime","steam_id":76561198219613253,"connected_time":902000000000,"state":"active","ping":94},{"user_id":215,"name":"why?","steam_id":76561198170390298,"connected_time":723000000000,"state":"active","ping":55},{"user_id":204,"name":"Platinum","steam_id":76561198348354629,"connected_time":1409000000000,"state":"active","ping":81},{"user_id":193,"name":"ADRIEN BRODY","steam_id":76561198009299473,"connected_time":1791000000000,"state":"active","ping":94}]},{"server_id":404,"name":"Uncletopia | Dallas | 3 | All Maps","name_short":"dal-3","host":"dal-1.us.uncletopia.com","port":27035,"enabled":true,"region":"us-central","cc":"us","latitude":32.779167,"longitude":-96.80889,"reserved":0,"last_update":"0001-01-01T00:00:00Z","name_a2s":"Uncletopia | Dallas | 3 | All Maps","protocol":17,"map":"koth_viaduct","folder":"tf","game":"Team Fortress","app_id":440,"player_count":0,"max_players":24,"Bots":0,"server_type":"Dedicated","server_os":"Linux","password":true,"vac":true,"version":"7961495","steam_id":85568392924515219,"keywords":["cp","nocrits","nodmgspread","uncletopia"],"game_id":440,"stv_port":27036,"stv_name":"Uncletopia | Dallas | 3 | All Maps | STV","players":null},{"server_id":405,"name":"Uncletopia | Dallas | 4 | Community","name_short":"dal-4","host":"dal-1.us.uncletopia.com","port":27045,"enabled":true,"region":"us-central","cc":"us","latitude":32.779167,"longitude":-96.80889,"reserved":0,"last_update":"0001-01-01T00:00:00Z","name_a2s":"Uncletopia | Dallas | 4 | Community","protocol":17,"map":"workshop/cp_overgrown_rc8.ugc503939302","folder":"tf","game":"Team Fortress","app_id":440,"player_count":0,"max_players":24,"Bots":0,"server_type":"Dedicated","server_os":"Linux","password":true,"vac":true,"version":"7961495","steam_id":85568392924515220,"keywords":["cp","nocrits","nodmgspread","uncletopia"],"game_id":440,"stv_port":27046,"stv_name":"Uncletopia | Dallas | 4 | Community | STV","players":null},{"server_id":5,"name":"Uncletopia | Frankfurt | 1 | All Maps","name_short":"frk-1","host":"frk-1.de.uncletopia.com","port":27015,"enabled":true,"region":"eu","cc":"de","latitude":50.110924,"longitude":8.682127,"reserved":0,"last_update":"0001-01-01T00:00:00Z","name_a2s":"Uncletopia | Frankfurt | 1 | All Maps","protocol":17,"map":"cp_gullywash_final1","folder":"tf","game":"Team Fortress","app_id":440,"player_count":20,"max_players":24,"Bots":0,"server_type":"Dedicated","server_os":"Linux","password":true,"vac":true,"version":"7961495","steam_id":85568392924469989,"keywords":["cp","nocrits","nodmgspread","uncletopia"],"game_id":440,"stv_port":27016,"stv_name":"Uncletopia | Frankfurt | 1 | All Maps | STV","players":[{"user_id":557,"name":"Danio211","steam_id":76561199228698878,"connected_time":169000000000,"state":"active","ping":61},{"user_id":487,"name":"Borat","steam_id":76561198122226417,"connected_time":5482000000000,"state":"active","ping":56},{"user_id":545,"name":"COCKTOWER","steam_id":76561197995723404,"connected_time":967000000000,"state":"active","ping":64},{"user_id":537,"name":"Ceasar","steam_id":76561198056590853,"connected_time":1598000000000,"state":"active","ping":57},{"user_id":539,"name":"PEPSIDRINKER alice","steam_id":76561198180361759,"connected_time":1547000000000,"state":"active","ping":50},{"user_id":529,"name":"Endi","steam_id":76561198914938199,"connected_time":2053000000000,"state":"active","ping":87},{"user_id":550,"name":"booba","steam_id":76561198158018284,"connected_time":452000000000,"state":"active","ping":55},{"user_id":530,"name":"P3rsErkki","steam_id":76561198063093495,"connected_time":2031000000000,"state":"active","ping":60},{"user_id":541,"name":"Pinkchup","steam_id":76561198106802803,"connected_time":1481000000000,"state":"active","ping":76},{"user_id":555,"name":"Karahieb","steam_id":76561197972670214,"connected_time":190000000000,"state":"active","ping":54},{"user_id":543,"name":"ZePequenio","steam_id":76561197968506094,"connected_time":1125000000000,"state":"active","ping":67},{"user_id":538,"name":"KLAMA  ❤","steam_id":76561198351549661,"connected_time":1590000000000,"state":"active","ping":60},{"user_id":551,"name":"say gex","steam_id":76561198265479349,"connected_time":406000000000,"state":"active","ping":59},{"user_id":556,"name":"Egor Pomidor","steam_id":76561199175688390,"connected_time":188000000000,"state":"active","ping":74},{"user_id":544,"name":"level 2 slime","steam_id":76561198060270322,"connected_time":1045000000000,"state":"active","ping":75},{"user_id":549,"name":"Scipionemiliano","steam_id":76561198027646559,"connected_time":561000000000,"state":"active","ping":142},{"user_id":527,"name":"SPONGE","steam_id":76561198040933472,"connected_time":2148000000000,"state":"active","ping":58},{"user_id":445,"name":"MR BUBBLES","steam_id":76561198019005259,"connected_time":7646000000000,"state":"active","ping":95},{"user_id":496,"name":"obi","steam_id":76561198040154461,"connected_time":4982000000000,"state":"active","ping":55},{"user_id":484,"name":"minn","steam_id":76561198099101232,"connected_time":5735000000000,"state":"active","ping":69}]},{"server_id":110,"name":"Uncletopia | Frankfurt | 2 | All Maps","name_short":"frk-2","host":"frk-1.de.uncletopia.com","port":27025,"enabled":true,"region":"eu","cc":"de","latitude":50.110924,"longitude":8.682127,"reserved":0,"last_update":"0001-01-01T00:00:00Z","name_a2s":"Uncletopia | Frankfurt | 2 | All Maps","protocol":17,"map":"pl_upward","folder":"tf","game":"Team Fortress","app_id":440,"player_count":24,"max_players":24,"Bots":0,"server_type":"Dedicated","server_os":"Linux","password":true,"vac":true,"version":"7961495","steam_id":85568392924469990,"keywords":["nocrits","nodmgspread","payload","uncletopia"],"game_id":440,"stv_port":27026,"stv_name":"Uncletopia | Frankfurt | 2 | All Maps | STV","players":[{"user_id":483,"name":"Wyvern786","steam_id":76561199137770636,"connected_time":1042000000000,"state":"active","ping":65},{"user_id":388,"name":"XPullaHiiri","steam_id":76561198031652375,"connected_time":9982000000000,"state":"active","ping":93},{"user_id":348,"name":"Mister","steam_id":76561199049647854,"connected_time":12586000000000,"state":"active","ping":44},{"user_id":473,"name":"Bepperman","steam_id":76561198397517828,"connected_time":2414000000000,"state":"active","ping":82},{"user_id":435,"name":"Grim the lemon","steam_id":76561199083433988,"connected_time":4074000000000,"state":"active","ping":61},{"user_id":470,"name":"hananamanna","steam_id":76561198006570285,"connected_time":2996000000000,"state":"active","ping":111},{"user_id":495,"name":"Rolloden","steam_id":76561198069414404,"connected_time":578000000000,"state":"active","ping":62},{"user_id":406,"name":"I AM SUMMER SLAYCATION","steam_id":76561198179339326,"connected_time":7883000000000,"state":"active","ping":82},{"user_id":488,"name":"HelwiiHill","steam_id":76561198066730552,"connected_time":700000000000,"state":"active","ping":78},{"user_id":339,"name":"Alice (on the scoreboard)","steam_id":76561198052410860,"connected_time":12950000000000,"state":"active","ping":155},{"user_id":498,"name":"Uncle Moomin","steam_id":76561198011628656,"connected_time":18000000000,"state":"active","ping":77},{"user_id":429,"name":"agent youppii","steam_id":76561198055264447,"connected_time":4668000000000,"state":"active","ping":65},{"user_id":438,"name":"Jams","steam_id":76561198118316970,"connected_time":4030000000000,"state":"active","ping":85},{"user_id":492,"name":"Karaca","steam_id":76561198328551814,"connected_time":647000000000,"state":"active","ping":100},{"user_id":487,"name":"Mati [EST]","steam_id":76561197994743813,"connected_time":775000000000,"state":"active","ping":96},{"user_id":489,"name":"yuck","steam_id":76561197987249568,"connected_time":673000000000,"state":"active","ping":91},{"user_id":481,"name":"w+m1","steam_id":76561198010428082,"connected_time":1352000000000,"state":"active","ping":65},{"user_id":497,"name":"xavier","steam_id":76561198076494034,"connected_time":125000000000,"state":"active","ping":56},{"user_id":476,"name":"Fat Pigeon","steam_id":76561198817940142,"connected_time":2094000000000,"state":"active","ping":59},{"user_id":415,"name":"Just Navlis (on the scoreboard)","steam_id":76561198090479609,"connected_time":6703000000000,"state":"active","ping":45},{"user_id":494,"name":"epic gamer moment","steam_id":76561198299515070,"connected_time":616000000000,"state":"active","ping":90},{"user_id":493,"name":"Vismund33 ヴィスムンド33","steam_id":76561198143773948,"connected_time":638000000000,"state":"active","ping":57},{"user_id":384,"name":"Vershal Smershal","steam_id":76561198116223995,"connected_time":10414000000000,"state":"active","ping":60},{"user_id":486,"name":"ПЕПЕ","steam_id":76561198133085347,"connected_time":806000000000,"state":"active","ping":60}]},{"server_id":308,"name":"Uncletopia | Frankfurt | 3 | All Maps","name_short":"frk-3","host":"frk-1.de.uncletopia.com","port":27035,"enabled":true,"region":"eu","cc":"de","latitude":50.110924,"longitude":8.682127,"reserved":0,"last_update":"0001-01-01T00:00:00Z","name_a2s":"Uncletopia | Frankfurt | 3 | All Maps","protocol":17,"map":"pl_frontier_final","folder":"tf","game":"Team Fortress","app_id":440,"player_count":24,"max_players":24,"Bots":0,"server_type":"Dedicated","server_os":"Linux","password":true,"vac":true,"version":"7961495","steam_id":85568392924504274,"keywords":["nocrits","nodmgspread","payload","uncletopia"],"game_id":440,"stv_port":27036,"stv_name":"Uncletopia | Frankfurt | 3 | All Maps | STV","players":[{"user_id":480,"name":"steel","steam_id":76561198007673499,"connected_time":681000000000,"state":"active","ping":90},{"user_id":393,"name":"Mr.O","steam_id":76561198039567498,"connected_time":4903000000000,"state":"active","ping":61},{"user_id":469,"name":"else1","steam_id":76561197996558319,"connected_time":1325000000000,"state":"active","ping":77},{"user_id":399,"name":"Sultan Mohammad Süleyman II.","steam_id":76561198124568025,"connected_time":4759000000000,"state":"active","ping":50},{"user_id":482,"name":"Asmodeus","steam_id":76561198283156425,"connected_time":545000000000,"state":"active","ping":87},{"user_id":474,"name":"Traylie","steam_id":76561198050797796,"connected_time":1119000000000,"state":"active","ping":74},{"user_id":465,"name":"calum92","steam_id":76561197992188760,"connected_time":1473000000000,"state":"active","ping":81},{"user_id":470,"name":"MrClyde","steam_id":76561198132627420,"connected_time":1235000000000,"state":"active","ping":60},{"user_id":484,"name":"TheSausageSwiper","steam_id":76561198972869845,"connected_time":203000000000,"state":"active","ping":197},{"user_id":471,"name":"Smucky","steam_id":76561198119487465,"connected_time":1233000000000,"state":"active","ping":59},{"user_id":447,"name":"Predrag218","steam_id":76561199242439630,"connected_time":2332000000000,"state":"active","ping":121},{"user_id":475,"name":"Sgreff","steam_id":76561198036304365,"connected_time":1068000000000,"state":"active","ping":60},{"user_id":448,"name":"Mza28","steam_id":76561198873993324,"connected_time":2282000000000,"state":"active","ping":72},{"user_id":449,"name":"Cheese","steam_id":76561198146419076,"connected_time":2277000000000,"state":"active","ping":67},{"user_id":485,"name":"omony","steam_id":76561197983750025,"connected_time":191000000000,"state":"active","ping":91},{"user_id":483,"name":"MUWEQ","steam_id":76561198107615727,"connected_time":438000000000,"state":"active","ping":75},{"user_id":478,"name":"El Wiwi","steam_id":76561198134378108,"connected_time":772000000000,"state":"active","ping":84},{"user_id":486,"name":"Tri-","steam_id":76561198133524794,"connected_time":46000000000,"state":"active","ping":54},{"user_id":481,"name":"meow","steam_id":76561198087215038,"connected_time":566000000000,"state":"active","ping":87},{"user_id":458,"name":"Mischail","steam_id":76561198016127010,"connected_time":1819000000000,"state":"active","ping":67},{"user_id":441,"name":"finjar","steam_id":76561198350473059,"connected_time":2832000000000,"state":"active","ping":75},{"user_id":464,"name":"LivEssense","steam_id":76561198052476979,"connected_time":1557000000000,"state":"active","ping":105},{"user_id":419,"name":"MK-Ultra Violence","steam_id":76561198081328238,"connected_time":4250000000000,"state":"active","ping":75},{"user_id":479,"name":"Pvt. Prinny","steam_id":76561198030278562,"connected_time":771000000000,"state":"active","ping":59}]},{"server_id":309,"name":"Uncletopia | Frankfurt | 4 | All Maps","name_short":"frk-4","host":"frk-1.de.uncletopia.com","port":27045,"enabled":true,"region":"eu","cc":"de","latitude":50.110924,"longitude":8.682127,"reserved":0,"last_update":"0001-01-01T00:00:00Z","name_a2s":"Uncletopia | Frankfurt | 4 | All Maps","protocol":17,"map":"cp_dustbowl","folder":"tf","game":"Team Fortress","app_id":440,"player_count":23,"max_players":24,"Bots":0,"server_type":"Dedicated","server_os":"Linux","password":true,"vac":true,"version":"7961495","steam_id":85568392924504275,"keywords":["cp","nocrits","nodmgspread","uncletopia"],"game_id":440,"stv_port":27046,"stv_name":"Uncletopia | Frankfurt | 4 | All Maps | STV","players":[{"user_id":196,"name":"Luppi van Puppi","steam_id":76561198055986745,"connected_time":475000000000,"state":"active","ping":57},{"user_id":192,"name":"paguro","steam_id":76561198119560871,"connected_time":602000000000,"state":"active","ping":70},{"user_id":194,"name":"golfmastr","steam_id":76561198993144124,"connected_time":570000000000,"state":"active","ping":68},{"user_id":185,"name":"basedgod","steam_id":76561198313835012,"connected_time":1671000000000,"state":"active","ping":60},{"user_id":188,"name":"Overlord Malarkey","steam_id":76561198098267117,"connected_time":1566000000000,"state":"active","ping":75},{"user_id":256,"name":"meow (they/them)","steam_id":76561198416657815,"connected_time":125000000000,"state":"active","ping":119},{"user_id":197,"name":"Ječmen","steam_id":76561198051617968,"connected_time":468000000000,"state":"active","ping":67},{"user_id":177,"name":"TheDeath","steam_id":76561198265038954,"connected_time":2584000000000,"state":"active","ping":71},{"user_id":258,"name":"KENZO","steam_id":76561197993520279,"connected_time":38000000000,"state":"active","ping":59},{"user_id":167,"name":"s a i","steam_id":76561197970379754,"connected_time":3284000000000,"state":"active","ping":54},{"user_id":203,"name":"Atlas","steam_id":76561197991491283,"connected_time":458000000000,"state":"active","ping":74},{"user_id":257,"name":"Eidolon","steam_id":76561198043919565,"connected_time":67000000000,"state":"active","ping":73},{"user_id":190,"name":"BabyYodaIsMySoda","steam_id":76561198321846861,"connected_time":1017000000000,"state":"active","ping":77},{"user_id":205,"name":"Officer Sandwich","steam_id":76561198306743311,"connected_time":435000000000,"state":"active","ping":68},{"user_id":206,"name":"veto vuyisio","steam_id":76561199101145470,"connected_time":414000000000,"state":"active","ping":80},{"user_id":183,"name":"Doctor Livesey","steam_id":76561198828037534,"connected_time":1760000000000,"state":"active","ping":68},{"user_id":156,"name":"corralled","steam_id":76561198028648627,"connected_time":4049000000000,"state":"active","ping":73},{"user_id":121,"name":"Vee","steam_id":76561198173065294,"connected_time":6207000000000,"state":"active","ping":60},{"user_id":259,"name":"Przemomalin","steam_id":76561197987528170,"connected_time":33000000000,"state":"active","ping":68},{"user_id":260,"name":"Fifibat","steam_id":76561198132981027,"connected_time":22000000000,"state":"active","ping":101},{"user_id":261,"name":"The 80s","steam_id":76561198997807831,"connected_time":2000000000,"state":"spawning","ping":186},{"user_id":184,"name":"Hansen","steam_id":76561198190566011,"connected_time":1757000000000,"state":"active","ping":59},{"user_id":179,"name":"Sato","steam_id":76561199042847761,"connected_time":2426000000000,"state":"active","ping":124}]},{"server_id":310,"name":"Uncletopia | Frankfurt | 5 | All Maps","name_short":"frk-5","host":"frk-1.de.uncletopia.com","port":27055,"enabled":true,"region":"eu","cc":"de","latitude":50.110924,"longitude":8.682127,"reserved":0,"last_update":"0001-01-01T00:00:00Z","name_a2s":"Uncletopia | Frankfurt | 5 | All Maps","protocol":17,"map":"cp_steel","folder":"tf","game":"Team Fortress","app_id":440,"player_count":24,"max_players":24,"Bots":0,"server_type":"Dedicated","server_os":"Linux","password":true,"vac":true,"version":"7961495","steam_id":85568392924504277,"keywords":["cp","nocrits","nodmgspread","uncletopia"],"game_id":440,"stv_port":27056,"stv_name":"Uncletopia | Frankfurt | 5 | All Maps | STV","players":[{"user_id":548,"name":"Nor1h_l1zard","steam_id":76561198250011918,"connected_time":462000000000,"state":"active","ping":75},{"user_id":537,"name":"Qwerty","steam_id":76561198023525894,"connected_time":1753000000000,"state":"active","ping":81},{"user_id":543,"name":"Kaziocalvice","steam_id":76561198146425583,"connected_time":780000000000,"state":"active","ping":70},{"user_id":542,"name":"leminsc8","steam_id":76561198825084995,"connected_time":857000000000,"state":"active","ping":31},{"user_id":534,"name":"baver","steam_id":76561198135293142,"connected_time":1926000000000,"state":"active","ping":69},{"user_id":508,"name":"tuna","steam_id":76561198086630630,"connected_time":5067000000000,"state":"active","ping":54},{"user_id":512,"name":"Pico","steam_id":76561198063552545,"connected_time":4617000000000,"state":"active","ping":93},{"user_id":544,"name":"._.","steam_id":76561198098261943,"connected_time":755000000000,"state":"active","ping":72},{"user_id":533,"name":"Sand","steam_id":76561198103761268,"connected_time":2351000000000,"state":"active","ping":55},{"user_id":538,"name":"DeCypher \u003c3","steam_id":76561198171992619,"connected_time":1578000000000,"state":"active","ping":70},{"user_id":545,"name":"Daxie626","steam_id":76561198394588278,"connected_time":723000000000,"state":"active","ping":158},{"user_id":500,"name":"Kepucz","steam_id":76561197977634244,"connected_time":5490000000000,"state":"active","ping":56},{"user_id":514,"name":"NotAmazed","steam_id":76561199125729567,"connected_time":4519000000000,"state":"active","ping":63},{"user_id":470,"name":"Dizzy","steam_id":76561198010192462,"connected_time":8420000000000,"state":"active","ping":50},{"user_id":466,"name":"LionKing","steam_id":76561198023399545,"connected_time":8722000000000,"state":"active","ping":53},{"user_id":541,"name":"knees","steam_id":76561198005924647,"connected_time":1025000000000,"state":"active","ping":73},{"user_id":473,"name":"PROFILE NAME","steam_id":76561198180056982,"connected_time":8327000000000,"state":"active","ping":72},{"user_id":549,"name":"Urfangonultasadana","steam_id":76561199389286151,"connected_time":460000000000,"state":"active","ping":96},{"user_id":513,"name":"_420_StopItDudeCmon","steam_id":76561197997146481,"connected_time":4607000000000,"state":"active","ping":56},{"user_id":552,"name":"dinorno","steam_id":76561198146276830,"connected_time":60000000000,"state":"active","ping":70},{"user_id":469,"name":".tv/red_naxela","steam_id":76561197998803950,"connected_time":8509000000000,"state":"active","ping":54},{"user_id":518,"name":"Archive","steam_id":76561198071255385,"connected_time":3912000000000,"state":"active","ping":88},{"user_id":547,"name":"Lorenzo Lovers","steam_id":76561198073973581,"connected_time":647000000000,"state":"active","ping":81},{"user_id":540,"name":"Chicken pot pie","steam_id":76561198084997090,"connected_time":1101000000000,"state":"active","ping":54}]},{"server_id":311,"name":"Uncletopia | Frankfurt | 6 | All Maps","name_short":"frk-6","host":"frk-1.de.uncletopia.com","port":27065,"enabled":true,"region":"eu","cc":"de","latitude":50.110924,"longitude":8.682127,"reserved":0,"last_update":"0001-01-01T00:00:00Z","name_a2s":"Uncletopia | Frankfurt | 6 | All Maps","protocol":17,"map":"pl_badwater","folder":"tf","game":"Team Fortress","app_id":440,"player_count":16,"max_players":24,"Bots":0,"server_type":"Dedicated","server_os":"Linux","password":true,"vac":true,"version":"7961495","steam_id":85568392924504278,"keywords":["nocrits","nodmgspread","payload","uncletopia"],"game_id":440,"stv_port":27066,"stv_name":"Uncletopia | Frankfurt | 6 | All Maps | STV","players":[{"user_id":411,"name":"Fupipup","steam_id":76561198165974480,"connected_time":302000000000,"state":"active","ping":50},{"user_id":402,"name":"avanaR","steam_id":76561198132062124,"connected_time":1180000000000,"state":"active","ping":60},{"user_id":393,"name":"Kerry","steam_id":76561198453315433,"connected_time":2080000000000,"state":"active","ping":63},{"user_id":409,"name":"salatkas","steam_id":76561198033237090,"connected_time":530000000000,"state":"active","ping":36},{"user_id":385,"name":"ConnorMLX","steam_id":76561198009406877,"connected_time":3742000000000,"state":"active","ping":58},{"user_id":413,"name":"Baba Sraka","steam_id":76561198128292318,"connected_time":199000000000,"state":"active","ping":116},{"user_id":394,"name":"Ozzie","steam_id":76561197992915315,"connected_time":2012000000000,"state":"active","ping":75},{"user_id":345,"name":"Klown Beatbox","steam_id":76561198131125058,"connected_time":5853000000000,"state":"active","ping":49},{"user_id":414,"name":"Mat-Shades","steam_id":76561198013998031,"connected_time":127000000000,"state":"active","ping":175},{"user_id":408,"name":"I sell exotic parrots","steam_id":76561199192434258,"connected_time":652000000000,"state":"active","ping":80},{"user_id":378,"name":"i hack smart refrigerators","steam_id":76561199265289808,"connected_time":3883000000000,"state":"active","ping":113},{"user_id":367,"name":"Santa (real)","steam_id":76561198218771440,"connected_time":4272000000000,"state":"active","ping":173},{"user_id":400,"name":"Coincé entre deux nichons","steam_id":76561198000866783,"connected_time":1434000000000,"state":"active","ping":59},{"user_id":405,"name":"pyromaniac","steam_id":76561198292781255,"connected_time":845000000000,"state":"active","ping":71},{"user_id":406,"name":"Gugu gaga","steam_id":76561198161822358,"connected_time":829000000000,"state":"active","ping":56},{"user_id":289,"name":"spy in the base","steam_id":76561198284570752,"connected_time":9584000000000,"state":"active","ping":60}]},{"server_id":23,"name":"Uncletopia | Frankfurt | 7 | Stopwatch","name_short":"frk-7","host":"frk-1.de.uncletopia.com","port":27075,"enabled":true,"region":"eu","cc":"de","latitude":50.110924,"longitude":8.682127,"reserved":0,"last_update":"0001-01-01T00:00:00Z","name_a2s":"Uncletopia | Frankfurt | 7 | Stopwatch","protocol":17,"map":"cp_granary","folder":"tf","game":"Team Fortress","app_id":440,"player_count":0,"max_players":24,"Bots":0,"server_type":"Dedicated","server_os":"Linux","password":true,"vac":true,"version":"7961495","steam_id":85568392924742827,"keywords":["cp","nocrits","nodmgspread","uncletopia"],"game_id":440,"stv_port":27076,"stv_name":"Uncletopia | Frankfurt | 7 | Stopwatch | STV","players":null},{"server_id":24,"name":"Uncletopia | Frankfurt | 8 | Community","name_short":"frk-8","host":"frk-1.de.uncletopia.com","port":27085,"enabled":true,"region":"eu","cc":"de","latitude":50.110924,"longitude":8.682127,"reserved":0,"last_update":"0001-01-01T00:00:00Z","name_a2s":"Uncletopia | Frankfurt | 8 | Community","protocol":17,"map":"workshop/rd_asteroid_redux_b1.ugc2154902912","folder":"tf","game":"Team Fortress","app_id":440,"player_count":0,"max_players":24,"Bots":0,"server_type":"Dedicated","server_os":"Linux","password":true,"vac":true,"version":"7961495","steam_id":85568392924742828,"keywords":["beta","nocrits","nodmgspread","rd","uncletopia"],"game_id":440,"stv_port":27086,"stv_name":"Uncletopia | Frankfurt | 8 | Community | STV","players":null},{"server_id":202,"name":"Uncletopia | Hong Kong | 1 | All Maps","name_short":"hgk-1","host":"hgk-1.hk.uncletopia.com","port":27015,"enabled":true,"region":"asia","cc":"hk","latitude":22.302711,"longitude":114.177216,"reserved":0,"last_update":"0001-01-01T00:00:00Z","name_a2s":"Uncletopia | Hong Kong | 1 | All Maps","protocol":17,"map":"koth_highpass","folder":"tf","game":"Team Fortress","app_id":440,"player_count":0,"max_players":24,"Bots":0,"server_type":"Dedicated","server_os":"Linux","password":true,"vac":true,"version":"7961495","steam_id":85568392924494504,"keywords":["cp","nocrits","nodmgspread","uncletopia"],"game_id":440,"stv_port":27016,"stv_name":"Uncletopia | Hong Kong | 1 | All Maps | STV","players":null},{"server_id":1,"name":"Uncletopia | Los Angeles | 1 | All Maps","name_short":"lax-1","host":"lax-1.us.uncletopia.com","port":27015,"enabled":true,"region":"us-west","cc":"us","latitude":33.94279,"longitude":-118.41004,"reserved":0,"last_update":"0001-01-01T00:00:00Z","name_a2s":"Uncletopia | Los Angeles | 1 | All Maps","protocol":17,"map":"pl_snowycoast","folder":"tf","game":"Team Fortress","app_id":440,"player_count":24,"max_players":24,"Bots":0,"server_type":"Dedicated","server_os":"Linux","password":true,"vac":true,"version":"7961495","steam_id":85568392924469991,"keywords":["nocrits","nodmgspread","payload","uncletopia"],"game_id":440,"stv_port":27016,"stv_name":"Uncletopia | Los Angeles | 1 | All Maps | STV","players":[{"user_id":212,"name":"CheeseCake488","steam_id":76561199407617942,"connected_time":3949000000000,"state":"active","ping":82},{"user_id":243,"name":"Frank Horrigan","steam_id":76561198066504831,"connected_time":2007000000000,"state":"active","ping":57},{"user_id":245,"name":"Pyrotek⁴","steam_id":76561198072747672,"connected_time":1981000000000,"state":"active","ping":41},{"user_id":249,"name":"Curse of the Blackened Eye","steam_id":76561198097175164,"connected_time":1931000000000,"state":"active","ping":132},{"user_id":240,"name":"usedhalfcart","steam_id":76561198072621852,"connected_time":2030000000000,"state":"active","ping":87},{"user_id":258,"name":"Jill","steam_id":76561198097398193,"connected_time":1092000000000,"state":"active","ping":47},{"user_id":261,"name":"cran","steam_id":76561198178840075,"connected_time":197000000000,"state":"active","ping":83},{"user_id":252,"name":"Booolty","steam_id":76561199153082207,"connected_time":1738000000000,"state":"active","ping":48},{"user_id":233,"name":"I am the pinnacle of funny","steam_id":76561198306393090,"connected_time":3051000000000,"state":"active","ping":91},{"user_id":262,"name":"Bocchi the Rock Johnson","steam_id":76561198216017952,"connected_time":183000000000,"state":"active","ping":99},{"user_id":260,"name":"flo rida","steam_id":76561198226169704,"connected_time":300000000000,"state":"active","ping":56},{"user_id":247,"name":"Battle Bug","steam_id":76561198005793034,"connected_time":1949000000000,"state":"active","ping":82},{"user_id":254,"name":"Platinum","steam_id":76561198052463484,"connected_time":1560000000000,"state":"active","ping":71},{"user_id":263,"name":"Shalom","steam_id":76561198410005222,"connected_time":132000000000,"state":"active","ping":79},{"user_id":213,"name":"Bitmap","steam_id":76561198285964424,"connected_time":3931000000000,"state":"active","ping":48},{"user_id":253,"name":"benjamin silverman","steam_id":76561198070380404,"connected_time":1652000000000,"state":"active","ping":104},{"user_id":264,"name":"Petrivus","steam_id":76561198202152453,"connected_time":132000000000,"state":"active","ping":73},{"user_id":265,"name":"kitaro","steam_id":76561198304476009,"connected_time":128000000000,"state":"active","ping":188},{"user_id":266,"name":"The Cactuar |Ham Mafia|","steam_id":76561198836527351,"connected_time":113000000000,"state":"active","ping":96},{"user_id":248,"name":"tobrehto","steam_id":76561198097544038,"connected_time":1948000000000,"state":"active","ping":52},{"user_id":259,"name":"adapt","steam_id":76561198156181017,"connected_time":734000000000,"state":"active","ping":58},{"user_id":255,"name":"NFL.com","steam_id":76561198113405376,"connected_time":1507000000000,"state":"active","ping":49},{"user_id":267,"name":"Space360","steam_id":76561198106743284,"connected_time":91000000000,"state":"active","ping":81},{"user_id":208,"name":"rollypollyolie","steam_id":76561198039539380,"connected_time":4312000000000,"state":"active","ping":96}]},{"server_id":112,"name":"Uncletopia | Los Angeles | 2 | All Maps","name_short":"lax-2","host":"lax-1.us.uncletopia.com","port":27025,"enabled":true,"region":"us-west","cc":"us","latitude":33.94279,"longitude":-118.41004,"reserved":0,"last_update":"0001-01-01T00:00:00Z","name_a2s":"Uncletopia | Los Angeles | 2 | All Maps","protocol":17,"map":"koth_lakeside_final","folder":"tf","game":"Team Fortress","app_id":440,"player_count":0,"max_players":24,"Bots":0,"server_type":"Dedicated","server_os":"Linux","password":true,"vac":true,"version":"7961495","steam_id":85568392924469992,"keywords":["cp","nocrits","nodmgspread","uncletopia"],"game_id":440,"stv_port":27026,"stv_name":"Uncletopia | Los Angeles | 2 | All Maps | STV","players":null},{"server_id":324,"name":"Uncletopia | Los Angeles | 3 | All Maps","name_short":"lax-3","host":"lax-1.us.uncletopia.com","port":27035,"enabled":true,"region":"us-west","cc":"us","latitude":33.94279,"longitude":-118.41004,"reserved":0,"last_update":"0001-01-01T00:00:00Z","name_a2s":"Uncletopia | Los Angeles | 3 | All Maps","protocol":17,"map":"pl_frontier_final","folder":"tf","game":"Team Fortress","app_id":440,"player_count":0,"max_players":24,"Bots":0,"server_type":"Dedicated","server_os":"Linux","password":true,"vac":true,"version":"7961495","steam_id":85568392924510198,"keywords":["nocrits","nodmgspread","payload","uncletopia"],"game_id":440,"stv_port":27036,"stv_name":"Uncletopia | Los Angeles | 3 | All Maps | STV","players":null},{"server_id":25,"name":"Uncletopia | Los Angeles | 4 | Stopwatch","name_short":"lax-4","host":"lax-1.us.uncletopia.com","port":27045,"enabled":true,"region":"us-west","cc":"us","latitude":33.94279,"longitude":-118.41004,"reserved":0,"last_update":"0001-01-01T00:00:00Z","name_a2s":"Uncletopia | Los Angeles | 4 | Stopwatch","protocol":17,"map":"workshop/pl_summercoast_rc8e.ugc1761528829","folder":"tf","game":"Team Fortress","app_id":440,"player_count":0,"max_players":24,"Bots":0,"server_type":"Dedicated","server_os":"Linux","password":true,"vac":true,"version":"7961495","steam_id":85568392924510199,"keywords":["nocrits","nodmgspread","payload","uncletopia"],"game_id":440,"stv_port":27046,"stv_name":"Uncletopia | Los Angeles | 4 | Stopwatch | STV","players":null},{"server_id":11,"name":"Uncletopia | London | 1 | All Maps","name_short":"lon-1","host":"lon-1.uk.uncletopia.com","port":27015,"enabled":true,"region":"eu","cc":"gb","latitude":51.509865,"longitude":-0.118092,"reserved":0,"last_update":"0001-01-01T00:00:00Z","name_a2s":"Uncletopia | London | 1 | All Maps","protocol":17,"map":"pl_snowycoast","folder":"tf","game":"Team Fortress","app_id":440,"player_count":24,"max_players":24,"Bots":0,"server_type":"Dedicated","server_os":"Linux","password":true,"vac":true,"version":"7961495","steam_id":85568392924367362,"keywords":["nocrits","nodmgspread","payload","uncletopia"],"game_id":440,"stv_port":27016,"stv_name":"Uncletopia | London | 1 | All Maps | STV","players":[{"user_id":625,"name":"Aku+","steam_id":76561198813782795,"connected_time":852000000000,"state":"active","ping":67},{"user_id":434,"name":"Waffle","steam_id":76561198397024973,"connected_time":8351000000000,"state":"active","ping":44},{"user_id":480,"name":"Kahvi","steam_id":76561198723244199,"connected_time":3530000000000,"state":"active","ping":76},{"user_id":628,"name":"ough","steam_id":76561198043254346,"connected_time":667000000000,"state":"active","ping":66},{"user_id":627,"name":"sam-","steam_id":76561198013770973,"connected_time":828000000000,"state":"active","ping":67},{"user_id":484,"name":"more than im breathing","steam_id":76561198036730191,"connected_time":3325000000000,"state":"active","ping":42},{"user_id":631,"name":"shooer!","steam_id":76561198110531281,"connected_time":611000000000,"state":"active","ping":70},{"user_id":571,"name":"icymelon","steam_id":76561198072239175,"connected_time":1933000000000,"state":"active","ping":37},{"user_id":568,"name":"♥ඞlilyඞ♥","steam_id":76561198049840460,"connected_time":2123000000000,"state":"active","ping":58},{"user_id":467,"name":"cuddle","steam_id":76561198805181599,"connected_time":4347000000000,"state":"active","ping":52},{"user_id":632,"name":"SOPHIIAA SEASON FINALE","steam_id":76561198443798981,"connected_time":560000000000,"state":"active","ping":52},{"user_id":485,"name":"Snowmotion","steam_id":76561198075022454,"connected_time":3323000000000,"state":"active","ping":72},{"user_id":609,"name":"stroyo","steam_id":76561198409592046,"connected_time":1009000000000,"state":"active","ping":53},{"user_id":562,"name":"Aaron","steam_id":76561197990046953,"connected_time":2258000000000,"state":"active","ping":57},{"user_id":624,"name":"howersss","steam_id":76561198977223114,"connected_time":865000000000,"state":"active","ping":114},{"user_id":601,"name":"Dark ^^","steam_id":76561198036241064,"connected_time":1155000000000,"state":"active","ping":69},{"user_id":646,"name":"dec","steam_id":76561198009660168,"connected_time":35000000000,"state":"active","ping":60},{"user_id":573,"name":"TheNerdman","steam_id":76561198097576111,"connected_time":1854000000000,"state":"active","ping":65},{"user_id":566,"name":"Hogs Sidekick","steam_id":76561198136433205,"connected_time":2201000000000,"state":"active","ping":46},{"user_id":470,"name":"Emrys","steam_id":76561198170781013,"connected_time":4317000000000,"state":"active","ping":57},{"user_id":500,"name":"55555","steam_id":76561199060683386,"connected_time":2999000000000,"state":"active","ping":59},{"user_id":630,"name":"InspectorBoo","steam_id":76561198310095220,"connected_time":640000000000,"state":"active","ping":44},{"user_id":607,"name":"sora","steam_id":76561198096547662,"connected_time":1032000000000,"state":"active","ping":50},{"user_id":602,"name":"Watermelon","steam_id":76561198078349914,"connected_time":1146000000000,"state":"active","ping":41}]},{"server_id":114,"name":"Uncletopia | London | 2 | All Maps","name_short":"lon-2","host":"lon-1.uk.uncletopia.com","port":27025,"enabled":true,"region":"eu","cc":"gb","latitude":51.509865,"longitude":-0.118092,"reserved":0,"last_update":"0001-01-01T00:00:00Z","name_a2s":"Uncletopia | London | 2 | All Maps","protocol":17,"map":"cp_dustbowl","folder":"tf","game":"Team Fortress","app_id":440,"player_count":23,"max_players":24,"Bots":0,"server_type":"Dedicated","server_os":"Linux","password":true,"vac":true,"version":"7961495","steam_id":85568392924470941,"keywords":["cp","nocrits","nodmgspread","uncletopia"],"game_id":440,"stv_port":27026,"stv_name":"Uncletopia | London | 2 | All Maps | STV","players":[{"user_id":184,"name":"Voks_","steam_id":76561198159687785,"connected_time":925000000000,"state":"active","ping":71},{"user_id":175,"name":"Calabi","steam_id":76561199497104784,"connected_time":1879000000000,"state":"active","ping":132},{"user_id":187,"name":"The Power","steam_id":76561198060566884,"connected_time":826000000000,"state":"active","ping":38},{"user_id":163,"name":"I Love Filtered Water","steam_id":76561198016042113,"connected_time":3363000000000,"state":"active","ping":84},{"user_id":183,"name":"Moohsem","steam_id":76561198172198154,"connected_time":1499000000000,"state":"active","ping":112},{"user_id":188,"name":"bryophyta","steam_id":76561197968945306,"connected_time":757000000000,"state":"active","ping":75},{"user_id":171,"name":"Obnoxious Mushroom","steam_id":76561198193830851,"connected_time":2498000000000,"state":"active","ping":35},{"user_id":197,"name":"J05","steam_id":76561198857568529,"connected_time":287000000000,"state":"active","ping":60},{"user_id":185,"name":"Fiat Multipla","steam_id":76561198160607127,"connected_time":904000000000,"state":"active","ping":109},{"user_id":198,"name":"armadillo","steam_id":76561198324656652,"connected_time":205000000000,"state":"active","ping":49},{"user_id":149,"name":"Dewotter","steam_id":76561198007653168,"connected_time":3651000000000,"state":"active","ping":56},{"user_id":190,"name":"Sippie","steam_id":76561198130393388,"connected_time":715000000000,"state":"active","ping":67},{"user_id":186,"name":"CINO","steam_id":76561198363841749,"connected_time":868000000000,"state":"active","ping":86},{"user_id":106,"name":"Ω","steam_id":76561199088570961,"connected_time":6257000000000,"state":"active","ping":111},{"user_id":120,"name":"flamingosaurus","steam_id":76561198051455397,"connected_time":5444000000000,"state":"active","ping":45},{"user_id":164,"name":"What2eat","steam_id":76561198017985829,"connected_time":3353000000000,"state":"active","ping":57},{"user_id":165,"name":"Flyin'BBQ","steam_id":76561198021363070,"connected_time":3229000000000,"state":"active","ping":58},{"user_id":155,"name":"Nonok","steam_id":76561199480685498,"connected_time":3569000000000,"state":"active","ping":65},{"user_id":195,"name":"I I","steam_id":76561199101935057,"connected_time":468000000000,"state":"active","ping":113},{"user_id":200,"name":"the rainbownator 9000","steam_id":76561198114954862,"connected_time":17000000000,"state":"spawning","ping":37},{"user_id":199,"name":"DSSD","steam_id":76561197975128756,"connected_time":202000000000,"state":"active","ping":76},{"user_id":194,"name":"Jayem","steam_id":76561198076470685,"connected_time":492000000000,"state":"active","ping":65},{"user_id":168,"name":"Guuse","steam_id":76561198030956814,"connected_time":2742000000000,"state":"active","ping":63}]},{"server_id":320,"name":"Uncletopia | London | 3 | All Maps","name_short":"lon-3","host":"lon-1.uk.uncletopia.com","port":27035,"enabled":true,"region":"eu","cc":"gb","latitude":51.509865,"longitude":-0.118092,"reserved":0,"last_update":"0001-01-01T00:00:00Z","name_a2s":"Uncletopia | London | 3 | All Maps","protocol":17,"map":"pl_snowycoast","folder":"tf","game":"Team Fortress","app_id":440,"player_count":7,"max_players":24,"Bots":0,"server_type":"Dedicated","server_os":"Linux","password":true,"vac":true,"version":"7961495","steam_id":85568392924510192,"keywords":["nocrits","nodmgspread","payload","uncletopia"],"game_id":440,"stv_port":27036,"stv_name":"Uncletopia | London | 3 | All Maps | STV","players":[{"user_id":192,"name":"Джекет","steam_id":76561198327897125,"connected_time":323000000000,"state":"active","ping":108},{"user_id":188,"name":"Flagbearer","steam_id":76561198197890458,"connected_time":503000000000,"state":"active","ping":128},{"user_id":123,"name":"Portal2Player","steam_id":76561198062870114,"connected_time":4951000000000,"state":"active","ping":158},{"user_id":177,"name":"ran is running","steam_id":76561199443185667,"connected_time":1046000000000,"state":"active","ping":127},{"user_id":185,"name":"Purpl3 Scout","steam_id":76561198083663337,"connected_time":631000000000,"state":"active","ping":49},{"user_id":191,"name":"mag̶p̶i̶e ✿","steam_id":76561198797266244,"connected_time":328000000000,"state":"active","ping":62},{"user_id":190,"name":"Scrooge Mc Clunk","steam_id":76561198885945084,"connected_time":385000000000,"state":"active","ping":51}]},{"server_id":321,"name":"Uncletopia | London | 4 | All Maps","name_short":"lon-4","host":"lon-1.uk.uncletopia.com","port":27045,"enabled":true,"region":"eu","cc":"gb","latitude":51.509865,"longitude":-0.118092,"reserved":0,"last_update":"0001-01-01T00:00:00Z","name_a2s":"Uncletopia | London | 4 | All Maps","protocol":17,"map":"cp_sunshine","folder":"tf","game":"Team Fortress","app_id":440,"player_count":21,"max_players":24,"Bots":0,"server_type":"Dedicated","server_os":"Linux","password":true,"vac":true,"version":"7961495","steam_id":85568392924510193,"keywords":["cp","nocrits","nodmgspread","uncletopia"],"game_id":440,"stv_port":27046,"stv_name":"Uncletopia | London | 4 | All Maps | STV","players":[{"user_id":818,"name":"Colingaffney","steam_id":76561198197984574,"connected_time":1396000000000,"state":"active","ping":65},{"user_id":796,"name":"tis but a scratch","steam_id":76561198452111945,"connected_time":2678000000000,"state":"active","ping":39},{"user_id":761,"name":"BŁäck..","steam_id":76561198300644952,"connected_time":3649000000000,"state":"active","ping":78},{"user_id":822,"name":"nieco","steam_id":76561198046217866,"connected_time":918000000000,"state":"active","ping":56},{"user_id":827,"name":"Ash","steam_id":76561198148738525,"connected_time":786000000000,"state":"active","ping":105},{"user_id":838,"name":"ha,burger","steam_id":76561199093584225,"connected_time":1000000000,"state":"spawning","ping":33},{"user_id":804,"name":"shirtokiya","steam_id":76561198963599425,"connected_time":2417000000000,"state":"active","ping":61},{"user_id":820,"name":"spy's arent real","steam_id":76561198165871469,"connected_time":987000000000,"state":"active","ping":68},{"user_id":823,"name":"r4s1","steam_id":76561198024034917,"connected_time":909000000000,"state":"active","ping":50},{"user_id":819,"name":"NovaByte","steam_id":76561199024222387,"connected_time":1329000000000,"state":"active","ping":55},{"user_id":814,"name":"MachopsXD","steam_id":76561198047780194,"connected_time":1779000000000,"state":"active","ping":116},{"user_id":837,"name":"BallinScout","steam_id":76561198152443697,"connected_time":215000000000,"state":"active","ping":50},{"user_id":816,"name":"StarEG","steam_id":76561199199136425,"connected_time":1592000000000,"state":"active","ping":123},{"user_id":821,"name":"wertiop","steam_id":76561198260627072,"connected_time":943000000000,"state":"active","ping":77},{"user_id":813,"name":"IHaveConsumed30KmofMeth","steam_id":76561199221172552,"connected_time":1796000000000,"state":"active","ping":65},{"user_id":800,"name":"StingyLettuce","steam_id":76561199010337406,"connected_time":2585000000000,"state":"active","ping":115},{"user_id":815,"name":"Cosmetic brain","steam_id":76561198055936410,"connected_time":1777000000000,"state":"active","ping":88},{"user_id":836,"name":"AFerociousTeddyBearSlayer","steam_id":76561198247447256,"connected_time":255000000000,"state":"active","ping":60},{"user_id":705,"name":"random guy (real)","steam_id":76561199199499453,"connected_time":4901000000000,"state":"active","ping":83},{"user_id":767,"name":"Arthur","steam_id":76561198066109166,"connected_time":3542000000000,"state":"active","ping":86},{"user_id":830,"name":"MEGOS","steam_id":76561198172740637,"connected_time":744000000000,"state":"active","ping":60}]},{"server_id":21,"name":"Uncletopia | London | 5 | All Maps","name_short":"lon-5","host":"lon-1.uk.uncletopia.com","port":27055,"enabled":true,"region":"eu","cc":"gb","latitude":51.509865,"longitude":-0.118092,"reserved":0,"last_update":"0001-01-01T00:00:00Z","name_a2s":"Uncletopia | London | 5 | All Maps","protocol":17,"map":"pl_swiftwater_final1","folder":"tf","game":"Team Fortress","app_id":440,"player_count":24,"max_players":24,"Bots":0,"server_type":"Dedicated","server_os":"Linux","password":true,"vac":true,"version":"7961495","steam_id":85568392924742829,"keywords":["nocrits","nodmgspread","payload","uncletopia"],"game_id":440,"stv_port":27056,"stv_name":"Uncletopia | London | 5 | All Maps | STV","players":[{"user_id":307,"name":"clock tower","steam_id":76561199394371317,"connected_time":5964000000000,"state":"active","ping":64},{"user_id":384,"name":"Bottle O' Scrumpy","steam_id":76561199244250562,"connected_time":1314000000000,"state":"active","ping":102},{"user_id":360,"name":"Vilmukas","steam_id":76561199106648396,"connected_time":2355000000000,"state":"active","ping":74},{"user_id":308,"name":"Ixsus\u003c3","steam_id":76561198094756869,"connected_time":5944000000000,"state":"active","ping":74},{"user_id":391,"name":"Remenos","steam_id":76561198029337778,"connected_time":499000000000,"state":"active","ping":105},{"user_id":365,"name":"idenburg","steam_id":76561198063574956,"connected_time":1823000000000,"state":"active","ping":57},{"user_id":396,"name":"Dīng.Zhèn1996","steam_id":76561198152681460,"connected_time":136000000000,"state":"active","ping":74},{"user_id":394,"name":"LonelyScot","steam_id":76561198190830395,"connected_time":375000000000,"state":"active","ping":41},{"user_id":386,"name":"mr.resetti","steam_id":76561198974520642,"connected_time":1091000000000,"state":"active","ping":72},{"user_id":389,"name":"Dombe","steam_id":76561198289424045,"connected_time":727000000000,"state":"active","ping":74},{"user_id":237,"name":"1914","steam_id":76561198257383813,"connected_time":12163000000000,"state":"active","ping":60},{"user_id":376,"name":"Uriri","steam_id":76561198085588686,"connected_time":1523000000000,"state":"active","ping":84},{"user_id":371,"name":"R3XuS","steam_id":76561198162068511,"connected_time":1602000000000,"state":"active","ping":94},{"user_id":372,"name":"Dan Dan the Furious","steam_id":76561198091032527,"connected_time":1600000000000,"state":"active","ping":48},{"user_id":392,"name":"SpilledMilk","steam_id":76561198174123971,"connected_time":439000000000,"state":"active","ping":66},{"user_id":377,"name":"starlightartist","steam_id":76561198050608456,"connected_time":1523000000000,"state":"active","ping":36},{"user_id":375,"name":"ThatKetos","steam_id":76561198989682540,"connected_time":1563000000000,"state":"active","ping":59},{"user_id":378,"name":"Eph","steam_id":76561198060379725,"connected_time":1513000000000,"state":"active","ping":95},{"user_id":395,"name":"walt","steam_id":76561198871381636,"connected_time":227000000000,"state":"active","ping":96},{"user_id":397,"name":"plays tation 3","steam_id":76561198885548458,"connected_time":24000000000,"state":"spawning","ping":88},{"user_id":355,"name":"Berb","steam_id":76561198193911899,"connected_time":3005000000000,"state":"active","ping":145},{"user_id":387,"name":"sushii","steam_id":76561198297987372,"connected_time":881000000000,"state":"active","ping":51},{"user_id":398,"name":"[Melon]","steam_id":76561198010161125,"connected_time":6000000000,"state":"spawning","ping":136},{"user_id":359,"name":"Sunshine Moon","steam_id":76561198022604491,"connected_time":2408000000000,"state":"active","ping":53}]},{"server_id":22,"name":"Uncletopia | London | 6 | All Maps","name_short":"lon-6","host":"lon-1.uk.uncletopia.com","port":27065,"enabled":true,"region":"eu","cc":"gb","latitude":51.509865,"longitude":-0.118092,"reserved":0,"last_update":"0001-01-01T00:00:00Z","name_a2s":"Uncletopia | London | 6 | All Maps","protocol":17,"map":"pl_barnblitz","folder":"tf","game":"Team Fortress","app_id":440,"player_count":20,"max_players":24,"Bots":0,"server_type":"Dedicated","server_os":"Linux","password":true,"vac":true,"version":"7961495","steam_id":85568392924742830,"keywords":["nocrits","nodmgspread","payload","uncletopia"],"game_id":440,"stv_port":27066,"stv_name":"Uncletopia | London | 6 | All Maps | STV","players":[{"user_id":313,"name":"LiterallyRyanGosling","steam_id":76561199017856691,"connected_time":2783000000000,"state":"active","ping":56},{"user_id":293,"name":"Fatmagic Mukbang ASMR","steam_id":76561198063492110,"connected_time":4456000000000,"state":"active","ping":85},{"user_id":334,"name":"Yobopan","steam_id":76561198088064860,"connected_time":2004000000000,"state":"active","ping":68},{"user_id":348,"name":"Lynx","steam_id":76561199274008207,"connected_time":1244000000000,"state":"active","ping":81},{"user_id":344,"name":"speedy-heavy","steam_id":76561198124991468,"connected_time":1429000000000,"state":"active","ping":71},{"user_id":335,"name":"Daan77","steam_id":76561198129940468,"connected_time":1994000000000,"state":"active","ping":70},{"user_id":328,"name":"icebear","steam_id":76561197974314026,"connected_time":2315000000000,"state":"active","ping":65},{"user_id":354,"name":"Tort","steam_id":76561198329646769,"connected_time":236000000000,"state":"active","ping":57},{"user_id":355,"name":"Antoine","steam_id":76561198021526517,"connected_time":208000000000,"state":"active","ping":52},{"user_id":356,"name":"Oriuke","steam_id":76561197992166123,"connected_time":144000000000,"state":"active","ping":57},{"user_id":357,"name":"Palmhorse","steam_id":76561198262837092,"connected_time":136000000000,"state":"active","ping":97},{"user_id":338,"name":"generic alias","steam_id":76561198271607226,"connected_time":1797000000000,"state":"active","ping":87},{"user_id":351,"name":"lillunya ♡","steam_id":76561198330418866,"connected_time":575000000000,"state":"active","ping":69},{"user_id":358,"name":"Muselk #bdayin365days","steam_id":76561198139303045,"connected_time":122000000000,"state":"active","ping":90},{"user_id":319,"name":"powej","steam_id":76561198056381418,"connected_time":2710000000000,"state":"active","ping":38},{"user_id":339,"name":"BestTrap","steam_id":76561198063485797,"connected_time":1754000000000,"state":"active","ping":64},{"user_id":321,"name":"Hamedius","steam_id":76561199152512027,"connected_time":2669000000000,"state":"active","ping":74},{"user_id":340,"name":"Eula my beloved","steam_id":76561198150524777,"connected_time":1748000000000,"state":"active","ping":69},{"user_id":303,"name":"Ullr","steam_id":76561198140547483,"connected_time":3998000000000,"state":"active","ping":44},{"user_id":347,"name":"Alexair","steam_id":76561199022206498,"connected_time":1281000000000,"state":"active","ping":85}]},{"server_id":40,"name":"Uncletopia | London | 7 | Stopwatch","name_short":"lon-7","host":"lon-1.uk.uncletopia.com","port":27075,"enabled":true,"region":"eu","cc":"gb","latitude":51.509865,"longitude":-0.118092,"reserved":0,"last_update":"0001-01-01T00:00:00Z","name_a2s":"Uncletopia | London | 7 | Stopwatch","protocol":17,"map":"workshop/pl_vigil_rc10.ugc1266210012","folder":"tf","game":"Team Fortress","app_id":440,"player_count":0,"max_players":24,"Bots":0,"server_type":"Dedicated","server_os":"Linux","password":true,"vac":true,"version":"7961495","steam_id":85568392924964314,"keywords":["nocrits","nodmgspread","payload","uncletopia"],"game_id":440,"stv_port":27076,"stv_name":"Uncletopia | London | 7 | Stopwatch | STV","players":null},{"server_id":41,"name":"Uncletopia | London | 8 | Community","name_short":"lon-8","host":"lon-1.uk.uncletopia.com","port":27085,"enabled":true,"region":"eu","cc":"gb","latitude":51.509865,"longitude":-0.118092,"reserved":0,"last_update":"0001-01-01T00:00:00Z","name_a2s":"Uncletopia | London | 8 | Community","protocol":17,"map":"workshop/koth_ramjam_rc1.ugc459778887","folder":"tf","game":"Team Fortress","app_id":440,"player_count":0,"max_players":24,"Bots":0,"server_type":"Dedicated","server_os":"Linux","password":true,"vac":true,"version":"7961495","steam_id":85568392924964315,"keywords":["cp","nocrits","nodmgspread","uncletopia"],"game_id":440,"stv_port":27086,"stv_name":"Uncletopia | London | 8 | Community | STV","players":null},{"server_id":300,"name":"Uncletopia | Montréal | 1 | One Thousand Uncles","name_short":"mtl-1","host":"mtl-1.ca.uncletopia.com","port":27015,"enabled":true,"region":"us-east","cc":"ca","latitude":45.50889,"longitude":-73.56167,"reserved":0,"last_update":"0001-01-01T00:00:00Z","name_a2s":"","protocol":0,"map":"","folder":"","game":"","app_id":0,"player_count":13,"max_players":0,"Bots":0,"server_type":"","server_os":"","password":false,"vac":false,"version":"","steam_id":0,"keywords":null,"game_id":0,"stv_port":0,"stv_name":"","players":[{"user_id":153,"name":"CuSO4","steam_id":76561199278147589,"connected_time":2235000000000,"state":"active","ping":59},{"user_id":89,"name":"Jake_Spencer","steam_id":76561198025176750,"connected_time":6890000000000,"state":"active","ping":90},{"user_id":84,"name":"Kibeka the Weird","steam_id":76561198116534133,"connected_time":8048000000000,"state":"active","ping":55},{"user_id":101,"name":"sheep","steam_id":76561198172943006,"connected_time":4674000000000,"state":"active","ping":62},{"user_id":102,"name":"ODDLOG","steam_id":76561198397624578,"connected_time":4534000000000,"state":"active","ping":63},{"user_id":175,"name":"Ginger Jesus","steam_id":76561198052386458,"connected_time":896000000000,"state":"active","ping":60},{"user_id":156,"name":"Uncle Majic the Hip Hop Magicia","steam_id":76561198107924303,"connected_time":1797000000000,"state":"active","ping":44},{"user_id":154,"name":"Enzo","steam_id":76561197975076681,"connected_time":2066000000000,"state":"active","ping":66},{"user_id":132,"name":"Gram Tokers Count Doinkula","steam_id":76561198112811565,"connected_time":2779000000000,"state":"active","ping":65},{"user_id":103,"name":"Skeptical","steam_id":76561198038261789,"connected_time":4454000000000,"state":"active","ping":122},{"user_id":136,"name":"DAG","steam_id":76561198219508244,"connected_time":2503000000000,"state":"active","ping":53},{"user_id":180,"name":"Swifgz","steam_id":76561198162875756,"connected_time":312000000000,"state":"active","ping":58},{"user_id":181,"name":"trans rights","steam_id":76561198044183038,"connected_time":290000000000,"state":"active","ping":78}]},{"server_id":301,"name":"Uncletopia | Montréal | 2 | One Thousand Uncles","name_short":"mtl-2","host":"mtl-1.ca.uncletopia.com","port":27025,"enabled":true,"region":"us-east","cc":"ca","latitude":45.50889,"longitude":-73.56167,"reserved":0,"last_update":"0001-01-01T00:00:00Z","name_a2s":"","protocol":0,"map":"","folder":"","game":"","app_id":0,"player_count":0,"max_players":0,"Bots":0,"server_type":"","server_os":"","password":false,"vac":false,"version":"","steam_id":0,"keywords":null,"game_id":0,"stv_port":0,"stv_name":"","players":null},{"server_id":302,"name":"Uncletopia | Montréal | 3 | One Thousand Uncles","name_short":"mtl-3","host":"mtl-1.ca.uncletopia.com","port":27035,"enabled":true,"region":"us-east","cc":"ca","latitude":45.50889,"longitude":-73.56167,"reserved":0,"last_update":"0001-01-01T00:00:00Z","name_a2s":"","protocol":0,"map":"","folder":"","game":"","app_id":0,"player_count":0,"max_players":0,"Bots":0,"server_type":"","server_os":"","password":false,"vac":false,"version":"","steam_id":0,"keywords":null,"game_id":0,"stv_port":0,"stv_name":"","players":null},{"server_id":13,"name":"Uncletopia | New York City | 1 | All Maps","name_short":"nyc-1","host":"nyc-1.us.uncletopia.com","port":27015,"enabled":true,"region":"us-east","cc":"us","latitude":40.73061,"longitude":-73.93524,"reserved":0,"last_update":"0001-01-01T00:00:00Z","name_a2s":"Uncletopia | New York City | 1 | All Maps","protocol":17,"map":"pl_borneo","folder":"tf","game":"Team Fortress","app_id":440,"player_count":24,"max_players":24,"Bots":0,"server_type":"Dedicated","server_os":"Linux","password":true,"vac":true,"version":"7961495","steam_id":85568392924469993,"keywords":["nocrits","nodmgspread","payload","uncletopia"],"game_id":440,"stv_port":27016,"stv_name":"Uncletopia | New York City | 1 | All Maps | STV","players":[{"user_id":292,"name":"Wengatang","steam_id":76561198021747059,"connected_time":307000000000,"state":"active","ping":56},{"user_id":287,"name":"NYC APPA YIP YIP","steam_id":76561198112929942,"connected_time":458000000000,"state":"active","ping":54},{"user_id":259,"name":"Pox4Dinner","steam_id":76561198036958101,"connected_time":1839000000000,"state":"active","ping":59},{"user_id":288,"name":"Verily","steam_id":76561198200558318,"connected_time":426000000000,"state":"active","ping":43},{"user_id":272,"name":"✪Type_Alpha","steam_id":76561198122780598,"connected_time":1551000000000,"state":"active","ping":56},{"user_id":267,"name":"Stonks","steam_id":76561199490085068,"connected_time":1657000000000,"state":"active","ping":62},{"user_id":284,"name":"too deep for most to understand","steam_id":76561198022636144,"connected_time":1091000000000,"state":"active","ping":50},{"user_id":274,"name":"PumpkinThink","steam_id":76561198393830529,"connected_time":1534000000000,"state":"active","ping":90},{"user_id":275,"name":"Big McThankies From McSpankies","steam_id":76561198020516880,"connected_time":1476000000000,"state":"active","ping":99},{"user_id":244,"name":"FunnyUsernameWow","steam_id":76561198324177635,"connected_time":3738000000000,"state":"active","ping":46},{"user_id":235,"name":"Gobl1n","steam_id":76561198808610991,"connected_time":4894000000000,"state":"active","ping":84},{"user_id":263,"name":"Sky","steam_id":76561198043549371,"connected_time":1679000000000,"state":"active","ping":44},{"user_id":236,"name":"guy","steam_id":76561198079925551,"connected_time":4557000000000,"state":"active","ping":49},{"user_id":293,"name":"Rick Assley","steam_id":76561198365019199,"connected_time":80000000000,"state":"active","ping":77},{"user_id":290,"name":"Crusade","steam_id":76561199192979051,"connected_time":352000000000,"state":"active","ping":80},{"user_id":291,"name":"Astrondoy","steam_id":76561199198557552,"connected_time":343000000000,"state":"active","ping":67},{"user_id":226,"name":"Larry","steam_id":76561198068311987,"connected_time":5632000000000,"state":"active","ping":127},{"user_id":262,"name":"Zanartan","steam_id":76561198050528902,"connected_time":1684000000000,"state":"active","ping":176},{"user_id":266,"name":"taigaxx","steam_id":76561198202669250,"connected_time":1667000000000,"state":"active","ping":70},{"user_id":278,"name":"Tablaro","steam_id":76561198076915673,"connected_time":1268000000000,"state":"active","ping":65},{"user_id":260,"name":"Capzlockz3","steam_id":76561198310863739,"connected_time":1689000000000,"state":"active","ping":50},{"user_id":251,"name":"wool","steam_id":76561198869689933,"connected_time":3106000000000,"state":"active","ping":52},{"user_id":187,"name":"Bother","steam_id":76561198336750909,"connected_time":9286000000000,"state":"active","ping":39},{"user_id":221,"name":"High School Nudical","steam_id":76561198172120615,"connected_time":6334000000000,"state":"active","ping":36}]},{"server_id":14,"name":"Uncletopia | New York City | 2 | All Maps","name_short":"nyc-2","host":"nyc-1.us.uncletopia.com","port":27025,"enabled":true,"region":"us-east","cc":"us","latitude":40.73061,"longitude":-73.93524,"reserved":0,"last_update":"0001-01-01T00:00:00Z","name_a2s":"Uncletopia | New York City | 2 | All Maps","protocol":17,"map":"cp_mountainlab","folder":"tf","game":"Team Fortress","app_id":440,"player_count":0,"max_players":24,"Bots":0,"server_type":"Dedicated","server_os":"Linux","password":true,"vac":true,"version":"7961495","steam_id":85568392924469994,"keywords":["cp","nocrits","nodmgspread","uncletopia"],"game_id":440,"stv_port":27026,"stv_name":"Uncletopia | New York City | 2 | All Maps | STV","players":null},{"server_id":15,"name":"Uncletopia | New York City | 3 | Stopwatch","name_short":"nyc-3","host":"nyc-1.us.uncletopia.com","port":27035,"enabled":true,"region":"us-east","cc":"us","latitude":40.73061,"longitude":-73.93524,"reserved":0,"last_update":"0001-01-01T00:00:00Z","name_a2s":"Uncletopia | New York City | 3 | Stopwatch","protocol":17,"map":"koth_highpass","folder":"tf","game":"Team Fortress","app_id":440,"player_count":0,"max_players":24,"Bots":0,"server_type":"Dedicated","server_os":"Linux","password":true,"vac":true,"version":"7961495","steam_id":85568392924742820,"keywords":["cp","nocrits","nodmgspread","uncletopia"],"game_id":440,"stv_port":27036,"stv_name":"Uncletopia | New York City | 3 | Stopwatch | STV","players":null},{"server_id":16,"name":"Uncletopia | New York City | 4 | Community","name_short":"nyc-4","host":"nyc-1.us.uncletopia.com","port":27045,"enabled":true,"region":"us-east","cc":"us","latitude":40.73061,"longitude":-73.93524,"reserved":0,"last_update":"0001-01-01T00:00:00Z","name_a2s":"Uncletopia | New York City | 4 | Community","protocol":17,"map":"cp_altitude","folder":"tf","game":"Team Fortress","app_id":440,"player_count":0,"max_players":24,"Bots":0,"server_type":"Dedicated","server_os":"Linux","password":true,"vac":true,"version":"7961495","steam_id":85568392924742821,"keywords":["cp","nocrits","nodmgspread","uncletopia"],"game_id":440,"stv_port":27046,"stv_name":"Uncletopia | New York City | 4 | Community | STV","players":null},{"server_id":142,"name":"Uncletopia | São Paulo | 1 | All Maps","name_short":"sao-1","host":"sao-1.br.uncletopia.com","port":27015,"enabled":true,"region":"sa","cc":"br","latitude":-23.533773,"longitude":-46.62529,"reserved":0,"last_update":"0001-01-01T00:00:00Z","name_a2s":"Uncletopia | São Paulo | 1 | All Maps","protocol":17,"map":"koth_cascade","folder":"tf","game":"Team Fortress","app_id":440,"player_count":0,"max_players":24,"Bots":0,"server_type":"Dedicated","server_os":"Linux","password":true,"vac":true,"version":"7961495","steam_id":85568392924469996,"keywords":["cp","nocrits","nodmgspread","uncletopia"],"game_id":440,"stv_port":27016,"stv_name":"Uncletopia | São Paulo | 1 | All Maps | STV","players":null},{"server_id":143,"name":"Uncletopia | São Paulo | 2 | Community","name_short":"sao-2","host":"sao-2.br.uncletopia.com","port":27015,"enabled":true,"region":"sa","cc":"br","latitude":-23.533773,"longitude":-46.62529,"reserved":0,"last_update":"0001-01-01T00:00:00Z","name_a2s":"Uncletopia | São Paulo | 2 | Community","protocol":17,"map":"workshop/cp_caldera_rc2.ugc2834196889","folder":"tf","game":"Team Fortress","app_id":440,"player_count":0,"max_players":24,"Bots":0,"server_type":"Dedicated","server_os":"Linux","password":true,"vac":true,"version":"7961495","steam_id":85568392924485349,"keywords":["cp","nocrits","nodmgspread","uncletopia"],"game_id":440,"stv_port":27016,"stv_name":"Uncletopia | São Paulo | 2 | Community | STV","players":null},{"server_id":7,"name":"Uncletopia | Seattle | 1 | All Maps","name_short":"sea-1","host":"sea-1.us.uncletopia.com","port":27015,"enabled":true,"region":"us-west","cc":"us","latitude":47.608013,"longitude":-122.33517,"reserved":0,"last_update":"0001-01-01T00:00:00Z","name_a2s":"Uncletopia | Seattle | 1 | All Maps","protocol":17,"map":"pl_borneo","folder":"tf","game":"Team Fortress","app_id":440,"player_count":24,"max_players":24,"Bots":0,"server_type":"Dedicated","server_os":"Linux","password":true,"vac":true,"version":"7961495","steam_id":85568392924469997,"keywords":["nocrits","nodmgspread","payload","uncletopia"],"game_id":440,"stv_port":27016,"stv_name":"Uncletopia | Seattle | 1 | All Maps | STV","players":[{"user_id":241,"name":"The Super Mario Bros. Movie","steam_id":76561198871692156,"connected_time":230000000000,"state":"active","ping":52},{"user_id":189,"name":"sneezy :))","steam_id":76561198062451648,"connected_time":6029000000000,"state":"active","ping":90},{"user_id":175,"name":"Pneumo.","steam_id":76561197987911883,"connected_time":6817000000000,"state":"active","ping":56},{"user_id":212,"name":"prime example of furry L","steam_id":76561198097745857,"connected_time":2562000000000,"state":"active","ping":58},{"user_id":210,"name":"mudunit","steam_id":76561198811544015,"connected_time":2598000000000,"state":"active","ping":54},{"user_id":223,"name":"Batso","steam_id":76561198106589452,"connected_time":1719000000000,"state":"active","ping":75},{"user_id":209,"name":"lol","steam_id":76561198040670868,"connected_time":2891000000000,"state":"active","ping":31},{"user_id":237,"name":"Mint Widget","steam_id":76561198036875245,"connected_time":339000000000,"state":"active","ping":59},{"user_id":228,"name":"vvitch","steam_id":76561198279661941,"connected_time":731000000000,"state":"active","ping":75},{"user_id":230,"name":"oil","steam_id":76561198099980149,"connected_time":504000000000,"state":"active","ping":79},{"user_id":227,"name":"John Calibur","steam_id":76561197999986606,"connected_time":903000000000,"state":"active","ping":71},{"user_id":133,"name":"Drone #0432 (they/it)","steam_id":76561198027321950,"connected_time":9654000000000,"state":"active","ping":49},{"user_id":150,"name":"COOL master_9","steam_id":76561198073041151,"connected_time":8973000000000,"state":"active","ping":85},{"user_id":234,"name":"Petey0712","steam_id":76561199401008981,"connected_time":465000000000,"state":"active","ping":60},{"user_id":236,"name":"mooney","steam_id":76561199110622484,"connected_time":419000000000,"state":"active","ping":54},{"user_id":192,"name":"Toaster (Hamilton Beach)","steam_id":76561198039891934,"connected_time":5523000000000,"state":"active","ping":63},{"user_id":233,"name":"nat","steam_id":76561198865090309,"connected_time":474000000000,"state":"active","ping":138},{"user_id":221,"name":"MacchuPeachu","steam_id":76561199093242587,"connected_time":1919000000000,"state":"active","ping":64},{"user_id":240,"name":"FI LO","steam_id":76561198976530881,"connected_time":304000000000,"state":"active","ping":74},{"user_id":219,"name":"FunnyGoomba","steam_id":76561198279865229,"connected_time":2159000000000,"state":"active","ping":83},{"user_id":238,"name":"LACTAID","steam_id":76561198276585202,"connected_time":318000000000,"state":"active","ping":75},{"user_id":226,"name":"Humble Homunculus","steam_id":76561198052507878,"connected_time":927000000000,"state":"active","ping":48},{"user_id":153,"name":"hl3 hot gay sex","steam_id":76561199122281764,"connected_time":8860000000000,"state":"active","ping":81},{"user_id":242,"name":"mega","steam_id":76561198089520959,"connected_time":140000000000,"state":"active","ping":91}]},{"server_id":119,"name":"Uncletopia | Seattle | 2 | All Maps","name_short":"sea-2","host":"sea-1.us.uncletopia.com","port":27025,"enabled":true,"region":"us-west","cc":"us","latitude":47.608013,"longitude":-122.33517,"reserved":0,"last_update":"0001-01-01T00:00:00Z","name_a2s":"Uncletopia | Seattle | 2 | All Maps","protocol":17,"map":"koth_highpass","folder":"tf","game":"Team Fortress","app_id":440,"player_count":0,"max_players":24,"Bots":0,"server_type":"Dedicated","server_os":"Linux","password":true,"vac":true,"version":"7961495","steam_id":85568392924469998,"keywords":["cp","nocrits","nodmgspread","uncletopia"],"game_id":440,"stv_port":27026,"stv_name":"Uncletopia | Seattle | 2 | All Maps | STV","players":null},{"server_id":406,"name":"Uncletopia | Seattle | 3 | Stopwatch","name_short":"sea-3","host":"sea-1.us.uncletopia.com","port":27035,"enabled":true,"region":"us-west","cc":"us","latitude":47.608013,"longitude":-122.33517,"reserved":0,"last_update":"0001-01-01T00:00:00Z","name_a2s":"Uncletopia | Seattle | 3 | Stopwatch","protocol":17,"map":"pl_pier","folder":"tf","game":"Team Fortress","app_id":440,"player_count":0,"max_players":24,"Bots":0,"server_type":"Dedicated","server_os":"Linux","password":true,"vac":true,"version":"7961495","steam_id":85568392924515217,"keywords":["nocrits","nodmgspread","payload","uncletopia"],"game_id":440,"stv_port":27036,"stv_name":"Uncletopia | Seattle | 3 | Stopwatch | STV","players":null},{"server_id":17,"name":"Uncletopia | San Francisco | 1 | All Maps","name_short":"sfo-1","host":"sfo-1.us.uncletopia.com","port":27015,"enabled":true,"region":"us-west","cc":"us","latitude":37.77397,"longitude":-122.4313,"reserved":0,"last_update":"0001-01-01T00:00:00Z","name_a2s":"Uncletopia | San Francisco | 1 | All Maps","protocol":17,"map":"koth_cascade","folder":"tf","game":"Team Fortress","app_id":440,"player_count":0,"max_players":24,"Bots":0,"server_type":"Dedicated","server_os":"Linux","password":true,"vac":true,"version":"7961495","steam_id":85568392924469999,"keywords":["cp","nocrits","nodmgspread","uncletopia"],"game_id":440,"stv_port":27016,"stv_name":"Uncletopia | San Francisco | 1 | All Maps | STV","players":null},{"server_id":18,"name":"Uncletopia | San Francisco | 2 | All Maps","name_short":"sfo-2","host":"sfo-1.us.uncletopia.com","port":27025,"enabled":true,"region":"us-west","cc":"us","latitude":37.77397,"longitude":-122.4313,"reserved":0,"last_update":"0001-01-01T00:00:00Z","name_a2s":"Uncletopia | San Francisco | 2 | All Maps","protocol":17,"map":"pl_frontier_final","folder":"tf","game":"Team Fortress","app_id":440,"player_count":0,"max_players":24,"Bots":0,"server_type":"Dedicated","server_os":"Linux","password":true,"vac":true,"version":"7961495","steam_id":85568392924470000,"keywords":["nocrits","nodmgspread","payload","uncletopia"],"game_id":440,"stv_port":27026,"stv_name":"Uncletopia | San Francisco | 2 | All Maps | STV","players":null},{"server_id":19,"name":"Uncletopia | San Francisco | 3 | Stopwatch","name_short":"sfo-3","host":"sfo-1.us.uncletopia.com","port":27035,"enabled":true,"region":"us-west","cc":"us","latitude":37.77397,"longitude":-122.4313,"reserved":0,"last_update":"0001-01-01T00:00:00Z","name_a2s":"Uncletopia | San Francisco | 3 | Stopwatch","protocol":17,"map":"cp_sunshine","folder":"tf","game":"Team Fortress","app_id":440,"player_count":0,"max_players":24,"Bots":0,"server_type":"Dedicated","server_os":"Linux","password":true,"vac":true,"version":"7961495","steam_id":85568392924742824,"keywords":["cp","nocrits","nodmgspread","uncletopia"],"game_id":440,"stv_port":27036,"stv_name":"Uncletopia | San Francisco | 3 | Stopwatch | STV","players":null},{"server_id":20,"name":"Uncletopia | San Francisco | 4 | Community","name_short":"sfo-4","host":"sfo-1.us.uncletopia.com","port":27045,"enabled":true,"region":"us-west","cc":"us","latitude":37.77397,"longitude":-122.4313,"reserved":0,"last_update":"0001-01-01T00:00:00Z","name_a2s":"Uncletopia | San Francisco | 4 | Community","protocol":17,"map":"workshop/koth_product_final.ugc454272353","folder":"tf","game":"Team Fortress","app_id":440,"player_count":0,"max_players":24,"Bots":0,"server_type":"Dedicated","server_os":"Linux","password":true,"vac":true,"version":"7961495","steam_id":85568392924742826,"keywords":["cp","nocrits","nodmgspread","uncletopia"],"game_id":440,"stv_port":27046,"stv_name":"Uncletopia | San Francisco | 4 | Community | STV","players":null},{"server_id":141,"name":"Uncletopia | Sydney | 1 | All Maps","name_short":"syd-1","host":"syd-1.au.uncletopia.com","port":27015,"enabled":true,"region":"au","cc":"au","latitude":-33.865143,"longitude":151.2099,"reserved":0,"last_update":"0001-01-01T00:00:00Z","name_a2s":"Uncletopia | Sydney | 1 | All Maps","protocol":17,"map":"koth_viaduct","folder":"tf","game":"Team Fortress","app_id":440,"player_count":0,"max_players":24,"Bots":0,"server_type":"Dedicated","server_os":"Linux","password":true,"vac":true,"version":"7961495","steam_id":85568392924470001,"keywords":["cp","nocrits","nodmgspread","uncletopia"],"game_id":440,"stv_port":27016,"stv_name":"Uncletopia | Sydney | 1 | All Maps | STV","players":null},{"server_id":123,"name":"Uncletopia | Sydney | 2 | All Maps","name_short":"syd-2","host":"syd-1.au.uncletopia.com","port":27025,"enabled":true,"region":"au","cc":"au","latitude":-33.865143,"longitude":151.2099,"reserved":0,"last_update":"0001-01-01T00:00:00Z","name_a2s":"Uncletopia | Sydney | 2 | All Maps","protocol":17,"map":"koth_lakeside_final","folder":"tf","game":"Team Fortress","app_id":440,"player_count":0,"max_players":24,"Bots":0,"server_type":"Dedicated","server_os":"Linux","password":true,"vac":true,"version":"7961495","steam_id":85568392924470002,"keywords":["cp","nocrits","nodmgspread","uncletopia"],"game_id":440,"stv_port":27026,"stv_name":"Uncletopia | Sydney | 2 | All Maps | STV","players":null},{"server_id":395,"name":"Uncletopia | Sydney | 3 | All Maps","name_short":"syd-3","host":"syd-1.au.uncletopia.com","port":27035,"enabled":true,"region":"au","cc":"au","latitude":-33.865143,"longitude":151.2099,"reserved":0,"last_update":"0001-01-01T00:00:00Z","name_a2s":"Uncletopia | Sydney | 3 | All Maps","protocol":17,"map":"pl_frontier_final","folder":"tf","game":"Team Fortress","app_id":440,"player_count":0,"max_players":24,"Bots":0,"server_type":"Dedicated","server_os":"Linux","password":true,"vac":true,"version":"7961495","steam_id":85568392925194467,"keywords":["nocrits","nodmgspread","payload","uncletopia"],"game_id":440,"stv_port":27036,"stv_name":"Uncletopia | Sydney | 3 | All Maps | STV","players":null},{"server_id":396,"name":"Uncletopia | Sydney | 4 | All Maps","name_short":"syd-4","host":"syd-1.au.uncletopia.com","port":27045,"enabled":true,"region":"au","cc":"au","latitude":-33.865143,"longitude":151.2099,"reserved":0,"last_update":"0001-01-01T00:00:00Z","name_a2s":"Uncletopia | Sydney | 4 | All Maps","protocol":17,"map":"cp_process_final","folder":"tf","game":"Team Fortress","app_id":440,"player_count":0,"max_players":24,"Bots":0,"server_type":"Dedicated","server_os":"Linux","password":true,"vac":true,"version":"7961495","steam_id":85568392925397958,"keywords":["cp","nocrits","nodmgspread","uncletopia"],"game_id":440,"stv_port":27046,"stv_name":"Uncletopia | Sydney | 4 | All Maps | STV","players":null},{"server_id":58,"name":"Uncletopia | Sydney | 5 | Stopwatch","name_short":"syd-5","host":"syd-1.au.uncletopia.com","port":27055,"enabled":true,"region":"au","cc":"au","latitude":-33.865143,"longitude":151.2099,"reserved":0,"last_update":"0001-01-01T00:00:00Z","name_a2s":"Uncletopia | Sydney | 5 | Stopwatch","protocol":17,"map":"pl_frontier_final","folder":"tf","game":"Team Fortress","app_id":440,"player_count":0,"max_players":24,"Bots":0,"server_type":"Dedicated","server_os":"Linux","password":true,"vac":true,"version":"7961495","steam_id":85568392925397959,"keywords":["nocrits","nodmgspread","payload","uncletopia"],"game_id":440,"stv_port":27056,"stv_name":"Uncletopia | Sydney | 5 | Stopwatch | STV","players":null},{"server_id":59,"name":"Uncletopia | Sydney | 6 | Community","name_short":"syd-6","host":"syd-1.au.uncletopia.com","port":27065,"enabled":true,"region":"au","cc":"au","latitude":-33.865143,"longitude":151.2099,"reserved":0,"last_update":"0001-01-01T00:00:00Z","name_a2s":"Uncletopia | Sydney | 6 | Community","protocol":17,"map":"cp_sunshine","folder":"tf","game":"Team Fortress","app_id":440,"player_count":0,"max_players":24,"Bots":0,"server_type":"Dedicated","server_os":"Linux","password":true,"vac":true,"version":"7961495","steam_id":85568392925397960,"keywords":["cp","nocrits","nodmgspread","uncletopia"],"game_id":440,"stv_port":27066,"stv_name":"Uncletopia | Sydney | 6 | Community | STV","players":null},{"server_id":49,"name":"Uncletopia | Warsaw | 1 | One Thousand Uncles","name_short":"waw-1","host":"waw-1.pl.uncletopia.com","port":27015,"enabled":true,"region":"eu","cc":"pl","latitude":52.2297,"longitude":21.017532,"reserved":0,"last_update":"0001-01-01T00:00:00Z","name_a2s":"Uncletopia | Warsaw | 1 | One Thousand Uncles","protocol":17,"map":"cp_dustbowl","folder":"tf","game":"Team Fortress","app_id":440,"player_count":29,"max_players":32,"Bots":16,"server_type":"Dedicated","server_os":"Linux","password":true,"vac":true,"version":"7961495","steam_id":85568392925397850,"keywords":["alltalk","bots","cp","danepve","increased_maxplayers","nocrits","norespawntime","uncletopia"],"game_id":440,"stv_port":0,"stv_name":"","players":[{"user_id":507,"name":"Advokat","steam_id":76561198307121174,"connected_time":5393000000000,"state":"active","ping":50},{"user_id":536,"name":"Nikt Ważny","steam_id":76561199273293257,"connected_time":1300000000000,"state":"active","ping":83},{"user_id":515,"name":"pyro gaming","steam_id":76561198087970118,"connected_time":3208000000000,"state":"active","ping":45},{"user_id":518,"name":"Norbert962","steam_id":76561198450092990,"connected_time":2407000000000,"state":"active","ping":66},{"user_id":484,"name":"♥AgitatedHorrorquin♥","steam_id":76561198442099883,"connected_time":6694000000000,"state":"active","ping":162},{"user_id":537,"name":"Purplenoogie","steam_id":76561198081872160,"connected_time":952000000000,"state":"active","ping":74},{"user_id":538,"name":"The one True Mads","steam_id":76561197999204692,"connected_time":943000000000,"state":"active","ping":74},{"user_id":539,"name":"Dog Barf","steam_id":76561198073586987,"connected_time":837000000000,"state":"active","ping":76},{"user_id":516,"name":"Doctor Medic","steam_id":76561198100957443,"connected_time":3205000000000,"state":"active","ping":90},{"user_id":546,"name":"Daddy Pedro","steam_id":76561198849694167,"connected_time":157000000000,"state":"active","ping":53},{"user_id":540,"name":"Kewlan","steam_id":76561198042775020,"connected_time":794000000000,"state":"active","ping":90},{"user_id":541,"name":"Rob Rotten","steam_id":76561198170543542,"connected_time":623000000000,"state":"active","ping":123},{"user_id":543,"name":"iš kairės","steam_id":76561198171257629,"connected_time":367000000000,"state":"active","ping":73}]},{"server_id":50,"name":"Uncletopia | Warsaw | 2 | One Thousand Uncles","name_short":"waw-2","host":"waw-1.pl.uncletopia.com","port":27025,"enabled":true,"region":"eu","cc":"pl","latitude":52.2297,"longitude":21.017532,"reserved":0,"last_update":"0001-01-01T00:00:00Z","name_a2s":"Uncletopia | Warsaw | 2 | One Thousand Uncles","protocol":17,"map":"pl_goldrush","folder":"tf","game":"Team Fortress","app_id":440,"player_count":27,"max_players":32,"Bots":16,"server_type":"Dedicated","server_os":"Linux","password":true,"vac":true,"version":"7961495","steam_id":85568392925397851,"keywords":["alltalk","bots","danepve","increased_maxplayers","nocrits","norespawntime","payload","uncletopia"],"game_id":440,"stv_port":0,"stv_name":"","players":[{"user_id":801,"name":"♥ Cirno ♥","steam_id":76561198834982738,"connected_time":3004000000000,"state":"active","ping":67},{"user_id":807,"name":"TheUltimateEbil","steam_id":76561198025420071,"connected_time":2101000000000,"state":"active","ping":75},{"user_id":822,"name":"GGabe","steam_id":76561198117199068,"connected_time":235000000000,"state":"active","ping":93},{"user_id":808,"name":"Ferma","steam_id":76561199225964423,"connected_time":2058000000000,"state":"active","ping":237},{"user_id":823,"name":"Foreskin Devourer","steam_id":76561198832154803,"connected_time":205000000000,"state":"active","ping":60},{"user_id":821,"name":"Cornmac","steam_id":76561198104780569,"connected_time":868000000000,"state":"active","ping":88},{"user_id":797,"name":"chgivan","steam_id":76561198060010064,"connected_time":4200000000000,"state":"active","ping":92},{"user_id":805,"name":"nyanezt","steam_id":76561198253734265,"connected_time":2591000000000,"state":"active","ping":75},{"user_id":815,"name":"Flying skyhigh","steam_id":76561198372971096,"connected_time":1356000000000,"state":"active","ping":98},{"user_id":787,"name":"Lt.Fantax","steam_id":76561198060752455,"connected_time":5874000000000,"state":"active","ping":102},{"user_id":803,"name":"Random Cap","steam_id":76561198129271321,"connected_time":2960000000000,"state":"active","ping":68}]},{"server_id":51,"name":"Uncletopia | Warsaw | 3 | All Maps","name_short":"waw-3","host":"waw-1.pl.uncletopia.com","port":27035,"enabled":true,"region":"eu","cc":"pl","latitude":52.2297,"longitude":21.017532,"reserved":0,"last_update":"0001-01-01T00:00:00Z","name_a2s":"Uncletopia | Warsaw | 3 | All Maps","protocol":17,"map":"pl_pier","folder":"tf","game":"Team Fortress","app_id":440,"player_count":0,"max_players":24,"Bots":0,"server_type":"Dedicated","server_os":"Linux","password":true,"vac":true,"version":"7961495","steam_id":85568392925397852,"keywords":["nocrits","nodmgspread","payload","uncletopia"],"game_id":440,"stv_port":27036,"stv_name":"Uncletopia | Warsaw | 3 | All Maps | STV","players":null},{"server_id":52,"name":"Uncletopia | Warsaw | 4 | All Maps","name_short":"waw-4","host":"waw-1.pl.uncletopia.com","port":27045,"enabled":true,"region":"eu","cc":"pl","latitude":52.2297,"longitude":21.017532,"reserved":0,"last_update":"0001-01-01T00:00:00Z","name_a2s":"Uncletopia | Warsaw | 4 | All Maps","protocol":17,"map":"koth_cascade","folder":"tf","game":"Team Fortress","app_id":440,"player_count":0,"max_players":24,"Bots":0,"server_type":"Dedicated","server_os":"Linux","password":true,"vac":true,"version":"7961495","steam_id":85568392925397853,"keywords":["cp","nocrits","nodmgspread","uncletopia"],"game_id":440,"stv_port":27046,"stv_name":"Uncletopia | Warsaw | 4 | All Maps | STV","players":null},{"server_id":53,"name":"Uncletopia | Warsaw | 5 | Stopwatch","name_short":"waw-5","host":"waw-1.pl.uncletopia.com","port":27055,"enabled":true,"region":"eu","cc":"pl","latitude":52.2297,"longitude":21.017532,"reserved":0,"last_update":"0001-01-01T00:00:00Z","name_a2s":"Uncletopia | Warsaw | 5 | Stopwatch","protocol":17,"map":"workshop/koth_ramjam_rc1.ugc459778887","folder":"tf","game":"Team Fortress","app_id":440,"player_count":0,"max_players":24,"Bots":0,"server_type":"Dedicated","server_os":"Linux","password":true,"vac":true,"version":"7961495","steam_id":85568392925397854,"keywords":["cp","nocrits","nodmgspread","uncletopia"],"game_id":440,"stv_port":27056,"stv_name":"Uncletopia | Warsaw | 5 | Stopwatch | STV","players":null},{"server_id":54,"name":"Uncletopia | Warsaw | 6 | Community","name_short":"waw-6","host":"waw-1.pl.uncletopia.com","port":27065,"enabled":true,"region":"eu","cc":"pl","latitude":52.2297,"longitude":21.017532,"reserved":0,"last_update":"0001-01-01T00:00:00Z","name_a2s":"Uncletopia | Warsaw | 6 | Community","protocol":17,"map":"workshop/cp_bruhstbowl_b6.ugc2878604990","folder":"tf","game":"Team Fortress","app_id":440,"player_count":0,"max_players":24,"Bots":0,"server_type":"Dedicated","server_os":"Linux","password":true,"vac":true,"version":"7961495","steam_id":85568392925397856,"keywords":["cp","nocrits","nodmgspread","uncletopia"],"game_id":440,"stv_port":27066,"stv_name":"Uncletopia | Warsaw | 6 | Community | STV","players":null}]}