{"status":true,"message":"","result":[{"server_id":9,"name":"Uncletopia | Atlanta | 1 | All Maps","name_short":"atl-1","host":"atl-1.us.uncletopia.com","port":27015,"enabled":true,"region":"us-east","cc":"us","latitude":33.753746,"longitude":-84.38633,"reserved":0,"last_update":"0001-01-01T00:00:00Z","name_a2s":"Uncletopia | Atlanta | 1 | All Maps","protocol":17,"map":"koth_lakeside_final","folder":"tf","game":"Team Fortress","app_id":440,"player_count":0,"max_players":24,"Bots":0,"server_type":"Dedicated","server_os":"Linux","password":true,"vac":true,"version":"7961495","steam_id":85568392924469982,"keywords":["cp","nocrits","nodmgspread","uncletopia"],"game_id":440,"stv_port":27016,"stv_name":"Uncletopia | Atlanta | 1 | All Maps | STV","players":null},{"server_id":104,"name":"Uncletopia | Atlanta | 2 | All Maps","name_short":"atl-2","host":"atl-1.us.uncletopia.com","port":27025,"enabled":true,"region":"us-east","cc":"us","latitude":33.753746,"longitude":-84.38633,"reserved":0,"last_update":"0001-01-01T00:00:00Z","name_a2s":"Uncletopia | Atlanta | 2 | All Maps","protocol":17,"map":"cp_badlands","folder":"tf","game":"Team Fortress","app_id":440,"player_count":0,"max_players":24,"Bots":0,"server_type":"Dedicated","server_os":"Linux","password":true,"vac":true,"version":"7961495","steam_id":85568392924469983,"keywords":["cp","nocrits","nodmgspread","uncletopia"],"game_id":440,"stv_port":27026,"stv_name":"Uncletopia | Atlanta | 2 | All Maps | STV","players":null},{"server_id":400,"name":"Uncletopia | Atlanta | 3 | Stopwatch","name_short":"atl-3","host":"atl-1.us.uncletopia.com","port":27035,"enabled":true,"region":"us-east","cc":"us","latitude":33.753746,"longitude":-84.38633,"reserved":0,"last_update":"0001-01-01T00:00:00Z","name_a2s":"Uncletopia | Atlanta | 3 | Stopwatch","protocol":17,"map":"workshop/koth_ashville_final.ugc2130459942","folder":"tf","game":"Team Fortress","app_id":440,"player_count":0,"max_players":24,"Bots":0,"server_type":"Dedicated","server_os":"Linux","password":true,"vac":true,"version":"7961495","steam_id":85568392924515187,"keywords":["cp","nocrits","nodmgspread","uncletopia"],"game_id":440,"stv_port":27036,"stv_name":"Uncletopia | Atlanta | 3 | Stopwatch | STV","players":null},{"server_id":401,"name":"Uncletopia | Atlanta | 4 | Community","name_short":"atl-4","host":"atl-1.us.uncletopia.com","port":27045,"enabled":true,"region":"us-east","cc":"us","latitude":33.753746,"longitude":-84.38633,"reserved":0,"last_update":"0001-01-01T00:00:00Z","name_a2s":"Uncletopia | Atlanta | 4 | Community","protocol":17,"map":"workshop/pl_badwater_pro_v12.ugc2142942074","folder":"tf","game":"Team Fortress","app_id":440,"player_count":0,"max_players":24,"Bots":0,"server_type":"Dedicated","server_os":"Linux","password":true,"vac":true,"version":"7961495","steam_id":85568392924515188,"keywords":["nocrits","nodmgspread","payload","uncletopia"],"game_id":440,"stv_port":27046,"stv_name":"Uncletopia | Atlanta | 4 | Community | STV","players":null},{"server_id":2,"name":"Uncletopia | Chicago | 1 | All Maps","name_short":"chi-1","host":"chi-1.us.uncletopia.com","port":27015,"enabled":true,"region":"us-central","cc":"us","latitude":41.881832,"longitude":-87.62318,"reserved":0,"last_update":"0001-01-01T00:00:00Z","name_a2s":"Uncletopia | Chicago | 1 | All Maps","protocol":17,"map":"pl_pier","folder":"tf","game":"Team Fortress","app_id":440,"player_count":22,"max_players":24,"Bots":0,"server_type":"Dedicated","server_os":"Linux","password":true,"vac":true,"version":"7961495","steam_id":85568392924469984,"keywords":["nocrits","nodmgspread","payload","uncletopia"],"game_id":440,"stv_port":27016,"stv_name":"Uncletopia | Chicago | 1 | All Maps | STV","players":[{"user_id":874,"name":"party hat [FGCP]","steam_id":76561198044268609,"connected_time":1968000000000,"state":"active","ping":65},{"user_id":893,"name":"wugmup","steam_id":76561199096287734,"connected_time":87000000000,"state":"active","ping":102},{"user_id":880,"name":"twinbl0ck","steam_id":76561198157414556,"connected_time":1561000000000,"state":"active","ping":67},{"user_id":883,"name":"‚ùÑÔ∏èIce‚ùÑÔ∏è(Recovered)","steam_id":76561198090799306,"connected_time":802000000000,"state":"active","ping":75},{"user_id":892,"name":"Vittripps","steam_id":76561198346614672,"connected_time":191000000000,"state":"active","ping":96},{"user_id":851,"name":"Coolant","steam_id":76561198353456379,"connected_time":3163000000000,"state":"active","ping":61},{"user_id":879,"name":"Distraction","steam_id":76561199445895882,"connected_time":1626000000000,"state":"active","ping":58},{"user_id":882,"name":"pupy","steam_id":76561198056158882,"connected_time":921000000000,"state":"active","ping":82},{"user_id":894,"name":"4Real","steam_id":76561199051709367,"connected_time":82000000000,"state":"active","ping":74},{"user_id":891,"name":"don","steam_id":76561198204410892,"connected_time":237000000000,"state":"active","ping":75},{"user_id":854,"name":"Pongallow","steam_id":76561198146876078,"connected_time":3118000000000,"state":"active","ping":45},{"user_id":860,"name":"{FITH}‚Ñ¢ Tnega Libram","steam_id":76561197997973526,"connected_time":2929000000000,"state":"active","ping":60},{"user_id":895,"name":"Gimme your Teeth","steam_id":76561198240523882,"connected_time":76000000000,"state":"active","ping":92},{"user_id":889,"name":"Kamin","steam_id":76561198255299559,"connected_time":249000000000,"state":"active","ping":75},{"user_id":890,"name":"Stryker","steam_id":76561198101240243,"connected_time":245000000000,"state":"active","ping":107},{"user_id":861,"name":"pilk drinker","steam_id":76561198181153199,"connected_time":2867000000000,"state":"active","ping":82},{"user_id":876,"name":"Enigmashun","steam_id":76561198061206446,"connected_time":1901000000000,"state":"active","ping":90},{"user_id":896,"name":"zeel107","steam_id":76561198063892990,"connected_time":23000000000,"state":"spawning","ping":132},{"user_id":897,"name":"Big Ol' Hat","steam_id":76561198160198066,"connected_time":9000000000,"state":"spawning","ping":61},{"user_id":862,"name":"moe","steam_id":76561198929586245,"connected_time":2379000000000,"state":"active","ping":100},{"user_id":833,"name":"ùíØùíΩùíæùìáùìâùìé ùí©\ufffd\ufffd","steam_id":76561198111878431,"connected_time":4396000000000,"state":"active","ping":95},{"user_id":834,"name":"LostVoid","steam_id":76561198259983156,"connected_time":4394000000000,"state":"active","ping":56}]},{"server_id":106,"name":"Uncletopia | Chicago | 2 | All Maps","name_short":"chi-2","host":"chi-1.us.uncletopia.com","port":27025,"enabled":true,"region":"us-central","cc":"us","latitude":41.881832,"longitude":-87.62318,"reserved":0,"last_update":"0001-01-01T00:00:00Z","name_a2s":"Uncletopia | Chicago | 2 | All Maps","protocol":17,"map":"pl_thundermountain","folder":"tf","game":"Team Fortress","app_id":440,"player_count":24,"max_players":24,"Bots":0,"server_type":"Dedicated","server_os":"Linux","password":true,"vac":true,"version":"7961495","steam_id":85568392924469985,"keywords":["nocrits","nodmgspread","payload","uncletopia"],"game_id":440,"stv_port":27026,"stv_name":"Uncletopia | Chicago | 2 | All Maps | STV","players":[{"user_id":1052,"name":"\u003c3","steam_id":76561198196829267,"connected_time":985000000000,"state":"active","ping":111},{"user_id":982,"name":"FMT_Player","steam_id":76561198346810180,"connected_time":8189000000000,"state":"active","ping":90},{"user_id":984,"name":"‚ô•CharaÂñúÁîüÂ≠ê‚ô•","steam_id":76561198080500920,"connected_time":7991000000000,"state":"active","ping":115},{"user_id":1033,"name":"A very nice man","steam_id":76561198165472253,"connected_time":3532000000000,"state":"active","ping":78},{"user_id":1050,"name":"ANueUtsuho","steam_id":76561198178051491,"connected_time":1096000000000,"state":"active","ping":76},{"user_id":1049,"name":"consider shucking","steam_id":76561198042682297,"connected_time":1115000000000,"state":"active","ping":30},{"user_id":1051,"name":"november","steam_id":76561198042748172,"connected_time":1096000000000,"state":"active","ping":45},{"user_id":1031,"name":"Son of the Resurrection","steam_id":76561198048507430,"connected_time":3655000000000,"state":"active","ping":97},{"user_id":1053,"name":"Congcrab","steam_id":76561198078687685,"connected_time":922000000000,"state":"active","ping":75},{"user_id":1061,"name":"Woodstock","steam_id":76561198041442667,"connected_time":525000000000,"state":"active","ping":105},{"user_id":1067,"name":"Big Chungus Gaming","steam_id":76561198068794194,"connected_time":117000000000,"state":"active","ping":53},{"user_id":1015,"name":"motherfucker 2.0","steam_id":76561198141189209,"connected_time":4877000000000,"state":"active","ping":64},{"user_id":1054,"name":"That Girl With A K","steam_id":76561198317602350,"connected_time":916000000000,"state":"active","ping":73},{"user_id":1001,"name":"Aegle","steam_id":76561198871463455,"connected_time":6807000000000,"state":"active","ping":91},{"user_id":1055,"name":"clover_pirate","steam_id":76561199165896684,"connected_time":853000000000,"state":"active","ping":70},{"user_id":1056,"name":"[R–Ø] ShibesGoneWow","steam_id":76561198036090516,"connected_time":838000000000,"state":"active","ping":65},{"user_id":1062,"name":"Dingus","steam_id":76561198121488783,"connected_time":515000000000,"state":"active","ping":106},{"user_id":1058,"name":"Tobo","steam_id":76561198085846393,"connected_time":672000000000,"state":"active","ping":77},{"user_id":1059,"name":"Dr. Quack","steam_id":76561198260753684,"connected_time":671000000000,"state":"active","ping":56},{"user_id":1047,"name":"manbearswineflu","steam_id":76561198083945137,"connected_time":1449000000000,"state":"active","ping":54},{"user_id":1021,"name":"Therapy Goth","steam_id":76561198048448497,"connected_time":4374000000000,"state":"active","ping":69},{"user_id":1022,"name":"Violet The Derg","steam_id":76561198002525691,"connected_time":4372000000000,"state":"active","ping":90},{"user_id":1060,"name":"Jackpot-7","steam_id":76561198103515747,"connected_time":661000000000,"state":"active","ping":91},{"user_id":1024,"name":"TheREAL$wizz1eTTV","steam_id":76561198051666604,"connected_time":4322000000000,"state":"active","ping":61}]},{"server_id":402,"name":"Uncletopia | Chicago | 3 | All Maps","name_short":"chi-3","host":"chi-1.us.uncletopia.com","port":27035,"enabled":true,"region":"us-central","cc":"us","latitude":41.881832,"longitude":-87.62318,"reserved":0,"last_update":"0001-01-01T00:00:00Z","name_a2s":"Uncletopia | Chicago | 3 | All Maps","protocol":17,"map":"cp_sunshine","folder":"tf","game":"Team Fortress","app_id":440,"player_count":0,"max_players":24,"Bots":0,"server_type":"Dedicated","server_os":"Linux","password":true,"vac":true,"version":"7961495","steam_id":85568392924515191,"keywords":["cp","nocrits","nodmgspread","uncletopia"],"game_id":440,"stv_port":27036,"stv_name":"Uncletopia | Chicago | 3 | All Maps | STV","players":null},{"server_id":403,"name":"Uncletopia | Chicago | 4 | All Maps","name_short":"chi-4","host":"chi-1.us.uncletopia.com","port":27045,"enabled":true,"region":"us-central","cc":"us","latitude":41.881832,"longitude":-87.62318,"reserved":0,"last_update":"0001-01-01T00:00:00Z","name_a2s":"Uncletopia | Chicago | 4 | All Maps","protocol":17,"map":"pl_pier","folder":"tf","game":"Team Fortress","app_id":440,"player_count":0,"max_players":24,"Bots":0,"server_type":"Dedicated","server_os":"Linux","password":true,"vac":true,"version":"7961495","steam_id":85568392924515193,"keywords":["nocrits","nodmgspread","payload","uncletopia"],"game_id":440,"stv_port":27046,"stv_name":"Uncletopia | Chicago | 4 | All Maps | STV","players":null},{"server_id":36,"name":"Uncletopia | Chicago | 5 | All Maps","name_short":"chi-5","host":"chi-2.us.uncletopia.com","port":27015,"enabled":true,"region":"us-central","cc":"us","latitude":41.881832,"longitude":-87.62318,"reserved":0,"last_update":"0001-01-01T00:00:00Z","name_a2s":"Uncletopia | Chicago | 5 | All Maps","protocol":17,"map":"koth_highpass","folder":"tf","game":"Team Fortress","app_id":440,"player_count":0,"max_players":24,"Bots":0,"server_type":"Dedicated","server_os":"Linux","password":true,"vac":true,"version":"7961495","steam_id":85568392924866362,"keywords":["cp","nocrits","nodmgspread","uncletopia"],"game_id":440,"stv_port":27016,"stv_name":"Uncletopia | Chicago | 5 | All Maps | STV","players":null},{"server_id":37,"name":"Uncletopia | Chicago | 6 | All Maps","name_short":"chi-6","host":"chi-2.us.uncletopia.com","port":27025,"enabled":true,"region":"us-central","cc":"us","latitude":41.881832,"longitude":-87.62318,"reserved":0,"last_update":"0001-01-01T00:00:00Z","name_a2s":"Uncletopia | Chicago | 6 | All Maps","protocol":17,"map":"koth_viaduct","folder":"tf","game":"Team Fortress","app_id":440,"player_count":0,"max_players":24,"Bots":0,"server_type":"Dedicated","server_os":"Linux","password":true,"vac":true,"version":"7961495","steam_id":85568392924866363,"keywords":["cp","nocrits","nodmgspread","uncletopia"],"game_id":440,"stv_port":27026,"stv_name":"Uncletopia | Chicago | 6 | All Maps | STV","players":null},{"server_id":38,"name":"Uncletopia | Chicago | 7 | Stopwatch","name_short":"chi-7","host":"chi-2.us.uncletopia.com","port":27035,"enabled":true,"region":"us-central","cc":"us","latitude":41.881832,"longitude":-87.62318,"reserved":0,"last_update":"0001-01-01T00:00:00Z","name_a2s":"Uncletopia | Chicago | 7 | Stopwatch","protocol":17,"map":"pl_upward","folder":"tf","game":"Team Fortress","app_id":440,"player_count":0,"max_players":24,"Bots":0,"server_type":"Dedicated","server_os":"Linux","password":true,"vac":true,"version":"7961495","steam_id":85568392924866364,"keywords":["nocrits","nodmgspread","payload","uncletopia"],"game_id":440,"stv_port":27036,"stv_name":"Uncletopia | Chicago | 7 | Stopwatch | STV","players":null},{"server_id":39,"name":"Uncletopia | Chicago | 8 | Community","name_short":"chi-8","host":"chi-2.us.uncletopia.com","port":27045,"enabled":true,"region":"us-central","cc":"us","latitude":41.881832,"longitude":-87.62318,"reserved":0,"last_update":"0001-01-01T00:00:00Z","name_a2s":"Uncletopia | Chicago | 8 | Community","protocol":17,"map":"workshop/pl_corrode_rc2.ugc546577989","folder":"tf","game":"Team Fortress","app_id":440,"player_count":0,"max_players":24,"Bots":0,"server_type":"Dedicated","server_os":"Linux","password":true,"vac":true,"version":"7961495","steam_id":85568392924866365,"keywords":["nocrits","nodmgspread","payload","uncletopia"],"game_id":440,"stv_port":27046,"stv_name":"Uncletopia | Chicago | 8 | Community | STV","players":null},{"server_id":8,"name":"Uncletopia | Dallas | 1 | All Maps","name_short":"dal-1","host":"dal-1.us.uncletopia.com","port":27015,"enabled":true,"region":"us-central","cc":"us","latitude":32.779167,"longitude":-96.80889,"reserved":0,"last_update":"0001-01-01T00:00:00Z","name_a2s":"Uncletopia | Dallas | 1 | All Maps","protocol":17,"map":"cp_sunshine","folder":"tf","game":"Team Fortress","app_id":440,"player_count":24,"max_players":24,"Bots":0,"server_type":"Dedicated","server_os":"Linux","password":true,"vac":true,"version":"7961495","steam_id":85568392924469986,"keywords":["cp","nocrits","nodmgspread","uncletopia"],"game_id":440,"stv_port":27016,"stv_name":"Uncletopia | Dallas | 1 | All Maps | STV","players":[{"user_id":565,"name":"deez","steam_id":76561198073985014,"connected_time":1900000000000,"state":"active","ping":60},{"user_id":487,"name":"tunaa","steam_id":76561198362763159,"connected_time":10630000000000,"state":"active","ping":75},{"user_id":529,"name":"^5t^6i^5n^6y","steam_id":76561198010743348,"connected_time":6823000000000,"state":"active","ping":45},{"user_id":562,"name":"nanachi fister","steam_id":76561198040768114,"connected_time":2987000000000,"state":"active","ping":52},{"user_id":563,"name":"GurkhaChop","steam_id":76561198033817841,"connected_time":2225000000000,"state":"active","ping":47},{"user_id":582,"name":"senaps","steam_id":76561198271524627,"connected_time":448000000000,"state":"active","ping":47},{"user_id":584,"name":"*BaTaX*","steam_id":76561198185681331,"connected_time":250000000000,"state":"active","ping":170},{"user_id":522,"name":"-Sp√Æd√™r-","steam_id":76561198064531248,"connected_time":7616000000000,"state":"active","ping":59},{"user_id":544,"name":"Drakon","steam_id":76561198078210822,"connected_time":5616000000000,"state":"active","ping":79},{"user_id":567,"name":"FI LO","steam_id":76561198976530881,"connected_time":1727000000000,"state":"active","ping":62},{"user_id":540,"name":"I actually hit you? LOL","steam_id":76561198073307396,"connected_time":5827000000000,"state":"active","ping":105},{"user_id":483,"name":"Just Juanito","steam_id":76561198241446874,"connected_time":11862000000000,"state":"active","ping":76},{"user_id":575,"name":"crunchy obama","steam_id":76561198044485217,"connected_time":1084000000000,"state":"active","ping":99},{"user_id":570,"name":"ShadowWasUhOh","steam_id":76561198400361935,"connected_time":1428000000000,"state":"active","ping":77},{"user_id":583,"name":"no vc no c","steam_id":76561197989503095,"connected_time":363000000000,"state":"active","ping":168},{"user_id":536,"name":"runescape legend","steam_id":76561198077791373,"connected_time":6245000000000,"state":"active","ping":76},{"user_id":571,"name":"squabble","steam_id":76561198955248082,"connected_time":1356000000000,"state":"active","ping":81},{"user_id":578,"name":"Game Broke No Fix","steam_id":76561198028271650,"connected_time":988000000000,"state":"active","ping":117},{"user_id":538,"name":"Metbol","steam_id":76561198001362410,"connected_time":6205000000000,"state":"active","ping":61},{"user_id":573,"name":"Mr.Videogames","steam_id":76561198058879108,"connected_time":1245000000000,"state":"active","ping":153},{"user_id":574,"name":"mp4 ?","steam_id":76561198826820952,"connected_time":1149000000000,"state":"active","ping":84},{"user_id":535,"name":"bootyman·¥∏·¥Æ·¥¥","steam_id":76561198322206140,"connected_time":6707000000000,"state":"active","ping":133},{"user_id":580,"name":"obama","steam_id":76561198313940358,"connected_time":618000000000,"state":"active","ping":78},{"user_id":579,"name":"jek","steam_id":76561198097816136,"connected_time":955000000000,"state":"active","ping":89}]},{"server_id":108,"name":"Uncletopia | Dallas | 2 | All Maps","name_short":"dal-2","host":"dal-1.us.uncletopia.com","port":27025,"enabled":true,"region":"us-central","cc":"us","latitude":32.779167,"longitude":-96.80889,"reserved":0,"last_update":"0001-01-01T00:00:00Z","name_a2s":"Uncletopia | Dallas | 2 | All Maps","protocol":17,"map":"pl_badwater","folder":"tf","game":"Team Fortress","app_id":440,"player_count":0,"max_players":24,"Bots":0,"server_type":"Dedicated","server_os":"Linux","password":true,"vac":true,"version":"7961495","steam_id":85568392924469988,"keywords":["nocrits","nodmgspread","payload","uncletopia"],"game_id":440,"stv_port":27026,"stv_name":"Uncletopia | Dallas | 2 | All Maps | STV","players":null},{"server_id":404,"name":"Uncletopia | Dallas | 3 | All Maps","name_short":"dal-3","host":"dal-1.us.uncletopia.com","port":27035,"enabled":true,"region":"us-central","cc":"us","latitude":32.779167,"longitude":-96.80889,"reserved":0,"last_update":"0001-01-01T00:00:00Z","name_a2s":"Uncletopia | Dallas | 3 | All Maps","protocol":17,"map":"koth_lakeside_final","folder":"tf","game":"Team Fortress","app_id":440,"player_count":0,"max_players":24,"Bots":0,"server_type":"Dedicated","server_os":"Linux","password":true,"vac":true,"version":"7961495","steam_id":85568392924515219,"keywords":["cp","nocrits","nodmgspread","uncletopia"],"game_id":440,"stv_port":27036,"stv_name":"Uncletopia | Dallas | 3 | All Maps | STV","players":null},{"server_id":405,"name":"Uncletopia | Dallas | 4 | Community","name_short":"dal-4","host":"dal-1.us.uncletopia.com","port":27045,"enabled":true,"region":"us-central","cc":"us","latitude":32.779167,"longitude":-96.80889,"reserved":0,"last_update":"0001-01-01T00:00:00Z","name_a2s":"Uncletopia | Dallas | 4 | Community","protocol":17,"map":"workshop/koth_ashville_final.ugc2130459942","folder":"tf","game":"Team Fortress","app_id":440,"player_count":0,"max_players":24,"Bots":0,"server_type":"Dedicated","server_os":"Linux","password":true,"vac":true,"version":"7961495","steam_id":85568392924515220,"keywords":["cp","nocrits","nodmgspread","uncletopia"],"game_id":440,"stv_port":27046,"stv_name":"Uncletopia | Dallas | 4 | Community | STV","players":null},{"server_id":5,"name":"Uncletopia | Frankfurt | 1 | All Maps","name_short":"frk-1","host":"frk-1.de.uncletopia.com","port":27015,"enabled":true,"region":"eu","cc":"de","latitude":50.110924,"longitude":8.682127,"reserved":0,"last_update":"0001-01-01T00:00:00Z","name_a2s":"Uncletopia | Frankfurt | 1 | All Maps","protocol":17,"map":"koth_highpass","folder":"tf","game":"Team Fortress","app_id":440,"player_count":24,"max_players":24,"Bots":0,"server_type":"Dedicated","server_os":"Linux","password":true,"vac":true,"version":"7961495","steam_id":85568392924469989,"keywords":["cp","nocrits","nodmgspread","uncletopia"],"game_id":440,"stv_port":27016,"stv_name":"Uncletopia | Frankfurt | 1 | All Maps | STV","players":[{"user_id":122,"name":"minuscule portions of clowning","steam_id":76561198059535856,"connected_time":1204000000000,"state":"active","ping":165},{"user_id":101,"name":"German Prick","steam_id":76561198181410637,"connected_time":3006000000000,"state":"active","ping":40},{"user_id":124,"name":"Fat Pigeon","steam_id":76561198817940142,"connected_time":338000000000,"state":"active","ping":54},{"user_id":66,"name":"Spajro","steam_id":76561198257383813,"connected_time":7316000000000,"state":"active","ping":44},{"user_id":123,"name":"DarkFloy bussin no cap","steam_id":76561198070650206,"connected_time":343000000000,"state":"active","ping":84},{"user_id":111,"name":"kreoflfl","steam_id":76561198111823650,"connected_time":1742000000000,"state":"active","ping":127},{"user_id":113,"name":"Owlet","steam_id":76561198065613974,"connected_time":1702000000000,"state":"active","ping":78},{"user_id":44,"name":"Rather Competent Gibus","steam_id":76561199008809107,"connected_time":10166000000000,"state":"active","ping":81},{"user_id":125,"name":"dirtmud","steam_id":76561199507018677,"connected_time":266000000000,"state":"active","ping":90},{"user_id":92,"name":"Blar","steam_id":76561198042438229,"connected_time":4037000000000,"state":"active","ping":55},{"user_id":104,"name":"‚òÅ Lou1smeister ‚òÅ","steam_id":76561198004032968,"connected_time":2854000000000,"state":"active","ping":74},{"user_id":88,"name":"Kr√≥licki_","steam_id":76561199109915352,"connected_time":4843000000000,"state":"active","ping":53},{"user_id":126,"name":"No Further Appeasement","steam_id":76561198050737972,"connected_time":263000000000,"state":"active","ping":55},{"user_id":127,"name":"Lenupera**","steam_id":76561198172960435,"connected_time":257000000000,"state":"active","ping":77},{"user_id":48,"name":"lulu","steam_id":76561199147764133,"connected_time":10056000000000,"state":"active","ping":75},{"user_id":106,"name":"Billy Herrington","steam_id":76561198205193503,"connected_time":2225000000000,"state":"active","ping":76},{"user_id":108,"name":"alfus","steam_id":76561198071003109,"connected_time":1999000000000,"state":"active","ping":60},{"user_id":103,"name":"goop","steam_id":76561198190073005,"connected_time":2922000000000,"state":"active","ping":53},{"user_id":128,"name":"tame impala","steam_id":76561199085624224,"connected_time":256000000000,"state":"active","ping":69},{"user_id":115,"name":"mob","steam_id":76561198099696876,"connected_time":1662000000000,"state":"active","ping":66},{"user_id":98,"name":"Davido01","steam_id":76561198089406245,"connected_time":3667000000000,"state":"active","ping":49},{"user_id":121,"name":"Yonio","steam_id":76561198408428132,"connected_time":1406000000000,"state":"active","ping":72},{"user_id":91,"name":"xavier","steam_id":76561198076494034,"connected_time":4056000000000,"state":"active","ping":53},{"user_id":68,"name":"walter","steam_id":76561198021950957,"connected_time":7287000000000,"state":"active","ping":97}]},{"server_id":110,"name":"Uncletopia | Frankfurt | 2 | All Maps","name_short":"frk-2","host":"frk-1.de.uncletopia.com","port":27025,"enabled":true,"region":"eu","cc":"de","latitude":50.110924,"longitude":8.682127,"reserved":0,"last_update":"0001-01-01T00:00:00Z","name_a2s":"Uncletopia | Frankfurt | 2 | All Maps","protocol":17,"map":"koth_king","folder":"tf","game":"Team Fortress","app_id":440,"player_count":21,"max_players":24,"Bots":0,"server_type":"Dedicated","server_os":"Linux","password":true,"vac":true,"version":"7961495","steam_id":85568392924469990,"keywords":["cp","nocrits","nodmgspread","uncletopia"],"game_id":440,"stv_port":27026,"stv_name":"Uncletopia | Frankfurt | 2 | All Maps | STV","players":[{"user_id":151,"name":"Dolcelatte","steam_id":76561198038501770,"connected_time":1236000000000,"state":"active","ping":45},{"user_id":120,"name":"—Ç—É–∫–∫—É –∏—Ä–º–∞","steam_id":76561197998715016,"connected_time":3095000000000,"state":"active","ping":60},{"user_id":166,"name":"dex","steam_id":76561198095560087,"connected_time":47000000000,"state":"active","ping":62},{"user_id":142,"name":"Monke Hartmann","steam_id":76561198281389701,"connected_time":1740000000000,"state":"active","ping":82},{"user_id":137,"name":"Ma\u003c4\u003eTsi/K0lf","steam_id":76561198079823048,"connected_time":2088000000000,"state":"active","ping":47},{"user_id":161,"name":"T/5. Cernuno [16th IR]","steam_id":76561197977897110,"connected_time":453000000000,"state":"active","ping":74},{"user_id":157,"name":"lillunya ‚ô°","steam_id":76561198330418866,"connected_time":885000000000,"state":"active","ping":51},{"user_id":160,"name":"Prox","steam_id":76561198351490981,"connected_time":472000000000,"state":"active","ping":45},{"user_id":165,"name":"Burgoo_King","steam_id":76561198133572225,"connected_time":87000000000,"state":"active","ping":74},{"user_id":136,"name":"bogdog","steam_id":76561198095995208,"connected_time":2124000000000,"state":"active","ping":52},{"user_id":154,"name":"a pan furry","steam_id":76561199445662628,"connected_time":1174000000000,"state":"active","ping":157},{"user_id":111,"name":"ŒìŒ±œÑŒØ","steam_id":76561198347020945,"connected_time":3888000000000,"state":"active","ping":82},{"user_id":139,"name":"Mr.Mogus","steam_id":76561198202441870,"connected_time":1890000000000,"state":"active","ping":59},{"user_id":163,"name":"Hurans","steam_id":76561198064853199,"connected_time":336000000000,"state":"active","ping":50},{"user_id":164,"name":"spy","steam_id":76561199402711007,"connected_time":276000000000,"state":"active","ping":116},{"user_id":158,"name":"Zyned","steam_id":76561198308711585,"connected_time":789000000000,"state":"active","ping":74},{"user_id":128,"name":"golyama ma√Ømuna","steam_id":76561198111807532,"connected_time":2529000000000,"state":"active","ping":59},{"user_id":146,"name":"Pestilence","steam_id":76561198140938904,"connected_time":1346000000000,"state":"active","ping":59},{"user_id":49,"name":"thog","steam_id":76561198219901556,"connected_time":7924000000000,"state":"active","ping":93},{"user_id":156,"name":"tealoverr.190","steam_id":76561199028497703,"connected_time":1097000000000,"state":"active","ping":102},{"user_id":132,"name":"I'm past the point of insanity","steam_id":76561198800954471,"connected_time":2432000000000,"state":"active","ping":76}]},{"server_id":308,"name":"Uncletopia | Frankfurt | 3 | All Maps","name_short":"frk-3","host":"frk-1.de.uncletopia.com","port":27035,"enabled":true,"region":"eu","cc":"de","latitude":50.110924,"longitude":8.682127,"reserved":0,"last_update":"0001-01-01T00:00:00Z","name_a2s":"Uncletopia | Frankfurt | 3 | All Maps","protocol":17,"map":"cp_process_final","folder":"tf","game":"Team Fortress","app_id":440,"player_count":0,"max_players":24,"Bots":0,"server_type":"Dedicated","server_os":"Linux","password":true,"vac":true,"version":"7961495","steam_id":85568392924504274,"keywords":["cp","nocrits","nodmgspread","uncletopia"],"game_id":440,"stv_port":27036,"stv_name":"Uncletopia | Frankfurt | 3 | All Maps | STV","players":null},{"server_id":309,"name":"Uncletopia | Frankfurt | 4 | All Maps","name_short":"frk-4","host":"frk-1.de.uncletopia.com","port":27045,"enabled":true,"region":"eu","cc":"de","latitude":50.110924,"longitude":8.682127,"reserved":0,"last_update":"0001-01-01T00:00:00Z","name_a2s":"Uncletopia | Frankfurt | 4 | All Maps","protocol":17,"map":"cp_gorge","folder":"tf","game":"Team Fortress","app_id":440,"player_count":0,"max_players":24,"Bots":0,"server_type":"Dedicated","server_os":"Linux","password":true,"vac":true,"version":"7961495","steam_id":85568392924504275,"keywords":["cp","nocrits","nodmgspread","uncletopia"],"game_id":440,"stv_port":27046,"stv_name":"Uncletopia | Frankfurt | 4 | All Maps | STV","players":null},{"server_id":310,"name":"Uncletopia | Frankfurt | 5 | All Maps","name_short":"frk-5","host":"frk-1.de.uncletopia.com","port":27055,"enabled":true,"region":"eu","cc":"de","latitude":50.110924,"longitude":8.682127,"reserved":0,"last_update":"0001-01-01T00:00:00Z","name_a2s":"Uncletopia | Frankfurt | 5 | All Maps","protocol":17,"map":"koth_nucleus","folder":"tf","game":"Team Fortress","app_id":440,"player_count":0,"max_players":24,"Bots":0,"server_type":"Dedicated","server_os":"Linux","password":true,"vac":true,"version":"7961495","steam_id":85568392924504277,"keywords":["cp","nocrits","nodmgspread","uncletopia"],"game_id":440,"stv_port":27056,"stv_name":"Uncletopia | Frankfurt | 5 | All Maps | STV","players":null},{"server_id":311,"name":"Uncletopia | Frankfurt | 6 | All Maps","name_short":"frk-6","host":"frk-1.de.uncletopia.com","port":27065,"enabled":true,"region":"eu","cc":"de","latitude":50.110924,"longitude":8.682127,"reserved":0,"last_update":"0001-01-01T00:00:00Z","name_a2s":"Uncletopia | Frankfurt | 6 | All Maps","protocol":17,"map":"koth_lakeside_final","folder":"tf","game":"Team Fortress","app_id":440,"player_count":0,"max_players":24,"Bots":0,"server_type":"Dedicated","server_os":"Linux","password":true,"vac":true,"version":"7961495","steam_id":85568392924504278,"keywords":["cp","nocrits","nodmgspread","uncletopia"],"game_id":440,"stv_port":27066,"stv_name":"Uncletopia | Frankfurt | 6 | All Maps | STV","players":null},{"server_id":23,"name":"Uncletopia | Frankfurt | 7 | Stopwatch","name_short":"frk-7","host":"frk-1.de.uncletopia.com","port":27075,"enabled":true,"region":"eu","cc":"de","latitude":50.110924,"longitude":8.682127,"reserved":0,"last_update":"0001-01-01T00:00:00Z","name_a2s":"Uncletopia | Frankfurt | 7 | Stopwatch","protocol":17,"map":"cp_sunshine","folder":"tf","game":"Team Fortress","app_id":440,"player_count":0,"max_players":24,"Bots":0,"server_type":"Dedicated","server_os":"Linux","password":true,"vac":true,"version":"7961495","steam_id":85568392924742827,"keywords":["cp","nocrits","nodmgspread","uncletopia"],"game_id":440,"stv_port":27076,"stv_name":"Uncletopia | Frankfurt | 7 | Stopwatch | STV","players":null},{"server_id":24,"name":"Uncletopia | Frankfurt | 8 | Community","name_short":"frk-8","host":"frk-1.de.uncletopia.com","port":27085,"enabled":true,"region":"eu","cc":"de","latitude":50.110924,"longitude":8.682127,"reserved":0,"last_update":"0001-01-01T00:00:00Z","name_a2s":"Uncletopia | Frankfurt | 8 | Community","protocol":17,"map":"workshop/pl_boundary_final1.ugc456799153","folder":"tf","game":"Team Fortress","app_id":440,"player_count":0,"max_players":24,"Bots":0,"server_type":"Dedicated","server_os":"Linux","password":true,"vac":true,"version":"7961495","steam_id":85568392924742828,"keywords":["nocrits","nodmgspread","payload","uncletopia"],"game_id":440,"stv_port":27086,"stv_name":"Uncletopia | Frankfurt | 8 | Community | STV","players":null},{"server_id":202,"name":"Uncletopia | Hong Kong | 1 | All Maps","name_short":"hgk-1","host":"hgk-1.hk.uncletopia.com","port":27015,"enabled":true,"region":"asia","cc":"hk","latitude":22.302711,"longitude":114.177216,"reserved":0,"last_update":"0001-01-01T00:00:00Z","name_a2s":"Uncletopia | Hong Kong | 1 | All Maps","protocol":17,"map":"pl_swiftwater_final1","folder":"tf","game":"Team Fortress","app_id":440,"player_count":24,"max_players":24,"Bots":0,"server_type":"Dedicated","server_os":"Linux","password":true,"vac":true,"version":"7961495","steam_id":85568392924494504,"keywords":["nocrits","nodmgspread","payload","uncletopia"],"game_id":440,"stv_port":27016,"stv_name":"Uncletopia | Hong Kong | 1 | All Maps | STV","players":[{"user_id":143,"name":"average 2fort enjoyer","steam_id":76561198062112214,"connected_time":2171000000000,"state":"active","ping":117},{"user_id":125,"name":"Prof Booster","steam_id":76561199148930929,"connected_time":4072000000000,"state":"active","ping":36},{"user_id":89,"name":"toad‚ô°","steam_id":76561198082199290,"connected_time":6857000000000,"state":"active","ping":42},{"user_id":92,"name":"killman47","steam_id":76561198348487408,"connected_time":6823000000000,"state":"active","ping":41},{"user_id":55,"name":"screamer","steam_id":76561198147950041,"connected_time":9282000000000,"state":"active","ping":80},{"user_id":153,"name":"Maxi2K","steam_id":76561198826352980,"connected_time":1395000000000,"state":"active","ping":153},{"user_id":118,"name":"Pillboi","steam_id":76561198011172886,"connected_time":4894000000000,"state":"active","ping":39},{"user_id":69,"name":"Lelouch","steam_id":76561198828840546,"connected_time":8395000000000,"state":"active","ping":71},{"user_id":145,"name":"Me is gaming","steam_id":76561199025438331,"connected_time":1871000000000,"state":"active","ping":62},{"user_id":126,"name":"Puddin","steam_id":76561198140052918,"connected_time":3944000000000,"state":"active","ping":86},{"user_id":113,"name":"ArcticDolphin","steam_id":76561198203626319,"connected_time":4971000000000,"state":"active","ping":111},{"user_id":90,"name":"Grifter","steam_id":76561198092369812,"connected_time":6856000000000,"state":"active","ping":83},{"user_id":71,"name":"vintage","steam_id":76561198230213828,"connected_time":8312000000000,"state":"active","ping":63},{"user_id":150,"name":"TomCat","steam_id":76561198133744053,"connected_time":1587000000000,"state":"active","ping":109},{"user_id":128,"name":"Lady D.","steam_id":76561199225360457,"connected_time":3643000000000,"state":"active","ping":57},{"user_id":134,"name":"2rusty4u","steam_id":76561198835623050,"connected_time":3544000000000,"state":"active","ping":66},{"user_id":154,"name":"Arukas","steam_id":76561198095278714,"connected_time":1164000000000,"state":"active","ping":39},{"user_id":117,"name":"Samoyed","steam_id":76561198299150410,"connected_time":4902000000000,"state":"active","ping":84},{"user_id":144,"name":"GM MF!","steam_id":76561198074339034,"connected_time":2085000000000,"state":"active","ping":79},{"user_id":152,"name":"Marika","steam_id":76561198212649929,"connected_time":1572000000000,"state":"active","ping":61},{"user_id":100,"name":"i am a F2P and my aim is shit","steam_id":76561199475974790,"connected_time":6107000000000,"state":"active","ping":74},{"user_id":133,"name":"WestDepth","steam_id":76561198172874097,"connected_time":3579000000000,"state":"active","ping":59},{"user_id":136,"name":"Impetus","steam_id":76561198213031155,"connected_time":3501000000000,"state":"active","ping":98},{"user_id":103,"name":"E","steam_id":76561199173781370,"connected_time":5761000000000,"state":"active","ping":81}]},{"server_id":1,"name":"Uncletopia | Los Angeles | 1 | All Maps","name_short":"lax-1","host":"lax-1.us.uncletopia.com","port":27015,"enabled":true,"region":"us-west","cc":"us","latitude":33.94279,"longitude":-118.41004,"reserved":0,"last_update":"0001-01-01T00:00:00Z","name_a2s":"Uncletopia | Los Angeles | 1 | All Maps","protocol":17,"map":"cp_process_final","folder":"tf","game":"Team Fortress","app_id":440,"player_count":0,"max_players":24,"Bots":0,"server_type":"Dedicated","server_os":"Linux","password":true,"vac":true,"version":"7961495","steam_id":85568392924469991,"keywords":["cp","nocrits","nodmgspread","uncletopia"],"game_id":440,"stv_port":27016,"stv_name":"Uncletopia | Los Angeles | 1 | All Maps | STV","players":null},{"server_id":112,"name":"Uncletopia | Los Angeles | 2 | All Maps","name_short":"lax-2","host":"lax-1.us.uncletopia.com","port":27025,"enabled":true,"region":"us-west","cc":"us","latitude":33.94279,"longitude":-118.41004,"reserved":0,"last_update":"0001-01-01T00:00:00Z","name_a2s":"Uncletopia | Los Angeles | 2 | All Maps","protocol":17,"map":"koth_viaduct","folder":"tf","game":"Team Fortress","app_id":440,"player_count":0,"max_players":24,"Bots":0,"server_type":"Dedicated","server_os":"Linux","password":true,"vac":true,"version":"7961495","steam_id":85568392924469992,"keywords":["cp","nocrits","nodmgspread","uncletopia"],"game_id":440,"stv_port":27026,"stv_name":"Uncletopia | Los Angeles | 2 | All Maps | STV","players":null},{"server_id":324,"name":"Uncletopia | Los Angeles | 3 | All Maps","name_short":"lax-3","host":"lax-1.us.uncletopia.com","port":27035,"enabled":true,"region":"us-west","cc":"us","latitude":33.94279,"longitude":-118.41004,"reserved":0,"last_update":"0001-01-01T00:00:00Z","name_a2s":"Uncletopia | Los Angeles | 3 | All Maps","protocol":17,"map":"pl_swiftwater_final1","folder":"tf","game":"Team Fortress","app_id":440,"player_count":0,"max_players":24,"Bots":0,"server_type":"Dedicated","server_os":"Linux","password":true,"vac":true,"version":"7961495","steam_id":85568392924510198,"keywords":["nocrits","nodmgspread","payload","uncletopia"],"game_id":440,"stv_port":27036,"stv_name":"Uncletopia | Los Angeles | 3 | All Maps | STV","players":null},{"server_id":25,"name":"Uncletopia | Los Angeles | 4 | Stopwatch","name_short":"lax-4","host":"lax-1.us.uncletopia.com","port":27045,"enabled":true,"region":"us-west","cc":"us","latitude":33.94279,"longitude":-118.41004,"reserved":0,"last_update":"0001-01-01T00:00:00Z","name_a2s":"Uncletopia | Los Angeles | 4 | Stopwatch","protocol":17,"map":"workshop/koth_product_final.ugc454272353","folder":"tf","game":"Team Fortress","app_id":440,"player_count":0,"max_players":24,"Bots":0,"server_type":"Dedicated","server_os":"Linux","password":true,"vac":true,"version":"7961495","steam_id":85568392924510199,"keywords":["cp","nocrits","nodmgspread","uncletopia"],"game_id":440,"stv_port":27046,"stv_name":"Uncletopia | Los Angeles | 4 | Stopwatch | STV","players":null},{"server_id":11,"name":"Uncletopia | London | 1 | All Maps","name_short":"lon-1","host":"lon-1.uk.uncletopia.com","port":27015,"enabled":true,"region":"eu","cc":"gb","latitude":51.509865,"longitude":-0.118092,"reserved":0,"last_update":"0001-01-01T00:00:00Z","name_a2s":"Uncletopia | London | 1 | All Maps","protocol":17,"map":"koth_nucleus","folder":"tf","game":"Team Fortress","app_id":440,"player_count":0,"max_players":24,"Bots":0,"server_type":"Dedicated","server_os":"Linux","password":true,"vac":true,"version":"7961495","steam_id":85568392924367362,"keywords":["cp","nocrits","nodmgspread","uncletopia"],"game_id":440,"stv_port":27016,"stv_name":"Uncletopia | London | 1 | All Maps | STV","players":null},{"server_id":114,"name":"Uncletopia | London | 2 | All Maps","name_short":"lon-2","host":"lon-1.uk.uncletopia.com","port":27025,"enabled":true,"region":"eu","cc":"gb","latitude":51.509865,"longitude":-0.118092,"reserved":0,"last_update":"0001-01-01T00:00:00Z","name_a2s":"Uncletopia | London | 2 | All Maps","protocol":17,"map":"pl_snowycoast","folder":"tf","game":"Team Fortress","app_id":440,"player_count":0,"max_players":24,"Bots":0,"server_type":"Dedicated","server_os":"Linux","password":true,"vac":true,"version":"7961495","steam_id":85568392924470941,"keywords":["nocrits","nodmgspread","payload","uncletopia"],"game_id":440,"stv_port":27026,"stv_name":"Uncletopia | London | 2 | All Maps | STV","players":null},{"server_id":320,"name":"Uncletopia | London | 3 | All Maps","name_short":"lon-3","host":"lon-1.uk.uncletopia.com","port":27035,"enabled":true,"region":"eu","cc":"gb","latitude":51.509865,"longitude":-0.118092,"reserved":0,"last_update":"0001-01-01T00:00:00Z","name_a2s":"Uncletopia | London | 3 | All Maps","protocol":17,"map":"cp_snakewater_final1","folder":"tf","game":"Team Fortress","app_id":440,"player_count":0,"max_players":24,"Bots":0,"server_type":"Dedicated","server_os":"Linux","password":true,"vac":true,"version":"7961495","steam_id":85568392924510192,"keywords":["cp","nocrits","nodmgspread","uncletopia"],"game_id":440,"stv_port":27036,"stv_name":"Uncletopia | London | 3 | All Maps | STV","players":null},{"server_id":321,"name":"Uncletopia | London | 4 | All Maps","name_short":"lon-4","host":"lon-1.uk.uncletopia.com","port":27045,"enabled":true,"region":"eu","cc":"gb","latitude":51.509865,"longitude":-0.118092,"reserved":0,"last_update":"0001-01-01T00:00:00Z","name_a2s":"Uncletopia | London | 4 | All Maps","protocol":17,"map":"pl_badwater","folder":"tf","game":"Team Fortress","app_id":440,"player_count":0,"max_players":24,"Bots":0,"server_type":"Dedicated","server_os":"Linux","password":true,"vac":true,"version":"7961495","steam_id":85568392924510193,"keywords":["nocrits","nodmgspread","payload","uncletopia"],"game_id":440,"stv_port":27046,"stv_name":"Uncletopia | London | 4 | All Maps | STV","players":null},{"server_id":21,"name":"Uncletopia | London | 5 | All Maps","name_short":"lon-5","host":"lon-1.uk.uncletopia.com","port":27055,"enabled":true,"region":"eu","cc":"gb","latitude":51.509865,"longitude":-0.118092,"reserved":0,"last_update":"0001-01-01T00:00:00Z","name_a2s":"Uncletopia | London | 5 | All Maps","protocol":17,"map":"pl_borneo","folder":"tf","game":"Team Fortress","app_id":440,"player_count":24,"max_players":24,"Bots":0,"server_type":"Dedicated","server_os":"Linux","password":true,"vac":true,"version":"7961495","steam_id":85568392924742829,"keywords":["nocrits","nodmgspread","payload","uncletopia"],"game_id":440,"stv_port":27056,"stv_name":"Uncletopia | London | 5 | All Maps | STV","players":[{"user_id":69,"name":"REN","steam_id":76561198000596385,"connected_time":1768000000000,"state":"active","ping":63},{"user_id":75,"name":"FilipeLuk","steam_id":76561198150675438,"connected_time":891000000000,"state":"active","ping":72},{"user_id":62,"name":"the lorax","steam_id":76561199180176442,"connected_time":1987000000000,"state":"active","ping":70},{"user_id":86,"name":"Pan Pan","steam_id":76561199074670515,"connected_time":95000000000,"state":"active","ping":186},{"user_id":83,"name":"√∂√∂√∂√∂‚ú™","steam_id":76561198181645822,"connected_time":193000000000,"state":"active","ping":75},{"user_id":74,"name":"John_Creasman","steam_id":76561199107330009,"connected_time":932000000000,"state":"active","ping":74},{"user_id":87,"name":"AI | Davidoscki","steam_id":76561198129166046,"connected_time":68000000000,"state":"active","ping":89},{"user_id":50,"name":"rob","steam_id":76561198122211848,"connected_time":3149000000000,"state":"active","ping":90},{"user_id":73,"name":"Magic Misha","steam_id":76561198425505206,"connected_time":953000000000,"state":"active","ping":56},{"user_id":77,"name":"AttyFox","steam_id":76561198063160037,"connected_time":775000000000,"state":"active","ping":41},{"user_id":71,"name":"Mouseyy","steam_id":76561198206840840,"connected_time":1533000000000,"state":"active","ping":56},{"user_id":32,"name":"Warrior555MainsGanon","steam_id":76561198388627786,"connected_time":3715000000000,"state":"active","ping":58},{"user_id":78,"name":"Spinya","steam_id":76561198086653667,"connected_time":761000000000,"state":"active","ping":58},{"user_id":70,"name":"Chambersite the Wizard","steam_id":76561198197022399,"connected_time":1617000000000,"state":"active","ping":68},{"user_id":64,"name":"Domcxz","steam_id":76561198291703984,"connected_time":1981000000000,"state":"active","ping":73},{"user_id":37,"name":"peyniz","steam_id":76561198044189114,"connected_time":3630000000000,"state":"active","ping":68},{"user_id":85,"name":"Uncle Sam","steam_id":76561199071134025,"connected_time":153000000000,"state":"active","ping":94},{"user_id":79,"name":"Egor Pomidor","steam_id":76561199175688390,"connected_time":749000000000,"state":"active","ping":90},{"user_id":81,"name":"Corn Readyx","steam_id":76561198192185825,"connected_time":408000000000,"state":"active","ping":75},{"user_id":57,"name":"AlfonsoM","steam_id":76561198138832894,"connected_time":2588000000000,"state":"active","ping":91},{"user_id":53,"name":"88888888","steam_id":76561198163081194,"connected_time":2910000000000,"state":"active","ping":56},{"user_id":45,"name":"89384HDHSJDHU\u0026/","steam_id":76561198057833760,"connected_time":3434000000000,"state":"active","ping":76},{"user_id":46,"name":"Master Of Noob","steam_id":76561198217926783,"connected_time":3342000000000,"state":"active","ping":80},{"user_id":88,"name":"kastanomata","steam_id":76561198271832763,"connected_time":46000000000,"state":"spawning","ping":207}]},{"server_id":22,"name":"Uncletopia | London | 6 | All Maps","name_short":"lon-6","host":"lon-1.uk.uncletopia.com","port":27065,"enabled":true,"region":"eu","cc":"gb","latitude":51.509865,"longitude":-0.118092,"reserved":0,"last_update":"0001-01-01T00:00:00Z","name_a2s":"Uncletopia | London | 6 | All Maps","protocol":17,"map":"cp_snakewater_final1","folder":"tf","game":"Team Fortress","app_id":440,"player_count":0,"max_players":24,"Bots":0,"server_type":"Dedicated","server_os":"Linux","password":true,"vac":true,"version":"7961495","steam_id":85568392924742830,"keywords":["cp","nocrits","nodmgspread","uncletopia"],"game_id":440,"stv_port":27066,"stv_name":"Uncletopia | London | 6 | All Maps | STV","players":null},{"server_id":40,"name":"Uncletopia | London | 7 | Stopwatch","name_short":"lon-7","host":"lon-1.uk.uncletopia.com","port":27075,"enabled":true,"region":"eu","cc":"gb","latitude":51.509865,"longitude":-0.118092,"reserved":0,"last_update":"0001-01-01T00:00:00Z","name_a2s":"Uncletopia | London | 7 | Stopwatch","protocol":17,"map":"workshop/pl_badwater_pro_v12.ugc2142942074","folder":"tf","game":"Team Fortress","app_id":440,"player_count":0,"max_players":24,"Bots":0,"server_type":"Dedicated","server_os":"Linux","password":true,"vac":true,"version":"7961495","steam_id":85568392924964314,"keywords":["nocrits","nodmgspread","payload","uncletopia"],"game_id":440,"stv_port":27076,"stv_name":"Uncletopia | London | 7 | Stopwatch | STV","players":null},{"server_id":41,"name":"Uncletopia | London | 8 | Community","name_short":"lon-8","host":"lon-1.uk.uncletopia.com","port":27085,"enabled":true,"region":"eu","cc":"gb","latitude":51.509865,"longitude":-0.118092,"reserved":0,"last_update":"0001-01-01T00:00:00Z","name_a2s":"Uncletopia | London | 8 | Community","protocol":17,"map":"workshop/cp_propaganda_b18.ugc1603743849","folder":"tf","game":"Team Fortress","app_id":440,"player_count":0,"max_players":24,"Bots":0,"server_type":"Dedicated","server_os":"Linux","password":true,"vac":true,"version":"7961495","steam_id":85568392924964315,"keywords":["cp","nocrits","nodmgspread","uncletopia"],"game_id":440,"stv_port":27086,"stv_name":"Uncletopia | London | 8 | Community | STV","players":null},{"server_id":300,"name":"Uncletopia | Montr√©al | 1 | One Thousand Uncles","name_short":"mtl-1","host":"mtl-1.ca.uncletopia.com","port":27015,"enabled":true,"region":"us-east","cc":"ca","latitude":45.50889,"longitude":-73.56167,"reserved":0,"last_update":"0001-01-01T00:00:00Z","name_a2s":"Uncletopia | Montr√©al | 1 | One Thousand Uncles","protocol":17,"map":"pl_chilly","folder":"tf","game":"Team Fortress","app_id":440,"player_count":0,"max_players":32,"Bots":0,"server_type":"Dedicated","server_os":"Linux","password":true,"vac":true,"version":"7961495","steam_id":85568392924500087,"keywords":["alltalk","danepve","increased_maxplayers","norespawntime","payload","uncletopia"],"game_id":440,"stv_port":0,"stv_name":"","players":null},{"server_id":301,"name":"Uncletopia | Montr√©al | 2 | One Thousand Uncles","name_short":"mtl-2","host":"mtl-1.ca.uncletopia.com","port":27025,"enabled":true,"region":"us-east","cc":"ca","latitude":45.50889,"longitude":-73.56167,"reserved":0,"last_update":"0001-01-01T00:00:00Z","name_a2s":"Uncletopia | Montr√©al | 2 | One Thousand Uncles","protocol":17,"map":"pl_chilly","folder":"tf","game":"Team Fortress","app_id":440,"player_count":0,"max_players":32,"Bots":0,"server_type":"Dedicated","server_os":"Linux","password":true,"vac":true,"version":"7961495","steam_id":85568392924500088,"keywords":["alltalk","danepve","increased_maxplayers","norespawntime","payload","uncletopia"],"game_id":440,"stv_port":0,"stv_name":"","players":null},{"server_id":302,"name":"Uncletopia | Montr√©al | 3 | One Thousand Uncles","name_short":"mtl-3","host":"mtl-1.ca.uncletopia.com","port":27035,"enabled":true,"region":"us-east","cc":"ca","latitude":45.50889,"longitude":-73.56167,"reserved":0,"last_update":"0001-01-01T00:00:00Z","name_a2s":"Uncletopia | Montr√©al | 3 | One Thousand Uncles","protocol":17,"map":"pl_upward","folder":"tf","game":"Team Fortress","app_id":440,"player_count":0,"max_players":32,"Bots":0,"server_type":"Dedicated","server_os":"Linux","password":true,"vac":true,"version":"7961495","steam_id":85568392924500089,"keywords":["alltalk","danepve","increased_maxplayers","norespawntime","payload","uncletopia"],"game_id":440,"stv_port":0,"stv_name":"","players":null},{"server_id":13,"name":"Uncletopia | New York City | 1 | All Maps","name_short":"nyc-1","host":"nyc-1.us.uncletopia.com","port":27015,"enabled":true,"region":"us-east","cc":"us","latitude":40.73061,"longitude":-73.93524,"reserved":0,"last_update":"0001-01-01T00:00:00Z","name_a2s":"Uncletopia | New York City | 1 | All Maps","protocol":17,"map":"koth_brazil","folder":"tf","game":"Team Fortress","app_id":440,"player_count":0,"max_players":24,"Bots":0,"server_type":"Dedicated","server_os":"Linux","password":true,"vac":true,"version":"7961495","steam_id":85568392924469993,"keywords":["cp","nocrits","nodmgspread","uncletopia"],"game_id":440,"stv_port":27016,"stv_name":"Uncletopia | New York City | 1 | All Maps | STV","players":null},{"server_id":14,"name":"Uncletopia | New York City | 2 | All Maps","name_short":"nyc-2","host":"nyc-1.us.uncletopia.com","port":27025,"enabled":true,"region":"us-east","cc":"us","latitude":40.73061,"longitude":-73.93524,"reserved":0,"last_update":"0001-01-01T00:00:00Z","name_a2s":"Uncletopia | New York City | 2 | All Maps","protocol":17,"map":"cp_granary","folder":"tf","game":"Team Fortress","app_id":440,"player_count":0,"max_players":24,"Bots":0,"server_type":"Dedicated","server_os":"Linux","password":true,"vac":true,"version":"7961495","steam_id":85568392924469994,"keywords":["cp","nocrits","nodmgspread","uncletopia"],"game_id":440,"stv_port":27026,"stv_name":"Uncletopia | New York City | 2 | All Maps | STV","players":null},{"server_id":15,"name":"Uncletopia | New York City | 3 | Stopwatch","name_short":"nyc-3","host":"nyc-1.us.uncletopia.com","port":27035,"enabled":true,"region":"us-east","cc":"us","latitude":40.73061,"longitude":-73.93524,"reserved":0,"last_update":"0001-01-01T00:00:00Z","name_a2s":"Uncletopia | New York City | 3 | Stopwatch","protocol":17,"map":"workshop/cp_reckoner_rc6.ugc674719999","folder":"tf","game":"Team Fortress","app_id":440,"player_count":0,"max_players":24,"Bots":0,"server_type":"Dedicated","server_os":"Linux","password":true,"vac":true,"version":"7961495","steam_id":85568392924742820,"keywords":["cp","nocrits","nodmgspread","uncletopia"],"game_id":440,"stv_port":27036,"stv_name":"Uncletopia | New York City | 3 | Stopwatch | STV","players":null},{"server_id":16,"name":"Uncletopia | New York City | 4 | Community","name_short":"nyc-4","host":"nyc-1.us.uncletopia.com","port":27045,"enabled":true,"region":"us-east","cc":"us","latitude":40.73061,"longitude":-73.93524,"reserved":0,"last_update":"0001-01-01T00:00:00Z","name_a2s":"Uncletopia | New York City | 4 | Community","protocol":17,"map":"workshop/cp_indulge.ugc528106646","folder":"tf","game":"Team Fortress","app_id":440,"player_count":0,"max_players":24,"Bots":0,"server_type":"Dedicated","server_os":"Linux","password":true,"vac":true,"version":"7961495","steam_id":85568392924742821,"keywords":["cp","nocrits","nodmgspread","uncletopia"],"game_id":440,"stv_port":27046,"stv_name":"Uncletopia | New York City | 4 | Community | STV","players":null},{"server_id":142,"name":"Uncletopia | S√£o Paulo | 1 | All Maps","name_short":"sao-1","host":"sao-1.br.uncletopia.com","port":27015,"enabled":true,"region":"sa","cc":"br","latitude":-23.533773,"longitude":-46.62529,"reserved":0,"last_update":"0001-01-01T00:00:00Z","name_a2s":"Uncletopia | S√£o Paulo | 1 | All Maps","protocol":17,"map":"cp_granary","folder":"tf","game":"Team Fortress","app_id":440,"player_count":0,"max_players":24,"Bots":0,"server_type":"Dedicated","server_os":"Linux","password":true,"vac":true,"version":"7961495","steam_id":85568392924469996,"keywords":["cp","nocrits","nodmgspread","uncletopia"],"game_id":440,"stv_port":27016,"stv_name":"Uncletopia | S√£o Paulo | 1 | All Maps | STV","players":null},{"server_id":143,"name":"Uncletopia | S√£o Paulo | 2 | Community","name_short":"sao-2","host":"sao-2.br.uncletopia.com","port":27015,"enabled":true,"region":"sa","cc":"br","latitude":-23.533773,"longitude":-46.62529,"reserved":0,"last_update":"0001-01-01T00:00:00Z","name_a2s":"Uncletopia | S√£o Paulo | 2 | Community","protocol":17,"map":"workshop/cp_croissant_final.ugc458840209","folder":"tf","game":"Team Fortress","app_id":440,"player_count":0,"max_players":24,"Bots":0,"server_type":"Dedicated","server_os":"Linux","password":true,"vac":true,"version":"7961495","steam_id":85568392924485349,"keywords":["cp","nocrits","nodmgspread","uncletopia"],"game_id":440,"stv_port":27016,"stv_name":"Uncletopia | S√£o Paulo | 2 | Community | STV","players":null},{"server_id":7,"name":"Uncletopia | Seattle | 1 | All Maps","name_short":"sea-1","host":"sea-1.us.uncletopia.com","port":27015,"enabled":true,"region":"us-west","cc":"us","latitude":47.608013,"longitude":-122.33517,"reserved":0,"last_update":"0001-01-01T00:00:00Z","name_a2s":"Uncletopia | Seattle | 1 | All Maps","protocol":17,"map":"koth_cascade","folder":"tf","game":"Team Fortress","app_id":440,"player_count":0,"max_players":24,"Bots":0,"server_type":"Dedicated","server_os":"Linux","password":true,"vac":true,"version":"7961495","steam_id":85568392924469997,"keywords":["cp","nocrits","nodmgspread","uncletopia"],"game_id":440,"stv_port":27016,"stv_name":"Uncletopia | Seattle | 1 | All Maps | STV","players":null},{"server_id":119,"name":"Uncletopia | Seattle | 2 | All Maps","name_short":"sea-2","host":"sea-1.us.uncletopia.com","port":27025,"enabled":true,"region":"us-west","cc":"us","latitude":47.608013,"longitude":-122.33517,"reserved":0,"last_update":"0001-01-01T00:00:00Z","name_a2s":"Uncletopia | Seattle | 2 | All Maps","protocol":17,"map":"cp_altitude","folder":"tf","game":"Team Fortress","app_id":440,"player_count":0,"max_players":24,"Bots":0,"server_type":"Dedicated","server_os":"Linux","password":true,"vac":true,"version":"7961495","steam_id":85568392924469998,"keywords":["cp","nocrits","nodmgspread","uncletopia"],"game_id":440,"stv_port":27026,"stv_name":"Uncletopia | Seattle | 2 | All Maps | STV","players":null},{"server_id":406,"name":"Uncletopia | Seattle | 3 | Stopwatch","name_short":"sea-3","host":"sea-1.us.uncletopia.com","port":27035,"enabled":true,"region":"us-west","cc":"us","latitude":47.608013,"longitude":-122.33517,"reserved":0,"last_update":"0001-01-01T00:00:00Z","name_a2s":"Uncletopia | Seattle | 3 | Stopwatch","protocol":17,"map":"workshop/koth_ashville_final.ugc2130459942","folder":"tf","game":"Team Fortress","app_id":440,"player_count":0,"max_players":24,"Bots":0,"server_type":"Dedicated","server_os":"Linux","password":true,"vac":true,"version":"7961495","steam_id":85568392924515217,"keywords":["cp","nocrits","nodmgspread","uncletopia"],"game_id":440,"stv_port":27036,"stv_name":"Uncletopia | Seattle | 3 | Stopwatch | STV","players":null},{"server_id":17,"name":"Uncletopia | San Francisco | 1 | All Maps","name_short":"sfo-1","host":"sfo-1.us.uncletopia.com","port":27015,"enabled":true,"region":"us-west","cc":"us","latitude":37.77397,"longitude":-122.4313,"reserved":0,"last_update":"0001-01-01T00:00:00Z","name_a2s":"Uncletopia | San Francisco | 1 | All Maps","protocol":17,"map":"cp_gorge","folder":"tf","game":"Team Fortress","app_id":440,"player_count":24,"max_players":24,"Bots":0,"server_type":"Dedicated","server_os":"Linux","password":true,"vac":true,"version":"7961495","steam_id":85568392924469999,"keywords":["cp","nocrits","nodmgspread","uncletopia"],"game_id":440,"stv_port":27016,"stv_name":"Uncletopia | San Francisco | 1 | All Maps | STV","players":[{"user_id":331,"name":"self sufficient kitten ‚ô•","steam_id":76561197960592612,"connected_time":6304000000000,"state":"active","ping":60},{"user_id":368,"name":"owl","steam_id":76561198088403016,"connected_time":2014000000000,"state":"active","ping":150},{"user_id":327,"name":"Xexat","steam_id":76561198041668498,"connected_time":6968000000000,"state":"active","ping":49},{"user_id":281,"name":"paws :3","steam_id":76561199371694361,"connected_time":10111000000000,"state":"active","ping":59},{"user_id":329,"name":"Grand","steam_id":76561198290143399,"connected_time":6509000000000,"state":"active","ping":74},{"user_id":282,"name":"eminixx!","steam_id":76561198962857708,"connected_time":10109000000000,"state":"active","ping":105},{"user_id":374,"name":"Harold","steam_id":76561198273710463,"connected_time":1622000000000,"state":"active","ping":51},{"user_id":367,"name":"Jivin' Jigger","steam_id":76561198211677460,"connected_time":2074000000000,"state":"active","ping":80},{"user_id":325,"name":"Gm_Sweet","steam_id":76561199445091548,"connected_time":7013000000000,"state":"active","ping":73},{"user_id":352,"name":"Sweets","steam_id":76561198998446307,"connected_time":4521000000000,"state":"active","ping":86},{"user_id":375,"name":"world machine","steam_id":76561198020689909,"connected_time":1591000000000,"state":"active","ping":59},{"user_id":360,"name":"frankie calories","steam_id":76561198071525893,"connected_time":3273000000000,"state":"active","ping":53},{"user_id":378,"name":"RainboomCrash","steam_id":76561198065612273,"connected_time":1354000000000,"state":"active","ping":62},{"user_id":345,"name":"Local","steam_id":76561198170915102,"connected_time":5179000000000,"state":"active","ping":61},{"user_id":362,"name":"Hazel The Maid Boy","steam_id":76561199247095754,"connected_time":2871000000000,"state":"active","ping":94},{"user_id":318,"name":"Nom Skirrett","steam_id":76561198014600788,"connected_time":8057000000000,"state":"active","ping":85},{"user_id":370,"name":"encl. rep","steam_id":76561198845576798,"connected_time":1984000000000,"state":"active","ping":59},{"user_id":361,"name":"Grassman (Cc)","steam_id":76561198026488532,"connected_time":3062000000000,"state":"active","ping":40},{"user_id":381,"name":"CheeseCake488","steam_id":76561199407617942,"connected_time":944000000000,"state":"active","ping":76},{"user_id":377,"name":"samantha","steam_id":76561198049258493,"connected_time":1393000000000,"state":"active","ping":82},{"user_id":344,"name":"Sevfront","steam_id":76561198249207818,"connected_time":5313000000000,"state":"active","ping":72},{"user_id":382,"name":"pat","steam_id":76561198040595468,"connected_time":854000000000,"state":"active","ping":63},{"user_id":380,"name":"'Oddo","steam_id":76561198090866900,"connected_time":1181000000000,"state":"active","ping":105},{"user_id":308,"name":"üëÅ sumixodic","steam_id":76561198090770710,"connected_time":8207000000000,"state":"active","ping":60}]},{"server_id":18,"name":"Uncletopia | San Francisco | 2 | All Maps","name_short":"sfo-2","host":"sfo-1.us.uncletopia.com","port":27025,"enabled":true,"region":"us-west","cc":"us","latitude":37.77397,"longitude":-122.4313,"reserved":0,"last_update":"0001-01-01T00:00:00Z","name_a2s":"Uncletopia | San Francisco | 2 | All Maps","protocol":17,"map":"cp_altitude","folder":"tf","game":"Team Fortress","app_id":440,"player_count":0,"max_players":24,"Bots":0,"server_type":"Dedicated","server_os":"Linux","password":true,"vac":true,"version":"7961495","steam_id":85568392924470000,"keywords":["cp","nocrits","nodmgspread","uncletopia"],"game_id":440,"stv_port":27026,"stv_name":"Uncletopia | San Francisco | 2 | All Maps | STV","players":null},{"server_id":19,"name":"Uncletopia | San Francisco | 3 | Stopwatch","name_short":"sfo-3","host":"sfo-1.us.uncletopia.com","port":27035,"enabled":true,"region":"us-west","cc":"us","latitude":37.77397,"longitude":-122.4313,"reserved":0,"last_update":"0001-01-01T00:00:00Z","name_a2s":"Uncletopia | San Francisco | 3 | Stopwatch","protocol":17,"map":"workshop/koth_jamram_rc1a.ugc2964065613","folder":"tf","game":"Team Fortress","app_id":440,"player_count":0,"max_players":24,"Bots":0,"server_type":"Dedicated","server_os":"Linux","password":true,"vac":true,"version":"7961495","steam_id":85568392924742824,"keywords":["cp","nocrits","nodmgspread","uncletopia"],"game_id":440,"stv_port":27036,"stv_name":"Uncletopia | San Francisco | 3 | Stopwatch | STV","players":null},{"server_id":20,"name":"Uncletopia | San Francisco | 4 | Community","name_short":"sfo-4","host":"sfo-1.us.uncletopia.com","port":27045,"enabled":true,"region":"us-west","cc":"us","latitude":37.77397,"longitude":-122.4313,"reserved":0,"last_update":"0001-01-01T00:00:00Z","name_a2s":"Uncletopia | San Francisco | 4 | Community","protocol":17,"map":"workshop/pl_cactuscanyon_redux_final2.ugc2579644293","folder":"tf","game":"Team Fortress","app_id":440,"player_count":0,"max_players":24,"Bots":0,"server_type":"Dedicated","server_os":"Linux","password":true,"vac":true,"version":"7961495","steam_id":85568392924742826,"keywords":["nocrits","nodmgspread","payload","uncletopia"],"game_id":440,"stv_port":27046,"stv_name":"Uncletopia | San Francisco | 4 | Community | STV","players":null},{"server_id":141,"name":"Uncletopia | Sydney | 1 | All Maps","name_short":"syd-1","host":"syd-1.au.uncletopia.com","port":27015,"enabled":true,"region":"au","cc":"au","latitude":-33.865143,"longitude":151.2099,"reserved":0,"last_update":"0001-01-01T00:00:00Z","name_a2s":"Uncletopia | Sydney | 1 | All Maps","protocol":17,"map":"cp_sunshine","folder":"tf","game":"Team Fortress","app_id":440,"player_count":13,"max_players":24,"Bots":0,"server_type":"Dedicated","server_os":"Linux","password":true,"vac":true,"version":"7961495","steam_id":85568392924470001,"keywords":["cp","nocrits","nodmgspread","uncletopia"],"game_id":440,"stv_port":27016,"stv_name":"Uncletopia | Sydney | 1 | All Maps | STV","players":[{"user_id":348,"name":"Sherpa","steam_id":76561198018913829,"connected_time":1318000000000,"state":"active","ping":57},{"user_id":364,"name":"ttv_meh_yt","steam_id":76561199246898340,"connected_time":256000000000,"state":"active","ping":47},{"user_id":351,"name":"average nothing enjoyer","steam_id":76561198302936089,"connected_time":1267000000000,"state":"active","ping":57},{"user_id":352,"name":"L'Baguette","steam_id":76561199208625933,"connected_time":1218000000000,"state":"active","ping":60},{"user_id":363,"name":"Alright","steam_id":76561198075411902,"connected_time":402000000000,"state":"active","ping":58},{"user_id":354,"name":"TrecularDuck","steam_id":76561199125528760,"connected_time":1050000000000,"state":"active","ping":57},{"user_id":353,"name":"The Lad","steam_id":76561198865537226,"connected_time":1149000000000,"state":"active","ping":87},{"user_id":355,"name":"ANDY64","steam_id":76561198049447026,"connected_time":1020000000000,"state":"active","ping":70},{"user_id":356,"name":"Josh L","steam_id":76561198257416430,"connected_time":1000000000000,"state":"active","ping":42},{"user_id":357,"name":"Frowned on weight variance","steam_id":76561198325036160,"connected_time":904000000000,"state":"active","ping":91},{"user_id":360,"name":"beef","steam_id":76561198405899260,"connected_time":734000000000,"state":"active","ping":59},{"user_id":366,"name":"EarlyElite4199","steam_id":76561198432308585,"connected_time":196000000000,"state":"active","ping":45},{"user_id":297,"name":"Yakub's whitest graft","steam_id":76561198122357685,"connected_time":5481000000000,"state":"active","ping":54}]},{"server_id":123,"name":"Uncletopia | Sydney | 2 | All Maps","name_short":"syd-2","host":"syd-1.au.uncletopia.com","port":27025,"enabled":true,"region":"au","cc":"au","latitude":-33.865143,"longitude":151.2099,"reserved":0,"last_update":"0001-01-01T00:00:00Z","name_a2s":"Uncletopia | Sydney | 2 | All Maps","protocol":17,"map":"pl_barnblitz","folder":"tf","game":"Team Fortress","app_id":440,"player_count":24,"max_players":24,"Bots":0,"server_type":"Dedicated","server_os":"Linux","password":true,"vac":true,"version":"7961495","steam_id":85568392924470002,"keywords":["nocrits","nodmgspread","payload","uncletopia"],"game_id":440,"stv_port":27026,"stv_name":"Uncletopia | Sydney | 2 | All Maps | STV","players":[{"user_id":140,"name":"\u003e:(","steam_id":76561198044422323,"connected_time":3796000000000,"state":"active","ping":61},{"user_id":188,"name":"Dot","steam_id":76561198064534661,"connected_time":877000000000,"state":"active","ping":54},{"user_id":189,"name":"KenOAndStuff","steam_id":76561198438165878,"connected_time":862000000000,"state":"active","ping":148},{"user_id":190,"name":"michael","steam_id":76561198052848358,"connected_time":841000000000,"state":"active","ping":55},{"user_id":125,"name":"osborn","steam_id":76561198033663866,"connected_time":5317000000000,"state":"active","ping":44},{"user_id":194,"name":"Phantom Postman","steam_id":76561198075252643,"connected_time":164000000000,"state":"active","ping":64},{"user_id":191,"name":"alex","steam_id":76561198199008741,"connected_time":835000000000,"state":"active","ping":62},{"user_id":124,"name":"Milk Man","steam_id":76561198882677157,"connected_time":5324000000000,"state":"active","ping":61},{"user_id":187,"name":"ShiftAU","steam_id":76561198036359969,"connected_time":994000000000,"state":"active","ping":51},{"user_id":152,"name":"Mr Doctor","steam_id":76561198081415999,"connected_time":3011000000000,"state":"active","ping":67},{"user_id":173,"name":"egbert45","steam_id":76561199015856172,"connected_time":2028000000000,"state":"active","ping":87},{"user_id":193,"name":"Player 3.14","steam_id":76561198016766670,"connected_time":198000000000,"state":"active","ping":38},{"user_id":195,"name":"Mithrandir","steam_id":76561198070153307,"connected_time":107000000000,"state":"active","ping":38},{"user_id":183,"name":"Pompadouraus","steam_id":76561198327530525,"connected_time":1176000000000,"state":"active","ping":75},{"user_id":175,"name":"nft enjoyer (screenshot enthusi","steam_id":76561198005202090,"connected_time":1982000000000,"state":"active","ping":60},{"user_id":179,"name":"DKC","steam_id":76561198313578155,"connected_time":1607000000000,"state":"active","ping":45},{"user_id":192,"name":"Teflon","steam_id":76561198001224301,"connected_time":829000000000,"state":"active","ping":66},{"user_id":177,"name":"smifT","steam_id":76561197962270231,"connected_time":1778000000000,"state":"active","ping":58},{"user_id":164,"name":"Overlold","steam_id":76561197978635495,"connected_time":2559000000000,"state":"active","ping":73},{"user_id":171,"name":"Wet Wizard","steam_id":76561198277879991,"connected_time":2095000000000,"state":"active","ping":46},{"user_id":185,"name":"sk","steam_id":76561199233693786,"connected_time":1092000000000,"state":"active","ping":50},{"user_id":123,"name":"good n tasty","steam_id":76561198097895744,"connected_time":5367000000000,"state":"active","ping":67},{"user_id":168,"name":"diamond","steam_id":76561198206754736,"connected_time":2394000000000,"state":"active","ping":54},{"user_id":178,"name":"Geekknight","steam_id":76561198876733389,"connected_time":1730000000000,"state":"active","ping":55}]},{"server_id":395,"name":"Uncletopia | Sydney | 3 | All Maps","name_short":"syd-3","host":"syd-1.au.uncletopia.com","port":27035,"enabled":true,"region":"au","cc":"au","latitude":-33.865143,"longitude":151.2099,"reserved":0,"last_update":"0001-01-01T00:00:00Z","name_a2s":"Uncletopia | Sydney | 3 | All Maps","protocol":17,"map":"cp_mountainlab","folder":"tf","game":"Team Fortress","app_id":440,"player_count":0,"max_players":24,"Bots":0,"server_type":"Dedicated","server_os":"Linux","password":true,"vac":true,"version":"7961495","steam_id":85568392925194467,"keywords":["cp","nocrits","nodmgspread","uncletopia"],"game_id":440,"stv_port":27036,"stv_name":"Uncletopia | Sydney | 3 | All Maps | STV","players":null},{"server_id":396,"name":"Uncletopia | Sydney | 4 | All Maps","name_short":"syd-4","host":"syd-1.au.uncletopia.com","port":27045,"enabled":true,"region":"au","cc":"au","latitude":-33.865143,"longitude":151.2099,"reserved":0,"last_update":"0001-01-01T00:00:00Z","name_a2s":"Uncletopia | Sydney | 4 | All Maps","protocol":17,"map":"koth_cascade","folder":"tf","game":"Team Fortress","app_id":440,"player_count":0,"max_players":24,"Bots":0,"server_type":"Dedicated","server_os":"Linux","password":true,"vac":true,"version":"7961495","steam_id":85568392925397958,"keywords":["cp","nocrits","nodmgspread","uncletopia"],"game_id":440,"stv_port":27046,"stv_name":"Uncletopia | Sydney | 4 | All Maps | STV","players":null},{"server_id":58,"name":"Uncletopia | Sydney | 5 | Stopwatch","name_short":"syd-5","host":"syd-1.au.uncletopia.com","port":27055,"enabled":true,"region":"au","cc":"au","latitude":-33.865143,"longitude":151.2099,"reserved":0,"last_update":"0001-01-01T00:00:00Z","name_a2s":"Uncletopia | Sydney | 5 | Stopwatch","protocol":17,"map":"workshop/koth_product_final.ugc454272353","folder":"tf","game":"Team Fortress","app_id":440,"player_count":0,"max_players":24,"Bots":0,"server_type":"Dedicated","server_os":"Linux","password":true,"vac":true,"version":"7961495","steam_id":85568392925397959,"keywords":["cp","nocrits","nodmgspread","uncletopia"],"game_id":440,"stv_port":27056,"stv_name":"Uncletopia | Sydney | 5 | Stopwatch | STV","players":null},{"server_id":59,"name":"Uncletopia | Sydney | 6 | Community","name_short":"syd-6","host":"syd-1.au.uncletopia.com","port":27065,"enabled":true,"region":"au","cc":"au","latitude":-33.865143,"longitude":151.2099,"reserved":0,"last_update":"0001-01-01T00:00:00Z","name_a2s":"Uncletopia | Sydney | 6 | Community","protocol":17,"map":"workshop/pl_shoreleave_rc2.ugc1238849347","folder":"tf","game":"Team Fortress","app_id":440,"player_count":0,"max_players":24,"Bots":0,"server_type":"Dedicated","server_os":"Linux","password":true,"vac":true,"version":"7961495","steam_id":85568392925397960,"keywords":["nocrits","nodmgspread","payload","uncletopia"],"game_id":440,"stv_port":27066,"stv_name":"Uncletopia | Sydney | 6 | Community | STV","players":null},{"server_id":49,"name":"Uncletopia | Warsaw | 1 | One Thousand Uncles","name_short":"waw-1","host":"waw-1.pl.uncletopia.com","port":27015,"enabled":true,"region":"eu","cc":"pl","latitude":52.2297,"longitude":21.017532,"reserved":0,"last_update":"0001-01-01T00:00:00Z","name_a2s":"Uncletopia | Warsaw | 1 | One Thousand Uncles","protocol":17,"map":"pl_upward","folder":"tf","game":"Team Fortress","app_id":440,"player_count":24,"max_players":32,"Bots":16,"server_type":"Dedicated","server_os":"Linux","password":true,"vac":true,"version":"7961495","steam_id":85568392925397850,"keywords":["alltalk","bots","danepve","increased_maxplayers","norespawntime","payload","uncletopia"],"game_id":440,"stv_port":0,"stv_name":"","players":[{"user_id":172,"name":"jaca","steam_id":76561198006725399,"connected_time":1111000000000,"state":"active","ping":61},{"user_id":176,"name":"krembergs","steam_id":76561198329728890,"connected_time":802000000000,"state":"active","ping":89},{"user_id":177,"name":"Jedna","steam_id":76561198121323572,"connected_time":732000000000,"state":"active","ping":75},{"user_id":194,"name":"medicinal man","steam_id":76561198202668788,"connected_time":525000000000,"state":"active","ping":39},{"user_id":195,"name":"Igames","steam_id":76561198414062544,"connected_time":299000000000,"state":"active","ping":79},{"user_id":196,"name":"Pootis engage gaming","steam_id":76561199107663205,"connected_time":231000000000,"state":"active","ping":41},{"user_id":197,"name":"Sonic2013 üáµüá±üá∫üá¶","steam_id":76561198110541962,"connected_time":199000000000,"state":"active","ping":55},{"user_id":168,"name":"[HK]Êàë‰øÇÈ¶ôÊ∏Ø‰∫∫","steam_id":76561198165376815,"connected_time":2039000000000,"state":"active","ping":77}]},{"server_id":50,"name":"Uncletopia | Warsaw | 2 | One Thousand Uncles","name_short":"waw-2","host":"waw-1.pl.uncletopia.com","port":27025,"enabled":true,"region":"eu","cc":"pl","latitude":52.2297,"longitude":21.017532,"reserved":0,"last_update":"0001-01-01T00:00:00Z","name_a2s":"Uncletopia | Warsaw | 2 | One Thousand Uncles","protocol":17,"map":"cp_egypt_final","folder":"tf","game":"Team Fortress","app_id":440,"player_count":0,"max_players":32,"Bots":0,"server_type":"Dedicated","server_os":"Linux","password":true,"vac":true,"version":"7961495","steam_id":85568392925397851,"keywords":["alltalk","cp","danepve","increased_maxplayers","norespawntime","uncletopia"],"game_id":440,"stv_port":0,"stv_name":"","players":null},{"server_id":51,"name":"Uncletopia | Warsaw | 3 | All Maps","name_short":"waw-3","host":"waw-1.pl.uncletopia.com","port":27035,"enabled":true,"region":"eu","cc":"pl","latitude":52.2297,"longitude":21.017532,"reserved":0,"last_update":"0001-01-01T00:00:00Z","name_a2s":"Uncletopia | Warsaw | 3 | All Maps","protocol":17,"map":"pl_snowycoast","folder":"tf","game":"Team Fortress","app_id":440,"player_count":0,"max_players":24,"Bots":0,"server_type":"Dedicated","server_os":"Linux","password":true,"vac":true,"version":"7961495","steam_id":85568392925397852,"keywords":["nocrits","nodmgspread","payload","uncletopia"],"game_id":440,"stv_port":27036,"stv_name":"Uncletopia | Warsaw | 3 | All Maps | STV","players":null},{"server_id":52,"name":"Uncletopia | Warsaw | 4 | All Maps","name_short":"waw-4","host":"waw-1.pl.uncletopia.com","port":27045,"enabled":true,"region":"eu","cc":"pl","latitude":52.2297,"longitude":21.017532,"reserved":0,"last_update":"0001-01-01T00:00:00Z","name_a2s":"Uncletopia | Warsaw | 4 | All Maps","protocol":17,"map":"cp_fastlane","folder":"tf","game":"Team Fortress","app_id":440,"player_count":0,"max_players":24,"Bots":0,"server_type":"Dedicated","server_os":"Linux","password":true,"vac":true,"version":"7961495","steam_id":85568392925397853,"keywords":["cp","nocrits","nodmgspread","uncletopia"],"game_id":440,"stv_port":27046,"stv_name":"Uncletopia | Warsaw | 4 | All Maps | STV","players":null},{"server_id":53,"name":"Uncletopia | Warsaw | 5 | Stopwatch","name_short":"waw-5","host":"waw-1.pl.uncletopia.com","port":27055,"enabled":true,"region":"eu","cc":"pl","latitude":52.2297,"longitude":21.017532,"reserved":0,"last_update":"0001-01-01T00:00:00Z","name_a2s":"Uncletopia | Warsaw | 5 | Stopwatch","protocol":17,"map":"cp_gullywash_final1","folder":"tf","game":"Team Fortress","app_id":440,"player_count":0,"max_players":24,"Bots":0,"server_type":"Dedicated","server_os":"Linux","password":true,"vac":true,"version":"7961495","steam_id":85568392925397854,"keywords":["cp","nocrits","nodmgspread","uncletopia"],"game_id":440,"stv_port":27056,"stv_name":"Uncletopia | Warsaw | 5 | Stopwatch | STV","players":null},{"server_id":54,"name":"Uncletopia | Warsaw | 6 | Community","name_short":"waw-6","host":"waw-1.pl.uncletopia.com","port":27065,"enabled":true,"region":"eu","cc":"pl","latitude":52.2297,"longitude":21.017532,"reserved":0,"last_update":"0001-01-01T00:00:00Z","name_a2s":"Uncletopia | Warsaw | 6 | Community","protocol":17,"map":"workshop/cp_fulgur_rc2a.ugc2068252300","folder":"tf","game":"Team Fortress","app_id":440,"player_count":0,"max_players":24,"Bots":0,"server_type":"Dedicated","server_os":"Linux","password":true,"vac":true,"version":"7961495","steam_id":85568392925397856,"keywords":["cp","nocrits","nodmgspread","uncletopia"],"game_id":440,"stv_port":27066,"stv_name":"Uncletopia | Warsaw | 6 | Community | STV","players":null}]}