{"status":true,"message":"","result":[{"server_id":9,"name":"Uncletopia | Atlanta | 1 | All Maps","name_short":"atl-1","host":"atl-1.us.uncletopia.com","port":27015,"enabled":true,"region":"us-east","cc":"us","latitude":33.753746,"longitude":-84.38633,"reserved":0,"last_update":"0001-01-01T00:00:00Z","name_a2s":"Uncletopia | Atlanta | 1 | All Maps","protocol":17,"map":"koth_cascade","folder":"tf","game":"Team Fortress","app_id":440,"player_count":7,"max_players":24,"Bots":0,"server_type":"Dedicated","server_os":"Linux","password":true,"vac":true,"version":"7757534","steam_id":85568392924469982,"keywords":["cp","nocrits","nodmgspread","uncletopia"],"game_id":440,"stv_port":27016,"stv_name":"Uncletopia | Atlanta | 1 | All Maps | STV","players":[{"user_id":15,"name":"Grimm","steam_id":76561199080048342,"connected_time":501000000000,"state":"active","ping":91},{"user_id":16,"name":"frizzle fried","steam_id":76561198062991744,"connected_time":438000000000,"state":"active","ping":55},{"user_id":17,"name":"abulo","steam_id":76561199038206884,"connected_time":435000000000,"state":"active","ping":176},{"user_id":18,"name":"Crispy Water","steam_id":76561198351688009,"connected_time":399000000000,"state":"active","ping":66},{"user_id":19,"name":"Rocco Murder","steam_id":76561197995620232,"connected_time":284000000000,"state":"active","ping":47},{"user_id":21,"name":"esc frame","steam_id":76561198044856349,"connected_time":165000000000,"state":"active","ping":60},{"user_id":22,"name":"tyg","steam_id":76561198056246867,"connected_time":150000000000,"state":"active","ping":60}]},{"server_id":104,"name":"Uncletopia | Atlanta | 2 | All Maps","name_short":"atl-2","host":"atl-1.us.uncletopia.com","port":27025,"enabled":true,"region":"us-east","cc":"us","latitude":33.753746,"longitude":-84.38633,"reserved":0,"last_update":"0001-01-01T00:00:00Z","name_a2s":"Uncletopia | Atlanta | 2 | All Maps","protocol":17,"map":"cp_dustbowl","folder":"tf","game":"Team Fortress","app_id":440,"player_count":0,"max_players":24,"Bots":0,"server_type":"Dedicated","server_os":"Linux","password":true,"vac":true,"version":"7757534","steam_id":85568392924469983,"keywords":["cp","nocrits","nodmgspread","uncletopia"],"game_id":440,"stv_port":27026,"stv_name":"Uncletopia | Atlanta | 2 | All Maps | STV","players":null},{"server_id":400,"name":"Uncletopia | Atlanta | 3 | Community","name_short":"atl-3","host":"atl-1.us.uncletopia.com","port":27035,"enabled":true,"region":"us-east","cc":"us","latitude":33.753746,"longitude":-84.38633,"reserved":0,"last_update":"0001-01-01T00:00:00Z","name_a2s":"Uncletopia | Atlanta | 3 | Community","protocol":17,"map":"workshop/koth_bagel_rc6.ugc2514036946","folder":"tf","game":"Team Fortress","app_id":440,"player_count":0,"max_players":24,"Bots":0,"server_type":"Dedicated","server_os":"Linux","password":true,"vac":true,"version":"7757534","steam_id":85568392924515187,"keywords":["cp","nocrits","nodmgspread","uncletopia"],"game_id":440,"stv_port":27036,"stv_name":"Uncletopia | Atlanta | 3 | Community | STV","players":null},{"server_id":401,"name":"Uncletopia | Atlanta | 4 | No Payload","name_short":"atl-4","host":"atl-1.us.uncletopia.com","port":27045,"enabled":true,"region":"us-east","cc":"us","latitude":33.753746,"longitude":-84.38633,"reserved":0,"last_update":"0001-01-01T00:00:00Z","name_a2s":"","protocol":0,"map":"","folder":"","game":"","app_id":0,"player_count":0,"max_players":0,"Bots":0,"server_type":"","server_os":"","password":false,"vac":false,"version":"","steam_id":0,"keywords":null,"game_id":0,"stv_port":0,"stv_name":"","players":null},{"server_id":2,"name":"Uncletopia | Chicago | 1 | All Maps","name_short":"chi-1","host":"chi-1.us.uncletopia.com","port":27015,"enabled":true,"region":"us-central","cc":"us","latitude":41.881832,"longitude":-87.62318,"reserved":0,"last_update":"0001-01-01T00:00:00Z","name_a2s":"Uncletopia | Chicago | 1 | All Maps","protocol":17,"map":"pl_badwater","folder":"tf","game":"Team Fortress","app_id":440,"player_count":22,"max_players":24,"Bots":0,"server_type":"Dedicated","server_os":"Linux","password":true,"vac":true,"version":"7757534","steam_id":85568392924469984,"keywords":["nocrits","nodmgspread","payload","uncletopia"],"game_id":440,"stv_port":27016,"stv_name":"Uncletopia | Chicago | 1 | All Maps | STV","players":[{"user_id":112,"name":"druby","steam_id":76561198198313521,"connected_time":10000000000,"state":"spawning","ping":111},{"user_id":97,"name":"boylover54","steam_id":76561199030726701,"connected_time":1005000000000,"state":"active","ping":97},{"user_id":89,"name":"Soundproof","steam_id":76561198133392504,"connected_time":1299000000000,"state":"active","ping":47},{"user_id":111,"name":"cold spaghetti","steam_id":76561198983037944,"connected_time":32000000000,"state":"active","ping":69},{"user_id":106,"name":"TJGSASQUATCH","steam_id":76561198077806921,"connected_time":91000000000,"state":"active","ping":81},{"user_id":109,"name":"gonk","steam_id":76561198061206732,"connected_time":53000000000,"state":"active","ping":68},{"user_id":94,"name":"capybapy","steam_id":76561198798828328,"connected_time":1255000000000,"state":"active","ping":45},{"user_id":71,"name":"Obama F. Kennedy","steam_id":76561198282499318,"connected_time":2821000000000,"state":"active","ping":63},{"user_id":69,"name":"updog","steam_id":76561198869221421,"connected_time":3011000000000,"state":"active","ping":117},{"user_id":98,"name":"Pershing[GER]","steam_id":76561197970330818,"connected_time":942000000000,"state":"active","ping":153},{"user_id":75,"name":"blazzeh","steam_id":76561198053407069,"connected_time":2661000000000,"state":"active","ping":107},{"user_id":45,"name":"moe5x","steam_id":76561198316877833,"connected_time":5674000000000,"state":"active","ping":121},{"user_id":103,"name":"Provocator","steam_id":76561197961830410,"connected_time":658000000000,"state":"active","ping":72},{"user_id":68,"name":"Valkyria","steam_id":76561199062908221,"connected_time":3013000000000,"state":"active","ping":108},{"user_id":102,"name":"Breadboy","steam_id":76561199092359175,"connected_time":764000000000,"state":"active","ping":68},{"user_id":108,"name":"Quark","steam_id":76561198328155605,"connected_time":72000000000,"state":"active","ping":44},{"user_id":87,"name":"Vacc Onetrick","steam_id":76561198207987376,"connected_time":1345000000000,"state":"active","ping":61},{"user_id":110,"name":"Vox Vulpera","steam_id":76561198796227041,"connected_time":48000000000,"state":"connecting","ping":110},{"user_id":91,"name":"Wahooka","steam_id":76561197962240925,"connected_time":1293000000000,"state":"active","ping":60},{"user_id":96,"name":"Niko from Oneshot (NO SOUND)","steam_id":76561198180020521,"connected_time":1010000000000,"state":"spawning","ping":110},{"user_id":61,"name":"LVL 4 Dispenser Gaming","steam_id":76561198044244547,"connected_time":3943000000000,"state":"active","ping":79},{"user_id":86,"name":"Kiso 火","steam_id":76561198141026844,"connected_time":1425000000000,"state":"active","ping":135}]},{"server_id":106,"name":"Uncletopia | Chicago | 2 | All Maps","name_short":"chi-2","host":"chi-1.us.uncletopia.com","port":27025,"enabled":true,"region":"us-central","cc":"us","latitude":41.881832,"longitude":-87.62318,"reserved":0,"last_update":"0001-01-01T00:00:00Z","name_a2s":"Uncletopia | Chicago | 2 | All Maps","protocol":17,"map":"cp_altitude","folder":"tf","game":"Team Fortress","app_id":440,"player_count":0,"max_players":24,"Bots":0,"server_type":"Dedicated","server_os":"Linux","password":true,"vac":true,"version":"7757534","steam_id":85568392924469985,"keywords":["cp","nocrits","nodmgspread","uncletopia"],"game_id":440,"stv_port":27026,"stv_name":"Uncletopia | Chicago | 2 | All Maps | STV","players":null},{"server_id":402,"name":"Uncletopia | Chicago | 3 | All Maps","name_short":"chi-3","host":"chi-1.us.uncletopia.com","port":27035,"enabled":true,"region":"us-central","cc":"us","latitude":41.881832,"longitude":-87.62318,"reserved":0,"last_update":"0001-01-01T00:00:00Z","name_a2s":"Uncletopia | Chicago | 3 | All Maps","protocol":17,"map":"pl_pier","folder":"tf","game":"Team Fortress","app_id":440,"player_count":0,"max_players":24,"Bots":0,"server_type":"Dedicated","server_os":"Linux","password":true,"vac":true,"version":"7757534","steam_id":85568392924515191,"keywords":["nocrits","nodmgspread","payload","uncletopia"],"game_id":440,"stv_port":27036,"stv_name":"Uncletopia | Chicago | 3 | All Maps | STV","players":null},{"server_id":403,"name":"Uncletopia | Chicago | 4 | All Maps","name_short":"chi-4","host":"chi-1.us.uncletopia.com","port":27045,"enabled":true,"region":"us-central","cc":"us","latitude":41.881832,"longitude":-87.62318,"reserved":0,"last_update":"0001-01-01T00:00:00Z","name_a2s":"Uncletopia | Chicago | 4 | All Maps","protocol":17,"map":"koth_lakeside_final","folder":"tf","game":"Team Fortress","app_id":440,"player_count":0,"max_players":24,"Bots":0,"server_type":"Dedicated","server_os":"Linux","password":true,"vac":true,"version":"7757534","steam_id":85568392924515193,"keywords":["cp","nocrits","nodmgspread","uncletopia"],"game_id":440,"stv_port":27046,"stv_name":"Uncletopia | Chicago | 4 | All Maps | STV","players":null},{"server_id":36,"name":"Uncletopia | Chicago | 5 | All Maps","name_short":"chi-5","host":"chi-2.us.uncletopia.com","port":27015,"enabled":true,"region":"us-central","cc":"us","latitude":41.881832,"longitude":-87.62318,"reserved":0,"last_update":"0001-01-01T00:00:00Z","name_a2s":"Uncletopia | Chicago | 5 | All Maps","protocol":17,"map":"koth_cascade","folder":"tf","game":"Team Fortress","app_id":440,"player_count":0,"max_players":24,"Bots":0,"server_type":"Dedicated","server_os":"Linux","password":true,"vac":true,"version":"7757534","steam_id":85568392924866362,"keywords":["cp","nocrits","nodmgspread","uncletopia"],"game_id":440,"stv_port":27016,"stv_name":"Uncletopia | Chicago | 5 | All Maps | STV","players":null},{"server_id":37,"name":"Uncletopia | Chicago | 6 | All Maps","name_short":"chi-6","host":"chi-2.us.uncletopia.com","port":27025,"enabled":true,"region":"us-central","cc":"us","latitude":41.881832,"longitude":-87.62318,"reserved":0,"last_update":"0001-01-01T00:00:00Z","name_a2s":"Uncletopia | Chicago | 6 | All Maps","protocol":17,"map":"cp_dustbowl","folder":"tf","game":"Team Fortress","app_id":440,"player_count":25,"max_players":24,"Bots":0,"server_type":"Dedicated","server_os":"Linux","password":true,"vac":true,"version":"7757534","steam_id":85568392924866363,"keywords":["cp","nocrits","nodmgspread","uncletopia"],"game_id":440,"stv_port":27026,"stv_name":"Uncletopia | Chicago | 6 | All Maps | STV","players":[{"user_id":22,"name":"AudioMedic","steam_id":76561198333939032,"connected_time":3772000000000,"state":"active","ping":74},{"user_id":10,"name":"TheDude","steam_id":76561198314764519,"connected_time":4525000000000,"state":"active","ping":96},{"user_id":80,"name":"Quark","steam_id":76561198328155605,"connected_time":114000000000,"state":"connecting","ping":0},{"user_id":70,"name":"NOTWALTER","steam_id":76561198125464744,"connected_time":1328000000000,"state":"active","ping":83},{"user_id":48,"name":"Horse","steam_id":76561198004583631,"connected_time":2859000000000,"state":"active","ping":74},{"user_id":83,"name":"Ungr8t","steam_id":76561198063521721,"connected_time":75000000000,"state":"active","ping":76},{"user_id":65,"name":"Mury","steam_id":76561198069743049,"connected_time":1730000000000,"state":"active","ping":114},{"user_id":82,"name":"Brown_Dream","steam_id":76561198975766145,"connected_time":96000000000,"state":"active","ping":82},{"user_id":55,"name":"mrselfdestruct13","steam_id":76561197992054553,"connected_time":2440000000000,"state":"active","ping":82},{"user_id":60,"name":"Nimdok","steam_id":76561198052213644,"connected_time":2234000000000,"state":"active","ping":80},{"user_id":30,"name":"The Good","steam_id":76561198133253633,"connected_time":3396000000000,"state":"active","ping":105},{"user_id":26,"name":"wally","steam_id":76561198027450079,"connected_time":3542000000000,"state":"active","ping":63},{"user_id":51,"name":"TATARA","steam_id":76561199098759517,"connected_time":2559000000000,"state":"active","ping":120},{"user_id":78,"name":"Zeek","steam_id":76561197987204351,"connected_time":131000000000,"state":"active","ping":58},{"user_id":68,"name":"xen","steam_id":76561198048568188,"connected_time":1527000000000,"state":"active","ping":62},{"user_id":61,"name":"imadabest","steam_id":76561199123304377,"connected_time":2197000000000,"state":"active","ping":107},{"user_id":33,"name":"Moop","steam_id":76561198096984681,"connected_time":3339000000000,"state":"active","ping":90},{"user_id":71,"name":"impractical jokers gaming","steam_id":76561198068167915,"connected_time":1320000000000,"state":"active","ping":70},{"user_id":62,"name":"KnifeScope","steam_id":76561198057632106,"connected_time":2162000000000,"state":"active","ping":76},{"user_id":76,"name":"Ringo x Seiran","steam_id":76561198357437908,"connected_time":859000000000,"state":"active","ping":62},{"user_id":66,"name":"The Great Eagle Scourge of 1822","steam_id":76561198325086209,"connected_time":1545000000000,"state":"active","ping":117},{"user_id":74,"name":"Pan-Demonica","steam_id":76561198294350105,"connected_time":1265000000000,"state":"active","ping":85},{"user_id":73,"name":"Anomalous Materials Scientist","steam_id":76561198092542997,"connected_time":1285000000000,"state":"active","ping":62},{"user_id":58,"name":"Luna She/Her","steam_id":76561198991791655,"connected_time":2341000000000,"state":"active","ping":75},{"user_id":84,"name":"Bungalow Bill","steam_id":76561198033536404,"connected_time":35000000000,"state":"active","ping":79}]},{"server_id":38,"name":"Uncletopia | Chicago | 7 | Stopwatch Beta","name_short":"chi-7","host":"chi-2.us.uncletopia.com","port":27035,"enabled":true,"region":"us-central","cc":"us","latitude":41.881832,"longitude":-87.62318,"reserved":0,"last_update":"0001-01-01T00:00:00Z","name_a2s":"Uncletopia | Chicago | 7 | Stopwatch Beta","protocol":17,"map":"pl_barnblitz","folder":"tf","game":"Team Fortress","app_id":440,"player_count":0,"max_players":24,"Bots":0,"server_type":"Dedicated","server_os":"Linux","password":true,"vac":true,"version":"7757534","steam_id":85568392924866364,"keywords":["nocrits","nodmgspread","payload","uncletopia"],"game_id":440,"stv_port":27036,"stv_name":"Uncletopia | Chicago | 7 | Stopwatch Beta | STV","players":null},{"server_id":39,"name":"Uncletopia | Chicago | 8 | Community","name_short":"chi-8","host":"chi-2.us.uncletopia.com","port":27045,"enabled":true,"region":"us-central","cc":"us","latitude":41.881832,"longitude":-87.62318,"reserved":0,"last_update":"0001-01-01T00:00:00Z","name_a2s":"Uncletopia | Chicago | 8 | Community","protocol":17,"map":"koth_cascade","folder":"tf","game":"Team Fortress","app_id":440,"player_count":0,"max_players":24,"Bots":0,"server_type":"Dedicated","server_os":"Linux","password":true,"vac":true,"version":"7757534","steam_id":85568392924866365,"keywords":["cp","nocrits","nodmgspread","uncletopia"],"game_id":440,"stv_port":27046,"stv_name":"Uncletopia | Chicago | 8 | Community | STV","players":null},{"server_id":8,"name":"Uncletopia | Dallas | 1 | All Maps","name_short":"dal-1","host":"dal-1.us.uncletopia.com","port":27015,"enabled":true,"region":"us-central","cc":"us","latitude":32.779167,"longitude":-96.80889,"reserved":0,"last_update":"0001-01-01T00:00:00Z","name_a2s":"Uncletopia | Dallas | 1 | All Maps","protocol":17,"map":"koth_cascade","folder":"tf","game":"Team Fortress","app_id":440,"player_count":0,"max_players":24,"Bots":0,"server_type":"Dedicated","server_os":"Linux","password":true,"vac":true,"version":"7757534","steam_id":85568392924469986,"keywords":["cp","nocrits","nodmgspread","uncletopia"],"game_id":440,"stv_port":27016,"stv_name":"Uncletopia | Dallas | 1 | All Maps | STV","players":null},{"server_id":108,"name":"Uncletopia | Dallas | 2 | All Maps","name_short":"dal-2","host":"dal-1.us.uncletopia.com","port":27025,"enabled":true,"region":"us-central","cc":"us","latitude":32.779167,"longitude":-96.80889,"reserved":0,"last_update":"0001-01-01T00:00:00Z","name_a2s":"Uncletopia | Dallas | 2 | All Maps","protocol":17,"map":"pl_swiftwater_final1","folder":"tf","game":"Team Fortress","app_id":440,"player_count":24,"max_players":24,"Bots":0,"server_type":"Dedicated","server_os":"Linux","password":true,"vac":true,"version":"7757534","steam_id":85568392924469988,"keywords":["nocrits","nodmgspread","payload","uncletopia"],"game_id":440,"stv_port":27026,"stv_name":"Uncletopia | Dallas | 2 | All Maps | STV","players":[{"user_id":48,"name":"Spectral Cloud","steam_id":76561199255382599,"connected_time":704000000000,"state":"active","ping":69},{"user_id":47,"name":"Mecha","steam_id":76561198014927379,"connected_time":761000000000,"state":"active","ping":90},{"user_id":49,"name":"squidDMV","steam_id":76561199481268436,"connected_time":684000000000,"state":"active","ping":45},{"user_id":50,"name":"big shmoka","steam_id":76561198050768962,"connected_time":681000000000,"state":"active","ping":82},{"user_id":35,"name":"Demoman With One Joke","steam_id":76561197993467034,"connected_time":1192000000000,"state":"active","ping":75},{"user_id":58,"name":"AmericanAutobot","steam_id":76561198102398820,"connected_time":263000000000,"state":"active","ping":37},{"user_id":57,"name":"DualiTea","steam_id":76561198081733870,"connected_time":425000000000,"state":"active","ping":73},{"user_id":18,"name":"Drakon","steam_id":76561198078210822,"connected_time":1641000000000,"state":"active","ping":95},{"user_id":19,"name":"Dr. Nobotnik","steam_id":76561198357339092,"connected_time":1610000000000,"state":"active","ping":101},{"user_id":20,"name":"Pyro Of The Lake","steam_id":76561199149576897,"connected_time":1582000000000,"state":"active","ping":53},{"user_id":55,"name":"seeyouauntie","steam_id":76561198045852999,"connected_time":612000000000,"state":"active","ping":92},{"user_id":22,"name":"amanofboys91","steam_id":76561199474653798,"connected_time":1561000000000,"state":"active","ping":145},{"user_id":27,"name":"theRainyMute","steam_id":76561198127625760,"connected_time":1412000000000,"state":"active","ping":92},{"user_id":52,"name":"Doc{MDW}","steam_id":76561198075049640,"connected_time":676000000000,"state":"active","ping":75},{"user_id":37,"name":"King Col","steam_id":76561198033384990,"connected_time":1077000000000,"state":"active","ping":73},{"user_id":29,"name":"PEPPINO SPAGHETTI","steam_id":76561198084849541,"connected_time":1403000000000,"state":"active","ping":51},{"user_id":53,"name":"UNBRIDLED PASSION \u0026 RAGE","steam_id":76561198111259720,"connected_time":675000000000,"state":"active","ping":76},{"user_id":32,"name":"Flooder","steam_id":76561198043792818,"connected_time":1345000000000,"state":"active","ping":104},{"user_id":38,"name":"Missing Minus","steam_id":76561198120822928,"connected_time":1030000000000,"state":"active","ping":67},{"user_id":54,"name":"warm_milk","steam_id":76561198080738653,"connected_time":670000000000,"state":"active","ping":59},{"user_id":41,"name":"TheKees301","steam_id":76561198827506371,"connected_time":1001000000000,"state":"active","ping":178},{"user_id":56,"name":"casual tf2 player (STS)","steam_id":76561199304129838,"connected_time":608000000000,"state":"active","ping":91},{"user_id":43,"name":"Matsui","steam_id":76561198057463587,"connected_time":970000000000,"state":"active","ping":77},{"user_id":45,"name":"Marc G","steam_id":76561198062650363,"connected_time":850000000000,"state":"active","ping":46}]},{"server_id":5,"name":"Uncletopia | Frankfurt | 1 | All Maps","name_short":"frk-1","host":"frk-1.de.uncletopia.com","port":27015,"enabled":true,"region":"eu","cc":"de","latitude":50.110924,"longitude":8.682127,"reserved":0,"last_update":"0001-01-01T00:00:00Z","name_a2s":"Uncletopia | Frankfurt | 1 | All Maps","protocol":17,"map":"pl_barnblitz","folder":"tf","game":"Team Fortress","app_id":440,"player_count":24,"max_players":24,"Bots":0,"server_type":"Dedicated","server_os":"Linux","password":true,"vac":true,"version":"7757534","steam_id":85568392924469989,"keywords":["nocrits","nodmgspread","payload","uncletopia"],"game_id":440,"stv_port":27016,"stv_name":"Uncletopia | Frankfurt | 1 | All Maps | STV","players":[{"user_id":226,"name":"ldshwt","steam_id":76561198090364357,"connected_time":9353000000000,"state":"active","ping":47},{"user_id":355,"name":"tkl","steam_id":76561198809430255,"connected_time":1278000000000,"state":"active","ping":52},{"user_id":328,"name":"SantiTzePug","steam_id":76561199049615996,"connected_time":3472000000000,"state":"active","ping":73},{"user_id":348,"name":"SlowMode","steam_id":76561198039631442,"connected_time":2261000000000,"state":"active","ping":81},{"user_id":308,"name":"Doohickey mechanic","steam_id":76561198146180114,"connected_time":4197000000000,"state":"active","ping":79},{"user_id":295,"name":"Myrmodion","steam_id":76561198054746247,"connected_time":5003000000000,"state":"active","ping":55},{"user_id":367,"name":"Lord Aerial","steam_id":76561198288157281,"connected_time":8000000000,"state":"spawning","ping":84},{"user_id":317,"name":"KAZAM | Tervez","steam_id":76561198045459068,"connected_time":3768000000000,"state":"active","ping":75},{"user_id":364,"name":"MaccyF","steam_id":76561198039214805,"connected_time":505000000000,"state":"active","ping":68},{"user_id":361,"name":"Labial","steam_id":76561198385163046,"connected_time":867000000000,"state":"active","ping":45},{"user_id":366,"name":"followthenight","steam_id":76561198017619752,"connected_time":72000000000,"state":"active","ping":60},{"user_id":354,"name":"giclure :;","steam_id":76561197986362828,"connected_time":1366000000000,"state":"active","ping":56},{"user_id":305,"name":"Famished Capybara","steam_id":76561198799282784,"connected_time":4632000000000,"state":"active","ping":82},{"user_id":360,"name":"Malkuth","steam_id":76561198058567662,"connected_time":976000000000,"state":"active","ping":85},{"user_id":344,"name":"janga","steam_id":76561197977643629,"connected_time":2591000000000,"state":"active","ping":45},{"user_id":342,"name":"Vitamin Weee","steam_id":76561199183937747,"connected_time":3001000000000,"state":"active","ping":78},{"user_id":315,"name":"Typs","steam_id":76561198011748555,"connected_time":3978000000000,"state":"active","ping":39},{"user_id":362,"name":"B@yka","steam_id":76561198986736592,"connected_time":733000000000,"state":"active","ping":70},{"user_id":332,"name":"mp1mp2mp3","steam_id":76561198088967665,"connected_time":3390000000000,"state":"active","ping":89},{"user_id":363,"name":"Carl Gustav Jung","steam_id":76561198284558039,"connected_time":632000000000,"state":"active","ping":96},{"user_id":272,"name":"SoupER","steam_id":76561198063056668,"connected_time":6189000000000,"state":"active","ping":56},{"user_id":349,"name":"Zenssei","steam_id":76561198209895623,"connected_time":2195000000000,"state":"active","ping":104},{"user_id":352,"name":"result","steam_id":76561198269200388,"connected_time":1730000000000,"state":"active","ping":74},{"user_id":346,"name":"Woman (Real)","steam_id":76561198131411627,"connected_time":2510000000000,"state":"active","ping":101}]},{"server_id":110,"name":"Uncletopia | Frankfurt | 2 | All Maps","name_short":"frk-2","host":"frk-1.de.uncletopia.com","port":27025,"enabled":true,"region":"eu","cc":"de","latitude":50.110924,"longitude":8.682127,"reserved":0,"last_update":"0001-01-01T00:00:00Z","name_a2s":"Uncletopia | Frankfurt | 2 | All Maps","protocol":17,"map":"pl_badwater","folder":"tf","game":"Team Fortress","app_id":440,"player_count":20,"max_players":24,"Bots":0,"server_type":"Dedicated","server_os":"Linux","password":true,"vac":true,"version":"7757534","steam_id":85568392924469990,"keywords":["nocrits","nodmgspread","payload","uncletopia"],"game_id":440,"stv_port":27026,"stv_name":"Uncletopia | Frankfurt | 2 | All Maps | STV","players":[{"user_id":143,"name":"jkozaka","steam_id":76561198986578926,"connected_time":205000000000,"state":"active","ping":109},{"user_id":100,"name":"Rappin' Sebastian","steam_id":76561198453928256,"connected_time":4877000000000,"state":"active","ping":75},{"user_id":88,"name":"Skirata","steam_id":76561197985224878,"connected_time":5577000000000,"state":"active","ping":64},{"user_id":135,"name":"Rez","steam_id":76561198410598772,"connected_time":1387000000000,"state":"active","ping":54},{"user_id":83,"name":"disc0rd","steam_id":76561197985965776,"connected_time":5812000000000,"state":"active","ping":57},{"user_id":74,"name":"john fortress","steam_id":76561198013237629,"connected_time":6471000000000,"state":"active","ping":97},{"user_id":99,"name":"Mix_Maks","steam_id":76561198143301726,"connected_time":4920000000000,"state":"active","ping":100},{"user_id":147,"name":"wasto-/-™","steam_id":76561198102888038,"connected_time":127000000000,"state":"active","ping":44},{"user_id":144,"name":"LadyMissfit","steam_id":76561198042236349,"connected_time":195000000000,"state":"active","ping":71},{"user_id":93,"name":"marco / s /","steam_id":76561198300120382,"connected_time":5358000000000,"state":"active","ping":63},{"user_id":149,"name":"krunes","steam_id":76561198123472271,"connected_time":64000000000,"state":"active","ping":66},{"user_id":119,"name":"Jeremy265","steam_id":76561199004316549,"connected_time":3093000000000,"state":"active","ping":114},{"user_id":72,"name":"leave it","steam_id":76561198444036574,"connected_time":6584000000000,"state":"active","ping":60},{"user_id":146,"name":"Xx_EpicGaymer_xX","steam_id":76561198846784757,"connected_time":130000000000,"state":"active","ping":70},{"user_id":145,"name":"mud","steam_id":76561198141497461,"connected_time":153000000000,"state":"active","ping":60},{"user_id":131,"name":"Monkey","steam_id":76561199182098050,"connected_time":1645000000000,"state":"active","ping":103},{"user_id":148,"name":"ChesseKnight","steam_id":76561198102476339,"connected_time":103000000000,"state":"active","ping":84},{"user_id":113,"name":"Driver's drunkest God","steam_id":76561198969373800,"connected_time":3915000000000,"state":"active","ping":68},{"user_id":101,"name":"Just a Femboy","steam_id":76561198289497683,"connected_time":4826000000000,"state":"active","ping":85},{"user_id":128,"name":"epic gamer moment","steam_id":76561198299515070,"connected_time":2064000000000,"state":"active","ping":91}]},{"server_id":308,"name":"Uncletopia | Frankfurt | 3 | All Maps","name_short":"frk-3","host":"frk-1.de.uncletopia.com","port":27035,"enabled":true,"region":"eu","cc":"de","latitude":50.110924,"longitude":8.682127,"reserved":0,"last_update":"0001-01-01T00:00:00Z","name_a2s":"Uncletopia | Frankfurt | 3 | All Maps","protocol":17,"map":"pl_pier","folder":"tf","game":"Team Fortress","app_id":440,"player_count":0,"max_players":24,"Bots":0,"server_type":"Dedicated","server_os":"Linux","password":true,"vac":true,"version":"7757534","steam_id":85568392924504274,"keywords":["nocrits","nodmgspread","payload","uncletopia"],"game_id":440,"stv_port":27036,"stv_name":"Uncletopia | Frankfurt | 3 | All Maps | STV","players":null},{"server_id":309,"name":"Uncletopia | Frankfurt | 4 | All Maps","name_short":"frk-4","host":"frk-1.de.uncletopia.com","port":27045,"enabled":true,"region":"eu","cc":"de","latitude":50.110924,"longitude":8.682127,"reserved":0,"last_update":"0001-01-01T00:00:00Z","name_a2s":"Uncletopia | Frankfurt | 4 | All Maps","protocol":17,"map":"koth_viaduct","folder":"tf","game":"Team Fortress","app_id":440,"player_count":0,"max_players":24,"Bots":0,"server_type":"Dedicated","server_os":"Linux","password":true,"vac":true,"version":"7757534","steam_id":85568392924504275,"keywords":["cp","nocrits","nodmgspread","uncletopia"],"game_id":440,"stv_port":27046,"stv_name":"Uncletopia | Frankfurt | 4 | All Maps | STV","players":null},{"server_id":310,"name":"Uncletopia | Frankfurt | 5 | All Maps","name_short":"frk-5","host":"frk-1.de.uncletopia.com","port":27055,"enabled":true,"region":"eu","cc":"de","latitude":50.110924,"longitude":8.682127,"reserved":0,"last_update":"0001-01-01T00:00:00Z","name_a2s":"Uncletopia | Frankfurt | 5 | All Maps","protocol":17,"map":"pl_badwater","folder":"tf","game":"Team Fortress","app_id":440,"player_count":0,"max_players":24,"Bots":0,"server_type":"Dedicated","server_os":"Linux","password":true,"vac":true,"version":"7757534","steam_id":85568392924504277,"keywords":["nocrits","nodmgspread","payload","uncletopia"],"game_id":440,"stv_port":27056,"stv_name":"Uncletopia | Frankfurt | 5 | All Maps | STV","players":null},{"server_id":311,"name":"Uncletopia | Frankfurt | 6 | All Maps","name_short":"frk-6","host":"frk-1.de.uncletopia.com","port":27065,"enabled":true,"region":"eu","cc":"de","latitude":50.110924,"longitude":8.682127,"reserved":0,"last_update":"0001-01-01T00:00:00Z","name_a2s":"Uncletopia | Frankfurt | 6 | All Maps","protocol":17,"map":"koth_cascade","folder":"tf","game":"Team Fortress","app_id":440,"player_count":24,"max_players":24,"Bots":0,"server_type":"Dedicated","server_os":"Linux","password":true,"vac":true,"version":"7757534","steam_id":85568392924504278,"keywords":["cp","nocrits","nodmgspread","uncletopia"],"game_id":440,"stv_port":27066,"stv_name":"Uncletopia | Frankfurt | 6 | All Maps | STV","players":[{"user_id":46,"name":"$nØw","steam_id":76561198238781028,"connected_time":977000000000,"state":"active","ping":104},{"user_id":49,"name":"Dr. Cox","steam_id":76561198246629218,"connected_time":337000000000,"state":"active","ping":102},{"user_id":50,"name":"Mozzaza","steam_id":76561198156316111,"connected_time":317000000000,"state":"active","ping":124},{"user_id":25,"name":"TadeuszekPL","steam_id":76561198360972882,"connected_time":1615000000000,"state":"active","ping":66},{"user_id":22,"name":"CheesyNacho","steam_id":76561198350445456,"connected_time":1756000000000,"state":"active","ping":143},{"user_id":23,"name":"Carter","steam_id":76561198005243938,"connected_time":1749000000000,"state":"active","ping":75},{"user_id":24,"name":"fried","steam_id":76561198307522022,"connected_time":1640000000000,"state":"active","ping":55},{"user_id":51,"name":"Lime","steam_id":76561198071090502,"connected_time":314000000000,"state":"active","ping":72},{"user_id":27,"name":"Leekos","steam_id":76561198020121584,"connected_time":1581000000000,"state":"active","ping":93},{"user_id":48,"name":"nedi winner","steam_id":76561198875472890,"connected_time":616000000000,"state":"active","ping":83},{"user_id":29,"name":"MtnDew","steam_id":76561199100059743,"connected_time":1537000000000,"state":"active","ping":108},{"user_id":30,"name":"fabacher","steam_id":76561198057905272,"connected_time":1536000000000,"state":"active","ping":60},{"user_id":31,"name":"☆MiNTERRRRR☆","steam_id":76561198799866156,"connected_time":1535000000000,"state":"active","ping":96},{"user_id":32,"name":"Anttech","steam_id":76561198065184022,"connected_time":1533000000000,"state":"active","ping":56},{"user_id":33,"name":"lunaire","steam_id":76561198163344452,"connected_time":1465000000000,"state":"active","ping":90},{"user_id":34,"name":"piec dwa debiec tak to szlo","steam_id":76561198228941832,"connected_time":1463000000000,"state":"active","ping":90},{"user_id":52,"name":"Omnospy","steam_id":76561198046937102,"connected_time":283000000000,"state":"active","ping":59},{"user_id":36,"name":"Kelesch","steam_id":76561198043938997,"connected_time":1441000000000,"state":"active","ping":71},{"user_id":38,"name":"midlpsyzl47","steam_id":76561199475972637,"connected_time":1362000000000,"state":"active","ping":74},{"user_id":55,"name":"cherry","steam_id":76561199006915718,"connected_time":56000000000,"state":"active","ping":67},{"user_id":53,"name":"толя","steam_id":76561199098518615,"connected_time":282000000000,"state":"active","ping":65},{"user_id":45,"name":"Mirlok3","steam_id":76561198093167827,"connected_time":1187000000000,"state":"active","ping":169},{"user_id":54,"name":"♥ aura ♥","steam_id":76561198066258544,"connected_time":278000000000,"state":"active","ping":52},{"user_id":47,"name":"Kenny","steam_id":76561198120364727,"connected_time":664000000000,"state":"active","ping":163}]},{"server_id":23,"name":"Uncletopia | Frankfurt | 7 | Stopwatch Beta","name_short":"frk-7","host":"frk-1.de.uncletopia.com","port":27075,"enabled":true,"region":"eu","cc":"de","latitude":50.110924,"longitude":8.682127,"reserved":0,"last_update":"0001-01-01T00:00:00Z","name_a2s":"Uncletopia | Frankfurt | 7 | Stopwatch Beta","protocol":17,"map":"cp_sunshine","folder":"tf","game":"Team Fortress","app_id":440,"player_count":24,"max_players":24,"Bots":0,"server_type":"Dedicated","server_os":"Linux","password":true,"vac":true,"version":"7757534","steam_id":85568392924742827,"keywords":["cp","nocrits","nodmgspread","uncletopia"],"game_id":440,"stv_port":27076,"stv_name":"Uncletopia | Frankfurt | 7 | Stopwatch Beta | STV","players":[{"user_id":249,"name":"PanPatrik","steam_id":76561198293331527,"connected_time":1089000000000,"state":"active","ping":55},{"user_id":255,"name":"Brinier","steam_id":76561199012604288,"connected_time":945000000000,"state":"active","ping":73},{"user_id":219,"name":"FlameTheGame","steam_id":76561198841108519,"connected_time":3286000000000,"state":"active","ping":90},{"user_id":229,"name":"tiiyama","steam_id":76561198046196005,"connected_time":2997000000000,"state":"active","ping":41},{"user_id":247,"name":"hasansaeedifar","steam_id":76561198974563618,"connected_time":1135000000000,"state":"active","ping":174},{"user_id":222,"name":"We are in a world of magic","steam_id":76561198104745492,"connected_time":3193000000000,"state":"active","ping":71},{"user_id":245,"name":"Autumnsky","steam_id":76561198055161203,"connected_time":1193000000000,"state":"active","ping":58},{"user_id":231,"name":"kektuse","steam_id":76561198088426580,"connected_time":2923000000000,"state":"active","ping":60},{"user_id":254,"name":"The Death I Deservioli","steam_id":76561198320506848,"connected_time":972000000000,"state":"active","ping":56},{"user_id":261,"name":"Bill_nye","steam_id":76561199216249214,"connected_time":246000000000,"state":"active","ping":144},{"user_id":260,"name":"Gray","steam_id":76561198449128916,"connected_time":526000000000,"state":"active","ping":79},{"user_id":212,"name":"DaBrowser","steam_id":76561198142654072,"connected_time":3510000000000,"state":"active","ping":94},{"user_id":256,"name":"mèx","steam_id":76561197975951572,"connected_time":925000000000,"state":"active","ping":59},{"user_id":259,"name":"MK-Ultra Violence","steam_id":76561198081328238,"connected_time":569000000000,"state":"active","ping":90},{"user_id":168,"name":"Raymus","steam_id":76561198021330407,"connected_time":6723000000000,"state":"active","ping":45},{"user_id":232,"name":"ASS?!?!?!?!?","steam_id":76561199159262388,"connected_time":2799000000000,"state":"active","ping":97},{"user_id":233,"name":"foursixsixseven","steam_id":76561199123727043,"connected_time":2791000000000,"state":"active","ping":68},{"user_id":189,"name":"Der Herr Doktor","steam_id":76561198119476089,"connected_time":4889000000000,"state":"active","ping":48},{"user_id":252,"name":"I-I","steam_id":76561198267969436,"connected_time":1081000000000,"state":"active","ping":72},{"user_id":258,"name":"DVD Copy of Men in Black II","steam_id":76561198080067715,"connected_time":882000000000,"state":"active","ping":136},{"user_id":262,"name":"Bonca","steam_id":76561198137503531,"connected_time":79000000000,"state":"active","ping":80},{"user_id":253,"name":"scott steiners strongest warrio","steam_id":76561198148888622,"connected_time":1081000000000,"state":"active","ping":75},{"user_id":228,"name":"shadowboxing","steam_id":76561198111134021,"connected_time":3089000000000,"state":"active","ping":76},{"user_id":106,"name":"metamikko","steam_id":76561198324704234,"connected_time":10829000000000,"state":"active","ping":134}]},{"server_id":24,"name":"Uncletopia | Frankfurt | 8 | Community","name_short":"frk-8","host":"frk-1.de.uncletopia.com","port":27085,"enabled":true,"region":"eu","cc":"de","latitude":50.110924,"longitude":8.682127,"reserved":0,"last_update":"0001-01-01T00:00:00Z","name_a2s":"Uncletopia | Frankfurt | 8 | Community","protocol":17,"map":"koth_lakeside_final","folder":"tf","game":"Team Fortress","app_id":440,"player_count":0,"max_players":24,"Bots":0,"server_type":"Dedicated","server_os":"Linux","password":true,"vac":true,"version":"7757534","steam_id":85568392924742828,"keywords":["cp","nocrits","nodmgspread","uncletopia"],"game_id":440,"stv_port":27086,"stv_name":"Uncletopia | Frankfurt | 8 | Community | STV","players":null},{"server_id":202,"name":"Uncletopia | Hong Kong | 1 | All Maps","name_short":"hgk-1","host":"hgk-1.hk.uncletopia.com","port":27015,"enabled":true,"region":"asia","cc":"hk","latitude":22.302711,"longitude":114.177216,"reserved":0,"last_update":"0001-01-01T00:00:00Z","name_a2s":"Uncletopia | Hong Kong | 1 | All Maps","protocol":17,"map":"pl_badwater","folder":"tf","game":"Team Fortress","app_id":440,"player_count":24,"max_players":24,"Bots":0,"server_type":"Dedicated","server_os":"Linux","password":true,"vac":true,"version":"7757534","steam_id":85568392924494504,"keywords":["nocrits","nodmgspread","payload","uncletopia"],"game_id":440,"stv_port":27016,"stv_name":"Uncletopia | Hong Kong | 1 | All Maps | STV","players":[{"user_id":444,"name":"ray16641","steam_id":76561199379282978,"connected_time":1076000000000,"state":"active","ping":103},{"user_id":411,"name":"Wx","steam_id":76561199217780897,"connected_time":2859000000000,"state":"active","ping":64},{"user_id":363,"name":"母の肉団子@hao123.com","steam_id":76561198069561896,"connected_time":8671000000000,"state":"active","ping":36},{"user_id":392,"name":"Beef Wellington","steam_id":76561197995635241,"connected_time":4601000000000,"state":"active","ping":127},{"user_id":348,"name":"쿠키","steam_id":76561197997220367,"connected_time":10499000000000,"state":"active","ping":51},{"user_id":491,"name":"!!!","steam_id":76561199058258142,"connected_time":303000000000,"state":"active","ping":79},{"user_id":488,"name":"YourMailisHere","steam_id":76561199222388500,"connected_time":448000000000,"state":"active","ping":52},{"user_id":361,"name":"Stupid B","steam_id":76561198131423270,"connected_time":8775000000000,"state":"active","ping":114},{"user_id":414,"name":"thought crime hotline","steam_id":76561198054545683,"connected_time":2433000000000,"state":"active","ping":79},{"user_id":461,"name":"bird","steam_id":76561198384135605,"connected_time":848000000000,"state":"active","ping":92},{"user_id":463,"name":"twitch.tv/vision515","steam_id":76561198065293729,"connected_time":836000000000,"state":"active","ping":160},{"user_id":465,"name":"Darknight","steam_id":76561199090139287,"connected_time":811000000000,"state":"active","ping":99},{"user_id":437,"name":"Nonexistent","steam_id":76561198980563251,"connected_time":1533000000000,"state":"active","ping":85},{"user_id":460,"name":"monkeyman536","steam_id":76561197997717737,"connected_time":851000000000,"state":"active","ping":193},{"user_id":466,"name":"get that thong out yo bussy","steam_id":76561199080667060,"connected_time":802000000000,"state":"active","ping":74},{"user_id":467,"name":"MisterReus","steam_id":76561198168169351,"connected_time":800000000000,"state":"active","ping":79},{"user_id":468,"name":"GreggieBoi","steam_id":76561199085200364,"connected_time":800000000000,"state":"active","ping":69},{"user_id":421,"name":"Bepo","steam_id":76561198136685157,"connected_time":2130000000000,"state":"active","ping":58},{"user_id":415,"name":"screaming sniper","steam_id":76561199085568674,"connected_time":2358000000000,"state":"active","ping":83},{"user_id":324,"name":"Tyxant","steam_id":76561198091066056,"connected_time":12470000000000,"state":"active","ping":95},{"user_id":489,"name":"KimvyKinsley","steam_id":76561198859745304,"connected_time":442000000000,"state":"active","ping":83},{"user_id":429,"name":"mutwo","steam_id":76561198077043500,"connected_time":1943000000000,"state":"active","ping":79},{"user_id":390,"name":"Samoyed","steam_id":76561198299150410,"connected_time":4923000000000,"state":"active","ping":138},{"user_id":473,"name":"★TusKar★","steam_id":76561198064669120,"connected_time":685000000000,"state":"active","ping":122}]},{"server_id":1,"name":"Uncletopia | Los Angeles | 1 | All Maps","name_short":"lax-1","host":"lax-1.us.uncletopia.com","port":27015,"enabled":true,"region":"us-west","cc":"us","latitude":33.94279,"longitude":-118.41004,"reserved":0,"last_update":"0001-01-01T00:00:00Z","name_a2s":"Uncletopia | Los Angeles | 1 | All Maps","protocol":17,"map":"koth_lakeside_final","folder":"tf","game":"Team Fortress","app_id":440,"player_count":0,"max_players":24,"Bots":0,"server_type":"Dedicated","server_os":"Linux","password":true,"vac":true,"version":"7757534","steam_id":85568392924469991,"keywords":["cp","nocrits","nodmgspread","uncletopia"],"game_id":440,"stv_port":27016,"stv_name":"Uncletopia | Los Angeles | 1 | All Maps | STV","players":null},{"server_id":112,"name":"Uncletopia | Los Angeles | 2 | All Maps","name_short":"lax-2","host":"lax-1.us.uncletopia.com","port":27025,"enabled":true,"region":"us-west","cc":"us","latitude":33.94279,"longitude":-118.41004,"reserved":0,"last_update":"0001-01-01T00:00:00Z","name_a2s":"Uncletopia | Los Angeles | 2 | All Maps","protocol":17,"map":"pl_badwater","folder":"tf","game":"Team Fortress","app_id":440,"player_count":0,"max_players":24,"Bots":0,"server_type":"Dedicated","server_os":"Linux","password":true,"vac":true,"version":"7757534","steam_id":85568392924469992,"keywords":["nocrits","nodmgspread","payload","uncletopia"],"game_id":440,"stv_port":27026,"stv_name":"Uncletopia | Los Angeles | 2 | All Maps | STV","players":null},{"server_id":324,"name":"Uncletopia | Los Angeles | 3 | All Maps","name_short":"lax-3","host":"lax-1.us.uncletopia.com","port":27035,"enabled":true,"region":"us-west","cc":"us","latitude":33.94279,"longitude":-118.41004,"reserved":0,"last_update":"0001-01-01T00:00:00Z","name_a2s":"Uncletopia | Los Angeles | 3 | All Maps","protocol":17,"map":"pl_barnblitz","folder":"tf","game":"Team Fortress","app_id":440,"player_count":1,"max_players":24,"Bots":0,"server_type":"Dedicated","server_os":"Linux","password":true,"vac":true,"version":"7757534","steam_id":85568392924510198,"keywords":["nocrits","nodmgspread","payload","uncletopia"],"game_id":440,"stv_port":27036,"stv_name":"Uncletopia | Los Angeles | 3 | All Maps | STV","players":[{"user_id":3,"name":"ShredMaan","steam_id":76561198429982138,"connected_time":373000000000,"state":"active","ping":51}]},{"server_id":25,"name":"Uncletopia | Los Angeles | 4 | Stopwatch Beta","name_short":"lax-4","host":"lax-1.us.uncletopia.com","port":27045,"enabled":true,"region":"us-west","cc":"us","latitude":33.94279,"longitude":-118.41004,"reserved":0,"last_update":"0001-01-01T00:00:00Z","name_a2s":"Uncletopia | Los Angeles | 4 | Stopwatch Beta","protocol":17,"map":"pl_swiftwater_final1","folder":"tf","game":"Team Fortress","app_id":440,"player_count":0,"max_players":24,"Bots":0,"server_type":"Dedicated","server_os":"Linux","password":true,"vac":true,"version":"7757534","steam_id":85568392924510199,"keywords":["nocrits","nodmgspread","payload","uncletopia"],"game_id":440,"stv_port":27046,"stv_name":"Uncletopia | Los Angeles | 4 | Stopwatch Beta | STV","players":null},{"server_id":11,"name":"Uncletopia | London | 1 | All Maps","name_short":"lon-1","host":"lon-1.uk.uncletopia.com","port":27015,"enabled":true,"region":"eu","cc":"gb","latitude":51.509865,"longitude":-0.118092,"reserved":0,"last_update":"0001-01-01T00:00:00Z","name_a2s":"Uncletopia | London | 1 | All Maps","protocol":17,"map":"cp_gravelpit","folder":"tf","game":"Team Fortress","app_id":440,"player_count":23,"max_players":24,"Bots":0,"server_type":"Dedicated","server_os":"Linux","password":true,"vac":true,"version":"7757534","steam_id":85568392924367362,"keywords":["cp","nocrits","nodmgspread","uncletopia"],"game_id":440,"stv_port":27016,"stv_name":"Uncletopia | London | 1 | All Maps | STV","players":[{"user_id":503,"name":"JOHN GAMING (weezer#1fan)","steam_id":76561199085822219,"connected_time":265000000000,"state":"active","ping":100},{"user_id":486,"name":"GabeTheGoldfish","steam_id":76561198153408011,"connected_time":1728000000000,"state":"active","ping":73},{"user_id":463,"name":"Smokio","steam_id":76561198069650580,"connected_time":3530000000000,"state":"active","ping":75},{"user_id":497,"name":"Falamp™","steam_id":76561198300127856,"connected_time":584000000000,"state":"active","ping":87},{"user_id":413,"name":"breakfast","steam_id":76561198106049954,"connected_time":7511000000000,"state":"active","ping":82},{"user_id":473,"name":"padillacampos","steam_id":76561198161923970,"connected_time":2603000000000,"state":"active","ping":76},{"user_id":494,"name":"Riceman","steam_id":76561198295132727,"connected_time":827000000000,"state":"active","ping":86},{"user_id":505,"name":"Denzonian","steam_id":76561198445738614,"connected_time":32000000000,"state":"active","ping":58},{"user_id":496,"name":"wibe","steam_id":76561198002519060,"connected_time":631000000000,"state":"active","ping":89},{"user_id":471,"name":"Healix","steam_id":76561198130270161,"connected_time":2669000000000,"state":"active","ping":58},{"user_id":475,"name":"imjusttryinghere","steam_id":76561199010713883,"connected_time":2544000000000,"state":"active","ping":60},{"user_id":480,"name":"Neo Kojiro","steam_id":76561198000967076,"connected_time":2307000000000,"state":"active","ping":125},{"user_id":502,"name":"bunzlau","steam_id":76561198329485346,"connected_time":287000000000,"state":"active","ping":84},{"user_id":490,"name":"Parasite B. Rodriguez","steam_id":76561197986471344,"connected_time":1291000000000,"state":"active","ping":54},{"user_id":455,"name":"ZANNABLUKE","steam_id":76561198013534336,"connected_time":4068000000000,"state":"active","ping":55},{"user_id":484,"name":"Skittles","steam_id":76561198024077569,"connected_time":2110000000000,"state":"active","ping":58},{"user_id":459,"name":"eNine the FOREVER","steam_id":76561198890193313,"connected_time":3943000000000,"state":"active","ping":59},{"user_id":467,"name":"NLSAM","steam_id":76561199111154916,"connected_time":3081000000000,"state":"active","ping":67},{"user_id":477,"name":"j o n","steam_id":76561199229511741,"connected_time":2538000000000,"state":"active","ping":56},{"user_id":506,"name":"NatP","steam_id":76561198012083811,"connected_time":31000000000,"state":"active","ping":70},{"user_id":488,"name":"Katae","steam_id":76561199191465517,"connected_time":1605000000000,"state":"active","ping":86},{"user_id":482,"name":"killer of noob, winner of game","steam_id":76561198190583242,"connected_time":2140000000000,"state":"active","ping":77},{"user_id":454,"name":"Ocelot","steam_id":76561198263386006,"connected_time":4169000000000,"state":"active","ping":107}]},{"server_id":114,"name":"Uncletopia | London | 2 | All Maps","name_short":"lon-2","host":"lon-1.uk.uncletopia.com","port":27025,"enabled":true,"region":"eu","cc":"gb","latitude":51.509865,"longitude":-0.118092,"reserved":0,"last_update":"0001-01-01T00:00:00Z","name_a2s":"Uncletopia | London | 2 | All Maps","protocol":17,"map":"pl_frontier_final","folder":"tf","game":"Team Fortress","app_id":440,"player_count":24,"max_players":24,"Bots":0,"server_type":"Dedicated","server_os":"Linux","password":true,"vac":true,"version":"7757534","steam_id":85568392924470941,"keywords":["nocrits","nodmgspread","payload","uncletopia"],"game_id":440,"stv_port":27026,"stv_name":"Uncletopia | London | 2 | All Maps | STV","players":[{"user_id":444,"name":"redlix-AA-","steam_id":76561198119413461,"connected_time":1724000000000,"state":"active","ping":69},{"user_id":457,"name":"Jack","steam_id":76561198325505238,"connected_time":904000000000,"state":"active","ping":86},{"user_id":471,"name":"Atlas","steam_id":76561198072189527,"connected_time":309000000000,"state":"active","ping":59},{"user_id":453,"name":"archix","steam_id":76561199354770531,"connected_time":1093000000000,"state":"active","ping":56},{"user_id":477,"name":"CousinCarL","steam_id":76561198028421250,"connected_time":187000000000,"state":"active","ping":124},{"user_id":478,"name":"Fridge","steam_id":76561198071665589,"connected_time":179000000000,"state":"active","ping":104},{"user_id":466,"name":"zibby","steam_id":76561198141674495,"connected_time":562000000000,"state":"active","ping":81},{"user_id":459,"name":"Toaster1337","steam_id":76561198103706881,"connected_time":689000000000,"state":"active","ping":71},{"user_id":437,"name":"Ablativus","steam_id":76561198025698470,"connected_time":2048000000000,"state":"active","ping":76},{"user_id":469,"name":"Rask","steam_id":76561198052934944,"connected_time":355000000000,"state":"active","ping":94},{"user_id":443,"name":"ComradeFloppy","steam_id":76561198295671740,"connected_time":1814000000000,"state":"active","ping":46},{"user_id":404,"name":"night.s","steam_id":76561198326287823,"connected_time":4067000000000,"state":"active","ping":75},{"user_id":449,"name":"senior pomidor","steam_id":76561198123659806,"connected_time":1484000000000,"state":"active","ping":103},{"user_id":464,"name":"clems17","steam_id":76561199420685482,"connected_time":617000000000,"state":"active","ping":68},{"user_id":467,"name":"Joy","steam_id":76561198155314925,"connected_time":441000000000,"state":"active","ping":55},{"user_id":473,"name":"Pyrolander","steam_id":76561198050785450,"connected_time":301000000000,"state":"active","ping":55},{"user_id":420,"name":"Faxter","steam_id":76561198011771605,"connected_time":3158000000000,"state":"active","ping":74},{"user_id":465,"name":"Assassin+","steam_id":76561197994310420,"connected_time":590000000000,"state":"active","ping":90},{"user_id":440,"name":"Spinyapickle","steam_id":76561198086653667,"connected_time":1980000000000,"state":"active","ping":59},{"user_id":474,"name":"Civil Melon","steam_id":76561198988309618,"connected_time":298000000000,"state":"active","ping":85},{"user_id":442,"name":"clean carp","steam_id":76561198127053294,"connected_time":1840000000000,"state":"active","ping":75},{"user_id":452,"name":"Cookie_","steam_id":76561198091732557,"connected_time":1161000000000,"state":"active","ping":75},{"user_id":476,"name":"Topi","steam_id":76561198165732391,"connected_time":273000000000,"state":"active","ping":92},{"user_id":456,"name":"Sketis","steam_id":76561198031972676,"connected_time":953000000000,"state":"active","ping":100}]},{"server_id":320,"name":"Uncletopia | London | 3 | All Maps","name_short":"lon-3","host":"lon-1.uk.uncletopia.com","port":27035,"enabled":true,"region":"eu","cc":"gb","latitude":51.509865,"longitude":-0.118092,"reserved":0,"last_update":"0001-01-01T00:00:00Z","name_a2s":"Uncletopia | London | 3 | All Maps","protocol":17,"map":"pl_upward","folder":"tf","game":"Team Fortress","app_id":440,"player_count":24,"max_players":24,"Bots":0,"server_type":"Dedicated","server_os":"Linux","password":true,"vac":true,"version":"7757534","steam_id":85568392924510192,"keywords":["nocrits","nodmgspread","payload","uncletopia"],"game_id":440,"stv_port":27036,"stv_name":"Uncletopia | London | 3 | All Maps | STV","players":[{"user_id":161,"name":"Greenmaker","steam_id":76561198060466591,"connected_time":2829000000000,"state":"active","ping":86},{"user_id":194,"name":"Economic crisis","steam_id":76561198063562843,"connected_time":1728000000000,"state":"active","ping":61},{"user_id":179,"name":"The129 @ EpicLan38","steam_id":76561198007928317,"connected_time":1926000000000,"state":"active","ping":41},{"user_id":205,"name":"blob","steam_id":76561199119354663,"connected_time":703000000000,"state":"active","ping":56},{"user_id":169,"name":"AmadStatistician","steam_id":76561198163654770,"connected_time":2205000000000,"state":"active","ping":63},{"user_id":172,"name":"Keittokapteeni","steam_id":76561198271579939,"connected_time":2088000000000,"state":"active","ping":87},{"user_id":136,"name":"Gorogaz","steam_id":76561198207157679,"connected_time":4552000000000,"state":"active","ping":68},{"user_id":201,"name":"Rat King","steam_id":76561198256783599,"connected_time":1045000000000,"state":"active","ping":53},{"user_id":200,"name":"Atse","steam_id":76561199019974513,"connected_time":1110000000000,"state":"active","ping":131},{"user_id":192,"name":"Pooble_","steam_id":76561198193757915,"connected_time":1736000000000,"state":"active","ping":54},{"user_id":177,"name":"BallinScout @EpicLAN","steam_id":76561198152443697,"connected_time":1937000000000,"state":"active","ping":54},{"user_id":178,"name":"Roose @EpicLAN","steam_id":76561198102742492,"connected_time":1936000000000,"state":"active","ping":56},{"user_id":208,"name":"jaime8D","steam_id":76561197980590671,"connected_time":105000000000,"state":"active","ping":76},{"user_id":203,"name":"Ember from Hungary","steam_id":76561198269211299,"connected_time":748000000000,"state":"active","ping":95},{"user_id":199,"name":"fénix","steam_id":76561198083199151,"connected_time":1123000000000,"state":"active","ping":54},{"user_id":182,"name":"Gribley@EpicLAN38","steam_id":76561197970826880,"connected_time":1923000000000,"state":"active","ping":52},{"user_id":210,"name":"Dr. Mike Litoris","steam_id":76561197991205793,"connected_time":14000000000,"state":"spawning","ping":75},{"user_id":184,"name":"SasaIKudasaI","steam_id":76561198344298588,"connected_time":1907000000000,"state":"active","ping":100},{"user_id":197,"name":"sugma","steam_id":76561198091486930,"connected_time":1299000000000,"state":"active","ping":63},{"user_id":188,"name":"Maya #transrights","steam_id":76561198290614621,"connected_time":1872000000000,"state":"active","ping":54},{"user_id":189,"name":"KillerQueen (he/they/she)","steam_id":76561199019399725,"connected_time":1854000000000,"state":"active","ping":46},{"user_id":118,"name":"Oddly enough pass","steam_id":76561198963841479,"connected_time":5906000000000,"state":"active","ping":89},{"user_id":193,"name":"AsuX","steam_id":76561197990333289,"connected_time":1732000000000,"state":"active","ping":60},{"user_id":204,"name":"My left foot itches","steam_id":76561198078411001,"connected_time":748000000000,"state":"active","ping":95}]},{"server_id":321,"name":"Uncletopia | London | 4 | All Maps","name_short":"lon-4","host":"lon-1.uk.uncletopia.com","port":27045,"enabled":true,"region":"eu","cc":"gb","latitude":51.509865,"longitude":-0.118092,"reserved":0,"last_update":"0001-01-01T00:00:00Z","name_a2s":"Uncletopia | London | 4 | All Maps","protocol":17,"map":"koth_cascade","folder":"tf","game":"Team Fortress","app_id":440,"player_count":0,"max_players":24,"Bots":0,"server_type":"Dedicated","server_os":"Linux","password":true,"vac":true,"version":"7757534","steam_id":85568392924510193,"keywords":["cp","nocrits","nodmgspread","uncletopia"],"game_id":440,"stv_port":27046,"stv_name":"Uncletopia | London | 4 | All Maps | STV","players":null},{"server_id":21,"name":"Uncletopia | London | 5 | All Maps","name_short":"lon-5","host":"lon-1.uk.uncletopia.com","port":27055,"enabled":true,"region":"eu","cc":"gb","latitude":51.509865,"longitude":-0.118092,"reserved":0,"last_update":"0001-01-01T00:00:00Z","name_a2s":"Uncletopia | London | 5 | All Maps","protocol":17,"map":"pl_frontier_final","folder":"tf","game":"Team Fortress","app_id":440,"player_count":24,"max_players":24,"Bots":0,"server_type":"Dedicated","server_os":"Linux","password":true,"vac":true,"version":"7757534","steam_id":85568392924742829,"keywords":["nocrits","nodmgspread","payload","uncletopia"],"game_id":440,"stv_port":27056,"stv_name":"Uncletopia | London | 5 | All Maps | STV","players":[{"user_id":127,"name":"S0LDaTo","steam_id":76561198269413360,"connected_time":1507000000000,"state":"active","ping":65},{"user_id":145,"name":"\u003c blank \u003e","steam_id":76561198059375315,"connected_time":33000000000,"state":"active","ping":71},{"user_id":125,"name":"Caliban","steam_id":76561197999696839,"connected_time":1515000000000,"state":"active","ping":110},{"user_id":128,"name":"ThatTFguy","steam_id":76561198056794321,"connected_time":1476000000000,"state":"active","ping":55},{"user_id":107,"name":"Anax Alter","steam_id":76561198110249546,"connected_time":2704000000000,"state":"active","ping":109},{"user_id":144,"name":"Rui","steam_id":76561198263735498,"connected_time":60000000000,"state":"active","ping":90},{"user_id":132,"name":"Alfred","steam_id":76561198348799252,"connected_time":1196000000000,"state":"active","ping":47},{"user_id":129,"name":"qapove45zn","steam_id":76561199267514701,"connected_time":1410000000000,"state":"active","ping":85},{"user_id":108,"name":"snorrbrod","steam_id":76561198142389396,"connected_time":2697000000000,"state":"active","ping":80},{"user_id":126,"name":"MAKENTAKEN","steam_id":76561199127359587,"connected_time":1512000000000,"state":"active","ping":100},{"user_id":133,"name":"Slazaa","steam_id":76561197993252446,"connected_time":1194000000000,"state":"active","ping":47},{"user_id":121,"name":"Infantile Pillock","steam_id":76561198283851362,"connected_time":2078000000000,"state":"active","ping":65},{"user_id":114,"name":"tf2 snake","steam_id":76561198193971167,"connected_time":2588000000000,"state":"active","ping":64},{"user_id":84,"name":"floofi pyro","steam_id":76561198805181599,"connected_time":4556000000000,"state":"active","ping":52},{"user_id":112,"name":"Tank","steam_id":76561199059174576,"connected_time":2651000000000,"state":"active","ping":174},{"user_id":113,"name":"JoltStryke","steam_id":76561198072955299,"connected_time":2647000000000,"state":"active","ping":62},{"user_id":124,"name":".::[SerafeTTiN]::.","steam_id":76561198009471724,"connected_time":1736000000000,"state":"active","ping":93},{"user_id":143,"name":"murderwow","steam_id":76561198024566944,"connected_time":197000000000,"state":"active","ping":202},{"user_id":115,"name":"JeanCorben","steam_id":76561197965133561,"connected_time":2563000000000,"state":"active","ping":44},{"user_id":142,"name":"NikaBebra","steam_id":76561198336949521,"connected_time":608000000000,"state":"active","ping":108},{"user_id":141,"name":"blurst of times","steam_id":76561197972325640,"connected_time":829000000000,"state":"active","ping":46},{"user_id":91,"name":"Kestrel","steam_id":76561198144033005,"connected_time":4346000000000,"state":"active","ping":52},{"user_id":92,"name":"Kruthal","steam_id":76561198245726582,"connected_time":4335000000000,"state":"active","ping":75},{"user_id":101,"name":"Wenolainen","steam_id":76561198334592800,"connected_time":3206000000000,"state":"active","ping":91}]},{"server_id":22,"name":"Uncletopia | London | 6 | All Maps","name_short":"lon-6","host":"lon-1.uk.uncletopia.com","port":27065,"enabled":true,"region":"eu","cc":"gb","latitude":51.509865,"longitude":-0.118092,"reserved":0,"last_update":"0001-01-01T00:00:00Z","name_a2s":"Uncletopia | London | 6 | All Maps","protocol":17,"map":"pl_badwater","folder":"tf","game":"Team Fortress","app_id":440,"player_count":24,"max_players":24,"Bots":0,"server_type":"Dedicated","server_os":"Linux","password":true,"vac":true,"version":"7757534","steam_id":85568392924742830,"keywords":["nocrits","nodmgspread","payload","uncletopia"],"game_id":440,"stv_port":27066,"stv_name":"Uncletopia | London | 6 | All Maps | STV","players":[{"user_id":20,"name":"senator Armstrong","steam_id":76561199104488662,"connected_time":1969000000000,"state":"active","ping":137},{"user_id":21,"name":"Niwox","steam_id":76561199418015077,"connected_time":1542000000000,"state":"active","ping":109},{"user_id":40,"name":"Pompey the Great (real)","steam_id":76561199149498647,"connected_time":462000000000,"state":"active","ping":71},{"user_id":50,"name":"Pogi820","steam_id":76561198320573568,"connected_time":301000000000,"state":"active","ping":108},{"user_id":24,"name":"Proto-arc","steam_id":76561198012776747,"connected_time":1057000000000,"state":"active","ping":46},{"user_id":26,"name":"Piellino","steam_id":76561198156873276,"connected_time":1010000000000,"state":"active","ping":114},{"user_id":37,"name":"BTP_FreeWifi","steam_id":76561199084788915,"connected_time":488000000000,"state":"active","ping":59},{"user_id":28,"name":"spiningbirdkick","steam_id":76561199142721155,"connected_time":827000000000,"state":"active","ping":83},{"user_id":30,"name":"ja","steam_id":76561199228540618,"connected_time":713000000000,"state":"active","ping":89},{"user_id":51,"name":"Haha?","steam_id":76561198056882245,"connected_time":226000000000,"state":"active","ping":40},{"user_id":36,"name":"meatsoupcube","steam_id":76561198276802249,"connected_time":497000000000,"state":"active","ping":89},{"user_id":34,"name":"САНЯ ВОДІЛА","steam_id":76561198343380238,"connected_time":572000000000,"state":"active","ping":87},{"user_id":35,"name":"Mr.noob","steam_id":76561199200442395,"connected_time":547000000000,"state":"active","ping":81},{"user_id":38,"name":"Magirby","steam_id":76561198818777390,"connected_time":480000000000,"state":"active","ping":114},{"user_id":39,"name":"\u003c blank \u003e","steam_id":76561199438805486,"connected_time":471000000000,"state":"active","ping":52},{"user_id":41,"name":"Davey","steam_id":76561198256879107,"connected_time":462000000000,"state":"active","ping":77},{"user_id":54,"name":"Kjat","steam_id":76561198839433592,"connected_time":96000000000,"state":"active","ping":60},{"user_id":43,"name":"Taplo","steam_id":76561198045694019,"connected_time":441000000000,"state":"active","ping":75},{"user_id":44,"name":"W.","steam_id":76561198097420050,"connected_time":440000000000,"state":"active","ping":50},{"user_id":45,"name":"deltaco","steam_id":76561199481069852,"connected_time":422000000000,"state":"active","ping":75},{"user_id":52,"name":"Anonymous47007","steam_id":76561199005211417,"connected_time":200000000000,"state":"active","ping":85},{"user_id":47,"name":"Ashref 2","steam_id":76561198424367750,"connected_time":389000000000,"state":"active","ping":71},{"user_id":48,"name":"SaltyCupcakes","steam_id":76561198256386417,"connected_time":373000000000,"state":"active","ping":68},{"user_id":49,"name":"Sandvich","steam_id":76561199079493666,"connected_time":367000000000,"state":"active","ping":99}]},{"server_id":40,"name":"Uncletopia | London | 7 | No Payload","name_short":"lon-7","host":"lon-1.uk.uncletopia.com","port":27075,"enabled":true,"region":"eu","cc":"gb","latitude":51.509865,"longitude":-0.118092,"reserved":0,"last_update":"0001-01-01T00:00:00Z","name_a2s":"Uncletopia | London | 7 | No Payload","protocol":17,"map":"cp_junction_final","folder":"tf","game":"Team Fortress","app_id":440,"player_count":0,"max_players":24,"Bots":0,"server_type":"Dedicated","server_os":"Linux","password":true,"vac":true,"version":"7757534","steam_id":85568392924964314,"keywords":["cp","nocrits","nodmgspread","uncletopia"],"game_id":440,"stv_port":27076,"stv_name":"Uncletopia | London | 7 | No Payload | STV","players":null},{"server_id":41,"name":"Uncletopia | London | 8 | Community","name_short":"lon-8","host":"lon-1.uk.uncletopia.com","port":27085,"enabled":true,"region":"eu","cc":"gb","latitude":51.509865,"longitude":-0.118092,"reserved":0,"last_update":"0001-01-01T00:00:00Z","name_a2s":"Uncletopia | London | 8 | Community","protocol":17,"map":"workshop/koth_ramjam_rc1.ugc459778887","folder":"tf","game":"Team Fortress","app_id":440,"player_count":0,"max_players":24,"Bots":0,"server_type":"Dedicated","server_os":"Linux","password":true,"vac":true,"version":"7757534","steam_id":85568392924964315,"keywords":["cp","nocrits","nodmgspread","uncletopia"],"game_id":440,"stv_port":27086,"stv_name":"Uncletopia | London | 8 | Community | STV","players":null},{"server_id":300,"name":"Uncletopia | Montréal | 1 | All Maps","name_short":"mtl-1","host":"mtl-1.ca.uncletopia.com","port":27015,"enabled":true,"region":"us-east","cc":"ca","latitude":45.50889,"longitude":-73.56167,"reserved":0,"last_update":"0001-01-01T00:00:00Z","name_a2s":"Uncletopia | Montréal | 1 | All Maps","protocol":17,"map":"pl_upward","folder":"tf","game":"Team Fortress","app_id":440,"player_count":0,"max_players":24,"Bots":0,"server_type":"Dedicated","server_os":"Linux","password":true,"vac":true,"version":"7757534","steam_id":85568392924500087,"keywords":["nocrits","nodmgspread","payload","uncletopia"],"game_id":440,"stv_port":27016,"stv_name":"Uncletopia | Montréal | 1 | All Maps | STV","players":null},{"server_id":301,"name":"Uncletopia | Montréal | 2 | All Maps","name_short":"mtl-2","host":"mtl-1.ca.uncletopia.com","port":27025,"enabled":true,"region":"us-east","cc":"ca","latitude":45.50889,"longitude":-73.56167,"reserved":0,"last_update":"0001-01-01T00:00:00Z","name_a2s":"Uncletopia | Montréal | 2 | All Maps","protocol":17,"map":"pl_snowycoast","folder":"tf","game":"Team Fortress","app_id":440,"player_count":0,"max_players":24,"Bots":0,"server_type":"Dedicated","server_os":"Linux","password":true,"vac":true,"version":"7757534","steam_id":85568392924500088,"keywords":["nocrits","nodmgspread","payload","uncletopia"],"game_id":440,"stv_port":27026,"stv_name":"Uncletopia | Montréal | 2 | All Maps | STV","players":null},{"server_id":302,"name":"Uncletopia | Montréal | 3 | All Maps","name_short":"mtl-3","host":"mtl-1.ca.uncletopia.com","port":27035,"enabled":true,"region":"us-east","cc":"ca","latitude":45.50889,"longitude":-73.56167,"reserved":0,"last_update":"0001-01-01T00:00:00Z","name_a2s":"Uncletopia | Montréal | 3 | All Maps","protocol":17,"map":"pl_swiftwater_final1","folder":"tf","game":"Team Fortress","app_id":440,"player_count":0,"max_players":24,"Bots":0,"server_type":"Dedicated","server_os":"Linux","password":true,"vac":true,"version":"7757534","steam_id":85568392924500089,"keywords":["nocrits","nodmgspread","payload","uncletopia"],"game_id":440,"stv_port":27036,"stv_name":"Uncletopia | Montréal | 3 | All Maps | STV","players":null},{"server_id":303,"name":"Uncletopia | Montréal | 4 | No Payload","name_short":"mtl-4","host":"mtl-1.ca.uncletopia.com","port":27045,"enabled":true,"region":"us-east","cc":"ca","latitude":45.50889,"longitude":-73.56167,"reserved":0,"last_update":"0001-01-01T00:00:00Z","name_a2s":"Uncletopia | Montréal | 4 | No Payload","protocol":17,"map":"pl_pier","folder":"tf","game":"Team Fortress","app_id":440,"player_count":0,"max_players":24,"Bots":0,"server_type":"Dedicated","server_os":"Linux","password":true,"vac":true,"version":"7757534","steam_id":85568392924500090,"keywords":["nocrits","nodmgspread","payload","uncletopia"],"game_id":440,"stv_port":27046,"stv_name":"Uncletopia | Montréal | 4 | No Payload | STV","players":null},{"server_id":13,"name":"Uncletopia | New York City | 1 | All Maps","name_short":"nyc-1","host":"nyc-1.us.uncletopia.com","port":27015,"enabled":true,"region":"us-east","cc":"us","latitude":40.73061,"longitude":-73.93524,"reserved":0,"last_update":"0001-01-01T00:00:00Z","name_a2s":"Uncletopia | New York City | 1 | All Maps","protocol":17,"map":"koth_viaduct","folder":"tf","game":"Team Fortress","app_id":440,"player_count":0,"max_players":24,"Bots":0,"server_type":"Dedicated","server_os":"Linux","password":true,"vac":true,"version":"7757534","steam_id":85568392924469993,"keywords":["cp","nocrits","nodmgspread","uncletopia"],"game_id":440,"stv_port":27016,"stv_name":"Uncletopia | New York City | 1 | All Maps | STV","players":null},{"server_id":14,"name":"Uncletopia | New York City | 2 | All Maps","name_short":"nyc-2","host":"nyc-1.us.uncletopia.com","port":27025,"enabled":true,"region":"us-east","cc":"us","latitude":40.73061,"longitude":-73.93524,"reserved":0,"last_update":"0001-01-01T00:00:00Z","name_a2s":"Uncletopia | New York City | 2 | All Maps","protocol":17,"map":"pl_badwater","folder":"tf","game":"Team Fortress","app_id":440,"player_count":0,"max_players":24,"Bots":0,"server_type":"Dedicated","server_os":"Linux","password":true,"vac":true,"version":"7757534","steam_id":85568392924469994,"keywords":["nocrits","nodmgspread","payload","uncletopia"],"game_id":440,"stv_port":27026,"stv_name":"Uncletopia | New York City | 2 | All Maps | STV","players":null},{"server_id":15,"name":"Uncletopia | New York City | 3 | Stopwatch Beta","name_short":"nyc-3","host":"nyc-1.us.uncletopia.com","port":27035,"enabled":true,"region":"us-east","cc":"us","latitude":40.73061,"longitude":-73.93524,"reserved":0,"last_update":"0001-01-01T00:00:00Z","name_a2s":"Uncletopia | New York City | 3 | Stopwatch Beta","protocol":17,"map":"pl_upward","folder":"tf","game":"Team Fortress","app_id":440,"player_count":0,"max_players":24,"Bots":0,"server_type":"Dedicated","server_os":"Linux","password":true,"vac":true,"version":"7757534","steam_id":85568392924742820,"keywords":["nocrits","nodmgspread","payload","uncletopia"],"game_id":440,"stv_port":27036,"stv_name":"Uncletopia | New York City | 3 | Stopwatch Beta | STV","players":null},{"server_id":16,"name":"Uncletopia | New York City | 4 | Community","name_short":"nyc-4","host":"nyc-1.us.uncletopia.com","port":27045,"enabled":true,"region":"us-east","cc":"us","latitude":40.73061,"longitude":-73.93524,"reserved":0,"last_update":"0001-01-01T00:00:00Z","name_a2s":"Uncletopia | New York City | 4 | Community","protocol":17,"map":"pl_swiftwater_final1","folder":"tf","game":"Team Fortress","app_id":440,"player_count":1,"max_players":24,"Bots":0,"server_type":"Dedicated","server_os":"Linux","password":true,"vac":true,"version":"7757534","steam_id":85568392924742821,"keywords":["nocrits","nodmgspread","payload","uncletopia"],"game_id":440,"stv_port":27046,"stv_name":"Uncletopia | New York City | 4 | Community | STV","players":[{"user_id":5,"name":"cleanlaundry","steam_id":76561199165098525,"connected_time":43000000000,"state":"spawning","ping":108}]},{"server_id":142,"name":"Uncletopia | São Paulo | 1 | All Maps","name_short":"sao-1","host":"sao-1.br.uncletopia.com","port":27015,"enabled":true,"region":"sa","cc":"br","latitude":-23.533773,"longitude":-46.62529,"reserved":0,"last_update":"0001-01-01T00:00:00Z","name_a2s":"Uncletopia | São Paulo | 1 | All Maps","protocol":17,"map":"koth_lakeside_final","folder":"tf","game":"Team Fortress","app_id":440,"player_count":0,"max_players":24,"Bots":0,"server_type":"Dedicated","server_os":"Linux","password":true,"vac":true,"version":"7757534","steam_id":85568392924469996,"keywords":["cp","nocrits","nodmgspread","uncletopia"],"game_id":440,"stv_port":27016,"stv_name":"Uncletopia | São Paulo | 1 | All Maps | STV","players":null},{"server_id":143,"name":"Uncletopia | São Paulo | 2 | All Maps","name_short":"sao-2","host":"sao-2.br.uncletopia.com","port":27015,"enabled":true,"region":"sa","cc":"br","latitude":-23.533773,"longitude":-46.62529,"reserved":0,"last_update":"0001-01-01T00:00:00Z","name_a2s":"Uncletopia | São Paulo | 2 | All Maps","protocol":17,"map":"koth_viaduct","folder":"tf","game":"Team Fortress","app_id":440,"player_count":0,"max_players":24,"Bots":0,"server_type":"Dedicated","server_os":"Linux","password":true,"vac":true,"version":"7757534","steam_id":85568392924485349,"keywords":["cp","nocrits","nodmgspread","uncletopia"],"game_id":440,"stv_port":27016,"stv_name":"Uncletopia | São Paulo | 2 | All Maps | STV","players":null},{"server_id":7,"name":"Uncletopia | Seattle | 1 | All Maps","name_short":"sea-1","host":"sea-1.us.uncletopia.com","port":27015,"enabled":true,"region":"us-west","cc":"us","latitude":47.608013,"longitude":-122.33517,"reserved":0,"last_update":"0001-01-01T00:00:00Z","name_a2s":"Uncletopia | Seattle | 1 | All Maps","protocol":17,"map":"cp_dustbowl","folder":"tf","game":"Team Fortress","app_id":440,"player_count":24,"max_players":24,"Bots":0,"server_type":"Dedicated","server_os":"Linux","password":true,"vac":true,"version":"7757534","steam_id":85568392924469997,"keywords":["cp","nocrits","nodmgspread","uncletopia"],"game_id":440,"stv_port":27016,"stv_name":"Uncletopia | Seattle | 1 | All Maps | STV","players":[{"user_id":83,"name":"Monketron","steam_id":76561198014225523,"connected_time":754000000000,"state":"active","ping":79},{"user_id":85,"name":"joji fan fr","steam_id":76561198975706117,"connected_time":735000000000,"state":"active","ping":74},{"user_id":70,"name":"HiFivr","steam_id":76561198285190162,"connected_time":1853000000000,"state":"active","ping":69},{"user_id":93,"name":"NiteWind","steam_id":76561198865162219,"connected_time":147000000000,"state":"active","ping":89},{"user_id":56,"name":"2j psych ward boiwife","steam_id":76561198206752128,"connected_time":3613000000000,"state":"active","ping":153},{"user_id":84,"name":"mobe","steam_id":76561198121633820,"connected_time":736000000000,"state":"active","ping":73},{"user_id":90,"name":"the trollining","steam_id":76561199160884713,"connected_time":541000000000,"state":"active","ping":77},{"user_id":71,"name":"XxDragon4321xX","steam_id":76561198046705735,"connected_time":1808000000000,"state":"active","ping":102},{"user_id":92,"name":"Shark Sandwich","steam_id":76561198025007938,"connected_time":299000000000,"state":"active","ping":59},{"user_id":78,"name":"What are you doing?!","steam_id":76561198405248691,"connected_time":1190000000000,"state":"active","ping":75},{"user_id":87,"name":"joebot","steam_id":76561197975606100,"connected_time":681000000000,"state":"active","ping":122},{"user_id":88,"name":"CollDragon","steam_id":76561198067534450,"connected_time":623000000000,"state":"active","ping":131},{"user_id":57,"name":"He","steam_id":76561198082688554,"connected_time":3566000000000,"state":"active","ping":97},{"user_id":27,"name":"Nassu","steam_id":76561198147367577,"connected_time":5495000000000,"state":"active","ping":129},{"user_id":72,"name":"lynks disease no sound","steam_id":76561198043465434,"connected_time":1727000000000,"state":"active","ping":71},{"user_id":30,"name":"Tyler\u0026Fingers","steam_id":76561198085154485,"connected_time":5395000000000,"state":"active","ping":132},{"user_id":58,"name":"ark","steam_id":76561198041066271,"connected_time":3330000000000,"state":"active","ping":79},{"user_id":82,"name":"Peeferqueefer","steam_id":76561198035657911,"connected_time":1035000000000,"state":"active","ping":55},{"user_id":33,"name":"new yeat album","steam_id":76561198328109873,"connected_time":5301000000000,"state":"active","ping":115},{"user_id":35,"name":"Aircraft Carrier Princess","steam_id":76561198348354629,"connected_time":5239000000000,"state":"active","ping":67},{"user_id":74,"name":"DMAFGreatoverlordSchikonmaster","steam_id":76561198123510618,"connected_time":1523000000000,"state":"active","ping":70},{"user_id":39,"name":"Dookiechan","steam_id":76561198138467345,"connected_time":5170000000000,"state":"active","ping":105},{"user_id":67,"name":"Cam","steam_id":76561198285054047,"connected_time":1976000000000,"state":"active","ping":79},{"user_id":64,"name":"Summer's Snowman","steam_id":76561198057140854,"connected_time":2090000000000,"state":"active","ping":67}]},{"server_id":119,"name":"Uncletopia | Seattle | 2 | All Maps","name_short":"sea-2","host":"sea-1.us.uncletopia.com","port":27025,"enabled":true,"region":"us-west","cc":"us","latitude":47.608013,"longitude":-122.33517,"reserved":0,"last_update":"0001-01-01T00:00:00Z","name_a2s":"Uncletopia | Seattle | 2 | All Maps","protocol":17,"map":"pl_badwater","folder":"tf","game":"Team Fortress","app_id":440,"player_count":1,"max_players":24,"Bots":0,"server_type":"Dedicated","server_os":"Linux","password":true,"vac":true,"version":"7757534","steam_id":85568392924469998,"keywords":["nocrits","nodmgspread","payload","uncletopia"],"game_id":440,"stv_port":27026,"stv_name":"Uncletopia | Seattle | 2 | All Maps | STV","players":[{"user_id":4,"name":"Seico Bass","steam_id":76561198123498500,"connected_time":122000000000,"state":"active","ping":67}]},{"server_id":406,"name":"Uncletopia | Seattle | 3 | Stopwatch Beta","name_short":"sea-3","host":"sea-1.us.uncletopia.com","port":27035,"enabled":true,"region":"us-west","cc":"us","latitude":47.608013,"longitude":-122.33517,"reserved":0,"last_update":"0001-01-01T00:00:00Z","name_a2s":"Uncletopia | Seattle | 3 | Stopwatch Beta","protocol":17,"map":"cp_dustbowl","folder":"tf","game":"Team Fortress","app_id":440,"player_count":0,"max_players":24,"Bots":0,"server_type":"Dedicated","server_os":"Linux","password":true,"vac":true,"version":"7757534","steam_id":85568392924515217,"keywords":["cp","nocrits","nodmgspread","uncletopia"],"game_id":440,"stv_port":27036,"stv_name":"Uncletopia | Seattle | 3 | Stopwatch Beta | STV","players":null},{"server_id":17,"name":"Uncletopia | San Francisco | 1 | All Maps","name_short":"sfo-1","host":"sfo-1.us.uncletopia.com","port":27015,"enabled":true,"region":"us-west","cc":"us","latitude":37.77397,"longitude":-122.4313,"reserved":0,"last_update":"0001-01-01T00:00:00Z","name_a2s":"Uncletopia | San Francisco | 1 | All Maps","protocol":17,"map":"cp_mountainlab","folder":"tf","game":"Team Fortress","app_id":440,"player_count":0,"max_players":24,"Bots":0,"server_type":"Dedicated","server_os":"Linux","password":true,"vac":true,"version":"7757534","steam_id":85568392924469999,"keywords":["cp","nocrits","nodmgspread","uncletopia"],"game_id":440,"stv_port":27016,"stv_name":"Uncletopia | San Francisco | 1 | All Maps | STV","players":null},{"server_id":18,"name":"Uncletopia | San Francisco | 2 | All Maps","name_short":"sfo-2","host":"sfo-1.us.uncletopia.com","port":27025,"enabled":true,"region":"us-west","cc":"us","latitude":37.77397,"longitude":-122.4313,"reserved":0,"last_update":"0001-01-01T00:00:00Z","name_a2s":"Uncletopia | San Francisco | 2 | All Maps","protocol":17,"map":"koth_highpass","folder":"tf","game":"Team Fortress","app_id":440,"player_count":0,"max_players":24,"Bots":0,"server_type":"Dedicated","server_os":"Linux","password":true,"vac":true,"version":"7757534","steam_id":85568392924470000,"keywords":["cp","nocrits","nodmgspread","uncletopia"],"game_id":440,"stv_port":27026,"stv_name":"Uncletopia | San Francisco | 2 | All Maps | STV","players":null},{"server_id":19,"name":"Uncletopia | San Francisco | 3 | Stopwatch Beta","name_short":"sfo-3","host":"sfo-1.us.uncletopia.com","port":27035,"enabled":true,"region":"us-west","cc":"us","latitude":37.77397,"longitude":-122.4313,"reserved":0,"last_update":"0001-01-01T00:00:00Z","name_a2s":"Uncletopia | San Francisco | 3 | Stopwatch Beta","protocol":17,"map":"koth_lakeside_final","folder":"tf","game":"Team Fortress","app_id":440,"player_count":0,"max_players":24,"Bots":0,"server_type":"Dedicated","server_os":"Linux","password":true,"vac":true,"version":"7757534","steam_id":85568392924742824,"keywords":["cp","nocrits","nodmgspread","uncletopia"],"game_id":440,"stv_port":27036,"stv_name":"Uncletopia | San Francisco | 3 | Stopwatch Beta | STV","players":null},{"server_id":20,"name":"Uncletopia | San Francisco | 4 | Community","name_short":"sfo-4","host":"sfo-1.us.uncletopia.com","port":27045,"enabled":true,"region":"us-west","cc":"us","latitude":37.77397,"longitude":-122.4313,"reserved":0,"last_update":"0001-01-01T00:00:00Z","name_a2s":"Uncletopia | San Francisco | 4 | Community","protocol":17,"map":"cp_altitude","folder":"tf","game":"Team Fortress","app_id":440,"player_count":0,"max_players":24,"Bots":0,"server_type":"Dedicated","server_os":"Linux","password":true,"vac":true,"version":"7757534","steam_id":85568392924742826,"keywords":["cp","nocrits","nodmgspread","uncletopia"],"game_id":440,"stv_port":27046,"stv_name":"Uncletopia | San Francisco | 4 | Community | STV","players":null},{"server_id":141,"name":"Uncletopia | Sydney | 1 | All Maps","name_short":"syd-1","host":"syd-1.au.uncletopia.com","port":27015,"enabled":true,"region":"au","cc":"au","latitude":-33.865143,"longitude":151.2099,"reserved":0,"last_update":"0001-01-01T00:00:00Z","name_a2s":"Uncletopia | Sydney | 1 | All Maps","protocol":17,"map":"pl_badwater","folder":"tf","game":"Team Fortress","app_id":440,"player_count":0,"max_players":24,"Bots":0,"server_type":"Dedicated","server_os":"Linux","password":true,"vac":true,"version":"7757534","steam_id":85568392924470001,"keywords":["nocrits","nodmgspread","payload","uncletopia"],"game_id":440,"stv_port":27016,"stv_name":"Uncletopia | Sydney | 1 | All Maps | STV","players":null},{"server_id":123,"name":"Uncletopia | Sydney | 2 | All Maps","name_short":"syd-2","host":"syd-1.au.uncletopia.com","port":27025,"enabled":true,"region":"au","cc":"au","latitude":-33.865143,"longitude":151.2099,"reserved":0,"last_update":"0001-01-01T00:00:00Z","name_a2s":"Uncletopia | Sydney | 2 | All Maps","protocol":17,"map":"cp_snakewater_final1","folder":"tf","game":"Team Fortress","app_id":440,"player_count":0,"max_players":24,"Bots":0,"server_type":"Dedicated","server_os":"Linux","password":true,"vac":true,"version":"7757534","steam_id":85568392924470002,"keywords":["cp","nocrits","nodmgspread","uncletopia"],"game_id":440,"stv_port":27026,"stv_name":"Uncletopia | Sydney | 2 | All Maps | STV","players":null},{"server_id":395,"name":"Uncletopia | Sydney | 3 | All Maps","name_short":"syd-3","host":"syd-1.au.uncletopia.com","port":27035,"enabled":true,"region":"au","cc":"au","latitude":-33.865143,"longitude":151.2099,"reserved":0,"last_update":"0001-01-01T00:00:00Z","name_a2s":"Uncletopia | Sydney | 3 | All Maps","protocol":17,"map":"koth_cascade","folder":"tf","game":"Team Fortress","app_id":440,"player_count":0,"max_players":24,"Bots":0,"server_type":"Dedicated","server_os":"Linux","password":true,"vac":true,"version":"7757534","steam_id":85568392925194467,"keywords":["cp","nocrits","nodmgspread","uncletopia"],"game_id":440,"stv_port":27036,"stv_name":"Uncletopia | Sydney | 3 | All Maps | STV","players":null},{"server_id":396,"name":"Uncletopia | Sydney | 4 | All Maps","name_short":"syd-4","host":"syd-1.au.uncletopia.com","port":27045,"enabled":true,"region":"au","cc":"au","latitude":-33.865143,"longitude":151.2099,"reserved":0,"last_update":"0001-01-01T00:00:00Z","name_a2s":"Uncletopia | Sydney | 4 | All Maps","protocol":17,"map":"koth_highpass","folder":"tf","game":"Team Fortress","app_id":440,"player_count":0,"max_players":24,"Bots":0,"server_type":"Dedicated","server_os":"Linux","password":true,"vac":true,"version":"7757534","steam_id":85568392925397958,"keywords":["cp","nocrits","nodmgspread","uncletopia"],"game_id":440,"stv_port":27046,"stv_name":"Uncletopia | Sydney | 4 | All Maps | STV","players":null},{"server_id":58,"name":"Uncletopia | Sydney | 5 | Stopwatch Beta","name_short":"syd-5","host":"syd-1.au.uncletopia.com","port":27055,"enabled":true,"region":"au","cc":"au","latitude":-33.865143,"longitude":151.2099,"reserved":0,"last_update":"0001-01-01T00:00:00Z","name_a2s":"Uncletopia | Sydney | 5 | Stopwatch Beta","protocol":17,"map":"workshop/pl_badwater_pro_v12.ugc2142942074","folder":"tf","game":"Team Fortress","app_id":440,"player_count":0,"max_players":24,"Bots":0,"server_type":"Dedicated","server_os":"Linux","password":true,"vac":true,"version":"7757534","steam_id":85568392925397959,"keywords":["nocrits","nodmgspread","payload","uncletopia"],"game_id":440,"stv_port":27056,"stv_name":"Uncletopia | Sydney | 5 | Stopwatch Beta | STV","players":null},{"server_id":59,"name":"Uncletopia | Sydney | 6 | Community","name_short":"syd-6","host":"syd-1.au.uncletopia.com","port":27065,"enabled":true,"region":"au","cc":"au","latitude":-33.865143,"longitude":151.2099,"reserved":0,"last_update":"0001-01-01T00:00:00Z","name_a2s":"Uncletopia | Sydney | 6 | Community","protocol":17,"map":"workshop/koth_trenchfoot_b1a.ugc731436616","folder":"tf","game":"Team Fortress","app_id":440,"player_count":0,"max_players":24,"Bots":0,"server_type":"Dedicated","server_os":"Linux","password":true,"vac":true,"version":"7757534","steam_id":85568392925397960,"keywords":["cp","nocrits","nodmgspread","uncletopia"],"game_id":440,"stv_port":27066,"stv_name":"Uncletopia | Sydney | 6 | Community | STV","players":null},{"server_id":49,"name":"Uncletopia | Warsaw | 1 | All Maps","name_short":"waw-1","host":"waw-1.pl.uncletopia.com","port":27015,"enabled":true,"region":"eu","cc":"pl","latitude":52.2297,"longitude":21.017532,"reserved":0,"last_update":"0001-01-01T00:00:00Z","name_a2s":"","protocol":0,"map":"","folder":"","game":"","app_id":0,"player_count":0,"max_players":0,"Bots":0,"server_type":"","server_os":"","password":false,"vac":false,"version":"","steam_id":0,"keywords":null,"game_id":0,"stv_port":0,"stv_name":"","players":null},{"server_id":50,"name":"Uncletopia | Warsaw | 2 | All Maps","name_short":"waw-2","host":"waw-1.pl.uncletopia.com","port":27025,"enabled":true,"region":"eu","cc":"pl","latitude":52.2297,"longitude":21.017532,"reserved":0,"last_update":"0001-01-01T00:00:00Z","name_a2s":"Uncletopia | Warsaw | 2 | All Maps","protocol":17,"map":"koth_viaduct","folder":"tf","game":"Team Fortress","app_id":440,"player_count":0,"max_players":24,"Bots":0,"server_type":"Dedicated","server_os":"Linux","password":true,"vac":true,"version":"7757534","steam_id":85568392925397851,"keywords":["cp","nocrits","nodmgspread","uncletopia"],"game_id":440,"stv_port":27026,"stv_name":"Uncletopia | Warsaw | 2 | All Maps | STV","players":null},{"server_id":51,"name":"Uncletopia | Warsaw | 3 | All Maps","name_short":"waw-3","host":"waw-1.pl.uncletopia.com","port":27035,"enabled":true,"region":"eu","cc":"pl","latitude":52.2297,"longitude":21.017532,"reserved":0,"last_update":"0001-01-01T00:00:00Z","name_a2s":"Uncletopia | Warsaw | 3 | All Maps","protocol":17,"map":"pl_badwater","folder":"tf","game":"Team Fortress","app_id":440,"player_count":0,"max_players":24,"Bots":0,"server_type":"Dedicated","server_os":"Linux","password":true,"vac":true,"version":"7757534","steam_id":85568392925397852,"keywords":["nocrits","nodmgspread","payload","uncletopia"],"game_id":440,"stv_port":27036,"stv_name":"Uncletopia | Warsaw | 3 | All Maps | STV","players":null},{"server_id":52,"name":"Uncletopia | Warsaw | 4 | All Maps","name_short":"waw-4","host":"waw-1.pl.uncletopia.com","port":27045,"enabled":true,"region":"eu","cc":"pl","latitude":52.2297,"longitude":21.017532,"reserved":0,"last_update":"0001-01-01T00:00:00Z","name_a2s":"Uncletopia | Warsaw | 4 | All Maps","protocol":17,"map":"koth_lakeside_final","folder":"tf","game":"Team Fortress","app_id":440,"player_count":0,"max_players":24,"Bots":0,"server_type":"Dedicated","server_os":"Linux","password":true,"vac":true,"version":"7757534","steam_id":85568392925397853,"keywords":["cp","nocrits","nodmgspread","uncletopia"],"game_id":440,"stv_port":27046,"stv_name":"Uncletopia | Warsaw | 4 | All Maps | STV","players":null},{"server_id":53,"name":"Uncletopia | Warsaw | 5 | Stopwatch Beta","name_short":"waw-5","host":"waw-1.pl.uncletopia.com","port":27055,"enabled":true,"region":"eu","cc":"pl","latitude":52.2297,"longitude":21.017532,"reserved":0,"last_update":"0001-01-01T00:00:00Z","name_a2s":"Uncletopia | Warsaw | 5 | Stopwatch Beta","protocol":17,"map":"cp_metalworks","folder":"tf","game":"Team Fortress","app_id":440,"player_count":0,"max_players":24,"Bots":0,"server_type":"Dedicated","server_os":"Linux","password":true,"vac":true,"version":"7757534","steam_id":85568392925397854,"keywords":["cp","nocrits","nodmgspread","uncletopia"],"game_id":440,"stv_port":27056,"stv_name":"Uncletopia | Warsaw | 5 | Stopwatch Beta | STV","players":null},{"server_id":54,"name":"Uncletopia | Warsaw | 6 | Community","name_short":"waw-6","host":"waw-1.pl.uncletopia.com","port":27065,"enabled":true,"region":"eu","cc":"pl","latitude":52.2297,"longitude":21.017532,"reserved":0,"last_update":"0001-01-01T00:00:00Z","name_a2s":"Uncletopia | Warsaw | 6 | Community","protocol":17,"map":"koth_lakeside_final","folder":"tf","game":"Team Fortress","app_id":440,"player_count":0,"max_players":24,"Bots":0,"server_type":"Dedicated","server_os":"Linux","password":true,"vac":true,"version":"7757534","steam_id":85568392925397856,"keywords":["cp","nocrits","nodmgspread","uncletopia"],"game_id":440,"stv_port":27066,"stv_name":"Uncletopia | Warsaw | 6 | Community | STV","players":null}]}