{"status":true,"message":"","result":[{"server_id":9,"name":"Uncletopia | Atlanta | 1 | All Maps","name_short":"atl-1","host":"atl-1.us.uncletopia.com","port":27015,"enabled":true,"region":"us-east","cc":"us","latitude":33.753746,"longitude":-84.38633,"reserved":0,"last_update":"0001-01-01T00:00:00Z","name_a2s":"Uncletopia | Atlanta | 1 | All Maps","protocol":17,"map":"cp_mountainlab","folder":"tf","game":"Team Fortress","app_id":440,"player_count":21,"max_players":24,"Bots":0,"server_type":"Dedicated","server_os":"Linux","password":true,"vac":true,"version":"7932396","steam_id":85568392924469982,"keywords":["cp","nocrits","nodmgspread","uncletopia"],"game_id":440,"stv_port":27016,"stv_name":"Uncletopia | Atlanta | 1 | All Maps | STV","players":[{"user_id":296,"name":"ShadowDragon0125","steam_id":76561198343849022,"connected_time":118000000000,"state":"active","ping":126},{"user_id":297,"name":"Pancakes","steam_id":76561198097983190,"connected_time":117000000000,"state":"active","ping":85},{"user_id":272,"name":"White_Wizard_Named_Corona","steam_id":76561198055652735,"connected_time":706000000000,"state":"active","ping":111},{"user_id":298,"name":"Electroid","steam_id":76561199092263960,"connected_time":96000000000,"state":"active","ping":75},{"user_id":299,"name":"hearthstoner55","steam_id":76561198072826791,"connected_time":94000000000,"state":"active","ping":98},{"user_id":269,"name":"President Atticus","steam_id":76561198157557477,"connected_time":818000000000,"state":"active","ping":120},{"user_id":271,"name":"Gibby","steam_id":76561199336569123,"connected_time":743000000000,"state":"active","ping":137},{"user_id":300,"name":"[_Dr.Scythe_]","steam_id":76561198845245858,"connected_time":75000000000,"state":"active","ping":104},{"user_id":301,"name":"Yarch0","steam_id":76561199106172477,"connected_time":55000000000,"state":"active","ping":170},{"user_id":79,"name":"Waddlehi","steam_id":76561198072553840,"connected_time":5175000000000,"state":"active","ping":97},{"user_id":236,"name":"CreeperCatBengal","steam_id":76561198213193221,"connected_time":1732000000000,"state":"active","ping":95},{"user_id":302,"name":"Elevator","steam_id":76561198974286387,"connected_time":39000000000,"state":"active","ping":114},{"user_id":294,"name":"TrashCanGaming","steam_id":76561199150746424,"connected_time":157000000000,"state":"active","ping":93},{"user_id":303,"name":"Pie‚Ñ¢","steam_id":76561198158312625,"connected_time":1000000000,"state":"spawning","ping":62},{"user_id":279,"name":"Glorified Super Soaker","steam_id":76561199078324894,"connected_time":474000000000,"state":"active","ping":87},{"user_id":241,"name":"Little Drunked Owl","steam_id":76561198336737684,"connected_time":1685000000000,"state":"active","ping":128},{"user_id":255,"name":"Op banana","steam_id":76561198303231451,"connected_time":1160000000000,"state":"active","ping":91},{"user_id":282,"name":"thomasdee725!!!","steam_id":76561199189526173,"connected_time":417000000000,"state":"active","ping":110},{"user_id":286,"name":"Wagemage","steam_id":76561198013625580,"connected_time":378000000000,"state":"active","ping":106},{"user_id":288,"name":"Cretin32","steam_id":76561198986265728,"connected_time":321000000000,"state":"active","ping":116},{"user_id":291,"name":"ZenkoZSprite","steam_id":76561198190132250,"connected_time":205000000000,"state":"active","ping":130}]},{"server_id":104,"name":"Uncletopia | Atlanta | 2 | All Maps","name_short":"atl-2","host":"atl-1.us.uncletopia.com","port":27025,"enabled":true,"region":"us-east","cc":"us","latitude":33.753746,"longitude":-84.38633,"reserved":0,"last_update":"0001-01-01T00:00:00Z","name_a2s":"Uncletopia | Atlanta | 2 | All Maps","protocol":17,"map":"koth_lakeside_final","folder":"tf","game":"Team Fortress","app_id":440,"player_count":1,"max_players":24,"Bots":0,"server_type":"Dedicated","server_os":"Linux","password":true,"vac":true,"version":"7932396","steam_id":85568392924469983,"keywords":["cp","nocrits","nodmgspread","uncletopia"],"game_id":440,"stv_port":27026,"stv_name":"Uncletopia | Atlanta | 2 | All Maps | STV","players":[{"user_id":20,"name":"D-MROMA","steam_id":76561198837664861,"connected_time":104000000000,"state":"active","ping":68}]},{"server_id":400,"name":"Uncletopia | Atlanta | 3 | Community","name_short":"atl-3","host":"atl-1.us.uncletopia.com","port":27035,"enabled":true,"region":"us-east","cc":"us","latitude":33.753746,"longitude":-84.38633,"reserved":0,"last_update":"0001-01-01T00:00:00Z","name_a2s":"Uncletopia | Atlanta | 3 | Community","protocol":17,"map":"workshop/rd_asteroid_redux_b1.ugc2154902912","folder":"tf","game":"Team Fortress","app_id":440,"player_count":0,"max_players":24,"Bots":0,"server_type":"Dedicated","server_os":"Linux","password":true,"vac":true,"version":"7932396","steam_id":85568392924515187,"keywords":["beta","nocrits","nodmgspread","rd","uncletopia"],"game_id":440,"stv_port":27036,"stv_name":"Uncletopia | Atlanta | 3 | Community | STV","players":null},{"server_id":401,"name":"Uncletopia | Atlanta | 4 | No Payload","name_short":"atl-4","host":"atl-1.us.uncletopia.com","port":27045,"enabled":true,"region":"us-east","cc":"us","latitude":33.753746,"longitude":-84.38633,"reserved":0,"last_update":"0001-01-01T00:00:00Z","name_a2s":"","protocol":0,"map":"","folder":"","game":"","app_id":0,"player_count":0,"max_players":0,"Bots":0,"server_type":"","server_os":"","password":false,"vac":false,"version":"","steam_id":0,"keywords":null,"game_id":0,"stv_port":0,"stv_name":"","players":null},{"server_id":2,"name":"Uncletopia | Chicago | 1 | All Maps","name_short":"chi-1","host":"chi-1.us.uncletopia.com","port":27015,"enabled":true,"region":"us-central","cc":"us","latitude":41.881832,"longitude":-87.62318,"reserved":0,"last_update":"0001-01-01T00:00:00Z","name_a2s":"Uncletopia | Chicago | 1 | All Maps","protocol":17,"map":"pl_pier","folder":"tf","game":"Team Fortress","app_id":440,"player_count":25,"max_players":24,"Bots":0,"server_type":"Dedicated","server_os":"Linux","password":true,"vac":true,"version":"7932396","steam_id":85568392924469984,"keywords":["nocrits","nodmgspread","payload","uncletopia"],"game_id":440,"stv_port":27016,"stv_name":"Uncletopia | Chicago | 1 | All Maps | STV","players":[{"user_id":171,"name":"richard clock","steam_id":76561198048455671,"connected_time":651000000000,"state":"active","ping":60},{"user_id":163,"name":"Torrensz64(But weezer)","steam_id":76561198239036482,"connected_time":1351000000000,"state":"active","ping":64},{"user_id":67,"name":"Thundermonkey (SMOKE)","steam_id":76561198017631728,"connected_time":7481000000000,"state":"active","ping":62},{"user_id":154,"name":"brains","steam_id":76561198197388678,"connected_time":1995000000000,"state":"active","ping":94},{"user_id":152,"name":"the silly","steam_id":76561198850632709,"connected_time":2223000000000,"state":"active","ping":76},{"user_id":107,"name":"Tri-Dot","steam_id":76561199075186597,"connected_time":5315000000000,"state":"active","ping":63},{"user_id":140,"name":"ae","steam_id":76561198185490827,"connected_time":3104000000000,"state":"active","ping":84},{"user_id":111,"name":"Mastermind","steam_id":76561198127783432,"connected_time":4888000000000,"state":"active","ping":74},{"user_id":126,"name":"Flaming O'Gaming","steam_id":76561198044185725,"connected_time":4301000000000,"state":"active","ping":75},{"user_id":164,"name":"ComputerConnor","steam_id":76561198247307008,"connected_time":1326000000000,"state":"active","ping":97},{"user_id":175,"name":"kohlhagen","steam_id":76561198120440587,"connected_time":8000000000,"state":"spawning","ping":72},{"user_id":144,"name":"HUNGRY DOGS EAT FASTER","steam_id":76561198040440984,"connected_time":2748000000000,"state":"active","ping":72},{"user_id":169,"name":"Mehman","steam_id":76561199020244051,"connected_time":814000000000,"state":"active","ping":99},{"user_id":127,"name":"Your Local Queer Librarian","steam_id":76561198013077080,"connected_time":4084000000000,"state":"active","ping":58},{"user_id":149,"name":"ozbulu!|Troutsupply.net","steam_id":76561198067176829,"connected_time":2306000000000,"state":"active","ping":108},{"user_id":173,"name":"Carson","steam_id":76561198076771071,"connected_time":618000000000,"state":"active","ping":45},{"user_id":161,"name":"Obese Pete","steam_id":76561198203443358,"connected_time":1387000000000,"state":"active","ping":76},{"user_id":160,"name":"Pango","steam_id":76561198069811545,"connected_time":1405000000000,"state":"active","ping":70},{"user_id":165,"name":"ma0re","steam_id":76561199231971506,"connected_time":1297000000000,"state":"active","ping":59},{"user_id":153,"name":"Drapph","steam_id":76561199384213314,"connected_time":2156000000000,"state":"active","ping":67},{"user_id":168,"name":"dunk","steam_id":76561198132476501,"connected_time":1057000000000,"state":"active","ping":50},{"user_id":138,"name":"goose","steam_id":76561198367551668,"connected_time":3186000000000,"state":"active","ping":56},{"user_id":147,"name":"reis","steam_id":76561199232952016,"connected_time":2347000000000,"state":"active","ping":181},{"user_id":176,"name":"yoooooooooo chill","steam_id":76561199100342013,"connected_time":5000000000,"state":"spawning","ping":88},{"user_id":170,"name":"Lia_Rein","steam_id":76561198151569597,"connected_time":702000000000,"state":"active","ping":143}]},{"server_id":106,"name":"Uncletopia | Chicago | 2 | All Maps","name_short":"chi-2","host":"chi-1.us.uncletopia.com","port":27025,"enabled":true,"region":"us-central","cc":"us","latitude":41.881832,"longitude":-87.62318,"reserved":0,"last_update":"0001-01-01T00:00:00Z","name_a2s":"Uncletopia | Chicago | 2 | All Maps","protocol":17,"map":"pl_borneo","folder":"tf","game":"Team Fortress","app_id":440,"player_count":24,"max_players":24,"Bots":0,"server_type":"Dedicated","server_os":"Linux","password":true,"vac":true,"version":"7932396","steam_id":85568392924469985,"keywords":["nocrits","nodmgspread","payload","uncletopia"],"game_id":440,"stv_port":27026,"stv_name":"Uncletopia | Chicago | 2 | All Maps | STV","players":[{"user_id":141,"name":"countlesschromosome","steam_id":76561197972601902,"connected_time":601000000000,"state":"active","ping":76},{"user_id":104,"name":"pogo","steam_id":76561198148913461,"connected_time":3614000000000,"state":"active","ping":61},{"user_id":134,"name":"Diesel","steam_id":76561198448815852,"connected_time":1186000000000,"state":"active","ping":94},{"user_id":121,"name":"hoboways","steam_id":76561198168035195,"connected_time":2058000000000,"state":"active","ping":88},{"user_id":127,"name":"Skele","steam_id":76561198154574280,"connected_time":1751000000000,"state":"active","ping":67},{"user_id":93,"name":"RapBap Bird in Lap","steam_id":76561198105613110,"connected_time":4268000000000,"state":"active","ping":46},{"user_id":112,"name":"BarrowBaron","steam_id":76561198013633236,"connected_time":2774000000000,"state":"active","ping":75},{"user_id":109,"name":"--_Cook_--","steam_id":76561198080855748,"connected_time":2795000000000,"state":"active","ping":46},{"user_id":151,"name":"BOT Positronic‚ô•June","steam_id":76561198042556857,"connected_time":198000000000,"state":"active","ping":50},{"user_id":132,"name":"Flubby","steam_id":76561198069171252,"connected_time":1271000000000,"state":"active","ping":60},{"user_id":138,"name":"TGGHaze gaming","steam_id":76561199134730784,"connected_time":785000000000,"state":"active","ping":189},{"user_id":19,"name":"Unrefined Milk","steam_id":76561197986051713,"connected_time":8713000000000,"state":"active","ping":77},{"user_id":146,"name":"help","steam_id":76561199056338917,"connected_time":490000000000,"state":"active","ping":72},{"user_id":66,"name":"V!CT!M","steam_id":76561198962721502,"connected_time":6001000000000,"state":"active","ping":88},{"user_id":110,"name":"FOOLISH FOOL!","steam_id":76561198188722751,"connected_time":2794000000000,"state":"active","ping":91},{"user_id":137,"name":"BOTBOT","steam_id":76561198271928618,"connected_time":869000000000,"state":"active","ping":83},{"user_id":144,"name":"George","steam_id":76561198020046873,"connected_time":549000000000,"state":"active","ping":59},{"user_id":140,"name":"abcdefghijklmnopqrstuvwxyz","steam_id":76561198175741741,"connected_time":650000000000,"state":"active","ping":73},{"user_id":100,"name":"Solstrom","steam_id":76561198313364985,"connected_time":3839000000000,"state":"active","ping":71},{"user_id":145,"name":"HollyBlocky","steam_id":76561198030156100,"connected_time":534000000000,"state":"active","ping":73},{"user_id":149,"name":"The Domb Loid","steam_id":76561198295791203,"connected_time":295000000000,"state":"active","ping":48},{"user_id":148,"name":"Kontrast","steam_id":76561198822353564,"connected_time":315000000000,"state":"active","ping":72},{"user_id":150,"name":"The Fiend","steam_id":76561199229771413,"connected_time":294000000000,"state":"active","ping":91},{"user_id":129,"name":"Ikalpo","steam_id":76561198044686915,"connected_time":1719000000000,"state":"active","ping":114}]},{"server_id":402,"name":"Uncletopia | Chicago | 3 | All Maps","name_short":"chi-3","host":"chi-1.us.uncletopia.com","port":27035,"enabled":true,"region":"us-central","cc":"us","latitude":41.881832,"longitude":-87.62318,"reserved":0,"last_update":"0001-01-01T00:00:00Z","name_a2s":"Uncletopia | Chicago | 3 | All Maps","protocol":17,"map":"pl_upward","folder":"tf","game":"Team Fortress","app_id":440,"player_count":24,"max_players":24,"Bots":0,"server_type":"Dedicated","server_os":"Linux","password":true,"vac":true,"version":"7932396","steam_id":85568392924515191,"keywords":["nocrits","nodmgspread","payload","uncletopia"],"game_id":440,"stv_port":27036,"stv_name":"Uncletopia | Chicago | 3 | All Maps | STV","players":[{"user_id":81,"name":"Prison Sal","steam_id":76561198355553673,"connected_time":679000000000,"state":"active","ping":55},{"user_id":11,"name":"catboy battery eater","steam_id":76561198067881981,"connected_time":5465000000000,"state":"active","ping":68},{"user_id":76,"name":"dankman","steam_id":76561198977064186,"connected_time":722000000000,"state":"active","ping":57},{"user_id":77,"name":"I'm trying my best","steam_id":76561198886157874,"connected_time":722000000000,"state":"active","ping":68},{"user_id":93,"name":"PeopleOrderOurPatties","steam_id":76561198323144922,"connected_time":104000000000,"state":"active","ping":61},{"user_id":80,"name":"NUt","steam_id":76561198031007966,"connected_time":701000000000,"state":"active","ping":75},{"user_id":19,"name":"Yuri Lowell Fan","steam_id":76561199182623744,"connected_time":4947000000000,"state":"active","ping":79},{"user_id":78,"name":"Shroomsie","steam_id":76561198047405791,"connected_time":719000000000,"state":"active","ping":88},{"user_id":66,"name":"REAL (\u003c{[real]real}real\u003ereal)","steam_id":76561198057374871,"connected_time":1528000000000,"state":"active","ping":60},{"user_id":91,"name":"isaiah","steam_id":76561197962607364,"connected_time":186000000000,"state":"active","ping":67},{"user_id":50,"name":"Timon's high on crack cocaine!","steam_id":76561198180396430,"connected_time":3292000000000,"state":"active","ping":74},{"user_id":57,"name":"1TheExterminator","steam_id":76561198972879727,"connected_time":2558000000000,"state":"active","ping":80},{"user_id":79,"name":"pigswill","steam_id":76561197999081865,"connected_time":716000000000,"state":"active","ping":88},{"user_id":30,"name":"LordOfTheNoobs","steam_id":76561197962697523,"connected_time":4521000000000,"state":"active","ping":61},{"user_id":67,"name":"LukeLeal","steam_id":76561198049822995,"connected_time":1229000000000,"state":"active","ping":164},{"user_id":68,"name":"Rec","steam_id":76561198022813906,"connected_time":1199000000000,"state":"active","ping":58},{"user_id":37,"name":"Mindset","steam_id":76561198107074449,"connected_time":4372000000000,"state":"active","ping":55},{"user_id":74,"name":"6t26j","steam_id":76561198278282836,"connected_time":841000000000,"state":"active","ping":49},{"user_id":61,"name":"AlbinoRhino","steam_id":76561199192140783,"connected_time":2471000000000,"state":"active","ping":83},{"user_id":40,"name":"Jak(i)","steam_id":76561198076823144,"connected_time":4316000000000,"state":"active","ping":67},{"user_id":62,"name":"Sysadmin Stress Release","steam_id":76561197997326384,"connected_time":2471000000000,"state":"active","ping":72},{"user_id":70,"name":"The Chosen One","steam_id":76561199046984627,"connected_time":1148000000000,"state":"active","ping":88},{"user_id":89,"name":"Rue","steam_id":76561198013135993,"connected_time":241000000000,"state":"active","ping":50},{"user_id":90,"name":"Dude, error.","steam_id":76561198046705420,"connected_time":197000000000,"state":"active","ping":66}]},{"server_id":403,"name":"Uncletopia | Chicago | 4 | All Maps","name_short":"chi-4","host":"chi-1.us.uncletopia.com","port":27045,"enabled":true,"region":"us-central","cc":"us","latitude":41.881832,"longitude":-87.62318,"reserved":0,"last_update":"0001-01-01T00:00:00Z","name_a2s":"Uncletopia | Chicago | 4 | All Maps","protocol":17,"map":"pl_badwater","folder":"tf","game":"Team Fortress","app_id":440,"player_count":24,"max_players":24,"Bots":0,"server_type":"Dedicated","server_os":"Linux","password":true,"vac":true,"version":"7932396","steam_id":85568392924515193,"keywords":["nocrits","nodmgspread","payload","uncletopia"],"game_id":440,"stv_port":27046,"stv_name":"Uncletopia | Chicago | 4 | All Maps | STV","players":[{"user_id":11,"name":"Shaper Loks","steam_id":76561198207958144,"connected_time":3416000000000,"state":"active","ping":97},{"user_id":12,"name":"Barlon","steam_id":76561198023717515,"connected_time":3311000000000,"state":"active","ping":75},{"user_id":68,"name":"Guns Blazing","steam_id":76561198379461118,"connected_time":715000000000,"state":"active","ping":65},{"user_id":16,"name":"Rickle Pick","steam_id":76561198055226070,"connected_time":2973000000000,"state":"active","ping":73},{"user_id":61,"name":"Mush","steam_id":76561198393461065,"connected_time":1131000000000,"state":"active","ping":73},{"user_id":17,"name":"WalrusIncarnate","steam_id":76561198059867060,"connected_time":2949000000000,"state":"active","ping":107},{"user_id":72,"name":"canti","steam_id":76561198019267942,"connected_time":518000000000,"state":"active","ping":90},{"user_id":66,"name":"Jack Celliers","steam_id":76561198060983357,"connected_time":864000000000,"state":"active","ping":75},{"user_id":77,"name":"duckypotato","steam_id":76561198047703790,"connected_time":212000000000,"state":"active","ping":70},{"user_id":76,"name":"mintsiebear","steam_id":76561198083748810,"connected_time":279000000000,"state":"active","ping":128},{"user_id":75,"name":"soof","steam_id":76561198043762955,"connected_time":308000000000,"state":"active","ping":60},{"user_id":59,"name":"TeriyakiDynamite","steam_id":76561198050049346,"connected_time":1331000000000,"state":"active","ping":120},{"user_id":48,"name":"Grand Piano Tuna","steam_id":76561198135137213,"connected_time":1608000000000,"state":"active","ping":55},{"user_id":47,"name":"catfish from toontown","steam_id":76561198060070002,"connected_time":1642000000000,"state":"active","ping":76},{"user_id":74,"name":"Jim the Fish","steam_id":76561199135784419,"connected_time":371000000000,"state":"active","ping":87},{"user_id":60,"name":"DragonKnight343","steam_id":76561199235854406,"connected_time":1201000000000,"state":"active","ping":111},{"user_id":40,"name":"Rat","steam_id":76561198146558552,"connected_time":1759000000000,"state":"active","ping":114},{"user_id":53,"name":"human jerky","steam_id":76561198091966276,"connected_time":1432000000000,"state":"active","ping":97},{"user_id":57,"name":"LevelRaisin","steam_id":76561198082924440,"connected_time":1399000000000,"state":"active","ping":52},{"user_id":67,"name":"Skeleton‚Ñ¢","steam_id":76561198073049243,"connected_time":822000000000,"state":"active","ping":80},{"user_id":58,"name":"Soupman_Official","steam_id":76561198314308732,"connected_time":1379000000000,"state":"active","ping":45},{"user_id":62,"name":"Anderred","steam_id":76561198149983847,"connected_time":1129000000000,"state":"active","ping":84},{"user_id":64,"name":"I love math :)","steam_id":76561198069246402,"connected_time":1095000000000,"state":"active","ping":65},{"user_id":65,"name":"determined hamster","steam_id":76561198808224087,"connected_time":1004000000000,"state":"active","ping":103}]},{"server_id":36,"name":"Uncletopia | Chicago | 5 | All Maps","name_short":"chi-5","host":"chi-2.us.uncletopia.com","port":27015,"enabled":true,"region":"us-central","cc":"us","latitude":41.881832,"longitude":-87.62318,"reserved":0,"last_update":"0001-01-01T00:00:00Z","name_a2s":"Uncletopia | Chicago | 5 | All Maps","protocol":17,"map":"pl_snowycoast","folder":"tf","game":"Team Fortress","app_id":440,"player_count":24,"max_players":24,"Bots":0,"server_type":"Dedicated","server_os":"Linux","password":true,"vac":true,"version":"7932396","steam_id":85568392924866362,"keywords":["nocrits","nodmgspread","payload","uncletopia"],"game_id":440,"stv_port":27016,"stv_name":"Uncletopia | Chicago | 5 | All Maps | STV","players":[{"user_id":133,"name":"Fatpoob","steam_id":76561198056730096,"connected_time":4814000000000,"state":"active","ping":50},{"user_id":165,"name":"Cedric","steam_id":76561198072090580,"connected_time":1743000000000,"state":"active","ping":96},{"user_id":180,"name":"anoobis","steam_id":76561199120731573,"connected_time":386000000000,"state":"active","ping":69},{"user_id":153,"name":"Boysenberry Syrup","steam_id":76561198243582986,"connected_time":2329000000000,"state":"active","ping":61},{"user_id":190,"name":"goon19","steam_id":76561199239168878,"connected_time":92000000000,"state":"active","ping":102},{"user_id":178,"name":"MightyMorphinMesothelioma","steam_id":76561198088339246,"connected_time":563000000000,"state":"active","ping":111},{"user_id":138,"name":"‚ô• kiss me! ‚ô•","steam_id":76561198014557455,"connected_time":4711000000000,"state":"active","ping":60},{"user_id":183,"name":"Bunni","steam_id":76561198065169997,"connected_time":167000000000,"state":"active","ping":82},{"user_id":169,"name":"lexi","steam_id":76561198176299759,"connected_time":1420000000000,"state":"active","ping":104},{"user_id":191,"name":"Straight White Mail","steam_id":76561198182813630,"connected_time":84000000000,"state":"active","ping":172},{"user_id":149,"name":"dude","steam_id":76561198323384949,"connected_time":3031000000000,"state":"active","ping":56},{"user_id":158,"name":"dec","steam_id":76561198149691967,"connected_time":2146000000000,"state":"active","ping":136},{"user_id":185,"name":"Thomas Chavira Gaming","steam_id":76561198313671617,"connected_time":139000000000,"state":"active","ping":104},{"user_id":192,"name":"Also Known As Assteeth","steam_id":76561198049837377,"connected_time":28000000000,"state":"active","ping":186},{"user_id":186,"name":"Tom","steam_id":76561198139202942,"connected_time":136000000000,"state":"active","ping":88},{"user_id":187,"name":"R.Y.","steam_id":76561199384459715,"connected_time":135000000000,"state":"active","ping":98},{"user_id":188,"name":"10KO!","steam_id":76561199134895220,"connected_time":132000000000,"state":"active","ping":74},{"user_id":156,"name":"jlumsd","steam_id":76561198057493413,"connected_time":2285000000000,"state":"active","ping":62},{"user_id":159,"name":"powey","steam_id":76561199237740491,"connected_time":1967000000000,"state":"active","ping":69},{"user_id":177,"name":"thicc boi","steam_id":76561198358870490,"connected_time":758000000000,"state":"active","ping":196},{"user_id":120,"name":"fazaness","steam_id":76561198851525394,"connected_time":5954000000000,"state":"active","ping":86},{"user_id":167,"name":"OKlWONT","steam_id":76561198060328407,"connected_time":1563000000000,"state":"active","ping":77},{"user_id":189,"name":"ceres","steam_id":76561198291976960,"connected_time":132000000000,"state":"active","ping":106},{"user_id":181,"name":"gulch","steam_id":76561199227946025,"connected_time":254000000000,"state":"active","ping":74}]},{"server_id":37,"name":"Uncletopia | Chicago | 6 | All Maps","name_short":"chi-6","host":"chi-2.us.uncletopia.com","port":27025,"enabled":true,"region":"us-central","cc":"us","latitude":41.881832,"longitude":-87.62318,"reserved":0,"last_update":"0001-01-01T00:00:00Z","name_a2s":"Uncletopia | Chicago | 6 | All Maps","protocol":17,"map":"cp_steel","folder":"tf","game":"Team Fortress","app_id":440,"player_count":24,"max_players":24,"Bots":0,"server_type":"Dedicated","server_os":"Linux","password":true,"vac":true,"version":"7932396","steam_id":85568392924866363,"keywords":["cp","nocrits","nodmgspread","uncletopia"],"game_id":440,"stv_port":27026,"stv_name":"Uncletopia | Chicago | 6 | All Maps | STV","players":[{"user_id":107,"name":"businessman minly","steam_id":76561199078991134,"connected_time":1984000000000,"state":"active","ping":75},{"user_id":128,"name":"Cerabond","steam_id":76561199230915333,"connected_time":763000000000,"state":"active","ping":71},{"user_id":139,"name":"InstantOzone","steam_id":76561198067556825,"connected_time":161000000000,"state":"active","ping":83},{"user_id":138,"name":"dannyhalo17","steam_id":76561198839930170,"connected_time":175000000000,"state":"active","ping":87},{"user_id":133,"name":"Big Jack Horner","steam_id":76561198062437559,"connected_time":506000000000,"state":"active","ping":76},{"user_id":97,"name":"Mario","steam_id":76561198321794277,"connected_time":2707000000000,"state":"active","ping":52},{"user_id":137,"name":"Ex-PFC Wintergreen","steam_id":76561198203851303,"connected_time":211000000000,"state":"active","ping":83},{"user_id":96,"name":"Teleporter  (Entrance, Level 3)","steam_id":76561198316927664,"connected_time":2732000000000,"state":"active","ping":78},{"user_id":108,"name":"Blue-Lobster-Gaming","steam_id":76561199220578772,"connected_time":1976000000000,"state":"active","ping":69},{"user_id":131,"name":"TrustworthyStranger","steam_id":76561198154105678,"connected_time":579000000000,"state":"active","ping":75},{"user_id":126,"name":"Chalks","steam_id":76561198045978275,"connected_time":783000000000,"state":"active","ping":110},{"user_id":78,"name":"Portal2Player","steam_id":76561198062870114,"connected_time":3696000000000,"state":"active","ping":95},{"user_id":118,"name":"Jo","steam_id":76561198060447015,"connected_time":847000000000,"state":"active","ping":76},{"user_id":124,"name":"Mr. Garfield","steam_id":76561198357316376,"connected_time":811000000000,"state":"active","ping":88},{"user_id":127,"name":"IMM0RTAL","steam_id":76561198013747901,"connected_time":779000000000,"state":"active","ping":74},{"user_id":129,"name":"Demonica","steam_id":76561198841858340,"connected_time":754000000000,"state":"active","ping":69},{"user_id":93,"name":"Xavibite","steam_id":76561198209380493,"connected_time":2926000000000,"state":"active","ping":60},{"user_id":141,"name":"Sorbet Shark Cookie","steam_id":76561198133082665,"connected_time":22000000000,"state":"active","ping":68},{"user_id":134,"name":"17 INCH TGIRL SCHLONG","steam_id":76561198122059018,"connected_time":498000000000,"state":"active","ping":66},{"user_id":81,"name":"MikeLovesRabbit","steam_id":76561197997742625,"connected_time":3453000000000,"state":"active","ping":62},{"user_id":94,"name":"ElChuchoXf","steam_id":76561199235124146,"connected_time":2862000000000,"state":"active","ping":151},{"user_id":95,"name":"duneblaster0","steam_id":76561198040364680,"connected_time":2823000000000,"state":"active","ping":45},{"user_id":135,"name":"moe","steam_id":76561198929586245,"connected_time":490000000000,"state":"active","ping":94},{"user_id":140,"name":"Sprinklze","steam_id":76561198163562681,"connected_time":140000000000,"state":"active","ping":64}]},{"server_id":38,"name":"Uncletopia | Chicago | 7 | Stopwatch Beta","name_short":"chi-7","host":"chi-2.us.uncletopia.com","port":27035,"enabled":true,"region":"us-central","cc":"us","latitude":41.881832,"longitude":-87.62318,"reserved":0,"last_update":"0001-01-01T00:00:00Z","name_a2s":"Uncletopia | Chicago | 7 | Stopwatch Beta","protocol":17,"map":"koth_highpass","folder":"tf","game":"Team Fortress","app_id":440,"player_count":0,"max_players":24,"Bots":0,"server_type":"Dedicated","server_os":"Linux","password":true,"vac":true,"version":"7932396","steam_id":85568392924866364,"keywords":["cp","nocrits","nodmgspread","uncletopia"],"game_id":440,"stv_port":27036,"stv_name":"Uncletopia | Chicago | 7 | Stopwatch Beta | STV","players":null},{"server_id":39,"name":"Uncletopia | Chicago | 8 | Community","name_short":"chi-8","host":"chi-2.us.uncletopia.com","port":27045,"enabled":true,"region":"us-central","cc":"us","latitude":41.881832,"longitude":-87.62318,"reserved":0,"last_update":"0001-01-01T00:00:00Z","name_a2s":"Uncletopia | Chicago | 8 | Community","protocol":17,"map":"workshop/koth_product_final.ugc454272353","folder":"tf","game":"Team Fortress","app_id":440,"player_count":5,"max_players":24,"Bots":0,"server_type":"Dedicated","server_os":"Linux","password":true,"vac":true,"version":"7932396","steam_id":85568392924866365,"keywords":["cp","nocrits","nodmgspread","uncletopia"],"game_id":440,"stv_port":27046,"stv_name":"Uncletopia | Chicago | 8 | Community | STV","players":[{"user_id":6,"name":"The_Headcrab","steam_id":76561199187299142,"connected_time":2895000000000,"state":"active","ping":79},{"user_id":8,"name":"gia.nurtumova","steam_id":76561199439504104,"connected_time":2694000000000,"state":"active","ping":70},{"user_id":14,"name":"crittr","steam_id":76561198014302068,"connected_time":333000000000,"state":"active","ping":71},{"user_id":15,"name":"applesauc","steam_id":76561198073372048,"connected_time":246000000000,"state":"active","ping":60},{"user_id":16,"name":"Poop and in addition piss","steam_id":76561198040936008,"connected_time":41000000000,"state":"active","ping":88}]},{"server_id":8,"name":"Uncletopia | Dallas | 1 | All Maps","name_short":"dal-1","host":"dal-1.us.uncletopia.com","port":27015,"enabled":true,"region":"us-central","cc":"us","latitude":32.779167,"longitude":-96.80889,"reserved":0,"last_update":"0001-01-01T00:00:00Z","name_a2s":"Uncletopia | Dallas | 1 | All Maps","protocol":17,"map":"koth_suijin","folder":"tf","game":"Team Fortress","app_id":440,"player_count":24,"max_players":24,"Bots":0,"server_type":"Dedicated","server_os":"Linux","password":true,"vac":true,"version":"7932396","steam_id":85568392924469986,"keywords":["cp","nocrits","nodmgspread","uncletopia"],"game_id":440,"stv_port":27016,"stv_name":"Uncletopia | Dallas | 1 | All Maps | STV","players":[{"user_id":318,"name":"Prinny (Time)","steam_id":76561198155467647,"connected_time":159000000000,"state":"active","ping":72},{"user_id":319,"name":"Pugzilla","steam_id":76561198108088960,"connected_time":159000000000,"state":"active","ping":64},{"user_id":309,"name":"Grumby","steam_id":76561198149175262,"connected_time":488000000000,"state":"active","ping":59},{"user_id":314,"name":"Mr.Nostalgic","steam_id":76561198083240822,"connected_time":187000000000,"state":"active","ping":92},{"user_id":313,"name":"Minlit","steam_id":76561198205832799,"connected_time":191000000000,"state":"active","ping":56},{"user_id":315,"name":"KING KONG","steam_id":76561198927517471,"connected_time":173000000000,"state":"active","ping":83},{"user_id":271,"name":"paper","steam_id":76561199075241499,"connected_time":3426000000000,"state":"active","ping":60},{"user_id":323,"name":"Bakukirby","steam_id":76561198087773271,"connected_time":113000000000,"state":"active","ping":75},{"user_id":305,"name":"spiderguy","steam_id":76561198412074955,"connected_time":915000000000,"state":"active","ping":69},{"user_id":265,"name":"fish","steam_id":76561198194508197,"connected_time":3646000000000,"state":"active","ping":101},{"user_id":306,"name":"apple2noob","steam_id":76561199048944120,"connected_time":904000000000,"state":"active","ping":60},{"user_id":157,"name":"Pheonix","steam_id":76561199470538309,"connected_time":8022000000000,"state":"active","ping":80},{"user_id":324,"name":"Coolbreadguy","steam_id":76561198139544202,"connected_time":103000000000,"state":"active","ping":80},{"user_id":320,"name":"Unwavering Flavor","steam_id":76561198053306065,"connected_time":133000000000,"state":"active","ping":56},{"user_id":317,"name":"Gallowglass07","steam_id":76561199286102917,"connected_time":169000000000,"state":"active","ping":89},{"user_id":285,"name":"squish","steam_id":76561198186417941,"connected_time":2090000000000,"state":"active","ping":69},{"user_id":299,"name":"stick","steam_id":76561198134334367,"connected_time":1302000000000,"state":"active","ping":103},{"user_id":282,"name":"ATL1 | on my hunting trip","steam_id":76561198315341646,"connected_time":2426000000000,"state":"active","ping":88},{"user_id":321,"name":"dev","steam_id":76561199131234038,"connected_time":132000000000,"state":"active","ping":168},{"user_id":322,"name":"PapaTronix","steam_id":76561198311073047,"connected_time":127000000000,"state":"active","ping":66},{"user_id":312,"name":"-=Bits=-Dinkleberg","steam_id":76561198080367616,"connected_time":271000000000,"state":"active","ping":44},{"user_id":223,"name":"Zetta","steam_id":76561198045710113,"connected_time":6520000000000,"state":"active","ping":86},{"user_id":268,"name":"Ocvember","steam_id":76561198206308152,"connected_time":3548000000000,"state":"active","ping":122},{"user_id":302,"name":"ATL1 | Le4n!!!","steam_id":76561198045522596,"connected_time":1248000000000,"state":"active","ping":86}]},{"server_id":108,"name":"Uncletopia | Dallas | 2 | All Maps","name_short":"dal-2","host":"dal-1.us.uncletopia.com","port":27025,"enabled":true,"region":"us-central","cc":"us","latitude":32.779167,"longitude":-96.80889,"reserved":0,"last_update":"0001-01-01T00:00:00Z","name_a2s":"Uncletopia | Dallas | 2 | All Maps","protocol":17,"map":"cp_altitude","folder":"tf","game":"Team Fortress","app_id":440,"player_count":24,"max_players":24,"Bots":0,"server_type":"Dedicated","server_os":"Linux","password":true,"vac":true,"version":"7932396","steam_id":85568392924469988,"keywords":["cp","nocrits","nodmgspread","uncletopia"],"game_id":440,"stv_port":27026,"stv_name":"Uncletopia | Dallas | 2 | All Maps | STV","players":[{"user_id":226,"name":"Ariscorech","steam_id":76561198117206414,"connected_time":1065000000000,"state":"active","ping":59},{"user_id":219,"name":"Vanillex","steam_id":76561199125632814,"connected_time":1357000000000,"state":"active","ping":45},{"user_id":231,"name":"Cliffigriff","steam_id":76561198121924499,"connected_time":382000000000,"state":"active","ping":59},{"user_id":224,"name":"B","steam_id":76561198042003086,"connected_time":1163000000000,"state":"active","ping":79},{"user_id":185,"name":"Squiliam","steam_id":76561198025278006,"connected_time":3593000000000,"state":"active","ping":40},{"user_id":187,"name":"IlTrashPanda","steam_id":76561198447864095,"connected_time":3552000000000,"state":"active","ping":55},{"user_id":220,"name":"sebasnerd12","steam_id":76561199437010123,"connected_time":1302000000000,"state":"active","ping":76},{"user_id":240,"name":"ZoranTheBear","steam_id":76561198026500247,"connected_time":48000000000,"state":"active","ping":45},{"user_id":228,"name":"inzang","steam_id":76561198088318074,"connected_time":632000000000,"state":"active","ping":56},{"user_id":236,"name":"Heathcliff","steam_id":76561198044288534,"connected_time":188000000000,"state":"active","ping":93},{"user_id":241,"name":"dweaver","steam_id":76561198119610135,"connected_time":25000000000,"state":"active","ping":63},{"user_id":205,"name":"Maranata","steam_id":76561198830158092,"connected_time":2179000000000,"state":"active","ping":80},{"user_id":140,"name":"Sahbi","steam_id":76561199196292242,"connected_time":7132000000000,"state":"active","ping":60},{"user_id":216,"name":"Zomb3Red","steam_id":76561198075677894,"connected_time":1496000000000,"state":"active","ping":76},{"user_id":238,"name":"Indicative","steam_id":76561199076612537,"connected_time":77000000000,"state":"active","ping":60},{"user_id":209,"name":"Arnelcardis","steam_id":76561198018063858,"connected_time":2025000000000,"state":"active","ping":85},{"user_id":206,"name":"SadChicken Œª","steam_id":76561198082458968,"connected_time":2169000000000,"state":"active","ping":81},{"user_id":233,"name":"Project_Counter","steam_id":76561198152786076,"connected_time":335000000000,"state":"active","ping":54},{"user_id":158,"name":"austinsmith","steam_id":76561198167838540,"connected_time":6376000000000,"state":"active","ping":108},{"user_id":218,"name":"hamburger","steam_id":76561198820444541,"connected_time":1466000000000,"state":"active","ping":105},{"user_id":237,"name":"Leaderofthe00fkins","steam_id":76561198281999872,"connected_time":97000000000,"state":"active","ping":85},{"user_id":235,"name":"PapaBluss","steam_id":76561198023499564,"connected_time":248000000000,"state":"active","ping":73},{"user_id":239,"name":"Phosu","steam_id":76561198180162801,"connected_time":67000000000,"state":"active","ping":65}]},{"server_id":5,"name":"Uncletopia | Frankfurt | 1 | All Maps","name_short":"frk-1","host":"frk-1.de.uncletopia.com","port":27015,"enabled":true,"region":"eu","cc":"de","latitude":50.110924,"longitude":8.682127,"reserved":0,"last_update":"0001-01-01T00:00:00Z","name_a2s":"Uncletopia | Frankfurt | 1 | All Maps","protocol":17,"map":"pl_goldrush","folder":"tf","game":"Team Fortress","app_id":440,"player_count":6,"max_players":24,"Bots":0,"server_type":"Dedicated","server_os":"Linux","password":true,"vac":true,"version":"7932396","steam_id":85568392924469989,"keywords":["nocrits","nodmgspread","payload","uncletopia"],"game_id":440,"stv_port":27016,"stv_name":"Uncletopia | Frankfurt | 1 | All Maps | STV","players":[{"user_id":144,"name":"Urfangonultasadana","steam_id":76561199389286151,"connected_time":141000000000,"state":"active","ping":98},{"user_id":79,"name":"LarsInABox","steam_id":76561198028329262,"connected_time":5930000000000,"state":"active","ping":61},{"user_id":117,"name":"GuSkand","steam_id":76561198043775605,"connected_time":2280000000000,"state":"active","ping":70},{"user_id":84,"name":"Elsuedi","steam_id":76561198074722832,"connected_time":5217000000000,"state":"active","ping":53},{"user_id":129,"name":"Grease Huffer","steam_id":76561198982674420,"connected_time":1622000000000,"state":"active","ping":57},{"user_id":138,"name":"Adib al-asfar","steam_id":76561198095691592,"connected_time":754000000000,"state":"active","ping":59}]},{"server_id":110,"name":"Uncletopia | Frankfurt | 2 | All Maps","name_short":"frk-2","host":"frk-1.de.uncletopia.com","port":27025,"enabled":true,"region":"eu","cc":"de","latitude":50.110924,"longitude":8.682127,"reserved":0,"last_update":"0001-01-01T00:00:00Z","name_a2s":"Uncletopia | Frankfurt | 2 | All Maps","protocol":17,"map":"pl_swiftwater_final1","folder":"tf","game":"Team Fortress","app_id":440,"player_count":24,"max_players":24,"Bots":0,"server_type":"Dedicated","server_os":"Linux","password":true,"vac":true,"version":"7932396","steam_id":85568392924469990,"keywords":["nocrits","nodmgspread","payload","uncletopia"],"game_id":440,"stv_port":27026,"stv_name":"Uncletopia | Frankfurt | 2 | All Maps | STV","players":[{"user_id":67,"name":"bossievossie","steam_id":76561198836337543,"connected_time":8234000000000,"state":"active","ping":76},{"user_id":154,"name":"crimson","steam_id":76561198208349835,"connected_time":436000000000,"state":"active","ping":72},{"user_id":153,"name":"Kamakazie trade.tf","steam_id":76561198142323649,"connected_time":481000000000,"state":"active","ping":66},{"user_id":124,"name":"Just Navlis","steam_id":76561198090479609,"connected_time":3170000000000,"state":"active","ping":45},{"user_id":48,"name":"Esculd ‚éù('‚óÅ')‚é†","steam_id":76561198043948445,"connected_time":11060000000000,"state":"active","ping":77},{"user_id":146,"name":"slippin jimmy","steam_id":76561198090788590,"connected_time":877000000000,"state":"active","ping":58},{"user_id":155,"name":"tone","steam_id":76561197975301462,"connected_time":406000000000,"state":"active","ping":78},{"user_id":156,"name":"merry","steam_id":76561198060242699,"connected_time":385000000000,"state":"active","ping":87},{"user_id":157,"name":"Jesse Pikmin","steam_id":76561198042793243,"connected_time":345000000000,"state":"active","ping":69},{"user_id":158,"name":"schocky_panzer","steam_id":76561197965924454,"connected_time":185000000000,"state":"active","ping":60},{"user_id":131,"name":"AFerociousTeddyBearSlayer","steam_id":76561198247447256,"connected_time":2320000000000,"state":"active","ping":60},{"user_id":159,"name":"Kn√∂sta","steam_id":76561198143422139,"connected_time":155000000000,"state":"active","ping":102},{"user_id":147,"name":"JeanCorben","steam_id":76561197965133561,"connected_time":766000000000,"state":"active","ping":46},{"user_id":160,"name":"miracle","steam_id":76561198046846182,"connected_time":149000000000,"state":"active","ping":68},{"user_id":107,"name":"SPONGE","steam_id":76561198040933472,"connected_time":4856000000000,"state":"active","ping":59},{"user_id":141,"name":"Charles Darwin","steam_id":76561197973496139,"connected_time":1225000000000,"state":"active","ping":63},{"user_id":161,"name":"steakman10","steam_id":76561198152584691,"connected_time":108000000000,"state":"active","ping":70},{"user_id":151,"name":"ix_0s","steam_id":76561198299635246,"connected_time":612000000000,"state":"active","ping":70},{"user_id":135,"name":"Kleiner Engel","steam_id":76561198009922500,"connected_time":2001000000000,"state":"active","ping":48},{"user_id":144,"name":"Koodli","steam_id":76561198148739575,"connected_time":1034000000000,"state":"active","ping":129},{"user_id":145,"name":"Xanshi","steam_id":76561198152392309,"connected_time":970000000000,"state":"active","ping":48},{"user_id":162,"name":"Pestdoktor","steam_id":76561198058159271,"connected_time":75000000000,"state":"active","ping":81},{"user_id":164,"name":"Miss Bari","steam_id":76561198365286092,"connected_time":16000000000,"state":"active","ping":56},{"user_id":163,"name":"Serton‚ôù","steam_id":76561198011061126,"connected_time":70000000000,"state":"active","ping":88}]},{"server_id":308,"name":"Uncletopia | Frankfurt | 3 | All Maps","name_short":"frk-3","host":"frk-1.de.uncletopia.com","port":27035,"enabled":true,"region":"eu","cc":"de","latitude":50.110924,"longitude":8.682127,"reserved":0,"last_update":"0001-01-01T00:00:00Z","name_a2s":"Uncletopia | Frankfurt | 3 | All Maps","protocol":17,"map":"cp_process_final","folder":"tf","game":"Team Fortress","app_id":440,"player_count":0,"max_players":24,"Bots":0,"server_type":"Dedicated","server_os":"Linux","password":true,"vac":true,"version":"7932396","steam_id":85568392924504274,"keywords":["cp","nocrits","nodmgspread","uncletopia"],"game_id":440,"stv_port":27036,"stv_name":"Uncletopia | Frankfurt | 3 | All Maps | STV","players":null},{"server_id":309,"name":"Uncletopia | Frankfurt | 4 | All Maps","name_short":"frk-4","host":"frk-1.de.uncletopia.com","port":27045,"enabled":true,"region":"eu","cc":"de","latitude":50.110924,"longitude":8.682127,"reserved":0,"last_update":"0001-01-01T00:00:00Z","name_a2s":"Uncletopia | Frankfurt | 4 | All Maps","protocol":17,"map":"pl_upward","folder":"tf","game":"Team Fortress","app_id":440,"player_count":20,"max_players":24,"Bots":0,"server_type":"Dedicated","server_os":"Linux","password":true,"vac":true,"version":"7932396","steam_id":85568392924504275,"keywords":["nocrits","nodmgspread","payload","uncletopia"],"game_id":440,"stv_port":27046,"stv_name":"Uncletopia | Frankfurt | 4 | All Maps | STV","players":[{"user_id":148,"name":"Valen","steam_id":76561198049614521,"connected_time":136000000000,"state":"active","ping":76},{"user_id":133,"name":"Pruff","steam_id":76561198377084417,"connected_time":705000000000,"state":"active","ping":60},{"user_id":132,"name":"BoomPixels","steam_id":76561199333741969,"connected_time":790000000000,"state":"active","ping":72},{"user_id":134,"name":"Sand Dune Collector (real)","steam_id":76561198274438729,"connected_time":656000000000,"state":"active","ping":60},{"user_id":149,"name":"elijah","steam_id":76561198093936708,"connected_time":96000000000,"state":"active","ping":66},{"user_id":144,"name":"yoyo7","steam_id":76561198119449463,"connected_time":198000000000,"state":"active","ping":60},{"user_id":141,"name":"Aleknat","steam_id":76561198055379857,"connected_time":295000000000,"state":"active","ping":68},{"user_id":58,"name":"VolcanicArts","steam_id":76561198063453246,"connected_time":6138000000000,"state":"active","ping":65},{"user_id":137,"name":"Mr.Purple_Monster","steam_id":76561199094354599,"connected_time":450000000000,"state":"active","ping":137},{"user_id":79,"name":"–ö–æ–Ω–Ω–æ—Ä","steam_id":76561198020304242,"connected_time":4945000000000,"state":"active","ping":66},{"user_id":126,"name":"sam-","steam_id":76561198013770973,"connected_time":1094000000000,"state":"active","ping":72},{"user_id":150,"name":"LordTrap.exe","steam_id":76561198318089716,"connected_time":90000000000,"state":"active","ping":60},{"user_id":140,"name":"kalaa ‚Ä†","steam_id":76561198134652336,"connected_time":309000000000,"state":"active","ping":60},{"user_id":153,"name":"üÉî Katarina","steam_id":76561198065652251,"connected_time":9000000000,"state":"spawning","ping":39},{"user_id":143,"name":"I deserve","steam_id":76561198342570528,"connected_time":222000000000,"state":"active","ping":55},{"user_id":151,"name":"Bongo","steam_id":76561198082814916,"connected_time":79000000000,"state":"active","ping":47},{"user_id":147,"name":"tm`","steam_id":76561197993580412,"connected_time":154000000000,"state":"active","ping":60},{"user_id":152,"name":"Cabbch","steam_id":76561198045955679,"connected_time":39000000000,"state":"active","ping":59},{"user_id":92,"name":"Doktor Kablowski","steam_id":76561198334042273,"connected_time":4097000000000,"state":"active","ping":71},{"user_id":120,"name":"Gimmick","steam_id":76561197979603871,"connected_time":1839000000000,"state":"active","ping":59}]},{"server_id":310,"name":"Uncletopia | Frankfurt | 5 | All Maps","name_short":"frk-5","host":"frk-1.de.uncletopia.com","port":27055,"enabled":true,"region":"eu","cc":"de","latitude":50.110924,"longitude":8.682127,"reserved":0,"last_update":"0001-01-01T00:00:00Z","name_a2s":"Uncletopia | Frankfurt | 5 | All Maps","protocol":17,"map":"plr_hightower","folder":"tf","game":"Team Fortress","app_id":440,"player_count":0,"max_players":24,"Bots":0,"server_type":"Dedicated","server_os":"Linux","password":true,"vac":true,"version":"7932396","steam_id":85568392924504277,"keywords":["nocrits","nodmgspread","payload","uncletopia"],"game_id":440,"stv_port":27056,"stv_name":"Uncletopia | Frankfurt | 5 | All Maps | STV","players":null},{"server_id":311,"name":"Uncletopia | Frankfurt | 6 | All Maps","name_short":"frk-6","host":"frk-1.de.uncletopia.com","port":27065,"enabled":true,"region":"eu","cc":"de","latitude":50.110924,"longitude":8.682127,"reserved":0,"last_update":"0001-01-01T00:00:00Z","name_a2s":"Uncletopia | Frankfurt | 6 | All Maps","protocol":17,"map":"koth_highpass","folder":"tf","game":"Team Fortress","app_id":440,"player_count":2,"max_players":24,"Bots":0,"server_type":"Dedicated","server_os":"Linux","password":true,"vac":true,"version":"7932396","steam_id":85568392924504278,"keywords":["cp","nocrits","nodmgspread","uncletopia"],"game_id":440,"stv_port":27066,"stv_name":"Uncletopia | Frankfurt | 6 | All Maps | STV","players":[{"user_id":173,"name":"Just-Some-Menace","steam_id":76561198152324397,"connected_time":691000000000,"state":"active","ping":151},{"user_id":174,"name":"banxet","steam_id":76561198067879051,"connected_time":564000000000,"state":"active","ping":86}]},{"server_id":23,"name":"Uncletopia | Frankfurt | 7 | Stopwatch Beta","name_short":"frk-7","host":"frk-1.de.uncletopia.com","port":27075,"enabled":true,"region":"eu","cc":"de","latitude":50.110924,"longitude":8.682127,"reserved":0,"last_update":"0001-01-01T00:00:00Z","name_a2s":"Uncletopia | Frankfurt | 7 | Stopwatch Beta","protocol":17,"map":"workshop/koth_bagel_rc6.ugc2514036946","folder":"tf","game":"Team Fortress","app_id":440,"player_count":0,"max_players":24,"Bots":0,"server_type":"Dedicated","server_os":"Linux","password":true,"vac":true,"version":"7932396","steam_id":85568392924742827,"keywords":["cp","nocrits","nodmgspread","uncletopia"],"game_id":440,"stv_port":27076,"stv_name":"Uncletopia | Frankfurt | 7 | Stopwatch Beta | STV","players":null},{"server_id":24,"name":"Uncletopia | Frankfurt | 8 | Community","name_short":"frk-8","host":"frk-1.de.uncletopia.com","port":27085,"enabled":true,"region":"eu","cc":"de","latitude":50.110924,"longitude":8.682127,"reserved":0,"last_update":"0001-01-01T00:00:00Z","name_a2s":"Uncletopia | Frankfurt | 8 | Community","protocol":17,"map":"workshop/rd_asteroid_redux_b1.ugc2154902912","folder":"tf","game":"Team Fortress","app_id":440,"player_count":0,"max_players":24,"Bots":0,"server_type":"Dedicated","server_os":"Linux","password":true,"vac":true,"version":"7932396","steam_id":85568392924742828,"keywords":["beta","nocrits","nodmgspread","rd","uncletopia"],"game_id":440,"stv_port":27086,"stv_name":"Uncletopia | Frankfurt | 8 | Community | STV","players":null},{"server_id":202,"name":"Uncletopia | Hong Kong | 1 | All Maps","name_short":"hgk-1","host":"hgk-1.hk.uncletopia.com","port":27015,"enabled":true,"region":"asia","cc":"hk","latitude":22.302711,"longitude":114.177216,"reserved":0,"last_update":"0001-01-01T00:00:00Z","name_a2s":"Uncletopia | Hong Kong | 1 | All Maps","protocol":17,"map":"pl_frontier_final","folder":"tf","game":"Team Fortress","app_id":440,"player_count":0,"max_players":24,"Bots":0,"server_type":"Dedicated","server_os":"Linux","password":true,"vac":true,"version":"7932396","steam_id":85568392924494504,"keywords":["nocrits","nodmgspread","payload","uncletopia"],"game_id":440,"stv_port":27016,"stv_name":"Uncletopia | Hong Kong | 1 | All Maps | STV","players":null},{"server_id":1,"name":"Uncletopia | Los Angeles | 1 | All Maps","name_short":"lax-1","host":"lax-1.us.uncletopia.com","port":27015,"enabled":true,"region":"us-west","cc":"us","latitude":33.94279,"longitude":-118.41004,"reserved":0,"last_update":"0001-01-01T00:00:00Z","name_a2s":"Uncletopia | Los Angeles | 1 | All Maps","protocol":17,"map":"ctf_2fort","folder":"tf","game":"Team Fortress","app_id":440,"player_count":22,"max_players":24,"Bots":0,"server_type":"Dedicated","server_os":"Linux","password":true,"vac":true,"version":"7932396","steam_id":85568392924469991,"keywords":["ctf","nocrits","nodmgspread","uncletopia"],"game_id":440,"stv_port":27016,"stv_name":"Uncletopia | Los Angeles | 1 | All Maps | STV","players":[{"user_id":54,"name":"Penne","steam_id":76561198982393756,"connected_time":5766000000000,"state":"active","ping":57},{"user_id":141,"name":"Grizzakk","steam_id":76561198115821923,"connected_time":230000000000,"state":"active","ping":71},{"user_id":105,"name":"Person Man","steam_id":76561198293857963,"connected_time":2398000000000,"state":"active","ping":61},{"user_id":130,"name":"shakoiwa","steam_id":76561199059441773,"connected_time":785000000000,"state":"active","ping":49},{"user_id":124,"name":"Lowvast","steam_id":76561198068455981,"connected_time":1092000000000,"state":"active","ping":73},{"user_id":56,"name":"DarkMewMew","steam_id":76561199471715552,"connected_time":5762000000000,"state":"active","ping":67},{"user_id":103,"name":"sleck","steam_id":76561197993068585,"connected_time":2430000000000,"state":"active","ping":45},{"user_id":131,"name":"Penguinoverlord999","steam_id":76561199231051116,"connected_time":776000000000,"state":"active","ping":112},{"user_id":104,"name":"Moomin","steam_id":76561198072726213,"connected_time":2428000000000,"state":"active","ping":45},{"user_id":119,"name":"Mackerel2341","steam_id":76561198079974909,"connected_time":1468000000000,"state":"active","ping":73},{"user_id":109,"name":"G‡∂ûMER","steam_id":76561198340389876,"connected_time":1789000000000,"state":"active","ping":59},{"user_id":145,"name":"Aeront","steam_id":76561198072032723,"connected_time":117000000000,"state":"active","ping":119},{"user_id":127,"name":"Travorski","steam_id":76561198072493142,"connected_time":986000000000,"state":"active","ping":87},{"user_id":143,"name":"tacofever","steam_id":76561198010966507,"connected_time":195000000000,"state":"active","ping":45},{"user_id":114,"name":"DonoC","steam_id":76561198274473338,"connected_time":1638000000000,"state":"active","ping":88},{"user_id":128,"name":"gardener","steam_id":76561198018449559,"connected_time":949000000000,"state":"active","ping":43},{"user_id":129,"name":"Cup O' Tea","steam_id":76561199181963791,"connected_time":946000000000,"state":"active","ping":61},{"user_id":136,"name":"AilurosMajor88","steam_id":76561198350900640,"connected_time":477000000000,"state":"active","ping":90},{"user_id":140,"name":"Oh No! It's Twister!","steam_id":76561198016791916,"connected_time":293000000000,"state":"active","ping":101},{"user_id":133,"name":"ShredMaan","steam_id":76561198429982138,"connected_time":769000000000,"state":"active","ping":55},{"user_id":137,"name":"BLACK MAN FROM JOJO","steam_id":76561198272948471,"connected_time":407000000000,"state":"active","ping":109},{"user_id":94,"name":"Heinz-Harald Frentzen","steam_id":76561199002203593,"connected_time":3256000000000,"state":"active","ping":167}]},{"server_id":112,"name":"Uncletopia | Los Angeles | 2 | All Maps","name_short":"lax-2","host":"lax-1.us.uncletopia.com","port":27025,"enabled":true,"region":"us-west","cc":"us","latitude":33.94279,"longitude":-118.41004,"reserved":0,"last_update":"0001-01-01T00:00:00Z","name_a2s":"Uncletopia | Los Angeles | 2 | All Maps","protocol":17,"map":"cp_sunshine","folder":"tf","game":"Team Fortress","app_id":440,"player_count":24,"max_players":24,"Bots":0,"server_type":"Dedicated","server_os":"Linux","password":true,"vac":true,"version":"7932396","steam_id":85568392924469992,"keywords":["cp","nocrits","nodmgspread","uncletopia"],"game_id":440,"stv_port":27026,"stv_name":"Uncletopia | Los Angeles | 2 | All Maps | STV","players":[{"user_id":63,"name":"Pah-Wraith Gul Dukat","steam_id":76561198033918106,"connected_time":316000000000,"state":"active","ping":45},{"user_id":56,"name":"Walrus","steam_id":76561198001799905,"connected_time":496000000000,"state":"active","ping":48},{"user_id":26,"name":"poot theory","steam_id":76561198170381402,"connected_time":2892000000000,"state":"active","ping":92},{"user_id":57,"name":"Orion","steam_id":76561198000418837,"connected_time":469000000000,"state":"active","ping":84},{"user_id":48,"name":"The Benefactor","steam_id":76561198307247913,"connected_time":1309000000000,"state":"active","ping":45},{"user_id":27,"name":"vŒªughn","steam_id":76561198144165856,"connected_time":2885000000000,"state":"active","ping":89},{"user_id":11,"name":"cute strafer","steam_id":76561198043727436,"connected_time":3504000000000,"state":"active","ping":98},{"user_id":12,"name":"red","steam_id":76561198067289381,"connected_time":3501000000000,"state":"active","ping":92},{"user_id":13,"name":"norway jew","steam_id":76561198914032112,"connected_time":3359000000000,"state":"active","ping":45},{"user_id":14,"name":"Power Jake","steam_id":76561198051510260,"connected_time":3351000000000,"state":"active","ping":59},{"user_id":60,"name":"Alf Creepypasta","steam_id":76561198841844093,"connected_time":344000000000,"state":"active","ping":46},{"user_id":61,"name":"Vegemate","steam_id":76561199088297770,"connected_time":343000000000,"state":"active","ping":84},{"user_id":21,"name":"North","steam_id":76561198009525270,"connected_time":3081000000000,"state":"active","ping":55},{"user_id":34,"name":"David","steam_id":76561198869535018,"connected_time":2721000000000,"state":"active","ping":158},{"user_id":53,"name":"Defeat","steam_id":76561198065203818,"connected_time":860000000000,"state":"active","ping":59},{"user_id":52,"name":"rad killl raccoon","steam_id":76561198980975595,"connected_time":872000000000,"state":"active","ping":90},{"user_id":62,"name":"Neil Breen","steam_id":76561198132625124,"connected_time":338000000000,"state":"active","ping":123},{"user_id":30,"name":"crumbles","steam_id":76561198168707036,"connected_time":2856000000000,"state":"active","ping":63},{"user_id":68,"name":"iKickBabies","steam_id":76561199337400258,"connected_time":174000000000,"state":"active","ping":76},{"user_id":65,"name":"George R. R. Martin","steam_id":76561198799221864,"connected_time":300000000000,"state":"active","ping":97},{"user_id":45,"name":"Whyamidoingthisaaaa","steam_id":76561199168837342,"connected_time":1860000000000,"state":"active","ping":106},{"user_id":66,"name":"neo :)","steam_id":76561199092954930,"connected_time":289000000000,"state":"active","ping":110},{"user_id":67,"name":"Little German Kid","steam_id":76561198062956313,"connected_time":277000000000,"state":"active","ping":104},{"user_id":40,"name":"FaceLaces","steam_id":76561198194417725,"connected_time":2408000000000,"state":"active","ping":46}]},{"server_id":324,"name":"Uncletopia | Los Angeles | 3 | All Maps","name_short":"lax-3","host":"lax-1.us.uncletopia.com","port":27035,"enabled":true,"region":"us-west","cc":"us","latitude":33.94279,"longitude":-118.41004,"reserved":0,"last_update":"0001-01-01T00:00:00Z","name_a2s":"Uncletopia | Los Angeles | 3 | All Maps","protocol":17,"map":"pl_barnblitz","folder":"tf","game":"Team Fortress","app_id":440,"player_count":0,"max_players":24,"Bots":0,"server_type":"Dedicated","server_os":"Linux","password":true,"vac":true,"version":"7932396","steam_id":85568392924510198,"keywords":["nocrits","nodmgspread","payload","uncletopia"],"game_id":440,"stv_port":27036,"stv_name":"Uncletopia | Los Angeles | 3 | All Maps | STV","players":null},{"server_id":25,"name":"Uncletopia | Los Angeles | 4 | Stopwatch Beta","name_short":"lax-4","host":"lax-1.us.uncletopia.com","port":27045,"enabled":true,"region":"us-west","cc":"us","latitude":33.94279,"longitude":-118.41004,"reserved":0,"last_update":"0001-01-01T00:00:00Z","name_a2s":"Uncletopia | Los Angeles | 4 | Stopwatch Beta","protocol":17,"map":"pl_swiftwater_final1","folder":"tf","game":"Team Fortress","app_id":440,"player_count":0,"max_players":24,"Bots":0,"server_type":"Dedicated","server_os":"Linux","password":true,"vac":true,"version":"7932396","steam_id":85568392924510199,"keywords":["nocrits","nodmgspread","payload","uncletopia"],"game_id":440,"stv_port":27046,"stv_name":"Uncletopia | Los Angeles | 4 | Stopwatch Beta | STV","players":null},{"server_id":11,"name":"Uncletopia | London | 1 | All Maps","name_short":"lon-1","host":"lon-1.uk.uncletopia.com","port":27015,"enabled":true,"region":"eu","cc":"gb","latitude":51.509865,"longitude":-0.118092,"reserved":0,"last_update":"0001-01-01T00:00:00Z","name_a2s":"Uncletopia | London | 1 | All Maps","protocol":17,"map":"pl_borneo","folder":"tf","game":"Team Fortress","app_id":440,"player_count":24,"max_players":24,"Bots":0,"server_type":"Dedicated","server_os":"Linux","password":true,"vac":true,"version":"7932396","steam_id":85568392924367362,"keywords":["nocrits","nodmgspread","payload","uncletopia"],"game_id":440,"stv_port":27016,"stv_name":"Uncletopia | London | 1 | All Maps | STV","players":[{"user_id":159,"name":"Bob","steam_id":76561197993252315,"connected_time":2785000000000,"state":"active","ping":64},{"user_id":193,"name":"Men Fortress 2","steam_id":76561197999459536,"connected_time":401000000000,"state":"active","ping":50},{"user_id":166,"name":"140ms","steam_id":76561198096654820,"connected_time":2739000000000,"state":"active","ping":64},{"user_id":135,"name":"Deacon Dracul","steam_id":76561198046880663,"connected_time":5879000000000,"state":"active","ping":86},{"user_id":185,"name":"GR33DY","steam_id":76561197996746809,"connected_time":606000000000,"state":"active","ping":101},{"user_id":181,"name":"Dirty Joe","steam_id":76561198142418870,"connected_time":742000000000,"state":"active","ping":42},{"user_id":153,"name":"Sandshee","steam_id":76561198088574666,"connected_time":4327000000000,"state":"active","ping":35},{"user_id":184,"name":"Vytuzas","steam_id":76561198012868436,"connected_time":667000000000,"state":"active","ping":74},{"user_id":186,"name":"Yuzu","steam_id":76561198121694613,"connected_time":591000000000,"state":"active","ping":52},{"user_id":183,"name":"nyanezt","steam_id":76561198253734265,"connected_time":722000000000,"state":"active","ping":115},{"user_id":162,"name":"sora :3","steam_id":76561198096547662,"connected_time":2769000000000,"state":"active","ping":56},{"user_id":196,"name":"ElElliot","steam_id":76561198842278840,"connected_time":276000000000,"state":"active","ping":114},{"user_id":160,"name":"‚ô•aura‚ô•","steam_id":76561198066258544,"connected_time":2783000000000,"state":"active","ping":61},{"user_id":174,"name":"Dim","steam_id":76561198141549249,"connected_time":1884000000000,"state":"active","ping":142},{"user_id":177,"name":"Wally","steam_id":76561199383437138,"connected_time":1473000000000,"state":"active","ping":123},{"user_id":197,"name":"scarecrowshelper","steam_id":76561198072260553,"connected_time":227000000000,"state":"active","ping":60},{"user_id":188,"name":"hide on bush","steam_id":76561198149967445,"connected_time":570000000000,"state":"active","ping":32},{"user_id":124,"name":"epic gamer moment","steam_id":76561198299515070,"connected_time":6656000000000,"state":"active","ping":96},{"user_id":190,"name":"AVOID EVERYONE","steam_id":76561198051852765,"connected_time":547000000000,"state":"active","ping":75},{"user_id":171,"name":"blade","steam_id":76561199308850812,"connected_time":2097000000000,"state":"active","ping":42},{"user_id":29,"name":"DJPNK","steam_id":76561197989948420,"connected_time":11609000000000,"state":"active","ping":53},{"user_id":192,"name":"Lady Havoc","steam_id":76561198403933649,"connected_time":479000000000,"state":"active","ping":74},{"user_id":195,"name":"Mareaucanard","steam_id":76561198351406668,"connected_time":345000000000,"state":"active","ping":57},{"user_id":163,"name":"Aaron","steam_id":76561197990046953,"connected_time":2769000000000,"state":"active","ping":58}]},{"server_id":114,"name":"Uncletopia | London | 2 | All Maps","name_short":"lon-2","host":"lon-1.uk.uncletopia.com","port":27025,"enabled":true,"region":"eu","cc":"gb","latitude":51.509865,"longitude":-0.118092,"reserved":0,"last_update":"0001-01-01T00:00:00Z","name_a2s":"Uncletopia | London | 2 | All Maps","protocol":17,"map":"koth_highpass","folder":"tf","game":"Team Fortress","app_id":440,"player_count":0,"max_players":24,"Bots":0,"server_type":"Dedicated","server_os":"Linux","password":true,"vac":true,"version":"7932396","steam_id":85568392924470941,"keywords":["cp","nocrits","nodmgspread","uncletopia"],"game_id":440,"stv_port":27026,"stv_name":"Uncletopia | London | 2 | All Maps | STV","players":null},{"server_id":320,"name":"Uncletopia | London | 3 | All Maps","name_short":"lon-3","host":"lon-1.uk.uncletopia.com","port":27035,"enabled":true,"region":"eu","cc":"gb","latitude":51.509865,"longitude":-0.118092,"reserved":0,"last_update":"0001-01-01T00:00:00Z","name_a2s":"Uncletopia | London | 3 | All Maps","protocol":17,"map":"cp_mountainlab","folder":"tf","game":"Team Fortress","app_id":440,"player_count":0,"max_players":24,"Bots":0,"server_type":"Dedicated","server_os":"Linux","password":true,"vac":true,"version":"7932396","steam_id":85568392924510192,"keywords":["cp","nocrits","nodmgspread","uncletopia"],"game_id":440,"stv_port":27036,"stv_name":"Uncletopia | London | 3 | All Maps | STV","players":null},{"server_id":321,"name":"Uncletopia | London | 4 | All Maps","name_short":"lon-4","host":"lon-1.uk.uncletopia.com","port":27045,"enabled":true,"region":"eu","cc":"gb","latitude":51.509865,"longitude":-0.118092,"reserved":0,"last_update":"0001-01-01T00:00:00Z","name_a2s":"Uncletopia | London | 4 | All Maps","protocol":17,"map":"pl_frontier_final","folder":"tf","game":"Team Fortress","app_id":440,"player_count":0,"max_players":24,"Bots":0,"server_type":"Dedicated","server_os":"Linux","password":true,"vac":true,"version":"7932396","steam_id":85568392924510193,"keywords":["nocrits","nodmgspread","payload","uncletopia"],"game_id":440,"stv_port":27046,"stv_name":"Uncletopia | London | 4 | All Maps | STV","players":null},{"server_id":21,"name":"Uncletopia | London | 5 | All Maps","name_short":"lon-5","host":"lon-1.uk.uncletopia.com","port":27055,"enabled":true,"region":"eu","cc":"gb","latitude":51.509865,"longitude":-0.118092,"reserved":0,"last_update":"0001-01-01T00:00:00Z","name_a2s":"Uncletopia | London | 5 | All Maps","protocol":17,"map":"pl_swiftwater_final1","folder":"tf","game":"Team Fortress","app_id":440,"player_count":23,"max_players":24,"Bots":0,"server_type":"Dedicated","server_os":"Linux","password":true,"vac":true,"version":"7932396","steam_id":85568392924742829,"keywords":["nocrits","nodmgspread","payload","uncletopia"],"game_id":440,"stv_port":27056,"stv_name":"Uncletopia | London | 5 | All Maps | STV","players":[{"user_id":111,"name":"Black Sheep","steam_id":76561198042244701,"connected_time":5496000000000,"state":"active","ping":55},{"user_id":131,"name":"Xiqui","steam_id":76561198818386611,"connected_time":3303000000000,"state":"active","ping":85},{"user_id":172,"name":"You could do the rumpshaker huh","steam_id":76561198171466414,"connected_time":356000000000,"state":"active","ping":142},{"user_id":165,"name":"pfert","steam_id":76561198054441975,"connected_time":782000000000,"state":"active","ping":64},{"user_id":173,"name":"He orchestrated it!","steam_id":76561198089003514,"connected_time":294000000000,"state":"active","ping":47},{"user_id":174,"name":"snowycoast","steam_id":76561198346638308,"connected_time":286000000000,"state":"active","ping":52},{"user_id":160,"name":"‡πãÛ†Å≥","steam_id":76561199102123654,"connected_time":965000000000,"state":"active","ping":99},{"user_id":150,"name":"pan gaming","steam_id":76561198065846882,"connected_time":1695000000000,"state":"active","ping":78},{"user_id":163,"name":"french fries?","steam_id":76561199238480644,"connected_time":878000000000,"state":"active","ping":165},{"user_id":155,"name":"minn","steam_id":76561198099101232,"connected_time":1021000000000,"state":"active","ping":58},{"user_id":146,"name":"(no monitor) ayylien","steam_id":76561198042127970,"connected_time":2362000000000,"state":"active","ping":141},{"user_id":171,"name":"Vinnyboiler","steam_id":76561198048722825,"connected_time":575000000000,"state":"active","ping":37},{"user_id":133,"name":"Dr Sex","steam_id":76561198029044617,"connected_time":3144000000000,"state":"active","ping":51},{"user_id":157,"name":"robbie","steam_id":76561198798195287,"connected_time":1019000000000,"state":"active","ping":44},{"user_id":159,"name":"DoubleHelix","steam_id":76561198045549571,"connected_time":982000000000,"state":"active","ping":56},{"user_id":161,"name":"Sidney","steam_id":76561198119691332,"connected_time":951000000000,"state":"active","ping":45},{"user_id":166,"name":"teddy","steam_id":76561198007436837,"connected_time":753000000000,"state":"active","ping":45},{"user_id":152,"name":"SPOOKY_","steam_id":76561198073395404,"connected_time":1153000000000,"state":"active","ping":74},{"user_id":149,"name":"Dag!","steam_id":76561198030147941,"connected_time":1838000000000,"state":"active","ping":74},{"user_id":144,"name":"waddles","steam_id":76561198205194909,"connected_time":2457000000000,"state":"active","ping":83},{"user_id":170,"name":"dum","steam_id":76561198053386482,"connected_time":633000000000,"state":"active","ping":141},{"user_id":168,"name":"Slifer the ‡∏Ö\\(^‚óâ‡∑¥‚óâ^)/\ufffd\ufffd","steam_id":76561198062255803,"connected_time":741000000000,"state":"active","ping":74},{"user_id":169,"name":"mud","steam_id":76561198141497461,"connected_time":709000000000,"state":"active","ping":73}]},{"server_id":22,"name":"Uncletopia | London | 6 | All Maps","name_short":"lon-6","host":"lon-1.uk.uncletopia.com","port":27065,"enabled":true,"region":"eu","cc":"gb","latitude":51.509865,"longitude":-0.118092,"reserved":0,"last_update":"0001-01-01T00:00:00Z","name_a2s":"Uncletopia | London | 6 | All Maps","protocol":17,"map":"pl_frontier_final","folder":"tf","game":"Team Fortress","app_id":440,"player_count":16,"max_players":24,"Bots":0,"server_type":"Dedicated","server_os":"Linux","password":true,"vac":true,"version":"7932396","steam_id":85568392924742830,"keywords":["nocrits","nodmgspread","payload","uncletopia"],"game_id":440,"stv_port":27066,"stv_name":"Uncletopia | London | 6 | All Maps | STV","players":[{"user_id":149,"name":"clinical glue albums","steam_id":76561198013502376,"connected_time":1403000000000,"state":"active","ping":59},{"user_id":161,"name":"Marl Karx","steam_id":76561198396797516,"connected_time":699000000000,"state":"active","ping":67},{"user_id":138,"name":"Xeno Soldier","steam_id":76561198042163847,"connected_time":2243000000000,"state":"active","ping":54},{"user_id":168,"name":"FilipeLuk","steam_id":76561198150675438,"connected_time":456000000000,"state":"active","ping":71},{"user_id":146,"name":"LVL100_PSYDUCK","steam_id":76561198081392950,"connected_time":1759000000000,"state":"active","ping":69},{"user_id":169,"name":"lacurio","steam_id":76561198059701776,"connected_time":379000000000,"state":"active","ping":55},{"user_id":105,"name":"Kenny Savage","steam_id":76561199049383900,"connected_time":4685000000000,"state":"active","ping":75},{"user_id":158,"name":"„É†ngel‚òØ","steam_id":76561198009888169,"connected_time":925000000000,"state":"active","ping":73},{"user_id":153,"name":"Silverdarlin","steam_id":76561198118540970,"connected_time":1259000000000,"state":"active","ping":55},{"user_id":154,"name":"RuneShine","steam_id":76561198007098323,"connected_time":1239000000000,"state":"active","ping":46},{"user_id":155,"name":"Grogon","steam_id":76561198203300218,"connected_time":1154000000000,"state":"active","ping":107},{"user_id":175,"name":"cinny","steam_id":76561198832112629,"connected_time":138000000000,"state":"active","ping":85},{"user_id":170,"name":"Phalcon","steam_id":76561197987051394,"connected_time":362000000000,"state":"active","ping":78},{"user_id":176,"name":"‚ô•ImWithMilk","steam_id":76561198269577569,"connected_time":56000000000,"state":"active","ping":54},{"user_id":171,"name":"DarthMurloc_OW","steam_id":76561198075577711,"connected_time":358000000000,"state":"active","ping":90},{"user_id":148,"name":"Fluffy Tuffy","steam_id":76561198106495563,"connected_time":1455000000000,"state":"active","ping":118}]},{"server_id":40,"name":"Uncletopia | London | 7 | No Payload","name_short":"lon-7","host":"lon-1.uk.uncletopia.com","port":27075,"enabled":true,"region":"eu","cc":"gb","latitude":51.509865,"longitude":-0.118092,"reserved":0,"last_update":"0001-01-01T00:00:00Z","name_a2s":"Uncletopia | London | 7 | No Payload","protocol":17,"map":"ctf_well","folder":"tf","game":"Team Fortress","app_id":440,"player_count":22,"max_players":24,"Bots":0,"server_type":"Dedicated","server_os":"Linux","password":true,"vac":true,"version":"7932396","steam_id":85568392924964314,"keywords":["ctf","nocrits","nodmgspread","uncletopia"],"game_id":440,"stv_port":27076,"stv_name":"Uncletopia | London | 7 | No Payload | STV","players":[{"user_id":151,"name":"Worm","steam_id":76561198296497176,"connected_time":211000000000,"state":"active","ping":47},{"user_id":135,"name":"Spectre","steam_id":76561198163819482,"connected_time":1340000000000,"state":"active","ping":69},{"user_id":86,"name":"Vibing Wave","steam_id":76561198866358613,"connected_time":4557000000000,"state":"active","ping":159},{"user_id":129,"name":"IndigoJones","steam_id":76561198050284262,"connected_time":1682000000000,"state":"active","ping":49},{"user_id":122,"name":"_hoschi","steam_id":76561197960386570,"connected_time":1963000000000,"state":"active","ping":48},{"user_id":120,"name":"papi im hungary(((","steam_id":76561198183949987,"connected_time":2027000000000,"state":"active","ping":53},{"user_id":146,"name":"e36 1.8","steam_id":76561198134203031,"connected_time":509000000000,"state":"active","ping":73},{"user_id":148,"name":"cat","steam_id":76561198832231975,"connected_time":438000000000,"state":"active","ping":91},{"user_id":144,"name":"zherny","steam_id":76561198027033926,"connected_time":617000000000,"state":"active","ping":46},{"user_id":127,"name":"Nyrgon","steam_id":76561198269206916,"connected_time":1774000000000,"state":"active","ping":68},{"user_id":124,"name":"Teacup","steam_id":76561198190654091,"connected_time":1930000000000,"state":"active","ping":54},{"user_id":137,"name":"Banatical Bean","steam_id":76561198122356617,"connected_time":1271000000000,"state":"active","ping":61},{"user_id":133,"name":"tl.rybar","steam_id":76561197960377282,"connected_time":1430000000000,"state":"active","ping":67},{"user_id":150,"name":"r","steam_id":76561198145465595,"connected_time":286000000000,"state":"active","ping":38},{"user_id":113,"name":"Orbit","steam_id":76561198242999878,"connected_time":3025000000000,"state":"active","ping":58},{"user_id":152,"name":"(√î)√î)Wandering Singer(√î(√î)","steam_id":76561198126477141,"connected_time":180000000000,"state":"active","ping":136},{"user_id":128,"name":"Aubribac","steam_id":76561198057689763,"connected_time":1749000000000,"state":"active","ping":47},{"user_id":139,"name":"R@DIO","steam_id":76561197995533046,"connected_time":1068000000000,"state":"active","ping":89},{"user_id":134,"name":"Skoualala","steam_id":76561198121754445,"connected_time":1429000000000,"state":"active","ping":62},{"user_id":153,"name":"Daruun","steam_id":76561198019068781,"connected_time":177000000000,"state":"active","ping":84},{"user_id":154,"name":".Aq","steam_id":76561198043376092,"connected_time":105000000000,"state":"active","ping":102},{"user_id":155,"name":"sushii","steam_id":76561198297987372,"connected_time":93000000000,"state":"active","ping":51}]},{"server_id":41,"name":"Uncletopia | London | 8 | Community","name_short":"lon-8","host":"lon-1.uk.uncletopia.com","port":27085,"enabled":true,"region":"eu","cc":"gb","latitude":51.509865,"longitude":-0.118092,"reserved":0,"last_update":"0001-01-01T00:00:00Z","name_a2s":"Uncletopia | London | 8 | Community","protocol":17,"map":"workshop/koth_ramjam_rc1.ugc459778887","folder":"tf","game":"Team Fortress","app_id":440,"player_count":0,"max_players":24,"Bots":0,"server_type":"Dedicated","server_os":"Linux","password":true,"vac":true,"version":"7932396","steam_id":85568392924964315,"keywords":["cp","nocrits","nodmgspread","uncletopia"],"game_id":440,"stv_port":27086,"stv_name":"Uncletopia | London | 8 | Community | STV","players":null},{"server_id":300,"name":"Uncletopia | Montr√©al | 1 | All Maps","name_short":"mtl-1","host":"mtl-1.ca.uncletopia.com","port":27015,"enabled":true,"region":"us-east","cc":"ca","latitude":45.50889,"longitude":-73.56167,"reserved":0,"last_update":"0001-01-01T00:00:00Z","name_a2s":"Uncletopia | Montr√©al | 1 | All Maps","protocol":17,"map":"pl_borneo","folder":"tf","game":"Team Fortress","app_id":440,"player_count":0,"max_players":24,"Bots":0,"server_type":"Dedicated","server_os":"Linux","password":true,"vac":true,"version":"7932396","steam_id":85568392924500087,"keywords":["nocrits","nodmgspread","payload","uncletopia"],"game_id":440,"stv_port":27016,"stv_name":"Uncletopia | Montr√©al | 1 | All Maps | STV","players":null},{"server_id":301,"name":"Uncletopia | Montr√©al | 2 | All Maps","name_short":"mtl-2","host":"mtl-1.ca.uncletopia.com","port":27025,"enabled":true,"region":"us-east","cc":"ca","latitude":45.50889,"longitude":-73.56167,"reserved":0,"last_update":"0001-01-01T00:00:00Z","name_a2s":"Uncletopia | Montr√©al | 2 | All Maps","protocol":17,"map":"pl_pier","folder":"tf","game":"Team Fortress","app_id":440,"player_count":0,"max_players":24,"Bots":0,"server_type":"Dedicated","server_os":"Linux","password":true,"vac":true,"version":"7932396","steam_id":85568392924500088,"keywords":["nocrits","nodmgspread","payload","uncletopia"],"game_id":440,"stv_port":27026,"stv_name":"Uncletopia | Montr√©al | 2 | All Maps | STV","players":null},{"server_id":302,"name":"Uncletopia | Montr√©al | 3 | All Maps","name_short":"mtl-3","host":"mtl-1.ca.uncletopia.com","port":27035,"enabled":true,"region":"us-east","cc":"ca","latitude":45.50889,"longitude":-73.56167,"reserved":0,"last_update":"0001-01-01T00:00:00Z","name_a2s":"Uncletopia | Montr√©al | 3 | All Maps","protocol":17,"map":"pl_frontier_final","folder":"tf","game":"Team Fortress","app_id":440,"player_count":4,"max_players":24,"Bots":0,"server_type":"Dedicated","server_os":"Linux","password":true,"vac":true,"version":"7932396","steam_id":85568392924500089,"keywords":["nocrits","nodmgspread","payload","uncletopia"],"game_id":440,"stv_port":27036,"stv_name":"Uncletopia | Montr√©al | 3 | All Maps | STV","players":[{"user_id":4,"name":"lolzfrdawin21","steam_id":76561199006665979,"connected_time":899000000000,"state":"active","ping":75},{"user_id":5,"name":"DrDan64","steam_id":76561199013363718,"connected_time":894000000000,"state":"active","ping":68},{"user_id":6,"name":"cool beans","steam_id":76561198321591685,"connected_time":892000000000,"state":"active","ping":90},{"user_id":8,"name":"pinch of potassium chlorate","steam_id":76561199278373059,"connected_time":151000000000,"state":"active","ping":56}]},{"server_id":303,"name":"Uncletopia | Montr√©al | 4 | No Payload","name_short":"mtl-4","host":"mtl-1.ca.uncletopia.com","port":27045,"enabled":true,"region":"us-east","cc":"ca","latitude":45.50889,"longitude":-73.56167,"reserved":0,"last_update":"0001-01-01T00:00:00Z","name_a2s":"Uncletopia | Montr√©al | 4 | No Payload","protocol":17,"map":"cp_mountainlab","folder":"tf","game":"Team Fortress","app_id":440,"player_count":0,"max_players":24,"Bots":0,"server_type":"Dedicated","server_os":"Linux","password":true,"vac":true,"version":"7932396","steam_id":85568392924500090,"keywords":["cp","nocrits","nodmgspread","uncletopia"],"game_id":440,"stv_port":27046,"stv_name":"Uncletopia | Montr√©al | 4 | No Payload | STV","players":null},{"server_id":13,"name":"Uncletopia | New York City | 1 | All Maps","name_short":"nyc-1","host":"nyc-1.us.uncletopia.com","port":27015,"enabled":true,"region":"us-east","cc":"us","latitude":40.73061,"longitude":-73.93524,"reserved":0,"last_update":"0001-01-01T00:00:00Z","name_a2s":"Uncletopia | New York City | 1 | All Maps","protocol":17,"map":"cp_dustbowl","folder":"tf","game":"Team Fortress","app_id":440,"player_count":23,"max_players":24,"Bots":0,"server_type":"Dedicated","server_os":"Linux","password":true,"vac":true,"version":"7932396","steam_id":85568392924469993,"keywords":["cp","nocrits","nodmgspread","uncletopia"],"game_id":440,"stv_port":27016,"stv_name":"Uncletopia | New York City | 1 | All Maps | STV","players":[{"user_id":57,"name":"moonblast","steam_id":76561198071830960,"connected_time":65000000000,"state":"active","ping":54},{"user_id":58,"name":"ooblz","steam_id":76561198361326855,"connected_time":33000000000,"state":"active","ping":61},{"user_id":14,"name":"Parting ways","steam_id":76561197995620232,"connected_time":3205000000000,"state":"active","ping":35},{"user_id":23,"name":"JoCaleb02","steam_id":76561198272389829,"connected_time":2316000000000,"state":"active","ping":59},{"user_id":59,"name":"el wiwi","steam_id":76561198857304367,"connected_time":17000000000,"state":"active","ping":77},{"user_id":18,"name":"the pest","steam_id":76561198826298849,"connected_time":2860000000000,"state":"active","ping":94},{"user_id":38,"name":"ObsessedNerd505","steam_id":76561199045531456,"connected_time":1536000000000,"state":"active","ping":73},{"user_id":41,"name":"Primal","steam_id":76561197983118203,"connected_time":1491000000000,"state":"active","ping":81},{"user_id":21,"name":"erf","steam_id":76561198078203677,"connected_time":2678000000000,"state":"active","ping":55},{"user_id":22,"name":"a literal slave","steam_id":76561199389283507,"connected_time":2665000000000,"state":"active","ping":64},{"user_id":26,"name":"gonad epic","steam_id":76561198217435839,"connected_time":2069000000000,"state":"active","ping":91},{"user_id":27,"name":"Diji Dux","steam_id":76561199064647694,"connected_time":1901000000000,"state":"active","ping":93},{"user_id":50,"name":"Kritzburgh","steam_id":76561198149466938,"connected_time":1084000000000,"state":"active","ping":50},{"user_id":29,"name":"Bymo","steam_id":76561199037626505,"connected_time":1853000000000,"state":"active","ping":53},{"user_id":48,"name":"Indigolake","steam_id":76561198202215807,"connected_time":1257000000000,"state":"active","ping":69},{"user_id":56,"name":"who is gavin?","steam_id":76561198069415057,"connected_time":810000000000,"state":"active","ping":44},{"user_id":60,"name":"Marcel","steam_id":76561199079200901,"connected_time":7000000000,"state":"spawning","ping":74},{"user_id":33,"name":"Frajer","steam_id":76561198059129680,"connected_time":1698000000000,"state":"active","ping":66},{"user_id":40,"name":"Joe Biden","steam_id":76561198238699798,"connected_time":1501000000000,"state":"active","ping":104},{"user_id":51,"name":"log","steam_id":76561198386992717,"connected_time":1014000000000,"state":"active","ping":69},{"user_id":45,"name":"nilftb","steam_id":76561198161952186,"connected_time":1434000000000,"state":"active","ping":59},{"user_id":46,"name":"Fallen_Scholar","steam_id":76561198055468709,"connected_time":1428000000000,"state":"active","ping":154},{"user_id":49,"name":"Real Kenny G","steam_id":76561198360620446,"connected_time":1186000000000,"state":"active","ping":114}]},{"server_id":14,"name":"Uncletopia | New York City | 2 | All Maps","name_short":"nyc-2","host":"nyc-1.us.uncletopia.com","port":27025,"enabled":true,"region":"us-east","cc":"us","latitude":40.73061,"longitude":-73.93524,"reserved":0,"last_update":"0001-01-01T00:00:00Z","name_a2s":"Uncletopia | New York City | 2 | All Maps","protocol":17,"map":"pl_snowycoast","folder":"tf","game":"Team Fortress","app_id":440,"player_count":24,"max_players":24,"Bots":0,"server_type":"Dedicated","server_os":"Linux","password":true,"vac":true,"version":"7932396","steam_id":85568392924469994,"keywords":["nocrits","nodmgspread","payload","uncletopia"],"game_id":440,"stv_port":27026,"stv_name":"Uncletopia | New York City | 2 | All Maps | STV","players":[{"user_id":5,"name":"A_Malebolgia","steam_id":76561198097722818,"connected_time":3089000000000,"state":"active","ping":86},{"user_id":19,"name":"Kaits","steam_id":76561199021082993,"connected_time":1491000000000,"state":"active","ping":51},{"user_id":31,"name":"Rick :3","steam_id":76561198110061539,"connected_time":1013000000000,"state":"active","ping":75},{"user_id":13,"name":"Yoshimelon","steam_id":76561198253054325,"connected_time":1894000000000,"state":"active","ping":79},{"user_id":33,"name":"ira","steam_id":76561198120360801,"connected_time":912000000000,"state":"active","ping":115},{"user_id":15,"name":"BigBattleToaster","steam_id":76561199087551431,"connected_time":1667000000000,"state":"active","ping":106},{"user_id":16,"name":"pinkissocool {f2p}","steam_id":76561198989599828,"connected_time":1637000000000,"state":"active","ping":41},{"user_id":36,"name":"SomeHobo454","steam_id":76561199093954927,"connected_time":796000000000,"state":"active","ping":55},{"user_id":32,"name":"Willem Dafoe","steam_id":76561198037453253,"connected_time":1007000000000,"state":"active","ping":69},{"user_id":23,"name":"Positronic","steam_id":76561197989578828,"connected_time":1189000000000,"state":"active","ping":67},{"user_id":24,"name":"Fablor","steam_id":76561198175644926,"connected_time":1126000000000,"state":"active","ping":110},{"user_id":41,"name":"Dakota Sutcliffe","steam_id":76561198170660959,"connected_time":700000000000,"state":"active","ping":67},{"user_id":39,"name":"Spooby","steam_id":76561198168114366,"connected_time":742000000000,"state":"active","ping":68},{"user_id":40,"name":"Kidzbopsicle","steam_id":76561198047660691,"connected_time":728000000000,"state":"active","ping":41},{"user_id":34,"name":"ZombieSnowy","steam_id":76561198337461250,"connected_time":899000000000,"state":"active","ping":51},{"user_id":35,"name":"Sir Thomas Foolery","steam_id":76561198040017296,"connected_time":859000000000,"state":"active","ping":89},{"user_id":37,"name":"Winter the Witchie | B-DAY","steam_id":76561198151971178,"connected_time":794000000000,"state":"active","ping":73},{"user_id":42,"name":"Skrasher","steam_id":76561198281711422,"connected_time":691000000000,"state":"active","ping":101},{"user_id":43,"name":"smog","steam_id":76561198072179483,"connected_time":647000000000,"state":"active","ping":82},{"user_id":44,"name":"Space Cops","steam_id":76561198032414253,"connected_time":638000000000,"state":"active","ping":45},{"user_id":45,"name":"carrot cake","steam_id":76561198055174915,"connected_time":620000000000,"state":"active","ping":71},{"user_id":46,"name":"MagicMuffinman","steam_id":76561198149255313,"connected_time":597000000000,"state":"active","ping":78},{"user_id":47,"name":"Call Me Ishmael","steam_id":76561198030696516,"connected_time":594000000000,"state":"active","ping":133}]},{"server_id":15,"name":"Uncletopia | New York City | 3 | Stopwatch Beta","name_short":"nyc-3","host":"nyc-1.us.uncletopia.com","port":27035,"enabled":true,"region":"us-east","cc":"us","latitude":40.73061,"longitude":-73.93524,"reserved":0,"last_update":"0001-01-01T00:00:00Z","name_a2s":"Uncletopia | New York City | 3 | Stopwatch Beta","protocol":17,"map":"cp_gullywash_final1","folder":"tf","game":"Team Fortress","app_id":440,"player_count":10,"max_players":24,"Bots":0,"server_type":"Dedicated","server_os":"Linux","password":true,"vac":true,"version":"7932396","steam_id":85568392924742820,"keywords":["cp","nocrits","nodmgspread","uncletopia"],"game_id":440,"stv_port":27036,"stv_name":"Uncletopia | New York City | 3 | Stopwatch Beta | STV","players":[{"user_id":5,"name":"priva","steam_id":76561198217537653,"connected_time":430000000000,"state":"active","ping":78},{"user_id":6,"name":"Bassianus","steam_id":76561197999076805,"connected_time":398000000000,"state":"active","ping":124},{"user_id":7,"name":"LolExxDee","steam_id":76561198117370849,"connected_time":383000000000,"state":"active","ping":85},{"user_id":8,"name":"DustyRocks","steam_id":76561198031352205,"connected_time":283000000000,"state":"active","ping":62},{"user_id":9,"name":"Uncle Dogster","steam_id":76561198018922424,"connected_time":240000000000,"state":"active","ping":67},{"user_id":12,"name":"Doctor Pewtis","steam_id":76561198061526862,"connected_time":113000000000,"state":"active","ping":120},{"user_id":11,"name":"scythe","steam_id":76561199103343844,"connected_time":203000000000,"state":"active","ping":123},{"user_id":13,"name":"Cooldog","steam_id":76561198080548713,"connected_time":92000000000,"state":"active","ping":55},{"user_id":14,"name":"Mengle","steam_id":76561198001953684,"connected_time":74000000000,"state":"active","ping":63},{"user_id":15,"name":"big fish","steam_id":76561198186479818,"connected_time":37000000000,"state":"active","ping":117}]},{"server_id":16,"name":"Uncletopia | New York City | 4 | Community","name_short":"nyc-4","host":"nyc-1.us.uncletopia.com","port":27045,"enabled":true,"region":"us-east","cc":"us","latitude":40.73061,"longitude":-73.93524,"reserved":0,"last_update":"0001-01-01T00:00:00Z","name_a2s":"Uncletopia | New York City | 4 | Community","protocol":17,"map":"workshop/pl_cactuscanyon_redux_final2.ugc2579644293","folder":"tf","game":"Team Fortress","app_id":440,"player_count":0,"max_players":24,"Bots":0,"server_type":"Dedicated","server_os":"Linux","password":true,"vac":true,"version":"7932396","steam_id":85568392924742821,"keywords":["nocrits","nodmgspread","payload","uncletopia"],"game_id":440,"stv_port":27046,"stv_name":"Uncletopia | New York City | 4 | Community | STV","players":null},{"server_id":142,"name":"Uncletopia | S√£o Paulo | 1 | All Maps","name_short":"sao-1","host":"sao-1.br.uncletopia.com","port":27015,"enabled":true,"region":"sa","cc":"br","latitude":-23.533773,"longitude":-46.62529,"reserved":0,"last_update":"0001-01-01T00:00:00Z","name_a2s":"Uncletopia | S√£o Paulo | 1 | All Maps","protocol":17,"map":"pl_barnblitz","folder":"tf","game":"Team Fortress","app_id":440,"player_count":0,"max_players":24,"Bots":0,"server_type":"Dedicated","server_os":"Linux","password":true,"vac":true,"version":"7932396","steam_id":85568392924469996,"keywords":["nocrits","nodmgspread","payload","uncletopia"],"game_id":440,"stv_port":27016,"stv_name":"Uncletopia | S√£o Paulo | 1 | All Maps | STV","players":null},{"server_id":143,"name":"Uncletopia | S√£o Paulo | 2 | All Maps","name_short":"sao-2","host":"sao-2.br.uncletopia.com","port":27015,"enabled":true,"region":"sa","cc":"br","latitude":-23.533773,"longitude":-46.62529,"reserved":0,"last_update":"0001-01-01T00:00:00Z","name_a2s":"Uncletopia | S√£o Paulo | 2 | All Maps","protocol":17,"map":"pl_badwater","folder":"tf","game":"Team Fortress","app_id":440,"player_count":14,"max_players":24,"Bots":0,"server_type":"Dedicated","server_os":"Linux","password":true,"vac":true,"version":"7932396","steam_id":85568392924485349,"keywords":["nocrits","nodmgspread","payload","uncletopia"],"game_id":440,"stv_port":27016,"stv_name":"Uncletopia | S√£o Paulo | 2 | All Maps | STV","players":[{"user_id":47,"name":"Orcellius","steam_id":76561198060099886,"connected_time":945000000000,"state":"active","ping":71},{"user_id":36,"name":"jr_","steam_id":76561198313937899,"connected_time":1700000000000,"state":"active","ping":46},{"user_id":58,"name":"Nick Andy","steam_id":76561198306537064,"connected_time":231000000000,"state":"active","ping":60},{"user_id":20,"name":"starm0nster","steam_id":76561199016975635,"connected_time":4060000000000,"state":"active","ping":44},{"user_id":55,"name":"buela","steam_id":76561198047423193,"connected_time":296000000000,"state":"active","ping":66},{"user_id":56,"name":"COKINHO_xo","steam_id":76561198852329257,"connected_time":271000000000,"state":"active","ping":41},{"user_id":57,"name":"OwOKath","steam_id":76561199478827836,"connected_time":238000000000,"state":"active","ping":75},{"user_id":59,"name":"Gustavo_Banana","steam_id":76561198387866587,"connected_time":203000000000,"state":"active","ping":291},{"user_id":60,"name":"The imortal snail","steam_id":76561198136181550,"connected_time":190000000000,"state":"active","ping":46},{"user_id":40,"name":"Dave el Loco","steam_id":76561198110913518,"connected_time":1137000000000,"state":"active","ping":84},{"user_id":61,"name":"NinjaB1","steam_id":76561199387708996,"connected_time":173000000000,"state":"active","ping":55},{"user_id":62,"name":"grassyboulder","steam_id":76561199083593292,"connected_time":128000000000,"state":"active","ping":246},{"user_id":44,"name":"Do or Die","steam_id":76561198930404200,"connected_time":1056000000000,"state":"active","ping":56},{"user_id":63,"name":"nzt-48","steam_id":76561198151187993,"connected_time":101000000000,"state":"active","ping":35}]},{"server_id":7,"name":"Uncletopia | Seattle | 1 | All Maps","name_short":"sea-1","host":"sea-1.us.uncletopia.com","port":27015,"enabled":true,"region":"us-west","cc":"us","latitude":47.608013,"longitude":-122.33517,"reserved":0,"last_update":"0001-01-01T00:00:00Z","name_a2s":"Uncletopia | Seattle | 1 | All Maps","protocol":17,"map":"cp_powerhouse","folder":"tf","game":"Team Fortress","app_id":440,"player_count":24,"max_players":24,"Bots":0,"server_type":"Dedicated","server_os":"Linux","password":true,"vac":true,"version":"7932396","steam_id":85568392924469997,"keywords":["cp","nocrits","nodmgspread","uncletopia"],"game_id":440,"stv_port":27016,"stv_name":"Uncletopia | Seattle | 1 | All Maps | STV","players":[{"user_id":165,"name":"Google","steam_id":76561198857237473,"connected_time":1216000000000,"state":"active","ping":52},{"user_id":170,"name":"Jacobzeba01","steam_id":76561198131808718,"connected_time":569000000000,"state":"active","ping":77},{"user_id":148,"name":"BurdBrain","steam_id":76561197962097737,"connected_time":2849000000000,"state":"active","ping":87},{"user_id":172,"name":"Coowil","steam_id":76561198070985437,"connected_time":200000000000,"state":"active","ping":44},{"user_id":7,"name":"forest (italian)","steam_id":76561198157960257,"connected_time":11235000000000,"state":"active","ping":44},{"user_id":151,"name":"Byte The Protogen","steam_id":76561199229871383,"connected_time":2727000000000,"state":"active","ping":84},{"user_id":155,"name":"colespudzo","steam_id":76561198051127147,"connected_time":2396000000000,"state":"active","ping":49},{"user_id":156,"name":"SCUD missile up your ass","steam_id":76561198066452726,"connected_time":2362000000000,"state":"active","ping":81},{"user_id":161,"name":"BolognaWithOlives","steam_id":76561198101262668,"connected_time":1984000000000,"state":"active","ping":89},{"user_id":73,"name":"dust | she/it","steam_id":76561198045218909,"connected_time":8372000000000,"state":"active","ping":39},{"user_id":164,"name":"shiadyne","steam_id":76561198271939793,"connected_time":1443000000000,"state":"active","ping":52},{"user_id":68,"name":"jacix3 [gay wolfgirl]{she/it}","steam_id":76561198205004165,"connected_time":9106000000000,"state":"active","ping":66},{"user_id":168,"name":"Oktayey","steam_id":76561198143213426,"connected_time":907000000000,"state":"active","ping":64},{"user_id":139,"name":"evilOlive","steam_id":76561198106222025,"connected_time":3206000000000,"state":"active","ping":83},{"user_id":124,"name":"Hindmost","steam_id":76561199081837220,"connected_time":5394000000000,"state":"active","ping":112},{"user_id":103,"name":"Bishuhp","steam_id":76561198015062850,"connected_time":6879000000000,"state":"active","ping":56},{"user_id":171,"name":"NEBULA","steam_id":76561198086878595,"connected_time":509000000000,"state":"active","ping":76},{"user_id":173,"name":"Finkly","steam_id":76561198049828110,"connected_time":103000000000,"state":"active","ping":43},{"user_id":140,"name":"lili","steam_id":76561199391478575,"connected_time":3193000000000,"state":"active","ping":70},{"user_id":137,"name":"TwelvePackofSaltyBones","steam_id":76561198224764664,"connected_time":3752000000000,"state":"active","ping":104},{"user_id":158,"name":"jayeskae","steam_id":76561198144220801,"connected_time":2175000000000,"state":"active","ping":55},{"user_id":157,"name":"The Super Mario Bros. Movie","steam_id":76561198871692156,"connected_time":2333000000000,"state":"active","ping":48},{"user_id":160,"name":"Meso","steam_id":76561199088153190,"connected_time":1993000000000,"state":"active","ping":67},{"user_id":110,"name":"BlancaLamb","steam_id":76561198025646073,"connected_time":6651000000000,"state":"active","ping":95}]},{"server_id":119,"name":"Uncletopia | Seattle | 2 | All Maps","name_short":"sea-2","host":"sea-1.us.uncletopia.com","port":27025,"enabled":true,"region":"us-west","cc":"us","latitude":47.608013,"longitude":-122.33517,"reserved":0,"last_update":"0001-01-01T00:00:00Z","name_a2s":"Uncletopia | Seattle | 2 | All Maps","protocol":17,"map":"pl_snowycoast","folder":"tf","game":"Team Fortress","app_id":440,"player_count":24,"max_players":24,"Bots":0,"server_type":"Dedicated","server_os":"Linux","password":true,"vac":true,"version":"7932396","steam_id":85568392924469998,"keywords":["nocrits","nodmgspread","payload","uncletopia"],"game_id":440,"stv_port":27026,"stv_name":"Uncletopia | Seattle | 2 | All Maps | STV","players":[{"user_id":150,"name":"Joshua31704","steam_id":76561198125898714,"connected_time":958000000000,"state":"active","ping":125},{"user_id":137,"name":"MyHeadHz","steam_id":76561198090654531,"connected_time":2370000000000,"state":"active","ping":59},{"user_id":115,"name":"River Rat","steam_id":76561198116383976,"connected_time":4041000000000,"state":"active","ping":65},{"user_id":138,"name":"Screamin' Eagle","steam_id":76561198090475891,"connected_time":2357000000000,"state":"active","ping":63},{"user_id":153,"name":"Simplicity","steam_id":76561198005224796,"connected_time":844000000000,"state":"active","ping":58},{"user_id":130,"name":"Banzai","steam_id":76561198196503877,"connected_time":2775000000000,"state":"active","ping":45},{"user_id":151,"name":"lil uzi vert","steam_id":76561198326466375,"connected_time":869000000000,"state":"active","ping":85},{"user_id":157,"name":"Eraser cat","steam_id":76561199045570463,"connected_time":531000000000,"state":"active","ping":50},{"user_id":103,"name":"JoJoJo","steam_id":76561198067153390,"connected_time":5515000000000,"state":"active","ping":99},{"user_id":159,"name":"YahYeeterson","steam_id":76561198120480906,"connected_time":432000000000,"state":"active","ping":63},{"user_id":160,"name":"Potato Knishes","steam_id":76561198063539547,"connected_time":401000000000,"state":"active","ping":57},{"user_id":128,"name":"K2f","steam_id":76561198049600563,"connected_time":2931000000000,"state":"active","ping":85},{"user_id":126,"name":"Bagoool","steam_id":76561198065368286,"connected_time":3358000000000,"state":"active","ping":75},{"user_id":156,"name":"Cinnifox","steam_id":76561198068773971,"connected_time":592000000000,"state":"active","ping":67},{"user_id":152,"name":"oil","steam_id":76561198099980149,"connected_time":865000000000,"state":"active","ping":75},{"user_id":26,"name":"kbsfnk","steam_id":76561198036884600,"connected_time":10517000000000,"state":"active","ping":124},{"user_id":145,"name":"MCman","steam_id":76561198412110305,"connected_time":2063000000000,"state":"active","ping":77},{"user_id":135,"name":"TGD","steam_id":76561198197582594,"connected_time":2569000000000,"state":"active","ping":76},{"user_id":143,"name":"jeff_fan","steam_id":76561198086420687,"connected_time":2157000000000,"state":"active","ping":89},{"user_id":155,"name":"Re:Lie","steam_id":76561198125401588,"connected_time":837000000000,"state":"active","ping":76},{"user_id":134,"name":"Diplodocus","steam_id":76561198023323121,"connected_time":2650000000000,"state":"active","ping":128},{"user_id":148,"name":"souuuljah","steam_id":76561198427653112,"connected_time":1402000000000,"state":"active","ping":83},{"user_id":124,"name":"Green_GarBear","steam_id":76561199468912415,"connected_time":3821000000000,"state":"active","ping":73},{"user_id":131,"name":"Alan","steam_id":76561198977083959,"connected_time":2763000000000,"state":"active","ping":64}]},{"server_id":406,"name":"Uncletopia | Seattle | 3 | Stopwatch Beta","name_short":"sea-3","host":"sea-1.us.uncletopia.com","port":27035,"enabled":true,"region":"us-west","cc":"us","latitude":47.608013,"longitude":-122.33517,"reserved":0,"last_update":"0001-01-01T00:00:00Z","name_a2s":"Uncletopia | Seattle | 3 | Stopwatch Beta","protocol":17,"map":"pl_frontier_final","folder":"tf","game":"Team Fortress","app_id":440,"player_count":0,"max_players":24,"Bots":0,"server_type":"Dedicated","server_os":"Linux","password":true,"vac":true,"version":"7932396","steam_id":85568392924515217,"keywords":["nocrits","nodmgspread","payload","uncletopia"],"game_id":440,"stv_port":27036,"stv_name":"Uncletopia | Seattle | 3 | Stopwatch Beta | STV","players":null},{"server_id":17,"name":"Uncletopia | San Francisco | 1 | All Maps","name_short":"sfo-1","host":"sfo-1.us.uncletopia.com","port":27015,"enabled":true,"region":"us-west","cc":"us","latitude":37.77397,"longitude":-122.4313,"reserved":0,"last_update":"0001-01-01T00:00:00Z","name_a2s":"Uncletopia | San Francisco | 1 | All Maps","protocol":17,"map":"koth_cascade","folder":"tf","game":"Team Fortress","app_id":440,"player_count":0,"max_players":24,"Bots":0,"server_type":"Dedicated","server_os":"Linux","password":true,"vac":true,"version":"7932396","steam_id":85568392924469999,"keywords":["cp","nocrits","nodmgspread","uncletopia"],"game_id":440,"stv_port":27016,"stv_name":"Uncletopia | San Francisco | 1 | All Maps | STV","players":null},{"server_id":18,"name":"Uncletopia | San Francisco | 2 | All Maps","name_short":"sfo-2","host":"sfo-1.us.uncletopia.com","port":27025,"enabled":true,"region":"us-west","cc":"us","latitude":37.77397,"longitude":-122.4313,"reserved":0,"last_update":"0001-01-01T00:00:00Z","name_a2s":"Uncletopia | San Francisco | 2 | All Maps","protocol":17,"map":"pl_swiftwater_final1","folder":"tf","game":"Team Fortress","app_id":440,"player_count":0,"max_players":24,"Bots":0,"server_type":"Dedicated","server_os":"Linux","password":true,"vac":true,"version":"7932396","steam_id":85568392924470000,"keywords":["nocrits","nodmgspread","payload","uncletopia"],"game_id":440,"stv_port":27026,"stv_name":"Uncletopia | San Francisco | 2 | All Maps | STV","players":null},{"server_id":19,"name":"Uncletopia | San Francisco | 3 | Stopwatch Beta","name_short":"sfo-3","host":"sfo-1.us.uncletopia.com","port":27035,"enabled":true,"region":"us-west","cc":"us","latitude":37.77397,"longitude":-122.4313,"reserved":0,"last_update":"0001-01-01T00:00:00Z","name_a2s":"Uncletopia | San Francisco | 3 | Stopwatch Beta","protocol":17,"map":"pl_snowycoast","folder":"tf","game":"Team Fortress","app_id":440,"player_count":0,"max_players":24,"Bots":0,"server_type":"Dedicated","server_os":"Linux","password":true,"vac":true,"version":"7932396","steam_id":85568392924742824,"keywords":["nocrits","nodmgspread","payload","uncletopia"],"game_id":440,"stv_port":27036,"stv_name":"Uncletopia | San Francisco | 3 | Stopwatch Beta | STV","players":null},{"server_id":20,"name":"Uncletopia | San Francisco | 4 | Community","name_short":"sfo-4","host":"sfo-1.us.uncletopia.com","port":27045,"enabled":true,"region":"us-west","cc":"us","latitude":37.77397,"longitude":-122.4313,"reserved":0,"last_update":"0001-01-01T00:00:00Z","name_a2s":"Uncletopia | San Francisco | 4 | Community","protocol":17,"map":"cp_mountainlab","folder":"tf","game":"Team Fortress","app_id":440,"player_count":0,"max_players":24,"Bots":0,"server_type":"Dedicated","server_os":"Linux","password":true,"vac":true,"version":"7932396","steam_id":85568392924742826,"keywords":["cp","nocrits","nodmgspread","uncletopia"],"game_id":440,"stv_port":27046,"stv_name":"Uncletopia | San Francisco | 4 | Community | STV","players":null},{"server_id":141,"name":"Uncletopia | Sydney | 1 | All Maps","name_short":"syd-1","host":"syd-1.au.uncletopia.com","port":27015,"enabled":true,"region":"au","cc":"au","latitude":-33.865143,"longitude":151.2099,"reserved":0,"last_update":"0001-01-01T00:00:00Z","name_a2s":"Uncletopia | Sydney | 1 | All Maps","protocol":17,"map":"pl_frontier_final","folder":"tf","game":"Team Fortress","app_id":440,"player_count":0,"max_players":24,"Bots":0,"server_type":"Dedicated","server_os":"Linux","password":true,"vac":true,"version":"7932396","steam_id":85568392924470001,"keywords":["nocrits","nodmgspread","payload","uncletopia"],"game_id":440,"stv_port":27016,"stv_name":"Uncletopia | Sydney | 1 | All Maps | STV","players":null},{"server_id":123,"name":"Uncletopia | Sydney | 2 | All Maps","name_short":"syd-2","host":"syd-1.au.uncletopia.com","port":27025,"enabled":true,"region":"au","cc":"au","latitude":-33.865143,"longitude":151.2099,"reserved":0,"last_update":"0001-01-01T00:00:00Z","name_a2s":"Uncletopia | Sydney | 2 | All Maps","protocol":17,"map":"pl_borneo","folder":"tf","game":"Team Fortress","app_id":440,"player_count":0,"max_players":24,"Bots":0,"server_type":"Dedicated","server_os":"Linux","password":true,"vac":true,"version":"7932396","steam_id":85568392924470002,"keywords":["nocrits","nodmgspread","payload","uncletopia"],"game_id":440,"stv_port":27026,"stv_name":"Uncletopia | Sydney | 2 | All Maps | STV","players":null},{"server_id":395,"name":"Uncletopia | Sydney | 3 | All Maps","name_short":"syd-3","host":"syd-1.au.uncletopia.com","port":27035,"enabled":true,"region":"au","cc":"au","latitude":-33.865143,"longitude":151.2099,"reserved":0,"last_update":"0001-01-01T00:00:00Z","name_a2s":"Uncletopia | Sydney | 3 | All Maps","protocol":17,"map":"pl_frontier_final","folder":"tf","game":"Team Fortress","app_id":440,"player_count":0,"max_players":24,"Bots":0,"server_type":"Dedicated","server_os":"Linux","password":true,"vac":true,"version":"7932396","steam_id":85568392925194467,"keywords":["nocrits","nodmgspread","payload","uncletopia"],"game_id":440,"stv_port":27036,"stv_name":"Uncletopia | Sydney | 3 | All Maps | STV","players":null},{"server_id":396,"name":"Uncletopia | Sydney | 4 | All Maps","name_short":"syd-4","host":"syd-1.au.uncletopia.com","port":27045,"enabled":true,"region":"au","cc":"au","latitude":-33.865143,"longitude":151.2099,"reserved":0,"last_update":"0001-01-01T00:00:00Z","name_a2s":"Uncletopia | Sydney | 4 | All Maps","protocol":17,"map":"pl_badwater","folder":"tf","game":"Team Fortress","app_id":440,"player_count":0,"max_players":24,"Bots":0,"server_type":"Dedicated","server_os":"Linux","password":true,"vac":true,"version":"7932396","steam_id":85568392925397958,"keywords":["nocrits","nodmgspread","payload","uncletopia"],"game_id":440,"stv_port":27046,"stv_name":"Uncletopia | Sydney | 4 | All Maps | STV","players":null},{"server_id":58,"name":"Uncletopia | Sydney | 5 | Stopwatch Beta","name_short":"syd-5","host":"syd-1.au.uncletopia.com","port":27055,"enabled":true,"region":"au","cc":"au","latitude":-33.865143,"longitude":151.2099,"reserved":0,"last_update":"0001-01-01T00:00:00Z","name_a2s":"Uncletopia | Sydney | 5 | Stopwatch Beta","protocol":17,"map":"pl_pier","folder":"tf","game":"Team Fortress","app_id":440,"player_count":0,"max_players":24,"Bots":0,"server_type":"Dedicated","server_os":"Linux","password":true,"vac":true,"version":"7932396","steam_id":85568392925397959,"keywords":["nocrits","nodmgspread","payload","uncletopia"],"game_id":440,"stv_port":27056,"stv_name":"Uncletopia | Sydney | 5 | Stopwatch Beta | STV","players":null},{"server_id":59,"name":"Uncletopia | Sydney | 6 | Community","name_short":"syd-6","host":"syd-1.au.uncletopia.com","port":27065,"enabled":true,"region":"au","cc":"au","latitude":-33.865143,"longitude":151.2099,"reserved":0,"last_update":"0001-01-01T00:00:00Z","name_a2s":"Uncletopia | Sydney | 6 | Community","protocol":17,"map":"pl_frontier_final","folder":"tf","game":"Team Fortress","app_id":440,"player_count":0,"max_players":24,"Bots":0,"server_type":"Dedicated","server_os":"Linux","password":true,"vac":true,"version":"7932396","steam_id":85568392925397960,"keywords":["nocrits","nodmgspread","payload","uncletopia"],"game_id":440,"stv_port":27066,"stv_name":"Uncletopia | Sydney | 6 | Community | STV","players":null},{"server_id":49,"name":"Uncletopia | Warsaw | 1 | All Maps","name_short":"waw-1","host":"waw-1.pl.uncletopia.com","port":27015,"enabled":true,"region":"eu","cc":"pl","latitude":52.2297,"longitude":21.017532,"reserved":0,"last_update":"0001-01-01T00:00:00Z","name_a2s":"","protocol":0,"map":"","folder":"","game":"","app_id":0,"player_count":0,"max_players":0,"Bots":0,"server_type":"","server_os":"","password":false,"vac":false,"version":"","steam_id":0,"keywords":null,"game_id":0,"stv_port":0,"stv_name":"","players":null},{"server_id":50,"name":"Uncletopia | Warsaw | 2 | All Maps","name_short":"waw-2","host":"waw-1.pl.uncletopia.com","port":27025,"enabled":true,"region":"eu","cc":"pl","latitude":52.2297,"longitude":21.017532,"reserved":0,"last_update":"0001-01-01T00:00:00Z","name_a2s":"Uncletopia | Warsaw | 2 | All Maps","protocol":17,"map":"koth_highpass","folder":"tf","game":"Team Fortress","app_id":440,"player_count":0,"max_players":24,"Bots":0,"server_type":"Dedicated","server_os":"Linux","password":true,"vac":true,"version":"7932396","steam_id":85568392925397851,"keywords":["cp","nocrits","nodmgspread","uncletopia"],"game_id":440,"stv_port":27026,"stv_name":"Uncletopia | Warsaw | 2 | All Maps | STV","players":null},{"server_id":51,"name":"Uncletopia | Warsaw | 3 | All Maps","name_short":"waw-3","host":"waw-1.pl.uncletopia.com","port":27035,"enabled":true,"region":"eu","cc":"pl","latitude":52.2297,"longitude":21.017532,"reserved":0,"last_update":"0001-01-01T00:00:00Z","name_a2s":"Uncletopia | Warsaw | 3 | All Maps","protocol":17,"map":"pl_badwater","folder":"tf","game":"Team Fortress","app_id":440,"player_count":0,"max_players":24,"Bots":0,"server_type":"Dedicated","server_os":"Linux","password":true,"vac":true,"version":"7932396","steam_id":85568392925397852,"keywords":["nocrits","nodmgspread","payload","uncletopia"],"game_id":440,"stv_port":27036,"stv_name":"Uncletopia | Warsaw | 3 | All Maps | STV","players":null},{"server_id":52,"name":"Uncletopia | Warsaw | 4 | All Maps","name_short":"waw-4","host":"waw-1.pl.uncletopia.com","port":27045,"enabled":true,"region":"eu","cc":"pl","latitude":52.2297,"longitude":21.017532,"reserved":0,"last_update":"0001-01-01T00:00:00Z","name_a2s":"Uncletopia | Warsaw | 4 | All Maps","protocol":17,"map":"cp_mountainlab","folder":"tf","game":"Team Fortress","app_id":440,"player_count":0,"max_players":24,"Bots":0,"server_type":"Dedicated","server_os":"Linux","password":true,"vac":true,"version":"7932396","steam_id":85568392925397853,"keywords":["cp","nocrits","nodmgspread","uncletopia"],"game_id":440,"stv_port":27046,"stv_name":"Uncletopia | Warsaw | 4 | All Maps | STV","players":null},{"server_id":53,"name":"Uncletopia | Warsaw | 5 | Stopwatch Beta","name_short":"waw-5","host":"waw-1.pl.uncletopia.com","port":27055,"enabled":true,"region":"eu","cc":"pl","latitude":52.2297,"longitude":21.017532,"reserved":0,"last_update":"0001-01-01T00:00:00Z","name_a2s":"Uncletopia | Warsaw | 5 | Stopwatch Beta","protocol":17,"map":"cp_process_final","folder":"tf","game":"Team Fortress","app_id":440,"player_count":0,"max_players":24,"Bots":0,"server_type":"Dedicated","server_os":"Linux","password":true,"vac":true,"version":"7932396","steam_id":85568392925397854,"keywords":["cp","nocrits","nodmgspread","uncletopia"],"game_id":440,"stv_port":27056,"stv_name":"Uncletopia | Warsaw | 5 | Stopwatch Beta | STV","players":null},{"server_id":54,"name":"Uncletopia | Warsaw | 6 | Community","name_short":"waw-6","host":"waw-1.pl.uncletopia.com","port":27065,"enabled":true,"region":"eu","cc":"pl","latitude":52.2297,"longitude":21.017532,"reserved":0,"last_update":"0001-01-01T00:00:00Z","name_a2s":"Uncletopia | Warsaw | 6 | Community","protocol":17,"map":"pl_upward","folder":"tf","game":"Team Fortress","app_id":440,"player_count":0,"max_players":24,"Bots":0,"server_type":"Dedicated","server_os":"Linux","password":true,"vac":true,"version":"7932396","steam_id":85568392925397856,"keywords":["nocrits","nodmgspread","payload","uncletopia"],"game_id":440,"stv_port":27066,"stv_name":"Uncletopia | Warsaw | 6 | Community | STV","players":null}]}