{"status":true,"message":"","result":[{"server_id":9,"name":"Uncletopia | Atlanta | 1 | All Maps","name_short":"atl-1","host":"atl-1.us.uncletopia.com","port":27015,"enabled":true,"region":"us-east","cc":"us","latitude":33.753746,"longitude":-84.38633,"reserved":0,"last_update":"0001-01-01T00:00:00Z","name_a2s":"Uncletopia | Atlanta | 1 | All Maps","protocol":17,"map":"koth_suijin","folder":"tf","game":"Team Fortress","app_id":440,"player_count":24,"max_players":24,"Bots":0,"server_type":"Dedicated","server_os":"Linux","password":true,"vac":true,"version":"7708610","steam_id":85568392924469982,"keywords":["cp","nocrits","nodmgspread","uncletopia"],"game_id":440,"stv_port":27016,"stv_name":"Uncletopia | Atlanta | 1 | All Maps | STV","players":[{"user_id":55,"name":"MysteryMage","steam_id":76561198074241821,"connected_time":586000000000,"state":"active","ping":120},{"user_id":40,"name":"The Potato Romancer","steam_id":76561198204197648,"connected_time":841000000000,"state":"active","ping":86},{"user_id":65,"name":"corviraptor (\u003c-- awesome)","steam_id":76561198058284392,"connected_time":360000000000,"state":"active","ping":74},{"user_id":66,"name":"sansa musa","steam_id":76561198163723555,"connected_time":353000000000,"state":"active","ping":74},{"user_id":41,"name":"Aeris","steam_id":76561198287271028,"connected_time":784000000000,"state":"active","ping":73},{"user_id":42,"name":"Spicy Duck","steam_id":76561198065905730,"connected_time":742000000000,"state":"active","ping":74},{"user_id":43,"name":"RioT175","steam_id":76561199079317572,"connected_time":702000000000,"state":"active","ping":95},{"user_id":44,"name":"Mal","steam_id":76561198066074151,"connected_time":691000000000,"state":"active","ping":69},{"user_id":45,"name":"SeamPunker39","steam_id":76561198118387256,"connected_time":689000000000,"state":"active","ping":71},{"user_id":46,"name":"Solomon Grundy","steam_id":76561198956823243,"connected_time":670000000000,"state":"active","ping":65},{"user_id":54,"name":"Nevu","steam_id":76561198378240571,"connected_time":594000000000,"state":"active","ping":106},{"user_id":48,"name":"Clubay","steam_id":76561198993623071,"connected_time":655000000000,"state":"active","ping":84},{"user_id":67,"name":"matkaster","steam_id":76561197998546486,"connected_time":295000000000,"state":"active","ping":76},{"user_id":50,"name":"Bill \"hoboways\" Clinton","steam_id":76561198168035195,"connected_time":638000000000,"state":"active","ping":76},{"user_id":72,"name":"ShinyOrion (She/Her)","steam_id":76561198408378321,"connected_time":73000000000,"state":"active","ping":66},{"user_id":58,"name":"joyful galaxy\u003c3","steam_id":76561199188431949,"connected_time":534000000000,"state":"active","ping":179},{"user_id":53,"name":"TH-1","steam_id":76561197993467034,"connected_time":608000000000,"state":"active","ping":86},{"user_id":59,"name":"Dougtherouge","steam_id":76561198211300573,"connected_time":508000000000,"state":"active","ping":53},{"user_id":70,"name":"Marc G","steam_id":76561198062650363,"connected_time":182000000000,"state":"active","ping":70},{"user_id":61,"name":"Dealyo","steam_id":76561198282395338,"connected_time":478000000000,"state":"active","ping":73},{"user_id":68,"name":"Tecumseh","steam_id":76561198395023947,"connected_time":245000000000,"state":"active","ping":61},{"user_id":63,"name":"Kataklysm","steam_id":76561199025168404,"connected_time":450000000000,"state":"active","ping":90},{"user_id":64,"name":"disrupted_thoughts","steam_id":76561198067367009,"connected_time":413000000000,"state":"active","ping":99},{"user_id":69,"name":"Nuren","steam_id":76561198111190489,"connected_time":243000000000,"state":"active","ping":96}]},{"server_id":400,"name":"Uncletopia | Atlanta | 3 | All Maps","name_short":"atl-3","host":"atl-1.us.uncletopia.com","port":27035,"enabled":true,"region":"us-east","cc":"us","latitude":33.753746,"longitude":-84.38633,"reserved":0,"last_update":"0001-01-01T00:00:00Z","name_a2s":"Uncletopia | Atlanta | 3 | All Maps","protocol":17,"map":"koth_highpass","folder":"tf","game":"Team Fortress","app_id":440,"player_count":0,"max_players":24,"Bots":0,"server_type":"Dedicated","server_os":"Linux","password":true,"vac":true,"version":"7708610","steam_id":85568392924515187,"keywords":["cp","nocrits","nodmgspread","uncletopia"],"game_id":440,"stv_port":27036,"stv_name":"Uncletopia | Atlanta | 3 | All Maps | STV","players":null},{"server_id":401,"name":"Uncletopia | Atlanta | 4 | No Payload","name_short":"atl-4","host":"atl-1.us.uncletopia.com","port":27045,"enabled":true,"region":"us-east","cc":"us","latitude":33.753746,"longitude":-84.38633,"reserved":0,"last_update":"0001-01-01T00:00:00Z","name_a2s":"Uncletopia | Atlanta | 4 | No Payload","protocol":17,"map":"cp_altitude","folder":"tf","game":"Team Fortress","app_id":440,"player_count":0,"max_players":24,"Bots":0,"server_type":"Dedicated","server_os":"Linux","password":true,"vac":true,"version":"7708610","steam_id":85568392924515188,"keywords":["cp","nocrits","nodmgspread","uncletopia"],"game_id":440,"stv_port":27046,"stv_name":"Uncletopia | Atlanta | 4 | No Payload | STV","players":null},{"server_id":2,"name":"Uncletopia | Chicago | 1 | All Maps","name_short":"chi-1","host":"chi-1.us.uncletopia.com","port":27015,"enabled":true,"region":"us-central","cc":"us","latitude":41.881832,"longitude":-87.62318,"reserved":0,"last_update":"0001-01-01T00:00:00Z","name_a2s":"Uncletopia | Chicago | 1 | All Maps","protocol":17,"map":"pl_thundermountain","folder":"tf","game":"Team Fortress","app_id":440,"player_count":24,"max_players":24,"Bots":0,"server_type":"Dedicated","server_os":"Linux","password":true,"vac":true,"version":"7708610","steam_id":85568392924469984,"keywords":["nocrits","nodmgspread","payload","uncletopia"],"game_id":440,"stv_port":27016,"stv_name":"Uncletopia | Chicago | 1 | All Maps | STV","players":[{"user_id":167,"name":"Chode Mode","steam_id":76561198353840477,"connected_time":4643000000000,"state":"active","ping":55},{"user_id":204,"name":"Clean","steam_id":76561198061224922,"connected_time":636000000000,"state":"active","ping":79},{"user_id":213,"name":"Deev","steam_id":76561199066929188,"connected_time":511000000000,"state":"active","ping":74},{"user_id":191,"name":"็","steam_id":76561198039763676,"connected_time":2115000000000,"state":"active","ping":63},{"user_id":215,"name":"GuyGoom","steam_id":76561198254522178,"connected_time":416000000000,"state":"active","ping":55},{"user_id":216,"name":"The_Tax_Man","steam_id":76561198205246144,"connected_time":372000000000,"state":"active","ping":75},{"user_id":144,"name":"Drachma","steam_id":76561198007310514,"connected_time":6649000000000,"state":"active","ping":53},{"user_id":132,"name":"Scorpie Doodle","steam_id":76561198021845763,"connected_time":7038000000000,"state":"active","ping":51},{"user_id":214,"name":"speedy mozzarella","steam_id":76561198327703300,"connected_time":508000000000,"state":"active","ping":58},{"user_id":207,"name":"Turnups","steam_id":76561199078299198,"connected_time":556000000000,"state":"active","ping":92},{"user_id":217,"name":"Hanselpup","steam_id":76561198165480226,"connected_time":333000000000,"state":"active","ping":79},{"user_id":199,"name":"OneTrueCorvid","steam_id":76561199012953221,"connected_time":1245000000000,"state":"active","ping":83},{"user_id":219,"name":"Ty3uk","steam_id":76561198094644782,"connected_time":92000000000,"state":"active","ping":165},{"user_id":156,"name":"rat gets the cheese","steam_id":76561198031234032,"connected_time":5322000000000,"state":"active","ping":56},{"user_id":198,"name":"SnowStorm","steam_id":76561198095817025,"connected_time":1524000000000,"state":"active","ping":54},{"user_id":211,"name":"richard clock","steam_id":76561198048455671,"connected_time":539000000000,"state":"active","ping":58},{"user_id":208,"name":"Lincoln","steam_id":76561199152464669,"connected_time":554000000000,"state":"active","ping":75},{"user_id":210,"name":"guy","steam_id":76561198062645896,"connected_time":549000000000,"state":"active","ping":74},{"user_id":168,"name":"Kevin Y.","steam_id":76561198364331423,"connected_time":4640000000000,"state":"active","ping":90},{"user_id":25,"name":"177013","steam_id":76561198072303290,"connected_time":17171000000000,"state":"active","ping":67},{"user_id":212,"name":"AYAYA!!!","steam_id":76561198992102180,"connected_time":536000000000,"state":"active","ping":47},{"user_id":181,"name":"roln","steam_id":76561198041066271,"connected_time":3071000000000,"state":"active","ping":75},{"user_id":218,"name":"amagicowl","steam_id":76561199060487814,"connected_time":291000000000,"state":"active","ping":81},{"user_id":174,"name":"Jerry Bondle","steam_id":76561198337512213,"connected_time":4087000000000,"state":"active","ping":61}]},{"server_id":106,"name":"Uncletopia | Chicago | 2 | All Maps","name_short":"chi-2","host":"chi-1.us.uncletopia.com","port":27025,"enabled":true,"region":"us-central","cc":"us","latitude":41.881832,"longitude":-87.62318,"reserved":0,"last_update":"0001-01-01T00:00:00Z","name_a2s":"Uncletopia | Chicago | 2 | All Maps","protocol":17,"map":"koth_viaduct","folder":"tf","game":"Team Fortress","app_id":440,"player_count":0,"max_players":24,"Bots":0,"server_type":"Dedicated","server_os":"Linux","password":true,"vac":true,"version":"7708610","steam_id":85568392924469985,"keywords":["cp","nocrits","nodmgspread","uncletopia"],"game_id":440,"stv_port":27026,"stv_name":"Uncletopia | Chicago | 2 | All Maps | STV","players":null},{"server_id":402,"name":"Uncletopia | Chicago | 3 | All Maps","name_short":"chi-3","host":"chi-1.us.uncletopia.com","port":27035,"enabled":true,"region":"us-central","cc":"us","latitude":41.881832,"longitude":-87.62318,"reserved":0,"last_update":"0001-01-01T00:00:00Z","name_a2s":"Uncletopia | Chicago | 3 | All Maps","protocol":17,"map":"cp_altitude","folder":"tf","game":"Team Fortress","app_id":440,"player_count":1,"max_players":24,"Bots":0,"server_type":"Dedicated","server_os":"Linux","password":true,"vac":true,"version":"7708610","steam_id":85568392924515191,"keywords":["cp","nocrits","nodmgspread","uncletopia"],"game_id":440,"stv_port":27036,"stv_name":"Uncletopia | Chicago | 3 | All Maps | STV","players":[{"user_id":4,"name":"neeko","steam_id":76561198354256072,"connected_time":292000000000,"state":"active","ping":27}]},{"server_id":403,"name":"Uncletopia | Chicago | 4 | All Maps","name_short":"chi-4","host":"chi-1.us.uncletopia.com","port":27045,"enabled":true,"region":"us-central","cc":"us","latitude":41.881832,"longitude":-87.62318,"reserved":0,"last_update":"0001-01-01T00:00:00Z","name_a2s":"Uncletopia | Chicago | 4 | All Maps","protocol":17,"map":"koth_lakeside_final","folder":"tf","game":"Team Fortress","app_id":440,"player_count":0,"max_players":24,"Bots":0,"server_type":"Dedicated","server_os":"Linux","password":true,"vac":true,"version":"7708610","steam_id":85568392924515193,"keywords":["cp","nocrits","nodmgspread","uncletopia"],"game_id":440,"stv_port":27046,"stv_name":"Uncletopia | Chicago | 4 | All Maps | STV","players":null},{"server_id":36,"name":"Uncletopia | Chicago | 5 | All Maps","name_short":"chi-5","host":"chi-2.us.uncletopia.com","port":27015,"enabled":true,"region":"us-central","cc":"us","latitude":41.881832,"longitude":-87.62318,"reserved":0,"last_update":"0001-01-01T00:00:00Z","name_a2s":"Uncletopia | Chicago | 5 | All Maps","protocol":17,"map":"cp_snakewater_final1","folder":"tf","game":"Team Fortress","app_id":440,"player_count":0,"max_players":24,"Bots":0,"server_type":"Dedicated","server_os":"Linux","password":true,"vac":true,"version":"7708610","steam_id":85568392924866362,"keywords":["cp","nocrits","nodmgspread","uncletopia"],"game_id":440,"stv_port":0,"stv_name":"","players":null},{"server_id":37,"name":"Uncletopia | Chicago | 6 | All Maps","name_short":"chi-6","host":"chi-2.us.uncletopia.com","port":27025,"enabled":true,"region":"us-central","cc":"us","latitude":41.881832,"longitude":-87.62318,"reserved":0,"last_update":"0001-01-01T00:00:00Z","name_a2s":"Uncletopia | Chicago | 6 | All Maps","protocol":17,"map":"koth_cascade","folder":"tf","game":"Team Fortress","app_id":440,"player_count":0,"max_players":24,"Bots":0,"server_type":"Dedicated","server_os":"Linux","password":true,"vac":true,"version":"7708610","steam_id":85568392924866363,"keywords":["cp","nocrits","nodmgspread","uncletopia"],"game_id":440,"stv_port":0,"stv_name":"","players":null},{"server_id":38,"name":"Uncletopia | Chicago | 7 | No Payload","name_short":"chi-7","host":"chi-2.us.uncletopia.com","port":27035,"enabled":true,"region":"us-central","cc":"us","latitude":41.881832,"longitude":-87.62318,"reserved":0,"last_update":"0001-01-01T00:00:00Z","name_a2s":"Uncletopia | Chicago | 7 | No Payload","protocol":17,"map":"koth_viaduct","folder":"tf","game":"Team Fortress","app_id":440,"player_count":0,"max_players":24,"Bots":0,"server_type":"Dedicated","server_os":"Linux","password":true,"vac":true,"version":"7708610","steam_id":85568392924866364,"keywords":["cp","nocrits","nodmgspread","uncletopia"],"game_id":440,"stv_port":0,"stv_name":"","players":null},{"server_id":39,"name":"Uncletopia | Chicago | 8 | Community","name_short":"chi-8","host":"chi-2.us.uncletopia.com","port":27045,"enabled":true,"region":"us-central","cc":"us","latitude":41.881832,"longitude":-87.62318,"reserved":0,"last_update":"0001-01-01T00:00:00Z","name_a2s":"Uncletopia | Chicago | 8 | Community","protocol":17,"map":"pl_pier","folder":"tf","game":"Team Fortress","app_id":440,"player_count":0,"max_players":24,"Bots":0,"server_type":"Dedicated","server_os":"Linux","password":true,"vac":true,"version":"7708610","steam_id":85568392924866365,"keywords":["nocrits","nodmgspread","payload","uncletopia"],"game_id":440,"stv_port":0,"stv_name":"","players":null},{"server_id":8,"name":"Uncletopia | Dallas | 1 | All Maps","name_short":"dal-1","host":"dal-1.us.uncletopia.com","port":27015,"enabled":true,"region":"us-central","cc":"us","latitude":32.779167,"longitude":-96.80889,"reserved":0,"last_update":"0001-01-01T00:00:00Z","name_a2s":"Uncletopia | Dallas | 1 | All Maps","protocol":17,"map":"pl_snowycoast","folder":"tf","game":"Team Fortress","app_id":440,"player_count":24,"max_players":24,"Bots":0,"server_type":"Dedicated","server_os":"Linux","password":true,"vac":true,"version":"7708610","steam_id":85568392924469986,"keywords":["nocrits","nodmgspread","payload","uncletopia"],"game_id":440,"stv_port":27016,"stv_name":"Uncletopia | Dallas | 1 | All Maps | STV","players":[{"user_id":89,"name":"Dynamic","steam_id":76561198204547960,"connected_time":124000000000,"state":"active","ping":60},{"user_id":14,"name":"motherfucker 2.0","steam_id":76561198141189209,"connected_time":5827000000000,"state":"active","ping":35},{"user_id":49,"name":"PeptoBismol135","steam_id":76561198135387121,"connected_time":4279000000000,"state":"active","ping":88},{"user_id":93,"name":"Female Gamer","steam_id":76561199366482682,"connected_time":21000000000,"state":"spawning","ping":111},{"user_id":66,"name":"Tyler\u0026Fingers","steam_id":76561198085154485,"connected_time":1854000000000,"state":"active","ping":80},{"user_id":71,"name":"tf2 gaming","steam_id":76561199155179026,"connected_time":1789000000000,"state":"active","ping":118},{"user_id":90,"name":"zinnk","steam_id":76561198092081825,"connected_time":83000000000,"state":"active","ping":90},{"user_id":61,"name":"ansoonii","steam_id":76561198092494136,"connected_time":2813000000000,"state":"active","ping":45},{"user_id":15,"name":"Ψ","steam_id":76561198293893486,"connected_time":5780000000000,"state":"active","ping":84},{"user_id":78,"name":"There must be those who remembe","steam_id":76561198286792807,"connected_time":1610000000000,"state":"active","ping":100},{"user_id":63,"name":"harrison.avenue","steam_id":76561198037288988,"connected_time":2091000000000,"state":"active","ping":109},{"user_id":84,"name":"Void","steam_id":76561198308290211,"connected_time":1046000000000,"state":"active","ping":89},{"user_id":91,"name":"Boggeroni","steam_id":76561198111417325,"connected_time":81000000000,"state":"active","ping":89},{"user_id":88,"name":"A Bic Lighter","steam_id":76561198070606068,"connected_time":808000000000,"state":"active","ping":72},{"user_id":56,"name":"Squatchamo","steam_id":76561198012968239,"connected_time":3363000000000,"state":"active","ping":91},{"user_id":68,"name":"MissRaptor","steam_id":76561198105613110,"connected_time":1842000000000,"state":"active","ping":89},{"user_id":55,"name":"Bird","steam_id":76561198247484514,"connected_time":3405000000000,"state":"active","ping":76},{"user_id":74,"name":"Light","steam_id":76561198009169048,"connected_time":1762000000000,"state":"active","ping":44},{"user_id":51,"name":"Habber The Quesomancer","steam_id":76561198049642751,"connected_time":4007000000000,"state":"active","ping":44},{"user_id":85,"name":"Len","steam_id":76561199141913673,"connected_time":1008000000000,"state":"active","ping":96},{"user_id":62,"name":"m2","steam_id":76561198078802110,"connected_time":2699000000000,"state":"active","ping":82},{"user_id":86,"name":"justsomepleb","steam_id":76561199182857033,"connected_time":983000000000,"state":"active","ping":82},{"user_id":81,"name":"Christoph Waltz eating a burger","steam_id":76561199215811448,"connected_time":1528000000000,"state":"active","ping":100},{"user_id":92,"name":"♤ IceManAce ♤","steam_id":76561198038295903,"connected_time":81000000000,"state":"active","ping":48}]},{"server_id":108,"name":"Uncletopia | Dallas | 2 | All Maps","name_short":"dal-2","host":"dal-1.us.uncletopia.com","port":27025,"enabled":true,"region":"us-central","cc":"us","latitude":32.779167,"longitude":-96.80889,"reserved":0,"last_update":"0001-01-01T00:00:00Z","name_a2s":"Uncletopia | Dallas | 2 | All Maps","protocol":17,"map":"pl_barnblitz","folder":"tf","game":"Team Fortress","app_id":440,"player_count":0,"max_players":24,"Bots":0,"server_type":"Dedicated","server_os":"Linux","password":true,"vac":true,"version":"7708610","steam_id":85568392924469988,"keywords":["nocrits","nodmgspread","payload","uncletopia"],"game_id":440,"stv_port":0,"stv_name":"","players":null},{"server_id":5,"name":"Uncletopia | Frankfurt | 1 | All Maps","name_short":"frk-1","host":"frk-1.de.uncletopia.com","port":27015,"enabled":true,"region":"eu","cc":"de","latitude":50.110924,"longitude":8.682127,"reserved":0,"last_update":"0001-01-01T00:00:00Z","name_a2s":"Uncletopia | Frankfurt | 1 | All Maps","protocol":17,"map":"pl_upward","folder":"tf","game":"Team Fortress","app_id":440,"player_count":24,"max_players":24,"Bots":0,"server_type":"Dedicated","server_os":"Linux","password":true,"vac":true,"version":"7708610","steam_id":85568392924469989,"keywords":["nocrits","nodmgspread","payload","uncletopia"],"game_id":440,"stv_port":27016,"stv_name":"Uncletopia | Frankfurt | 1 | All Maps | STV","players":[{"user_id":226,"name":"bigwish | bmod.tf","steam_id":76561197997859723,"connected_time":999000000000,"state":"active","ping":66},{"user_id":220,"name":"there are 5 kids in my basement","steam_id":76561198237489960,"connected_time":1572000000000,"state":"active","ping":89},{"user_id":239,"name":"SirVitek","steam_id":76561198142961758,"connected_time":183000000000,"state":"active","ping":63},{"user_id":237,"name":"Aoshi","steam_id":76561198043868358,"connected_time":481000000000,"state":"active","ping":57},{"user_id":217,"name":"Fekeks |Potato Industries|","steam_id":76561198152536563,"connected_time":1957000000000,"state":"active","ping":52},{"user_id":222,"name":"Muppburg","steam_id":76561198031070682,"connected_time":1446000000000,"state":"active","ping":74},{"user_id":158,"name":"fogings","steam_id":76561198044165284,"connected_time":5894000000000,"state":"active","ping":41},{"user_id":207,"name":"Cippo95","steam_id":76561198255311582,"connected_time":2994000000000,"state":"active","ping":86},{"user_id":218,"name":"R1gged_","steam_id":76561198122742118,"connected_time":1860000000000,"state":"active","ping":79},{"user_id":197,"name":"Doriian","steam_id":76561198071438810,"connected_time":3718000000000,"state":"active","ping":79},{"user_id":228,"name":"MisterSleider","steam_id":76561198063840611,"connected_time":863000000000,"state":"active","ping":65},{"user_id":189,"name":"Needs McTheraphy","steam_id":76561198056118240,"connected_time":4033000000000,"state":"active","ping":69},{"user_id":230,"name":"a meme-loving duck","steam_id":76561198041565033,"connected_time":708000000000,"state":"active","ping":52},{"user_id":229,"name":"BarrackOmaha","steam_id":76561198027922724,"connected_time":724000000000,"state":"active","ping":76},{"user_id":209,"name":"Faxter","steam_id":76561198011771605,"connected_time":2892000000000,"state":"active","ping":59},{"user_id":234,"name":"Hooggers","steam_id":76561198120447741,"connected_time":631000000000,"state":"active","ping":128},{"user_id":232,"name":"Bob Sacamano","steam_id":76561198085610701,"connected_time":669000000000,"state":"active","ping":83},{"user_id":238,"name":"Tides","steam_id":76561198257383813,"connected_time":436000000000,"state":"active","ping":45},{"user_id":241,"name":"T.G.G","steam_id":76561199114568070,"connected_time":34000000000,"state":"active","ping":113},{"user_id":136,"name":"AleXandriX","steam_id":76561198035203950,"connected_time":8154000000000,"state":"active","ping":59},{"user_id":188,"name":"40svartapungar","steam_id":76561199264277168,"connected_time":4074000000000,"state":"active","ping":67},{"user_id":240,"name":"rat performance","steam_id":76561198065854668,"connected_time":161000000000,"state":"active","ping":60},{"user_id":182,"name":"Tymqs","steam_id":76561198186541753,"connected_time":4504000000000,"state":"active","ping":97},{"user_id":216,"name":"Pabs :D","steam_id":76561198000016962,"connected_time":2256000000000,"state":"active","ping":60}]},{"server_id":110,"name":"Uncletopia | Frankfurt | 2 | All Maps","name_short":"frk-2","host":"frk-1.de.uncletopia.com","port":27025,"enabled":true,"region":"eu","cc":"de","latitude":50.110924,"longitude":8.682127,"reserved":0,"last_update":"0001-01-01T00:00:00Z","name_a2s":"Uncletopia | Frankfurt | 2 | All Maps","protocol":17,"map":"pl_thundermountain","folder":"tf","game":"Team Fortress","app_id":440,"player_count":24,"max_players":24,"Bots":0,"server_type":"Dedicated","server_os":"Linux","password":true,"vac":true,"version":"7708610","steam_id":85568392924469990,"keywords":["nocrits","nodmgspread","payload","uncletopia"],"game_id":440,"stv_port":27026,"stv_name":"Uncletopia | Frankfurt | 2 | All Maps | STV","players":[{"user_id":229,"name":"Enforcer02","steam_id":76561197966045944,"connected_time":966000000000,"state":"active","ping":57},{"user_id":208,"name":"amogus","steam_id":76561198119439177,"connected_time":3204000000000,"state":"active","ping":59},{"user_id":228,"name":"The man who snorts sand","steam_id":76561199012566222,"connected_time":1000000000000,"state":"active","ping":58},{"user_id":232,"name":"Löysä Masa","steam_id":76561198343396172,"connected_time":146000000000,"state":"active","ping":99},{"user_id":220,"name":"[x_x]","steam_id":76561198067445084,"connected_time":1622000000000,"state":"active","ping":90},{"user_id":230,"name":"Big Jimbo","steam_id":76561198208426085,"connected_time":690000000000,"state":"active","ping":163},{"user_id":231,"name":"3xample","steam_id":76561198805049375,"connected_time":650000000000,"state":"active","ping":63},{"user_id":190,"name":"Human Rights","steam_id":76561198102420849,"connected_time":4316000000000,"state":"active","ping":57},{"user_id":186,"name":"Milk","steam_id":76561198219146857,"connected_time":4741000000000,"state":"active","ping":83},{"user_id":191,"name":"chocolate flavoured femboy","steam_id":76561198819353867,"connected_time":4285000000000,"state":"active","ping":49},{"user_id":209,"name":"lisnin2deathgrips/gec :3","steam_id":76561199013457963,"connected_time":2979000000000,"state":"active","ping":65},{"user_id":210,"name":"QuantumSleeper","steam_id":76561198082347638,"connected_time":2788000000000,"state":"active","ping":60},{"user_id":203,"name":"ɘƚɒ⅃ɘƚɒ⅃ /./ =)(= \\.\\","steam_id":76561198053339372,"connected_time":3473000000000,"state":"active","ping":59},{"user_id":215,"name":"garbage mikuknight","steam_id":76561198361819054,"connected_time":2006000000000,"state":"active","ping":84},{"user_id":217,"name":"MagicTITIKAKA","steam_id":76561198129509548,"connected_time":1956000000000,"state":"active","ping":101},{"user_id":225,"name":"denji741games","steam_id":76561198067499762,"connected_time":1181000000000,"state":"active","ping":75},{"user_id":194,"name":"Average Sniper Enjoyer","steam_id":76561197965556042,"connected_time":4222000000000,"state":"active","ping":74},{"user_id":214,"name":"Dzan50","steam_id":76561198059758591,"connected_time":2010000000000,"state":"active","ping":77},{"user_id":226,"name":"Tarixxiv","steam_id":76561198084365415,"connected_time":1179000000000,"state":"active","ping":86},{"user_id":233,"name":"Optimist 50","steam_id":76561198039631442,"connected_time":127000000000,"state":"active","ping":95},{"user_id":219,"name":"Circular","steam_id":76561198001536710,"connected_time":1876000000000,"state":"active","ping":61},{"user_id":129,"name":"クマ","steam_id":76561197993892057,"connected_time":8864000000000,"state":"active","ping":75},{"user_id":164,"name":"Gordon Birdman","steam_id":76561198013382324,"connected_time":6316000000000,"state":"active","ping":77},{"user_id":221,"name":"night.s","steam_id":76561198326287823,"connected_time":1415000000000,"state":"active","ping":84}]},{"server_id":308,"name":"Uncletopia | Frankfurt | 3 | All Maps","name_short":"frk-3","host":"frk-1.de.uncletopia.com","port":27035,"enabled":true,"region":"eu","cc":"de","latitude":50.110924,"longitude":8.682127,"reserved":0,"last_update":"0001-01-01T00:00:00Z","name_a2s":"Uncletopia | Frankfurt | 3 | All Maps","protocol":17,"map":"koth_cascade","folder":"tf","game":"Team Fortress","app_id":440,"player_count":2,"max_players":24,"Bots":0,"server_type":"Dedicated","server_os":"Linux","password":true,"vac":true,"version":"7708610","steam_id":85568392924504274,"keywords":["cp","nocrits","nodmgspread","uncletopia"],"game_id":440,"stv_port":0,"stv_name":"","players":[{"user_id":9,"name":"crolee","steam_id":76561198865817316,"connected_time":373000000000,"state":"active","ping":47},{"user_id":10,"name":"Car Gear","steam_id":76561199183213205,"connected_time":314000000000,"state":"active","ping":63}]},{"server_id":309,"name":"Uncletopia | Frankfurt | 4 | All Maps","name_short":"frk-4","host":"frk-1.de.uncletopia.com","port":27045,"enabled":true,"region":"eu","cc":"de","latitude":50.110924,"longitude":8.682127,"reserved":0,"last_update":"0001-01-01T00:00:00Z","name_a2s":"Uncletopia | Frankfurt | 4 | All Maps","protocol":17,"map":"koth_highpass","folder":"tf","game":"Team Fortress","app_id":440,"player_count":0,"max_players":24,"Bots":0,"server_type":"Dedicated","server_os":"Linux","password":true,"vac":true,"version":"7708610","steam_id":85568392924504275,"keywords":["cp","nocrits","nodmgspread","uncletopia"],"game_id":440,"stv_port":27046,"stv_name":"Uncletopia | Frankfurt | 4 | All Maps | STV","players":null},{"server_id":310,"name":"Uncletopia | Frankfurt | 5 | All Maps","name_short":"frk-5","host":"frk-1.de.uncletopia.com","port":27055,"enabled":true,"region":"eu","cc":"de","latitude":50.110924,"longitude":8.682127,"reserved":0,"last_update":"0001-01-01T00:00:00Z","name_a2s":"Uncletopia | Frankfurt | 5 | All Maps","protocol":17,"map":"koth_cascade","folder":"tf","game":"Team Fortress","app_id":440,"player_count":0,"max_players":24,"Bots":0,"server_type":"Dedicated","server_os":"Linux","password":true,"vac":true,"version":"7708610","steam_id":85568392924504277,"keywords":["cp","nocrits","nodmgspread","uncletopia"],"game_id":440,"stv_port":0,"stv_name":"","players":null},{"server_id":311,"name":"Uncletopia | Frankfurt | 6 | All Maps","name_short":"frk-6","host":"frk-1.de.uncletopia.com","port":27065,"enabled":true,"region":"eu","cc":"de","latitude":50.110924,"longitude":8.682127,"reserved":0,"last_update":"0001-01-01T00:00:00Z","name_a2s":"Uncletopia | Frankfurt | 6 | All Maps","protocol":17,"map":"pl_upward","folder":"tf","game":"Team Fortress","app_id":440,"player_count":24,"max_players":24,"Bots":0,"server_type":"Dedicated","server_os":"Linux","password":true,"vac":true,"version":"7708610","steam_id":85568392924504278,"keywords":["nocrits","nodmgspread","payload","uncletopia"],"game_id":440,"stv_port":27066,"stv_name":"Uncletopia | Frankfurt | 6 | All Maps | STV","players":[{"user_id":321,"name":"Senfbaron","steam_id":76561198070370608,"connected_time":942000000000,"state":"active","ping":56},{"user_id":279,"name":"Noob_with_source","steam_id":76561198870362103,"connected_time":2942000000000,"state":"active","ping":60},{"user_id":298,"name":"lark","steam_id":76561198091724522,"connected_time":1850000000000,"state":"active","ping":66},{"user_id":318,"name":"Numbe","steam_id":76561198269614930,"connected_time":961000000000,"state":"active","ping":78},{"user_id":273,"name":"Carry Krypl","steam_id":76561198136938121,"connected_time":3202000000000,"state":"active","ping":50},{"user_id":319,"name":"Godot Game Engine","steam_id":76561198274861098,"connected_time":956000000000,"state":"active","ping":77},{"user_id":326,"name":"R3inis","steam_id":76561199030393569,"connected_time":836000000000,"state":"active","ping":78},{"user_id":323,"name":"Talent","steam_id":76561198153880354,"connected_time":889000000000,"state":"active","ping":54},{"user_id":296,"name":"The One","steam_id":76561198827193499,"connected_time":2088000000000,"state":"active","ping":60},{"user_id":280,"name":"iWaterlyx","steam_id":76561198834321199,"connected_time":2859000000000,"state":"active","ping":72},{"user_id":282,"name":"Kili","steam_id":76561198138456346,"connected_time":2779000000000,"state":"active","ping":64},{"user_id":313,"name":"twitch.tv/biofun_","steam_id":76561198170609049,"connected_time":1388000000000,"state":"active","ping":59},{"user_id":317,"name":"linkinparkfan123","steam_id":76561199033782005,"connected_time":1206000000000,"state":"active","ping":86},{"user_id":299,"name":"Saken","steam_id":76561198049075295,"connected_time":1846000000000,"state":"active","ping":58},{"user_id":335,"name":"XDDDDDD","steam_id":76561198348759417,"connected_time":418000000000,"state":"active","ping":67},{"user_id":302,"name":"cropping","steam_id":76561198026586456,"connected_time":1826000000000,"state":"active","ping":108},{"user_id":300,"name":"Santa Claus","steam_id":76561198970762992,"connected_time":1845000000000,"state":"active","ping":60},{"user_id":307,"name":"jingleboob","steam_id":76561198097507847,"connected_time":1671000000000,"state":"active","ping":73},{"user_id":324,"name":"wicked","steam_id":76561198164376035,"connected_time":888000000000,"state":"active","ping":72},{"user_id":325,"name":"sunflower","steam_id":76561198416282143,"connected_time":885000000000,"state":"active","ping":73},{"user_id":339,"name":"Toaster1337","steam_id":76561198103706881,"connected_time":186000000000,"state":"active","ping":54},{"user_id":337,"name":"Gegger","steam_id":76561198021641355,"connected_time":251000000000,"state":"active","ping":61},{"user_id":316,"name":"soppy","steam_id":76561198842159499,"connected_time":1285000000000,"state":"active","ping":62},{"user_id":340,"name":"SirSalamander","steam_id":76561198171183058,"connected_time":186000000000,"state":"active","ping":58}]},{"server_id":23,"name":"Uncletopia | Frankfurt | 7 | No Payload","name_short":"frk-7","host":"frk-1.de.uncletopia.com","port":27075,"enabled":true,"region":"eu","cc":"de","latitude":50.110924,"longitude":8.682127,"reserved":0,"last_update":"0001-01-01T00:00:00Z","name_a2s":"Uncletopia | Frankfurt | 7 | No Payload","protocol":17,"map":"ctf_doublecross","folder":"tf","game":"Team Fortress","app_id":440,"player_count":24,"max_players":24,"Bots":0,"server_type":"Dedicated","server_os":"Linux","password":true,"vac":true,"version":"7708610","steam_id":85568392924742827,"keywords":["ctf","nocrits","nodmgspread","uncletopia"],"game_id":440,"stv_port":27076,"stv_name":"Uncletopia | Frankfurt | 7 | No Payload | STV","players":[{"user_id":121,"name":"...","steam_id":76561198969234594,"connected_time":2610000000000,"state":"active","ping":51},{"user_id":112,"name":"NotBadli","steam_id":76561199012880172,"connected_time":3133000000000,"state":"active","ping":69},{"user_id":149,"name":"OlkiSoup","steam_id":76561199209805904,"connected_time":810000000000,"state":"active","ping":74},{"user_id":150,"name":"Rat, the ungodly rat #SaveTF2","steam_id":76561199126577423,"connected_time":789000000000,"state":"active","ping":61},{"user_id":168,"name":"justpixels","steam_id":76561198143717568,"connected_time":98000000000,"state":"active","ping":103},{"user_id":158,"name":"Sza","steam_id":76561198022132105,"connected_time":396000000000,"state":"active","ping":60},{"user_id":22,"name":"[UiF] BafTac r/f*ckcars","steam_id":76561198060547050,"connected_time":7989000000000,"state":"active","ping":48},{"user_id":140,"name":"Rudebwoyyy","steam_id":76561199387956486,"connected_time":1636000000000,"state":"active","ping":52},{"user_id":24,"name":"[UiF] Sgt. Beebo","steam_id":76561198061094637,"connected_time":7979000000000,"state":"active","ping":47},{"user_id":165,"name":"Rachugh","steam_id":76561199235852578,"connected_time":215000000000,"state":"active","ping":189},{"user_id":117,"name":"Cirox","steam_id":76561198383142404,"connected_time":2928000000000,"state":"active","ping":84},{"user_id":110,"name":"F","steam_id":76561199149462792,"connected_time":3225000000000,"state":"active","ping":61},{"user_id":169,"name":"phoenix.","steam_id":76561198358532556,"connected_time":91000000000,"state":"active","ping":53},{"user_id":146,"name":"Cak3","steam_id":76561198012633295,"connected_time":978000000000,"state":"active","ping":60},{"user_id":142,"name":"Mr.Schnittlauch","steam_id":76561198295868113,"connected_time":1440000000000,"state":"active","ping":60},{"user_id":134,"name":"dusty","steam_id":76561199011977567,"connected_time":1945000000000,"state":"active","ping":55},{"user_id":147,"name":"herbsmoker_","steam_id":76561198046778795,"connected_time":918000000000,"state":"active","ping":69},{"user_id":151,"name":"Dark knight","steam_id":76561199012488416,"connected_time":730000000000,"state":"active","ping":73},{"user_id":163,"name":"d00bie","steam_id":76561198025295218,"connected_time":260000000000,"state":"active","ping":61},{"user_id":54,"name":"Sham!","steam_id":76561198050434275,"connected_time":6490000000000,"state":"active","ping":45},{"user_id":152,"name":"Quill","steam_id":76561198843773162,"connected_time":686000000000,"state":"active","ping":178},{"user_id":71,"name":"El_Kommadante","steam_id":76561198079551685,"connected_time":5727000000000,"state":"active","ping":62},{"user_id":166,"name":"Speibsackerl","steam_id":76561198058135257,"connected_time":197000000000,"state":"active","ping":63},{"user_id":55,"name":"Marukuso","steam_id":76561198154229845,"connected_time":6461000000000,"state":"active","ping":61}]},{"server_id":24,"name":"Uncletopia | Frankfurt | 8 | Community","name_short":"frk-8","host":"frk-1.de.uncletopia.com","port":27085,"enabled":true,"region":"eu","cc":"de","latitude":50.110924,"longitude":8.682127,"reserved":0,"last_update":"0001-01-01T00:00:00Z","name_a2s":"Uncletopia | Frankfurt | 8 | Community","protocol":17,"map":"workshop/pl_vigil_rc9.ugc1266210012","folder":"tf","game":"Team Fortress","app_id":440,"player_count":0,"max_players":24,"Bots":0,"server_type":"Dedicated","server_os":"Linux","password":true,"vac":true,"version":"7708610","steam_id":85568392924742828,"keywords":["nocrits","nodmgspread","payload","uncletopia"],"game_id":440,"stv_port":27086,"stv_name":"Uncletopia | Frankfurt | 8 | Community | STV","players":null},{"server_id":202,"name":"Uncletopia | Hong Kong | 1 | All Maps","name_short":"hgk-1","host":"hgk-1.hk.uncletopia.com","port":27015,"enabled":true,"region":"asia","cc":"hk","latitude":22.302711,"longitude":114.177216,"reserved":0,"last_update":"0001-01-01T00:00:00Z","name_a2s":"Uncletopia | Hong Kong | 1 | All Maps","protocol":17,"map":"pl_badwater","folder":"tf","game":"Team Fortress","app_id":440,"player_count":24,"max_players":24,"Bots":0,"server_type":"Dedicated","server_os":"Linux","password":true,"vac":true,"version":"7708610","steam_id":85568392924494504,"keywords":["nocrits","nodmgspread","payload","uncletopia"],"game_id":440,"stv_port":27016,"stv_name":"Uncletopia | Hong Kong | 1 | All Maps | STV","players":[{"user_id":618,"name":"AmaiToxic","steam_id":76561199122491157,"connected_time":3826000000000,"state":"active","ping":68},{"user_id":636,"name":"killman47","steam_id":76561198348487408,"connected_time":3654000000000,"state":"active","ping":42},{"user_id":538,"name":"yhn","steam_id":76561198413116920,"connected_time":7762000000000,"state":"active","ping":77},{"user_id":563,"name":"AzureWares","steam_id":76561199439340850,"connected_time":4768000000000,"state":"active","ping":86},{"user_id":678,"name":"TouchWeed","steam_id":76561198451235659,"connected_time":2827000000000,"state":"active","ping":71},{"user_id":637,"name":"17","steam_id":76561198241530712,"connected_time":3653000000000,"state":"active","ping":59},{"user_id":684,"name":"LimitsUP_","steam_id":76561199104828789,"connected_time":1737000000000,"state":"active","ping":100},{"user_id":679,"name":"gowon","steam_id":76561198194793637,"connected_time":2826000000000,"state":"active","ping":62},{"user_id":541,"name":"Talkk More","steam_id":76561198305424433,"connected_time":7753000000000,"state":"active","ping":79},{"user_id":687,"name":"♥","steam_id":76561199085790568,"connected_time":1300000000000,"state":"active","ping":122},{"user_id":551,"name":"Paragon","steam_id":76561197983816430,"connected_time":5815000000000,"state":"active","ping":127},{"user_id":692,"name":"godhood","steam_id":76561198412329672,"connected_time":552000000000,"state":"active","ping":88},{"user_id":696,"name":"Hallelujah","steam_id":76561199024326941,"connected_time":56000000000,"state":"active","ping":74},{"user_id":693,"name":"AverRed","steam_id":76561198275440021,"connected_time":523000000000,"state":"active","ping":87},{"user_id":523,"name":"bonito borzoi","steam_id":76561198230213828,"connected_time":9284000000000,"state":"active","ping":72},{"user_id":589,"name":"domjni","steam_id":76561198287931508,"connected_time":4386000000000,"state":"active","ping":63},{"user_id":617,"name":"Velsit","steam_id":76561198134030402,"connected_time":3839000000000,"state":"active","ping":75},{"user_id":532,"name":"母の肉団子","steam_id":76561198069561896,"connected_time":7785000000000,"state":"active","ping":47},{"user_id":685,"name":"Oral Cigarettes","steam_id":76561198347418251,"connected_time":1567000000000,"state":"active","ping":71},{"user_id":648,"name":"A Horse","steam_id":76561198044153736,"connected_time":3457000000000,"state":"active","ping":71},{"user_id":555,"name":"Lúd","steam_id":76561198828840546,"connected_time":5078000000000,"state":"active","ping":96},{"user_id":613,"name":"silversol","steam_id":76561198004570036,"connected_time":3899000000000,"state":"active","ping":98},{"user_id":666,"name":"juiceword999","steam_id":76561199010058387,"connected_time":3223000000000,"state":"active","ping":81},{"user_id":691,"name":"Gotta be Mad","steam_id":76561198013546584,"connected_time":612000000000,"state":"active","ping":64}]},{"server_id":1,"name":"Uncletopia | Los Angeles | 1 | All Maps","name_short":"lax-1","host":"lax-1.us.uncletopia.com","port":27015,"enabled":true,"region":"us-west","cc":"us","latitude":33.94279,"longitude":-118.41004,"reserved":0,"last_update":"0001-01-01T00:00:00Z","name_a2s":"Uncletopia | Los Angeles | 1 | All Maps","protocol":17,"map":"cp_snakewater_final1","folder":"tf","game":"Team Fortress","app_id":440,"player_count":0,"max_players":24,"Bots":0,"server_type":"Dedicated","server_os":"Linux","password":true,"vac":true,"version":"7708610","steam_id":85568392924469991,"keywords":["cp","nocrits","nodmgspread","uncletopia"],"game_id":440,"stv_port":27016,"stv_name":"Uncletopia | Los Angeles | 1 | All Maps | STV","players":null},{"server_id":112,"name":"Uncletopia | Los Angeles | 2 | All Maps","name_short":"lax-2","host":"lax-1.us.uncletopia.com","port":27025,"enabled":true,"region":"us-west","cc":"us","latitude":33.94279,"longitude":-118.41004,"reserved":0,"last_update":"0001-01-01T00:00:00Z","name_a2s":"Uncletopia | Los Angeles | 2 | All Maps","protocol":17,"map":"cp_altitude","folder":"tf","game":"Team Fortress","app_id":440,"player_count":0,"max_players":24,"Bots":0,"server_type":"Dedicated","server_os":"Linux","password":true,"vac":true,"version":"7708610","steam_id":85568392924469992,"keywords":["cp","nocrits","nodmgspread","uncletopia"],"game_id":440,"stv_port":0,"stv_name":"","players":null},{"server_id":324,"name":"Uncletopia | Los Angeles | 3 | All Maps","name_short":"lax-3","host":"lax-1.us.uncletopia.com","port":27035,"enabled":true,"region":"us-west","cc":"us","latitude":33.94279,"longitude":-118.41004,"reserved":0,"last_update":"0001-01-01T00:00:00Z","name_a2s":"Uncletopia | Los Angeles | 3 | All Maps","protocol":17,"map":"cp_altitude","folder":"tf","game":"Team Fortress","app_id":440,"player_count":0,"max_players":24,"Bots":0,"server_type":"Dedicated","server_os":"Linux","password":true,"vac":true,"version":"7708610","steam_id":85568392924510198,"keywords":["cp","nocrits","nodmgspread","uncletopia"],"game_id":440,"stv_port":0,"stv_name":"","players":null},{"server_id":25,"name":"Uncletopia | Los Angeles | 4 | No Payload","name_short":"lax-4","host":"lax-1.us.uncletopia.com","port":27045,"enabled":true,"region":"us-west","cc":"us","latitude":33.94279,"longitude":-118.41004,"reserved":0,"last_update":"0001-01-01T00:00:00Z","name_a2s":"Uncletopia | Los Angeles | 4 | No Payload","protocol":17,"map":"pl_upward","folder":"tf","game":"Team Fortress","app_id":440,"player_count":0,"max_players":24,"Bots":0,"server_type":"Dedicated","server_os":"Linux","password":true,"vac":true,"version":"7708610","steam_id":85568392924510199,"keywords":["nocrits","nodmgspread","payload","uncletopia"],"game_id":440,"stv_port":0,"stv_name":"","players":null},{"server_id":11,"name":"Uncletopia | London | 1 | All Maps","name_short":"lon-1","host":"lon-1.uk.uncletopia.com","port":27015,"enabled":true,"region":"eu","cc":"gb","latitude":51.509865,"longitude":-0.118092,"reserved":0,"last_update":"0001-01-01T00:00:00Z","name_a2s":"Uncletopia | London | 1 | All Maps","protocol":17,"map":"pl_snowycoast","folder":"tf","game":"Team Fortress","app_id":440,"player_count":0,"max_players":24,"Bots":0,"server_type":"Dedicated","server_os":"Linux","password":true,"vac":true,"version":"7708610","steam_id":85568392924367362,"keywords":["nocrits","nodmgspread","payload","uncletopia"],"game_id":440,"stv_port":27016,"stv_name":"Uncletopia | London | 1 | All Maps | STV","players":null},{"server_id":114,"name":"Uncletopia | London | 2 | All Maps","name_short":"lon-2","host":"lon-1.uk.uncletopia.com","port":27025,"enabled":true,"region":"eu","cc":"gb","latitude":51.509865,"longitude":-0.118092,"reserved":0,"last_update":"0001-01-01T00:00:00Z","name_a2s":"Uncletopia | London | 2 | All Maps","protocol":17,"map":"koth_cascade","folder":"tf","game":"Team Fortress","app_id":440,"player_count":0,"max_players":24,"Bots":0,"server_type":"Dedicated","server_os":"Linux","password":true,"vac":true,"version":"7708610","steam_id":85568392924470941,"keywords":["cp","nocrits","nodmgspread","uncletopia"],"game_id":440,"stv_port":27026,"stv_name":"Uncletopia | London | 2 | All Maps | STV","players":null},{"server_id":320,"name":"Uncletopia | London | 3 | All Maps","name_short":"lon-3","host":"lon-1.uk.uncletopia.com","port":27035,"enabled":true,"region":"eu","cc":"gb","latitude":51.509865,"longitude":-0.118092,"reserved":0,"last_update":"0001-01-01T00:00:00Z","name_a2s":"Uncletopia | London | 3 | All Maps","protocol":17,"map":"pl_upward","folder":"tf","game":"Team Fortress","app_id":440,"player_count":25,"max_players":24,"Bots":0,"server_type":"Dedicated","server_os":"Linux","password":true,"vac":true,"version":"7708610","steam_id":85568392924510192,"keywords":["nocrits","nodmgspread","payload","uncletopia"],"game_id":440,"stv_port":27036,"stv_name":"Uncletopia | London | 3 | All Maps | STV","players":[{"user_id":108,"name":"Florida Man","steam_id":76561198845255013,"connected_time":2105000000000,"state":"active","ping":75},{"user_id":111,"name":"Vanadis","steam_id":76561198255557997,"connected_time":1851000000000,"state":"active","ping":70},{"user_id":84,"name":"pepper","steam_id":76561198059782462,"connected_time":3627000000000,"state":"active","ping":60},{"user_id":115,"name":"A creature","steam_id":76561199176610938,"connected_time":1752000000000,"state":"active","ping":85},{"user_id":112,"name":"Knoxx","steam_id":76561198260692541,"connected_time":1832000000000,"state":"active","ping":54},{"user_id":66,"name":"ciliorkun18","steam_id":76561198228942500,"connected_time":4873000000000,"state":"active","ping":90},{"user_id":94,"name":"Oak","steam_id":76561198067315672,"connected_time":3166000000000,"state":"active","ping":52},{"user_id":113,"name":"hawkblob","steam_id":76561198803720565,"connected_time":1830000000000,"state":"active","ping":60},{"user_id":110,"name":"maakgis","steam_id":76561198851703804,"connected_time":1854000000000,"state":"active","ping":125},{"user_id":117,"name":"no1","steam_id":76561198067524060,"connected_time":1496000000000,"state":"active","ping":82},{"user_id":89,"name":"Full Time War Crime Committer","steam_id":76561197971486686,"connected_time":3256000000000,"state":"active","ping":48},{"user_id":109,"name":"Rarky","steam_id":76561198054398642,"connected_time":2054000000000,"state":"active","ping":60},{"user_id":100,"name":"Peter","steam_id":76561198120327435,"connected_time":2916000000000,"state":"active","ping":76},{"user_id":27,"name":"Stepoface","steam_id":76561198091569863,"connected_time":6339000000000,"state":"active","ping":72},{"user_id":76,"name":"hi!","steam_id":76561198415564349,"connected_time":4475000000000,"state":"active","ping":67},{"user_id":29,"name":"Españaa","steam_id":76561198879587832,"connected_time":6324000000000,"state":"active","ping":74},{"user_id":116,"name":"mattua","steam_id":76561197966534457,"connected_time":1531000000000,"state":"active","ping":89},{"user_id":90,"name":"Alegz","steam_id":76561198287810139,"connected_time":3229000000000,"state":"active","ping":70},{"user_id":92,"name":"Joseph Stalin LFT","steam_id":76561198033199746,"connected_time":3185000000000,"state":"active","ping":49},{"user_id":118,"name":"Kernel Panic","steam_id":76561198215811047,"connected_time":2000000000,"state":"spawning","ping":122},{"user_id":65,"name":"Kahvi","steam_id":76561198723244199,"connected_time":4955000000000,"state":"active","ping":87},{"user_id":98,"name":"Astrodion","steam_id":76561197996938388,"connected_time":3073000000000,"state":"active","ping":51},{"user_id":102,"name":"Timo010","steam_id":76561198832395256,"connected_time":2736000000000,"state":"active","ping":80},{"user_id":119,"name":"Lovelessvaccuum","steam_id":76561198079555422,"connected_time":2000000000,"state":"spawning","ping":55},{"user_id":93,"name":"Wangel","steam_id":76561199116413509,"connected_time":3183000000000,"state":"active","ping":52}]},{"server_id":321,"name":"Uncletopia | London | 4 | All Maps","name_short":"lon-4","host":"lon-1.uk.uncletopia.com","port":27045,"enabled":true,"region":"eu","cc":"gb","latitude":51.509865,"longitude":-0.118092,"reserved":0,"last_update":"0001-01-01T00:00:00Z","name_a2s":"Uncletopia | London | 4 | All Maps","protocol":17,"map":"koth_cascade","folder":"tf","game":"Team Fortress","app_id":440,"player_count":3,"max_players":24,"Bots":0,"server_type":"Dedicated","server_os":"Linux","password":true,"vac":true,"version":"7708610","steam_id":85568392924510193,"keywords":["cp","nocrits","nodmgspread","uncletopia"],"game_id":440,"stv_port":27046,"stv_name":"Uncletopia | London | 4 | All Maps | STV","players":[{"user_id":23,"name":"BIGGEST MAC","steam_id":76561198847517098,"connected_time":588000000000,"state":"active","ping":135},{"user_id":24,"name":"johnkleiman","steam_id":76561198375607729,"connected_time":528000000000,"state":"active","ping":55},{"user_id":27,"name":"Simping for Pizza-san","steam_id":76561198067204908,"connected_time":122000000000,"state":"active","ping":56}]},{"server_id":21,"name":"Uncletopia | London | 5 | All Maps","name_short":"lon-5","host":"lon-1.uk.uncletopia.com","port":27055,"enabled":true,"region":"eu","cc":"gb","latitude":51.509865,"longitude":-0.118092,"reserved":0,"last_update":"0001-01-01T00:00:00Z","name_a2s":"Uncletopia | London | 5 | All Maps","protocol":17,"map":"pl_barnblitz","folder":"tf","game":"Team Fortress","app_id":440,"player_count":24,"max_players":24,"Bots":0,"server_type":"Dedicated","server_os":"Linux","password":true,"vac":true,"version":"7708610","steam_id":85568392924742829,"keywords":["nocrits","nodmgspread","payload","uncletopia"],"game_id":440,"stv_port":27056,"stv_name":"Uncletopia | London | 5 | All Maps | STV","players":[{"user_id":141,"name":"LOBZIK","steam_id":76561198114830120,"connected_time":2830000000000,"state":"active","ping":77},{"user_id":184,"name":"you (DK)","steam_id":76561198061472971,"connected_time":964000000000,"state":"active","ping":63},{"user_id":187,"name":"glyph","steam_id":76561197980736364,"connected_time":787000000000,"state":"active","ping":92},{"user_id":183,"name":"Rubi","steam_id":76561198139410003,"connected_time":1132000000000,"state":"active","ping":129},{"user_id":171,"name":"Femboy Lilli","steam_id":76561198090146457,"connected_time":1273000000000,"state":"active","ping":38},{"user_id":130,"name":"After8","steam_id":76561198090750865,"connected_time":4394000000000,"state":"active","ping":75},{"user_id":158,"name":"atagoncali","steam_id":76561198935505984,"connected_time":2245000000000,"state":"active","ping":87},{"user_id":172,"name":"Vollys","steam_id":76561198018077773,"connected_time":1254000000000,"state":"active","ping":57},{"user_id":169,"name":"kubasirus","steam_id":76561198216313280,"connected_time":1528000000000,"state":"active","ping":68},{"user_id":151,"name":"Mr.Narwhal","steam_id":76561198077712601,"connected_time":2582000000000,"state":"active","ping":48},{"user_id":148,"name":"Mr.killer","steam_id":76561198290584189,"connected_time":2682000000000,"state":"active","ping":93},{"user_id":188,"name":"Célério le chêne centenaire","steam_id":76561198798803845,"connected_time":407000000000,"state":"active","ping":45},{"user_id":178,"name":"i am bread","steam_id":76561199180277321,"connected_time":1195000000000,"state":"active","ping":42},{"user_id":152,"name":"[aiming with a pencil] FLXY","steam_id":76561198254679263,"connected_time":2564000000000,"state":"active","ping":51},{"user_id":190,"name":"Mick3yMous3","steam_id":76561198152564619,"connected_time":160000000000,"state":"active","ping":51},{"user_id":175,"name":"Oak","steam_id":76561198248567360,"connected_time":1238000000000,"state":"active","ping":59},{"user_id":192,"name":"✪ Danny","steam_id":76561198104483241,"connected_time":135000000000,"state":"active","ping":48},{"user_id":179,"name":"7hero","steam_id":76561198118829945,"connected_time":1193000000000,"state":"active","ping":108},{"user_id":180,"name":"[P-roc] Cmm Bert","steam_id":76561198016658674,"connected_time":1192000000000,"state":"active","ping":62},{"user_id":104,"name":"Bones","steam_id":76561198065081225,"connected_time":6577000000000,"state":"active","ping":41},{"user_id":189,"name":"SIGMA BALLS","steam_id":76561198302623594,"connected_time":171000000000,"state":"active","ping":94},{"user_id":168,"name":"Dominus.","steam_id":76561199065917088,"connected_time":1713000000000,"state":"active","ping":66},{"user_id":156,"name":"Saul Goodsex","steam_id":76561198173218318,"connected_time":2460000000000,"state":"active","ping":46},{"user_id":186,"name":"Kutuzov","steam_id":76561198060988694,"connected_time":939000000000,"state":"active","ping":118}]},{"server_id":22,"name":"Uncletopia | London | 6 | All Maps","name_short":"lon-6","host":"lon-1.uk.uncletopia.com","port":27065,"enabled":true,"region":"eu","cc":"gb","latitude":51.509865,"longitude":-0.118092,"reserved":0,"last_update":"0001-01-01T00:00:00Z","name_a2s":"Uncletopia | London | 6 | All Maps","protocol":17,"map":"pl_goldrush","folder":"tf","game":"Team Fortress","app_id":440,"player_count":24,"max_players":24,"Bots":0,"server_type":"Dedicated","server_os":"Linux","password":true,"vac":true,"version":"7708610","steam_id":85568392924742830,"keywords":["nocrits","nodmgspread","payload","uncletopia"],"game_id":440,"stv_port":27066,"stv_name":"Uncletopia | London | 6 | All Maps | STV","players":[{"user_id":512,"name":"why is my pee red?","steam_id":76561198156216402,"connected_time":860000000000,"state":"active","ping":196},{"user_id":527,"name":"terrine de poisson","steam_id":76561198182874945,"connected_time":114000000000,"state":"active","ping":56},{"user_id":528,"name":"Leibeigener","steam_id":76561199275478305,"connected_time":74000000000,"state":"active","ping":47},{"user_id":516,"name":"When Life gives you Lemons","steam_id":76561198318290663,"connected_time":742000000000,"state":"active","ping":56},{"user_id":526,"name":"asriel","steam_id":76561198061293740,"connected_time":134000000000,"state":"active","ping":75},{"user_id":470,"name":"Hkitchen","steam_id":76561198194779526,"connected_time":2869000000000,"state":"active","ping":38},{"user_id":529,"name":"sid","steam_id":76561198093613358,"connected_time":70000000000,"state":"active","ping":98},{"user_id":474,"name":"Dictatorial Karelian","steam_id":76561198196736457,"connected_time":2510000000000,"state":"active","ping":88},{"user_id":438,"name":"coachnetworkoperared514","steam_id":76561198236015392,"connected_time":4467000000000,"state":"active","ping":117},{"user_id":517,"name":"Gardvord","steam_id":76561198120715753,"connected_time":741000000000,"state":"active","ping":66},{"user_id":513,"name":"Нечуй-Левицький","steam_id":76561198870926865,"connected_time":852000000000,"state":"active","ping":34},{"user_id":515,"name":"Don Chuma","steam_id":76561198075307716,"connected_time":806000000000,"state":"active","ping":78},{"user_id":530,"name":"Perci gyerek","steam_id":76561198097789669,"connected_time":54000000000,"state":"active","ping":73},{"user_id":509,"name":"Pizza/Cheese/Pepperoni","steam_id":76561198174510235,"connected_time":891000000000,"state":"active","ping":54},{"user_id":518,"name":"Leiws","steam_id":76561198131627183,"connected_time":736000000000,"state":"active","ping":48},{"user_id":519,"name":"Redmailbox","steam_id":76561198042930322,"connected_time":716000000000,"state":"active","ping":67},{"user_id":492,"name":"Joneatshorts","steam_id":76561199233449550,"connected_time":1882000000000,"state":"active","ping":136},{"user_id":524,"name":"Bumblebee","steam_id":76561198033551105,"connected_time":263000000000,"state":"active","ping":77},{"user_id":479,"name":"Caliban","steam_id":76561197999696839,"connected_time":2169000000000,"state":"active","ping":104},{"user_id":525,"name":"\\3quruc90\\d","steam_id":76561198314576132,"connected_time":248000000000,"state":"active","ping":85},{"user_id":508,"name":"curse these metal hands","steam_id":76561198056531586,"connected_time":922000000000,"state":"active","ping":44},{"user_id":432,"name":"D-boi","steam_id":76561199001837576,"connected_time":4908000000000,"state":"active","ping":45},{"user_id":489,"name":"Mrpg","steam_id":76561198183722103,"connected_time":1986000000000,"state":"active","ping":71},{"user_id":490,"name":"GabGame","steam_id":76561198105631808,"connected_time":1974000000000,"state":"active","ping":60}]},{"server_id":40,"name":"Uncletopia | London | 7 | No Payload","name_short":"lon-7","host":"lon-1.uk.uncletopia.com","port":27075,"enabled":true,"region":"eu","cc":"gb","latitude":51.509865,"longitude":-0.118092,"reserved":0,"last_update":"0001-01-01T00:00:00Z","name_a2s":"Uncletopia | London | 7 | No Payload","protocol":17,"map":"plr_hightower","folder":"tf","game":"Team Fortress","app_id":440,"player_count":0,"max_players":24,"Bots":0,"server_type":"Dedicated","server_os":"Linux","password":true,"vac":true,"version":"7708610","steam_id":85568392924964314,"keywords":["nocrits","nodmgspread","payload","uncletopia"],"game_id":440,"stv_port":27076,"stv_name":"Uncletopia | London | 7 | No Payload | STV","players":null},{"server_id":41,"name":"Uncletopia | London | 8 | Community","name_short":"lon-8","host":"lon-1.uk.uncletopia.com","port":27085,"enabled":true,"region":"eu","cc":"gb","latitude":51.509865,"longitude":-0.118092,"reserved":0,"last_update":"0001-01-01T00:00:00Z","name_a2s":"Uncletopia | London | 8 | Community","protocol":17,"map":"cp_snakewater_final1","folder":"tf","game":"Team Fortress","app_id":440,"player_count":0,"max_players":24,"Bots":0,"server_type":"Dedicated","server_os":"Linux","password":true,"vac":true,"version":"7708610","steam_id":85568392924964315,"keywords":["cp","nocrits","nodmgspread","uncletopia"],"game_id":440,"stv_port":0,"stv_name":"","players":null},{"server_id":300,"name":"Uncletopia | Montréal | 1 | All Maps","name_short":"mtl-1","host":"mtl-1.ca.uncletopia.com","port":27015,"enabled":true,"region":"us-east","cc":"ca","latitude":45.50889,"longitude":-73.56167,"reserved":0,"last_update":"0001-01-01T00:00:00Z","name_a2s":"Uncletopia | Montréal | 1 | All Maps","protocol":17,"map":"koth_cascade","folder":"tf","game":"Team Fortress","app_id":440,"player_count":0,"max_players":24,"Bots":0,"server_type":"Dedicated","server_os":"Linux","password":true,"vac":true,"version":"7708610","steam_id":85568392924500087,"keywords":["cp","nocrits","nodmgspread","uncletopia"],"game_id":440,"stv_port":27016,"stv_name":"Uncletopia | Montréal | 1 | All Maps | STV","players":null},{"server_id":301,"name":"Uncletopia | Montréal | 2 | All Maps","name_short":"mtl-2","host":"mtl-1.ca.uncletopia.com","port":27025,"enabled":true,"region":"us-east","cc":"ca","latitude":45.50889,"longitude":-73.56167,"reserved":0,"last_update":"0001-01-01T00:00:00Z","name_a2s":"Uncletopia | Montréal | 2 | All Maps","protocol":17,"map":"pl_frontier_final","folder":"tf","game":"Team Fortress","app_id":440,"player_count":0,"max_players":24,"Bots":0,"server_type":"Dedicated","server_os":"Linux","password":true,"vac":true,"version":"7708610","steam_id":85568392924500088,"keywords":["nocrits","nodmgspread","payload","uncletopia"],"game_id":440,"stv_port":0,"stv_name":"","players":null},{"server_id":302,"name":"Uncletopia | Montréal | 3 | All Maps","name_short":"mtl-3","host":"mtl-1.ca.uncletopia.com","port":27035,"enabled":true,"region":"us-east","cc":"ca","latitude":45.50889,"longitude":-73.56167,"reserved":0,"last_update":"0001-01-01T00:00:00Z","name_a2s":"Uncletopia | Montréal | 3 | All Maps","protocol":17,"map":"pl_snowycoast","folder":"tf","game":"Team Fortress","app_id":440,"player_count":0,"max_players":24,"Bots":0,"server_type":"Dedicated","server_os":"Linux","password":true,"vac":true,"version":"7708610","steam_id":85568392924500089,"keywords":["nocrits","nodmgspread","payload","uncletopia"],"game_id":440,"stv_port":0,"stv_name":"","players":null},{"server_id":303,"name":"Uncletopia | Montréal | 4 | No Payload","name_short":"mtl-4","host":"mtl-1.ca.uncletopia.com","port":27045,"enabled":true,"region":"us-east","cc":"ca","latitude":45.50889,"longitude":-73.56167,"reserved":0,"last_update":"0001-01-01T00:00:00Z","name_a2s":"Uncletopia | Montréal | 4 | No Payload","protocol":17,"map":"pl_frontier_final","folder":"tf","game":"Team Fortress","app_id":440,"player_count":0,"max_players":24,"Bots":0,"server_type":"Dedicated","server_os":"Linux","password":true,"vac":true,"version":"7708610","steam_id":85568392924500090,"keywords":["nocrits","nodmgspread","payload","uncletopia"],"game_id":440,"stv_port":0,"stv_name":"","players":null},{"server_id":13,"name":"Uncletopia | New York City | 1 | All Maps","name_short":"nyc-1","host":"nyc-1.us.uncletopia.com","port":27015,"enabled":true,"region":"us-east","cc":"us","latitude":40.73061,"longitude":-73.93524,"reserved":0,"last_update":"0001-01-01T00:00:00Z","name_a2s":"Uncletopia | New York City | 1 | All Maps","protocol":17,"map":"koth_highpass","folder":"tf","game":"Team Fortress","app_id":440,"player_count":0,"max_players":24,"Bots":0,"server_type":"Dedicated","server_os":"Linux","password":true,"vac":true,"version":"7708610","steam_id":85568392924469993,"keywords":["cp","nocrits","nodmgspread","uncletopia"],"game_id":440,"stv_port":27016,"stv_name":"Uncletopia | New York City | 1 | All Maps | STV","players":null},{"server_id":14,"name":"Uncletopia | New York City | 2 | All Maps","name_short":"nyc-2","host":"nyc-1.us.uncletopia.com","port":27025,"enabled":true,"region":"us-east","cc":"us","latitude":40.73061,"longitude":-73.93524,"reserved":0,"last_update":"0001-01-01T00:00:00Z","name_a2s":"Uncletopia | New York City | 2 | All Maps","protocol":17,"map":"pl_pier","folder":"tf","game":"Team Fortress","app_id":440,"player_count":0,"max_players":24,"Bots":0,"server_type":"Dedicated","server_os":"Linux","password":true,"vac":true,"version":"7708610","steam_id":85568392924469994,"keywords":["nocrits","nodmgspread","payload","uncletopia"],"game_id":440,"stv_port":27026,"stv_name":"Uncletopia | New York City | 2 | All Maps | STV","players":null},{"server_id":15,"name":"Uncletopia | New York City | 3 | All Maps","name_short":"nyc-3","host":"nyc-1.us.uncletopia.com","port":27035,"enabled":true,"region":"us-east","cc":"us","latitude":40.73061,"longitude":-73.93524,"reserved":0,"last_update":"0001-01-01T00:00:00Z","name_a2s":"Uncletopia | New York City | 3 | All Maps","protocol":17,"map":"cp_sunshine","folder":"tf","game":"Team Fortress","app_id":440,"player_count":0,"max_players":24,"Bots":0,"server_type":"Dedicated","server_os":"Linux","password":true,"vac":true,"version":"7708610","steam_id":85568392924742820,"keywords":["cp","nocrits","nodmgspread","uncletopia"],"game_id":440,"stv_port":0,"stv_name":"","players":null},{"server_id":16,"name":"Uncletopia | New York City | 4 | Community","name_short":"nyc-4","host":"nyc-1.us.uncletopia.com","port":27045,"enabled":true,"region":"us-east","cc":"us","latitude":40.73061,"longitude":-73.93524,"reserved":0,"last_update":"0001-01-01T00:00:00Z","name_a2s":"Uncletopia | New York City | 4 | Community","protocol":17,"map":"pl_badwater","folder":"tf","game":"Team Fortress","app_id":440,"player_count":0,"max_players":24,"Bots":0,"server_type":"Dedicated","server_os":"Linux","password":true,"vac":true,"version":"7708610","steam_id":85568392924742821,"keywords":["nocrits","nodmgspread","payload","uncletopia"],"game_id":440,"stv_port":0,"stv_name":"","players":null},{"server_id":142,"name":"Uncletopia | São Paulo | 1 | All Maps","name_short":"sao-1","host":"sao-1.br.uncletopia.com","port":27015,"enabled":true,"region":"sa","cc":"br","latitude":-23.533773,"longitude":-46.62529,"reserved":0,"last_update":"0001-01-01T00:00:00Z","name_a2s":"Uncletopia | São Paulo | 1 | All Maps","protocol":17,"map":"pl_badwater","folder":"tf","game":"Team Fortress","app_id":440,"player_count":7,"max_players":24,"Bots":0,"server_type":"Dedicated","server_os":"Linux","password":true,"vac":true,"version":"7708610","steam_id":85568392924469996,"keywords":["nocrits","nodmgspread","payload","uncletopia"],"game_id":440,"stv_port":27016,"stv_name":"Uncletopia | São Paulo | 1 | All Maps | STV","players":[{"user_id":58,"name":"$r. Hello There #savetf2","steam_id":76561198874231807,"connected_time":3381000000000,"state":"active","ping":32},{"user_id":92,"name":"CJAIME01345","steam_id":76561199091599141,"connected_time":215000000000,"state":"active","ping":82},{"user_id":93,"name":"Loud idiot with a mic","steam_id":76561199194862650,"connected_time":151000000000,"state":"active","ping":234},{"user_id":74,"name":"Cabeleira","steam_id":76561198323253534,"connected_time":2031000000000,"state":"active","ping":42},{"user_id":60,"name":"pay2lose","steam_id":76561199226661084,"connected_time":3082000000000,"state":"active","ping":45},{"user_id":41,"name":"Casas Bahia","steam_id":76561198144739151,"connected_time":5455000000000,"state":"active","ping":39},{"user_id":70,"name":"B. Comet","steam_id":76561198058235498,"connected_time":2304000000000,"state":"active","ping":38}]},{"server_id":143,"name":"Uncletopia | São Paulo | 2 | All Maps","name_short":"sao-2","host":"sao-2.br.uncletopia.com","port":27015,"enabled":true,"region":"sa","cc":"br","latitude":-23.533773,"longitude":-46.62529,"reserved":0,"last_update":"0001-01-01T00:00:00Z","name_a2s":"Uncletopia | São Paulo | 2 | All Maps","protocol":17,"map":"koth_viaduct","folder":"tf","game":"Team Fortress","app_id":440,"player_count":0,"max_players":24,"Bots":0,"server_type":"Dedicated","server_os":"Linux","password":true,"vac":true,"version":"7708610","steam_id":85568392924485349,"keywords":["cp","nocrits","nodmgspread","uncletopia"],"game_id":440,"stv_port":27016,"stv_name":"Uncletopia | São Paulo | 2 | All Maps | STV","players":null},{"server_id":7,"name":"Uncletopia | Seattle | 1 | All Maps","name_short":"sea-1","host":"sea-1.us.uncletopia.com","port":27015,"enabled":true,"region":"us-west","cc":"us","latitude":47.608013,"longitude":-122.33517,"reserved":0,"last_update":"0001-01-01T00:00:00Z","name_a2s":"Uncletopia | Seattle | 1 | All Maps","protocol":17,"map":"koth_cascade","folder":"tf","game":"Team Fortress","app_id":440,"player_count":0,"max_players":24,"Bots":0,"server_type":"Dedicated","server_os":"Linux","password":true,"vac":true,"version":"7708610","steam_id":85568392924469997,"keywords":["cp","nocrits","nodmgspread","uncletopia"],"game_id":440,"stv_port":0,"stv_name":"","players":null},{"server_id":119,"name":"Uncletopia | Seattle | 2 | All Maps","name_short":"sea-2","host":"sea-1.us.uncletopia.com","port":27025,"enabled":true,"region":"us-west","cc":"us","latitude":47.608013,"longitude":-122.33517,"reserved":0,"last_update":"0001-01-01T00:00:00Z","name_a2s":"Uncletopia | Seattle | 2 | All Maps","protocol":17,"map":"koth_cascade","folder":"tf","game":"Team Fortress","app_id":440,"player_count":0,"max_players":24,"Bots":0,"server_type":"Dedicated","server_os":"Linux","password":true,"vac":true,"version":"7708610","steam_id":85568392924469998,"keywords":["cp","nocrits","nodmgspread","uncletopia"],"game_id":440,"stv_port":27026,"stv_name":"Uncletopia | Seattle | 2 | All Maps | STV","players":null},{"server_id":17,"name":"Uncletopia | San Francisco | 1 | All Maps","name_short":"sfo-1","host":"sfo-1.us.uncletopia.com","port":27015,"enabled":true,"region":"us-west","cc":"us","latitude":37.77397,"longitude":-122.4313,"reserved":0,"last_update":"0001-01-01T00:00:00Z","name_a2s":"Uncletopia | San Francisco | 1 | All Maps","protocol":17,"map":"cp_sunshine","folder":"tf","game":"Team Fortress","app_id":440,"player_count":0,"max_players":24,"Bots":0,"server_type":"Dedicated","server_os":"Linux","password":true,"vac":true,"version":"7708610","steam_id":85568392924469999,"keywords":["cp","nocrits","nodmgspread","uncletopia"],"game_id":440,"stv_port":0,"stv_name":"","players":null},{"server_id":18,"name":"Uncletopia | San Francisco | 2 | All Maps","name_short":"sfo-2","host":"sfo-1.us.uncletopia.com","port":27025,"enabled":true,"region":"us-west","cc":"us","latitude":37.77397,"longitude":-122.4313,"reserved":0,"last_update":"0001-01-01T00:00:00Z","name_a2s":"Uncletopia | San Francisco | 2 | All Maps","protocol":17,"map":"koth_cascade","folder":"tf","game":"Team Fortress","app_id":440,"player_count":0,"max_players":24,"Bots":0,"server_type":"Dedicated","server_os":"Linux","password":true,"vac":true,"version":"7708610","steam_id":85568392924470000,"keywords":["cp","nocrits","nodmgspread","uncletopia"],"game_id":440,"stv_port":0,"stv_name":"","players":null},{"server_id":19,"name":"Uncletopia | San Francisco | 3 | No Payload","name_short":"sfo-3","host":"sfo-1.us.uncletopia.com","port":27035,"enabled":true,"region":"us-west","cc":"us","latitude":37.77397,"longitude":-122.4313,"reserved":0,"last_update":"0001-01-01T00:00:00Z","name_a2s":"Uncletopia | San Francisco | 3 | No Payload","protocol":17,"map":"cp_snakewater_final1","folder":"tf","game":"Team Fortress","app_id":440,"player_count":0,"max_players":24,"Bots":0,"server_type":"Dedicated","server_os":"Linux","password":true,"vac":true,"version":"7708610","steam_id":85568392924742824,"keywords":["cp","nocrits","nodmgspread","uncletopia"],"game_id":440,"stv_port":0,"stv_name":"","players":null},{"server_id":20,"name":"Uncletopia | San Francisco | 4 | Community","name_short":"sfo-4","host":"sfo-1.us.uncletopia.com","port":27045,"enabled":true,"region":"us-west","cc":"us","latitude":37.77397,"longitude":-122.4313,"reserved":0,"last_update":"0001-01-01T00:00:00Z","name_a2s":"Uncletopia | San Francisco | 4 | Community","protocol":17,"map":"pl_barnblitz","folder":"tf","game":"Team Fortress","app_id":440,"player_count":0,"max_players":24,"Bots":0,"server_type":"Dedicated","server_os":"Linux","password":true,"vac":true,"version":"7708610","steam_id":85568392924742826,"keywords":["nocrits","nodmgspread","payload","uncletopia"],"game_id":440,"stv_port":0,"stv_name":"","players":null},{"server_id":141,"name":"Uncletopia | Sydney | 1 | All Maps","name_short":"syd-1","host":"syd-1.au.uncletopia.com","port":27015,"enabled":true,"region":"au","cc":"au","latitude":-33.865143,"longitude":151.2099,"reserved":0,"last_update":"0001-01-01T00:00:00Z","name_a2s":"Uncletopia | Sydney | 1 | All Maps","protocol":17,"map":"cp_mountainlab","folder":"tf","game":"Team Fortress","app_id":440,"player_count":0,"max_players":24,"Bots":0,"server_type":"Dedicated","server_os":"Linux","password":true,"vac":true,"version":"7708610","steam_id":85568392924470001,"keywords":["cp","nocrits","nodmgspread","uncletopia"],"game_id":440,"stv_port":27016,"stv_name":"Uncletopia | Sydney | 1 | All Maps | STV","players":null},{"server_id":123,"name":"Uncletopia | Sydney | 2 | All Maps","name_short":"syd-2","host":"syd-1.au.uncletopia.com","port":27025,"enabled":true,"region":"au","cc":"au","latitude":-33.865143,"longitude":151.2099,"reserved":0,"last_update":"0001-01-01T00:00:00Z","name_a2s":"Uncletopia | Sydney | 2 | All Maps","protocol":17,"map":"koth_cascade","folder":"tf","game":"Team Fortress","app_id":440,"player_count":0,"max_players":24,"Bots":0,"server_type":"Dedicated","server_os":"Linux","password":true,"vac":true,"version":"7708610","steam_id":85568392924470002,"keywords":["cp","nocrits","nodmgspread","uncletopia"],"game_id":440,"stv_port":27026,"stv_name":"Uncletopia | Sydney | 2 | All Maps | STV","players":null},{"server_id":395,"name":"Uncletopia | Sydney | 3 | All Maps","name_short":"syd-3","host":"syd-1.au.uncletopia.com","port":27035,"enabled":true,"region":"au","cc":"au","latitude":-33.865143,"longitude":151.2099,"reserved":0,"last_update":"0001-01-01T00:00:00Z","name_a2s":"Uncletopia | Sydney | 3 | All Maps","protocol":17,"map":"pl_barnblitz","folder":"tf","game":"Team Fortress","app_id":440,"player_count":0,"max_players":24,"Bots":0,"server_type":"Dedicated","server_os":"Linux","password":true,"vac":true,"version":"7708610","steam_id":85568392925194467,"keywords":["nocrits","nodmgspread","payload","uncletopia"],"game_id":440,"stv_port":27036,"stv_name":"Uncletopia | Sydney | 3 | All Maps | STV","players":null},{"server_id":396,"name":"Uncletopia | Sydney | 4 | All Maps","name_short":"syd-4","host":"syd-1.au.uncletopia.com","port":27045,"enabled":true,"region":"au","cc":"au","latitude":-33.865143,"longitude":151.2099,"reserved":0,"last_update":"0001-01-01T00:00:00Z","name_a2s":"Uncletopia | Sydney | 4 | All Maps","protocol":17,"map":"koth_cascade","folder":"tf","game":"Team Fortress","app_id":440,"player_count":0,"max_players":24,"Bots":0,"server_type":"Dedicated","server_os":"Linux","password":true,"vac":true,"version":"7708610","steam_id":85568392925397958,"keywords":["cp","nocrits","nodmgspread","uncletopia"],"game_id":440,"stv_port":27046,"stv_name":"Uncletopia | Sydney | 4 | All Maps | STV","players":null},{"server_id":58,"name":"Uncletopia | Sydney | 5 | No Payload","name_short":"syd-5","host":"syd-1.au.uncletopia.com","port":27055,"enabled":true,"region":"au","cc":"au","latitude":-33.865143,"longitude":151.2099,"reserved":0,"last_update":"0001-01-01T00:00:00Z","name_a2s":"Uncletopia | Sydney | 5 | No Payload","protocol":17,"map":"koth_cascade","folder":"tf","game":"Team Fortress","app_id":440,"player_count":0,"max_players":24,"Bots":0,"server_type":"Dedicated","server_os":"Linux","password":true,"vac":true,"version":"7708610","steam_id":85568392925397959,"keywords":["cp","nocrits","nodmgspread","uncletopia"],"game_id":440,"stv_port":0,"stv_name":"","players":null},{"server_id":59,"name":"Uncletopia | Sydney | 6 | Community","name_short":"syd-6","host":"syd-1.au.uncletopia.com","port":27065,"enabled":true,"region":"au","cc":"au","latitude":-33.865143,"longitude":151.2099,"reserved":0,"last_update":"0001-01-01T00:00:00Z","name_a2s":"Uncletopia | Sydney | 6 | Community","protocol":17,"map":"workshop/rd_asteroid_redux_rc9.ugc2154902912","folder":"tf","game":"Team Fortress","app_id":440,"player_count":0,"max_players":24,"Bots":0,"server_type":"Dedicated","server_os":"Linux","password":true,"vac":true,"version":"7708610","steam_id":85568392925397960,"keywords":["beta","nocrits","nodmgspread","rd","uncletopia"],"game_id":440,"stv_port":27066,"stv_name":"Uncletopia | Sydney | 6 | Community | STV","players":null},{"server_id":49,"name":"Uncletopia | Warsaw | 1 | All Maps","name_short":"waw-1","host":"waw-1.pl.uncletopia.com","port":27015,"enabled":true,"region":"eu","cc":"pl","latitude":52.2297,"longitude":21.017532,"reserved":0,"last_update":"0001-01-01T00:00:00Z","name_a2s":"Uncletopia | Warsaw | 1 | All Maps","protocol":17,"map":"pl_pier","folder":"tf","game":"Team Fortress","app_id":440,"player_count":6,"max_players":24,"Bots":0,"server_type":"Dedicated","server_os":"Linux","password":true,"vac":true,"version":"7708610","steam_id":85568392925397850,"keywords":["nocrits","nodmgspread","payload","uncletopia"],"game_id":440,"stv_port":27016,"stv_name":"Uncletopia | Warsaw | 1 | All Maps | STV","players":[{"user_id":11,"name":"Person4772","steam_id":76561198081410586,"connected_time":967000000000,"state":"active","ping":61},{"user_id":7,"name":"Some Random Kuba","steam_id":76561198288431775,"connected_time":1764000000000,"state":"active","ping":67},{"user_id":13,"name":"Eldritch abomination","steam_id":76561198244108784,"connected_time":645000000000,"state":"active","ping":38},{"user_id":14,"name":"Rocketmaster","steam_id":76561198291383989,"connected_time":523000000000,"state":"active","ping":345},{"user_id":15,"name":"kentir_buh","steam_id":76561198107526456,"connected_time":501000000000,"state":"active","ping":52},{"user_id":16,"name":"Big Gamer (real)","steam_id":76561198160114532,"connected_time":32000000000,"state":"spawning","ping":68}]},{"server_id":50,"name":"Uncletopia | Warsaw | 2 | All Maps","name_short":"waw-2","host":"waw-1.pl.uncletopia.com","port":27025,"enabled":true,"region":"eu","cc":"pl","latitude":52.2297,"longitude":21.017532,"reserved":0,"last_update":"0001-01-01T00:00:00Z","name_a2s":"Uncletopia | Warsaw | 2 | All Maps","protocol":17,"map":"pl_frontier_final","folder":"tf","game":"Team Fortress","app_id":440,"player_count":0,"max_players":24,"Bots":0,"server_type":"Dedicated","server_os":"Linux","password":true,"vac":true,"version":"7708610","steam_id":85568392925397851,"keywords":["nocrits","nodmgspread","payload","uncletopia"],"game_id":440,"stv_port":27026,"stv_name":"Uncletopia | Warsaw | 2 | All Maps | STV","players":null},{"server_id":51,"name":"Uncletopia | Warsaw | 3 | All Maps","name_short":"waw-3","host":"waw-1.pl.uncletopia.com","port":27035,"enabled":true,"region":"eu","cc":"pl","latitude":52.2297,"longitude":21.017532,"reserved":0,"last_update":"0001-01-01T00:00:00Z","name_a2s":"Uncletopia | Warsaw | 3 | All Maps","protocol":17,"map":"koth_cascade","folder":"tf","game":"Team Fortress","app_id":440,"player_count":0,"max_players":24,"Bots":0,"server_type":"Dedicated","server_os":"Linux","password":true,"vac":true,"version":"7708610","steam_id":85568392925397852,"keywords":["cp","nocrits","nodmgspread","uncletopia"],"game_id":440,"stv_port":0,"stv_name":"","players":null},{"server_id":52,"name":"Uncletopia | Warsaw | 4 | All Maps","name_short":"waw-4","host":"waw-1.pl.uncletopia.com","port":27045,"enabled":true,"region":"eu","cc":"pl","latitude":52.2297,"longitude":21.017532,"reserved":0,"last_update":"0001-01-01T00:00:00Z","name_a2s":"Uncletopia | Warsaw | 4 | All Maps","protocol":17,"map":"cp_process_final","folder":"tf","game":"Team Fortress","app_id":440,"player_count":0,"max_players":24,"Bots":0,"server_type":"Dedicated","server_os":"Linux","password":true,"vac":true,"version":"7708610","steam_id":85568392925397853,"keywords":["cp","nocrits","nodmgspread","uncletopia"],"game_id":440,"stv_port":27046,"stv_name":"Uncletopia | Warsaw | 4 | All Maps | STV","players":null},{"server_id":53,"name":"Uncletopia | Warsaw | 5 | No Payload","name_short":"waw-5","host":"waw-1.pl.uncletopia.com","port":27055,"enabled":true,"region":"eu","cc":"pl","latitude":52.2297,"longitude":21.017532,"reserved":0,"last_update":"0001-01-01T00:00:00Z","name_a2s":"Uncletopia | Warsaw | 5 | No Payload","protocol":17,"map":"cp_dustbowl","folder":"tf","game":"Team Fortress","app_id":440,"player_count":0,"max_players":24,"Bots":0,"server_type":"Dedicated","server_os":"Linux","password":true,"vac":true,"version":"7708610","steam_id":85568392925397854,"keywords":["cp","nocrits","nodmgspread","uncletopia"],"game_id":440,"stv_port":0,"stv_name":"","players":null},{"server_id":54,"name":"Uncletopia | Warsaw | 6 | Community","name_short":"waw-6","host":"waw-1.pl.uncletopia.com","port":27065,"enabled":true,"region":"eu","cc":"pl","latitude":52.2297,"longitude":21.017532,"reserved":0,"last_update":"0001-01-01T00:00:00Z","name_a2s":"Uncletopia | Warsaw | 6 | Community","protocol":17,"map":"koth_highpass","folder":"tf","game":"Team Fortress","app_id":440,"player_count":0,"max_players":24,"Bots":0,"server_type":"Dedicated","server_os":"Linux","password":true,"vac":true,"version":"7708610","steam_id":85568392925397856,"keywords":["cp","nocrits","nodmgspread","uncletopia"],"game_id":440,"stv_port":0,"stv_name":"","players":null}]}